{"data":[[{"i_long":106.840169,"station_name":"Cikini","line":2,"is_transit":false,"distance":0,"station_id":"CKI","transit":false,"i_lat":-6.198556,"time":0},{"line":2,"distance":1590,"station_name":"Manggarai","is_transit":true,"transit":true,"time":4,"station_id":"MRI","i_lat":-6.209883,"i_long":106.84912},{"is_transit":false,"station_id":"SUD","i_lat":-6.202263,"transit":false,"i_long":106.822649,"line":1,"distance":3186,"station_name":"Sudirman","time":4},{"time":1,"station_name":"Sudirman Baru","line":1,"station_id":"SUDB","i_long":106.819881,"i_lat":-6.201433,"distance":280,"is_transit":false,"transit":false},{"distance":471,"line":1,"i_lat":-6.20132,"time":1,"i_long":106.816351,"transit":false,"station_name":"Karet","station_id":"KAT","is_transit":false},{"i_long":106.811091,"station_id":"THB","is_transit":false,"i_lat":-6.185545,"line":1,"transit":false,"time":5,"distance":2029,"station_name":"Tanah Abang"},{"i_lat":-6.155215,"time":8,"is_transit":true,"line":1,"station_id":"DU","i_long":106.800832,"station_name":"Duri","distance":3632,"transit":true},{"i_lat":-6.162021,"distance":1700,"transit":false,"station_id":"GGL","station_name":"Grogol","time":3,"i_long":106.788277,"is_transit":false,"line":5},{"station_id":"PSG","time":2,"i_long":106.771379,"is_transit":false,"transit":false,"distance":2036,"line":5,"station_name":"Pesing","i_lat":-6.161433},{"station_name":"Taman Kota","distance":1614,"i_long":106.756522,"transit":false,"is_transit":false,"i_lat":-6.1587309999999995,"line":5,"station_id":"TKO","time":2},{"distance":2334,"station_id":"BOI","line":5,"is_transit":false,"transit":false,"i_lat":-6.159876,"time":2,"i_long":106.737035,"station_name":"Bojongindah"},{"line":5,"is_transit":false,"time":4,"transit":false,"i_lat":-6.162758,"distance":1152,"i_long":106.723064,"station_name":"Rawa Buaya","station_id":"RW"},{"i_lat":-6.166068,"distance":2504,"i_long":106.701612,"station_id":"KDS","transit":false,"line":5,"is_transit":false,"time":3,"station_name":"Kalideres"},{"i_long":106.679458,"time":3,"i_lat":-6.169933,"is_transit":false,"station_id":"PI","distance":2548,"station_name":"Poris","transit":false,"line":5}],[{"i_lat":-6.198556,"is_transit":false,"time":0,"station_id":"CKI","transit":false,"line":2,"distance":0,"station_name":"Cikini","i_long":106.840169},{"transit":false,"station_name":"Gondangdia","distance":1750,"i_long":106.832183,"line":2,"is_transit":false,"time":3,"i_lat":-6.186295,"station_id":"GDD"},{"transit":false,"station_id":"JUA","i_long":106.828284,"station_name":"Juanda","is_transit":false,"line":2,"distance":2015,"i_lat":-6.166716,"time":4},{"station_name":"Sawah Besar","is_transit":false,"i_long":106.827103,"transit":false,"line":2,"station_id":"SW","distance":1149,"time":2,"i_lat":-6.160725},{"station_name":"Manggabesar","station_id":"MGB","transit":false,"time":2,"i_long":106.82482,"i_lat":-6.149769,"is_transit":false,"distance":906,"line":2},{"i_lat":-6.141205,"is_transit":false,"i_long":106.820901,"distance":1080,"transit":false,"time":2,"station_name":"Jayakarta","line":2,"station_id":"JAY"},{"distance":1264,"station_id":"JAKK","station_name":"Jakarta Kota","is_transit":true,"transit":true,"i_lat":-6.137569,"line":2,"i_long":106.812439,"time":4},{"is_transit":true,"i_lat":-6.132549,"distance":1364,"time":3,"transit":true,"line":4,"station_name":"Kampung Bandan","i_long":106.826365,"station_id":"KPB"},{"time":9,"line":1,"distance":4102,"station_name":"Angke","i_lat":-6.144674,"transit":false,"station_id":"AK","is_transit":false,"i_long":106.79867},{"time":4,"distance":1230,"line":1,"is_transit":true,"transit":true,"station_id":"DU","i_lat":-6.155215,"station_name":"Duri","i_long":106.800832},{"station_id":"GGL","line":5,"i_lat":-6.162021,"is_transit":false,"station_name":"Grogol","i_long":106.788277,"distance":1700,"time":3,"transit":false},{"is_transit":false,"i_long":106.771379,"transit":false,"distance":2036,"station_name":"Pesing","i_lat":-6.161433,"line":5,"time":2,"station_id":"PSG"},{"station_id":"TKO","station_name":"Taman Kota","transit":false,"i_long":106.756522,"line":5,"i_lat":-6.1587309999999995,"distance":1614,"is_transit":false,"time":2},{"is_transit":false,"i_lat":-6.159876,"time":2,"station_name":"Bojongindah","transit":false,"station_id":"BOI","line":5,"distance":2334,"i_long":106.737035},{"station_id":"RW","station_name":"Rawa Buaya","i_lat":-6.162758,"is_transit":false,"time":4,"transit":false,"i_long":106.723064,"line":5,"distance":1152},{"station_name":"Kalideres","is_transit":false,"transit":false,"line":5,"i_lat":-6.166068,"i_long":106.701612,"time":3,"distance":2504,"station_id":"KDS"},{"transit":false,"i_lat":-6.169933,"line":5,"time":3,"station_name":"Poris","station_id":"PI","is_transit":false,"i_long":106.679458,"distance":2548}],[{"station_name":"Cikini","station_id":"CKI","distance":0,"i_lat":-6.198556,"i_long":106.840169,"time":0,"transit":false,"is_transit":false,"line":2},{"i_long":106.84912,"station_name":"Manggarai","is_transit":true,"i_lat":-6.209883,"line":2,"transit":true,"distance":1590,"time":4,"station_id":"MRI"},{"distance":1275,"transit":false,"line":1,"is_transit":false,"station_name":"Matraman","station_id":"MTR","time":2,"i_lat":-6.212485,"i_long":106.858896},{"i_lat":-6.215091,"i_long":106.86807400000001,"station_id":"JNG","is_transit":true,"line":1,"distance":1377,"transit":true,"station_name":"Jatinegara","time":8},{"is_transit":false,"station_id":"POK","transit":false,"line":11,"time":2,"distance":1236,"station_name":"Pondok Jati","i_lat":-6.209188,"i_long":106.861737},{"line":11,"time":2,"station_id":"KMT","transit":false,"station_name":"Kramat","distance":1829,"is_transit":false,"i_lat":-6.193792,"i_long":106.855437},{"time":1,"transit":false,"i_lat":-6.185975,"line":11,"i_long":106.850107,"station_id":"GST","station_name":"Gang Sentiong","distance":973,"is_transit":false},{"i_long":106.84368,"transit":false,"station_id":"PSE","i_lat":-6.174784,"station_name":"Pasar Senen","line":11,"time":8,"distance":1567,"is_transit":false},{"i_lat":-6.161728,"is_transit":false,"time":4,"i_long":106.839204,"station_id":"KMO","station_name":"Kemayoran","distance":1436,"line":11,"transit":false},{"transit":false,"is_transit":false,"i_long":106.836569,"line":11,"time":5,"station_name":"Rajawali","i_lat":-6.14505,"distance":1901,"station_id":"RJW"},{"time":3,"i_long":106.826365,"station_name":"Kampung Bandan","i_lat":-6.132549,"transit":true,"line":4,"station_id":"KPB","distance":1444,"is_transit":true},{"station_id":"AK","time":9,"distance":4102,"station_name":"Angke","transit":false,"i_lat":-6.144674,"i_long":106.79867,"is_transit":false,"line":1},{"i_lat":-6.155215,"station_id":"DU","station_name":"Duri","i_long":106.800832,"distance":1230,"line":1,"time":4,"is_transit":true,"transit":true},{"is_transit":false,"line":5,"station_id":"GGL","time":3,"i_lat":-6.162021,"transit":false,"i_long":106.788277,"distance":1700,"station_name":"Grogol"},{"i_long":106.771379,"is_transit":false,"i_lat":-6.161433,"station_id":"PSG","line":5,"time":2,"distance":2036,"transit":false,"station_name":"Pesing"},{"time":2,"distance":1614,"is_transit":false,"i_lat":-6.1587309999999995,"line":5,"transit":false,"station_id":"TKO","station_name":"Taman Kota","i_long":106.756522},{"transit":false,"i_long":106.737035,"station_name":"Bojongindah","distance":2334,"i_lat":-6.159876,"station_id":"BOI","time":2,"line":5,"is_transit":false},{"transit":false,"station_id":"RW","i_lat":-6.162758,"is_transit":false,"distance":1152,"station_name":"Rawa Buaya","line":5,"i_long":106.723064,"time":4},{"station_name":"Kalideres","station_id":"KDS","transit":false,"i_long":106.701612,"line":5,"is_transit":false,"i_lat":-6.166068,"time":3,"distance":2504},{"transit":false,"i_lat":-6.169933,"is_transit":false,"station_id":"PI","i_long":106.679458,"time":3,"line":5,"distance":2548,"station_name":"Poris"}],[{"transit":false,"station_name":"Cikini","line":2,"time":0,"distance":0,"station_id":"CKI","i_long":106.840169,"i_lat":-6.198556,"is_transit":false},{"distance":1750,"i_lat":-6.186295,"station_id":"GDD","i_long":106.832183,"transit":false,"is_transit":false,"station_name":"Gondangdia","line":2,"time":3},{"distance":2015,"station_name":"Juanda","station_id":"JUA","i_lat":-6.166716,"transit":false,"time":4,"is_transit":false,"line":2,"i_long":106.828284},{"line":2,"station_id":"SW","transit":false,"i_long":106.827103,"is_transit":false,"distance":1149,"station_name":"Sawah Besar","i_lat":-6.160725,"time":2},{"is_transit":false,"i_lat":-6.149769,"distance":906,"i_long":106.82482,"transit":false,"time":2,"station_name":"Manggabesar","line":2,"station_id":"MGB"},{"station_name":"Jayakarta","is_transit":false,"i_long":106.820901,"distance":1080,"transit":false,"time":2,"i_lat":-6.141205,"line":2,"station_id":"JAY"},{"station_name":"Jakarta Kota","station_id":"JAKK","i_lat":-6.137569,"i_long":106.812439,"line":2,"time":4,"transit":true,"is_transit":true,"distance":1264},{"i_long":106.826365,"i_lat":-6.132549,"time":3,"is_transit":true,"station_id":"KPB","distance":1364,"transit":true,"station_name":"Kampung Bandan","line":4},{"i_long":106.836569,"time":3,"transit":false,"is_transit":false,"line":11,"station_name":"Rajawali","distance":1444,"station_id":"RJW","i_lat":-6.14505},{"time":5,"i_lat":-6.161728,"station_name":"Kemayoran","is_transit":false,"line":11,"i_long":106.839204,"distance":1901,"station_id":"KMO","transit":false},{"is_transit":false,"i_lat":-6.174784,"transit":false,"time":4,"station_name":"Pasar Senen","distance":1436,"station_id":"PSE","i_long":106.84368,"line":11},{"line":11,"distance":1567,"station_name":"Gang Sentiong","time":8,"is_transit":false,"station_id":"GST","i_long":106.850107,"i_lat":-6.185975,"transit":false},{"i_lat":-6.193792,"station_name":"Kramat","is_transit":false,"transit":false,"station_id":"KMT","line":11,"time":1,"i_long":106.855437,"distance":973},{"distance":1829,"transit":false,"is_transit":false,"i_lat":-6.209188,"line":11,"time":2,"i_long":106.861737,"station_name":"Pondok Jati","station_id":"POK"},{"station_id":"JNG","i_long":106.86807400000001,"i_lat":-6.215091,"time":9,"distance":1236,"is_transit":true,"line":1,"transit":true,"station_name":"Jatinegara"},{"i_long":106.858896,"distance":1377,"is_transit":false,"station_name":"Matraman","transit":false,"station_id":"MTR","time":2,"i_lat":-6.212485,"line":1},{"i_long":106.84912,"distance":1275,"is_transit":false,"time":2,"line":2,"transit":false,"station_name":"Manggarai","i_lat":-6.209883,"station_id":"MRI"},{"time":4,"distance":3186,"i_lat":-6.202263,"station_name":"Sudirman","transit":false,"station_id":"SUD","is_transit":false,"i_long":106.822649,"line":1},{"line":1,"time":1,"station_id":"SUDB","station_name":"Sudirman Baru","is_transit":false,"i_long":106.819881,"transit":false,"i_lat":-6.201433,"distance":280},{"transit":false,"station_id":"KAT","line":1,"i_long":106.816351,"time":1,"is_transit":false,"station_name":"Karet","i_lat":-6.20132,"distance":471},{"distance":2029,"i_lat":-6.185545,"line":1,"time":5,"transit":false,"is_transit":false,"i_long":106.811091,"station_name":"Tanah Abang","station_id":"THB"},{"station_name":"Duri","time":8,"is_transit":true,"i_long":106.800832,"distance":3632,"station_id":"DU","line":1,"transit":true,"i_lat":-6.155215},{"station_id":"GGL","is_transit":false,"i_lat":-6.162021,"i_long":106.788277,"station_name":"Grogol","line":5,"distance":1700,"transit":false,"time":3},{"distance":2036,"station_name":"Pesing","i_lat":-6.161433,"time":2,"transit":false,"is_transit":false,"i_long":106.771379,"line":5,"station_id":"PSG"},{"transit":false,"time":2,"station_id":"TKO","is_transit":false,"distance":1614,"station_name":"Taman Kota","i_lat":-6.1587309999999995,"i_long":106.756522,"line":5},{"transit":false,"station_name":"Bojongindah","is_transit":false,"i_lat":-6.159876,"line":5,"i_long":106.737035,"distance":2334,"time":2,"station_id":"BOI"},{"station_name":"Rawa Buaya","station_id":"RW","transit":false,"is_transit":false,"i_long":106.723064,"i_lat":-6.162758,"line":5,"time":4,"distance":1152},{"distance":2504,"i_lat":-6.166068,"i_long":106.701612,"line":5,"station_id":"KDS","station_name":"Kalideres","transit":false,"is_transit":false,"time":3},{"is_transit":false,"distance":2548,"time":3,"station_id":"PI","i_lat":-6.169933,"station_name":"Poris","transit":false,"i_long":106.679458,"line":5}]]}