{"data":[[{"is_transit":false,"time":0,"distance":0,"transit":false,"i_lat":-6.198556,"line":2,"station_name":"Cikini","station_id":"CKI","i_long":106.840169},{"station_id":"MRI","is_transit":true,"i_lat":-6.209883,"transit":true,"i_long":106.84912,"time":4,"station_name":"Manggarai","distance":1590,"line":2},{"line":1,"station_id":"SUD","is_transit":false,"i_long":106.822649,"station_name":"Sudirman","time":4,"distance":3186,"i_lat":-6.202263,"transit":false},{"transit":false,"time":1,"distance":280,"station_id":"SUDB","i_lat":-6.201433,"is_transit":false,"i_long":106.819881,"station_name":"Sudirman Baru","line":1},{"transit":false,"i_long":106.816351,"distance":471,"time":1,"i_lat":-6.20132,"station_name":"Karet","station_id":"KAT","line":1,"is_transit":false},{"i_long":106.811091,"distance":2029,"line":1,"transit":true,"i_lat":-6.185545,"time":5,"station_id":"THB","station_name":"Tanah Abang","is_transit":true},{"i_lat":-6.207404,"station_name":"Palmerah","i_long":106.79689,"distance":3191,"is_transit":false,"time":6,"station_id":"PLM","line":6,"transit":false},{"time":7,"station_name":"Kebayoran","i_lat":-6.237242,"station_id":"KBY","transit":false,"is_transit":false,"distance":3737,"i_long":106.780334,"line":6},{"transit":false,"line":6,"i_lat":-6.276362,"is_transit":false,"station_id":"PDJ","time":8,"distance":6218,"i_long":106.74273,"station_name":"Pondokranji"},{"distance":2179,"time":3,"station_id":"JMU","i_lat":-6.288927,"line":6,"i_long":106.728916,"station_name":"Jurangmangu","is_transit":false,"transit":false},{"station_name":"Sudimara","i_lat":-6.296963,"time":4,"distance":1994,"i_long":106.712277,"line":6,"is_transit":false,"station_id":"SDM","transit":false}],[{"time":0,"station_id":"CKI","i_lat":-6.198556,"i_long":106.840169,"is_transit":false,"line":2,"station_name":"Cikini","transit":false,"distance":0},{"time":3,"i_lat":-6.186295,"station_id":"GDD","transit":false,"i_long":106.832183,"is_transit":false,"station_name":"Gondangdia","distance":1750,"line":2},{"distance":2015,"time":4,"i_lat":-6.166716,"station_id":"JUA","line":2,"station_name":"Juanda","is_transit":false,"transit":false,"i_long":106.828284},{"distance":1149,"i_lat":-6.160725,"time":2,"is_transit":false,"i_long":106.827103,"transit":false,"line":2,"station_id":"SW","station_name":"Sawah Besar"},{"time":2,"transit":false,"is_transit":false,"i_lat":-6.149769,"i_long":106.82482,"line":2,"station_id":"MGB","distance":906,"station_name":"Manggabesar"},{"transit":false,"i_lat":-6.141205,"i_long":106.820901,"station_id":"JAY","station_name":"Jayakarta","is_transit":false,"line":2,"distance":1080,"time":2},{"station_id":"JAKK","i_lat":-6.137569,"is_transit":true,"distance":1264,"time":4,"line":2,"transit":true,"i_long":106.812439,"station_name":"Jakarta Kota"},{"i_lat":-6.132549,"station_name":"Kampung Bandan","transit":true,"distance":1364,"is_transit":true,"i_long":106.826365,"line":4,"station_id":"KPB","time":3},{"distance":4102,"is_transit":false,"station_id":"AK","time":9,"station_name":"Angke","transit":false,"line":1,"i_long":106.79867,"i_lat":-6.144674},{"time":4,"line":1,"station_name":"Duri","i_long":106.800832,"distance":1230,"i_lat":-6.155215,"station_id":"DU","is_transit":false,"transit":false},{"distance":3632,"station_id":"THB","is_transit":true,"transit":true,"i_long":106.811091,"station_name":"Tanah Abang","line":1,"i_lat":-6.185545,"time":8},{"time":6,"station_name":"Palmerah","transit":false,"i_long":106.79689,"station_id":"PLM","i_lat":-6.207404,"line":6,"is_transit":false,"distance":3191},{"distance":3737,"station_id":"KBY","station_name":"Kebayoran","is_transit":false,"transit":false,"i_lat":-6.237242,"line":6,"time":7,"i_long":106.780334},{"station_id":"PDJ","is_transit":false,"transit":false,"i_lat":-6.276362,"time":8,"distance":6218,"station_name":"Pondokranji","line":6,"i_long":106.74273},{"distance":2179,"station_id":"JMU","station_name":"Jurangmangu","line":6,"is_transit":false,"i_long":106.728916,"transit":false,"i_lat":-6.288927,"time":3},{"transit":false,"line":6,"i_lat":-6.296963,"station_id":"SDM","distance":1994,"i_long":106.712277,"is_transit":false,"time":4,"station_name":"Sudimara"}],[{"time":0,"station_id":"CKI","is_transit":false,"line":2,"i_long":106.840169,"distance":0,"station_name":"Cikini","i_lat":-6.198556,"transit":false},{"i_long":106.84912,"distance":1590,"station_name":"Manggarai","is_transit":true,"line":2,"time":4,"station_id":"MRI","transit":true,"i_lat":-6.209883},{"station_name":"Matraman","line":1,"station_id":"MTR","is_transit":false,"transit":false,"time":2,"distance":1275,"i_long":106.858896,"i_lat":-6.212485},{"i_long":106.86807400000001,"line":1,"is_transit":true,"time":8,"distance":1377,"station_id":"JNG","i_lat":-6.215091,"station_name":"Jatinegara","transit":true},{"i_long":106.861737,"distance":1236,"station_name":"Pondok Jati","line":11,"station_id":"POK","time":2,"transit":false,"is_transit":false,"i_lat":-6.209188},{"line":11,"station_name":"Kramat","time":2,"distance":1829,"station_id":"KMT","is_transit":false,"transit":false,"i_long":106.855437,"i_lat":-6.193792},{"station_id":"GST","is_transit":false,"i_long":106.850107,"i_lat":-6.185975,"distance":973,"transit":false,"line":11,"station_name":"Gang Sentiong","time":1},{"station_name":"Pasar Senen","distance":1567,"line":11,"time":8,"is_transit":false,"i_lat":-6.174784,"transit":false,"station_id":"PSE","i_long":106.84368},{"time":4,"station_name":"Kemayoran","distance":1436,"station_id":"KMO","i_long":106.839204,"transit":false,"i_lat":-6.161728,"is_transit":false,"line":11},{"transit":false,"i_lat":-6.14505,"distance":1901,"i_long":106.836569,"line":11,"is_transit":false,"station_name":"Rajawali","time":5,"station_id":"RJW"},{"time":3,"distance":1444,"is_transit":true,"station_name":"Kampung Bandan","transit":true,"line":4,"i_lat":-6.132549,"i_long":106.826365,"station_id":"KPB"},{"transit":false,"distance":4102,"station_name":"Angke","line":1,"station_id":"AK","time":9,"i_long":106.79867,"is_transit":false,"i_lat":-6.144674},{"station_id":"DU","line":1,"time":4,"i_long":106.800832,"distance":1230,"i_lat":-6.155215,"transit":false,"is_transit":false,"station_name":"Duri"},{"is_transit":true,"station_id":"THB","transit":true,"line":1,"distance":3632,"i_lat":-6.185545,"time":8,"i_long":106.811091,"station_name":"Tanah Abang"},{"is_transit":false,"i_long":106.79689,"time":6,"distance":3191,"station_id":"PLM","station_name":"Palmerah","transit":false,"i_lat":-6.207404,"line":6},{"time":7,"distance":3737,"i_long":106.780334,"station_id":"KBY","station_name":"Kebayoran","is_transit":false,"transit":false,"i_lat":-6.237242,"line":6},{"i_lat":-6.276362,"line":6,"is_transit":false,"station_name":"Pondokranji","transit":false,"distance":6218,"time":8,"station_id":"PDJ","i_long":106.74273},{"transit":false,"i_lat":-6.288927,"station_id":"JMU","station_name":"Jurangmangu","is_transit":false,"time":3,"i_long":106.728916,"line":6,"distance":2179},{"distance":1994,"is_transit":false,"transit":false,"time":4,"i_lat":-6.296963,"station_name":"Sudimara","line":6,"i_long":106.712277,"station_id":"SDM"}],[{"i_lat":-6.198556,"line":2,"distance":0,"i_long":106.840169,"station_id":"CKI","is_transit":false,"station_name":"Cikini","transit":false,"time":0},{"station_id":"GDD","is_transit":false,"distance":1750,"station_name":"Gondangdia","time":3,"i_long":106.832183,"line":2,"transit":false,"i_lat":-6.186295},{"station_name":"Juanda","station_id":"JUA","i_lat":-6.166716,"distance":2015,"i_long":106.828284,"transit":false,"line":2,"is_transit":false,"time":4},{"distance":1149,"line":2,"time":2,"i_lat":-6.160725,"i_long":106.827103,"station_id":"SW","transit":false,"station_name":"Sawah Besar","is_transit":false},{"station_name":"Manggabesar","transit":false,"i_lat":-6.149769,"time":2,"distance":906,"line":2,"is_transit":false,"i_long":106.82482,"station_id":"MGB"},{"station_name":"Jayakarta","time":2,"line":2,"distance":1080,"station_id":"JAY","is_transit":false,"transit":false,"i_lat":-6.141205,"i_long":106.820901},{"is_transit":true,"transit":true,"station_id":"JAKK","i_long":106.812439,"station_name":"Jakarta Kota","distance":1264,"i_lat":-6.137569,"time":4,"line":2},{"distance":1364,"line":4,"i_lat":-6.132549,"transit":true,"i_long":106.826365,"station_name":"Kampung Bandan","time":3,"station_id":"KPB","is_transit":true},{"station_name":"Rajawali","is_transit":false,"time":3,"i_long":106.836569,"station_id":"RJW","distance":1444,"i_lat":-6.14505,"line":11,"transit":false},{"station_name":"Kemayoran","time":5,"i_lat":-6.161728,"i_long":106.839204,"is_transit":false,"distance":1901,"line":11,"transit":false,"station_id":"KMO"},{"distance":1436,"i_lat":-6.174784,"is_transit":false,"i_long":106.84368,"transit":false,"line":11,"time":4,"station_name":"Pasar Senen","station_id":"PSE"},{"station_name":"Gang Sentiong","transit":false,"time":8,"is_transit":false,"distance":1567,"i_long":106.850107,"station_id":"GST","line":11,"i_lat":-6.185975},{"line":11,"time":1,"station_name":"Kramat","station_id":"KMT","is_transit":false,"i_lat":-6.193792,"i_long":106.855437,"transit":false,"distance":973},{"is_transit":false,"distance":1829,"i_long":106.861737,"station_id":"POK","station_name":"Pondok Jati","transit":false,"i_lat":-6.209188,"line":11,"time":2},{"i_long":106.86807400000001,"i_lat":-6.215091,"station_id":"JNG","transit":true,"station_name":"Jatinegara","distance":1236,"line":1,"is_transit":true,"time":9},{"station_id":"MTR","i_long":106.858896,"i_lat":-6.212485,"is_transit":false,"distance":1377,"time":2,"transit":false,"station_name":"Matraman","line":1},{"line":2,"i_long":106.84912,"distance":1275,"transit":false,"station_name":"Manggarai","station_id":"MRI","i_lat":-6.209883,"time":2,"is_transit":false},{"is_transit":false,"distance":3186,"station_id":"SUD","transit":false,"time":4,"i_lat":-6.202263,"i_long":106.822649,"line":1,"station_name":"Sudirman"},{"station_id":"SUDB","is_transit":false,"line":1,"time":1,"i_lat":-6.201433,"distance":280,"i_long":106.819881,"station_name":"Sudirman Baru","transit":false},{"station_name":"Karet","transit":false,"time":1,"station_id":"KAT","is_transit":false,"i_lat":-6.20132,"i_long":106.816351,"line":1,"distance":471},{"transit":true,"i_lat":-6.185545,"i_long":106.811091,"is_transit":true,"line":1,"station_name":"Tanah Abang","time":5,"distance":2029,"station_id":"THB"},{"line":6,"i_lat":-6.207404,"is_transit":false,"i_long":106.79689,"transit":false,"station_name":"Palmerah","station_id":"PLM","distance":3191,"time":6},{"distance":3737,"time":7,"i_long":106.780334,"station_id":"KBY","station_name":"Kebayoran","is_transit":false,"transit":false,"i_lat":-6.237242,"line":6},{"line":6,"transit":false,"station_id":"PDJ","station_name":"Pondokranji","time":8,"distance":6218,"i_long":106.74273,"i_lat":-6.276362,"is_transit":false},{"is_transit":false,"distance":2179,"transit":false,"time":3,"i_lat":-6.288927,"i_long":106.728916,"line":6,"station_name":"Jurangmangu","station_id":"JMU"},{"i_lat":-6.296963,"transit":false,"i_long":106.712277,"time":4,"station_name":"Sudimara","distance":1994,"line":6,"station_id":"SDM","is_transit":false}]]}