{"data":[[{"station_id":"CKI","i_long":106.840169,"line":2,"transit":false,"station_name":"Cikini","is_transit":false,"i_lat":-6.198556,"time":0,"distance":0},{"station_id":"GDD","distance":1750,"is_transit":false,"station_name":"Gondangdia","transit":false,"i_long":106.832183,"line":2,"time":3,"i_lat":-6.186295},{"station_name":"Juanda","line":2,"is_transit":false,"distance":2015,"i_lat":-6.166716,"station_id":"JUA","time":4,"transit":false,"i_long":106.828284},{"time":2,"transit":false,"distance":1149,"is_transit":false,"i_lat":-6.160725,"station_name":"Sawah Besar","station_id":"SW","i_long":106.827103,"line":2},{"distance":906,"i_lat":-6.149769,"line":2,"i_long":106.82482,"transit":false,"time":2,"station_id":"MGB","is_transit":false,"station_name":"Manggabesar"},{"distance":1080,"time":2,"station_name":"Jayakarta","line":2,"station_id":"JAY","i_long":106.820901,"i_lat":-6.141205,"is_transit":false,"transit":false},{"line":2,"time":4,"i_lat":-6.137569,"i_long":106.812439,"station_id":"JAKK","station_name":"Jakarta Kota","is_transit":false,"distance":1264,"transit":false}],[{"i_long":106.840169,"transit":false,"station_name":"Cikini","station_id":"CKI","time":0,"distance":0,"line":2,"is_transit":false,"i_lat":-6.198556},{"is_transit":true,"station_name":"Manggarai","i_lat":-6.209883,"transit":true,"line":2,"i_long":106.84912,"station_id":"MRI","time":4,"distance":1590},{"line":1,"distance":3186,"i_lat":-6.202263,"transit":false,"station_id":"SUD","time":4,"i_long":106.822649,"is_transit":false,"station_name":"Sudirman"},{"is_transit":false,"i_long":106.819881,"station_id":"SUDB","time":1,"transit":false,"station_name":"Sudirman Baru","distance":280,"i_lat":-6.201433,"line":1},{"station_id":"KAT","i_lat":-6.20132,"station_name":"Karet","distance":471,"transit":false,"time":1,"is_transit":false,"i_long":106.816351,"line":1},{"is_transit":false,"station_id":"THB","line":1,"distance":2029,"time":5,"transit":false,"station_name":"Tanah Abang","i_lat":-6.185545,"i_long":106.811091},{"time":8,"transit":false,"station_id":"DU","distance":3632,"i_lat":-6.155215,"i_long":106.800832,"is_transit":false,"line":1,"station_name":"Duri"},{"line":1,"transit":false,"is_transit":false,"station_name":"Angke","i_lat":-6.144674,"i_long":106.79867,"time":4,"distance":1230,"station_id":"AK"},{"line":4,"transit":true,"station_id":"KPB","distance":4102,"station_name":"Kampung Bandan","is_transit":true,"i_lat":-6.132549,"time":9,"i_long":106.826365},{"time":3,"distance":1364,"station_name":"Jakarta Kota","transit":false,"i_lat":-6.137569,"line":2,"i_long":106.812439,"is_transit":false,"station_id":"JAKK"}],[{"time":0,"i_long":106.840169,"distance":0,"transit":false,"is_transit":false,"station_name":"Cikini","i_lat":-6.198556,"line":2,"station_id":"CKI"},{"i_long":106.84912,"time":4,"transit":true,"i_lat":-6.209883,"station_id":"MRI","distance":1590,"line":2,"station_name":"Manggarai","is_transit":true},{"station_id":"MTR","i_lat":-6.212485,"transit":false,"time":2,"i_long":106.858896,"is_transit":false,"station_name":"Matraman","line":1,"distance":1275},{"station_id":"JNG","i_lat":-6.215091,"time":8,"i_long":106.86807400000001,"is_transit":true,"transit":true,"distance":1377,"line":1,"station_name":"Jatinegara"},{"i_lat":-6.209188,"is_transit":false,"time":2,"distance":1236,"station_id":"POK","line":11,"i_long":106.861737,"station_name":"Pondok Jati","transit":false},{"i_long":106.855437,"i_lat":-6.193792,"transit":false,"is_transit":false,"station_id":"KMT","time":2,"station_name":"Kramat","line":11,"distance":1829},{"station_id":"GST","i_long":106.850107,"distance":973,"line":11,"transit":false,"time":1,"i_lat":-6.185975,"station_name":"Gang Sentiong","is_transit":false},{"transit":false,"station_name":"Pasar Senen","station_id":"PSE","time":8,"i_long":106.84368,"is_transit":false,"i_lat":-6.174784,"distance":1567,"line":11},{"i_lat":-6.161728,"line":11,"distance":1436,"time":4,"i_long":106.839204,"station_name":"Kemayoran","transit":false,"station_id":"KMO","is_transit":false},{"station_name":"Rajawali","line":11,"i_lat":-6.14505,"distance":1901,"is_transit":false,"transit":false,"i_long":106.836569,"station_id":"RJW","time":5},{"is_transit":true,"transit":true,"line":4,"station_name":"Kampung Bandan","i_long":106.826365,"time":3,"i_lat":-6.132549,"station_id":"KPB","distance":1444},{"transit":false,"station_id":"JAKK","i_long":106.812439,"line":2,"time":3,"i_lat":-6.137569,"distance":1364,"is_transit":false,"station_name":"Jakarta Kota"}]]}