{"data":[[{"station_id":"CKI","time":0,"transit":false,"station_name":"Cikini","i_lat":-6.198556,"distance":0,"is_transit":false,"i_long":106.840169,"line":2},{"is_transit":false,"distance":1590,"i_lat":-6.209883,"time":4,"station_name":"Manggarai","i_long":106.84912,"transit":false,"station_id":"MRI","line":2},{"station_name":"Tebet","distance":2610,"line":2,"i_lat":-6.226659,"transit":false,"is_transit":false,"station_id":"TEB","time":4,"i_long":106.857948},{"station_id":"CW","distance":1230,"station_name":"Cawang","is_transit":false,"transit":false,"line":2,"time":2,"i_lat":-6.242512,"i_long":106.856607},{"distance":1546,"time":3,"line":2,"station_name":"Duren Kalibata","transit":false,"station_id":"DRN","is_transit":false,"i_lat":-6.255332,"i_long":106.85449},{"is_transit":false,"station_id":"PSMB","time":2,"transit":false,"distance":824,"i_long":106.851577,"i_lat":-6.263214,"station_name":"Pasar Minggu Baru","line":2},{"is_transit":false,"i_lat":-6.2842400000000005,"time":2,"transit":false,"station_id":"PSM","i_long":106.843999,"distance":2380,"station_name":"Pasar Minggu","line":2},{"station_name":"Tanjung Barat","station_id":"TNT","i_lat":-6.3080680000000005,"time":4,"is_transit":false,"distance":2820,"i_long":106.838896,"line":2,"transit":false},{"is_transit":false,"time":3,"i_long":106.832616,"line":2,"distance":2671,"station_name":"Lenteng Agung","i_lat":-6.330363,"transit":false,"station_id":"LNA"},{"time":2,"distance":1029,"i_lat":-6.339291,"i_long":106.834175,"line":2,"station_name":"Univ. Pancasila","is_transit":false,"transit":false,"station_id":"UP"},{"is_transit":false,"station_name":"Univ. Indonesia","station_id":"UI","i_long":106.831474,"line":2,"transit":false,"time":3,"distance":2264,"i_lat":-6.360749},{"station_name":"Pondok Cina","i_lat":-6.369073,"transit":false,"is_transit":false,"line":2,"station_id":"POC","distance":1109,"i_long":106.831114,"time":2},{"transit":false,"distance":2727,"line":2,"station_name":"Depokbaru","time":4,"is_transit":false,"i_lat":-6.391065,"station_id":"DPB","i_long":106.819451}],[{"time":0,"distance":0,"transit":false,"station_id":"CKI","i_lat":-6.198556,"is_transit":false,"station_name":"Cikini","i_long":106.840169,"line":2},{"station_id":"GDD","time":3,"is_transit":false,"i_lat":-6.186295,"line":2,"i_long":106.832183,"station_name":"Gondangdia","transit":false,"distance":1750},{"transit":false,"station_name":"Juanda","time":4,"i_lat":-6.166716,"station_id":"JUA","distance":2015,"line":2,"i_long":106.828284,"is_transit":false},{"distance":1149,"station_name":"Sawah Besar","i_long":106.827103,"time":2,"i_lat":-6.160725,"transit":false,"line":2,"is_transit":false,"station_id":"SW"},{"i_lat":-6.149769,"station_id":"MGB","line":2,"station_name":"Manggabesar","transit":false,"time":2,"is_transit":false,"distance":906,"i_long":106.82482},{"line":2,"station_name":"Jayakarta","transit":false,"distance":1080,"time":2,"is_transit":false,"station_id":"JAY","i_lat":-6.141205,"i_long":106.820901},{"station_name":"Jakarta Kota","line":2,"transit":true,"is_transit":true,"time":4,"i_long":106.812439,"distance":1264,"i_lat":-6.137569,"station_id":"JAKK"},{"distance":1364,"transit":true,"is_transit":true,"station_name":"Kampung Bandan","station_id":"KPB","time":3,"i_lat":-6.132549,"line":4,"i_long":106.826365},{"line":1,"station_id":"AK","distance":4102,"station_name":"Angke","i_lat":-6.144674,"transit":false,"is_transit":false,"i_long":106.79867,"time":9},{"i_lat":-6.155215,"station_id":"DU","station_name":"Duri","is_transit":false,"time":4,"line":1,"i_long":106.800832,"transit":false,"distance":1230},{"is_transit":false,"i_lat":-6.185545,"distance":3632,"line":1,"station_id":"THB","time":8,"i_long":106.811091,"station_name":"Tanah Abang","transit":false},{"i_lat":-6.20132,"distance":2029,"i_long":106.816351,"line":1,"station_id":"KAT","transit":false,"station_name":"Karet","is_transit":false,"time":5},{"line":1,"station_name":"Sudirman Baru","i_long":106.819881,"transit":false,"station_id":"SUDB","distance":471,"i_lat":-6.201433,"is_transit":false,"time":1},{"i_long":106.822649,"i_lat":-6.202263,"time":1,"station_name":"Sudirman","line":1,"transit":false,"station_id":"SUD","is_transit":false,"distance":280},{"is_transit":true,"station_name":"Manggarai","line":2,"station_id":"MRI","time":4,"distance":3186,"transit":true,"i_lat":-6.209883,"i_long":106.84912},{"time":4,"transit":false,"distance":2610,"i_lat":-6.226659,"i_long":106.857948,"line":2,"station_id":"TEB","station_name":"Tebet","is_transit":false},{"station_name":"Cawang","station_id":"CW","i_long":106.856607,"i_lat":-6.242512,"line":2,"transit":false,"distance":1230,"is_transit":false,"time":2},{"i_long":106.85449,"transit":false,"station_name":"Duren Kalibata","station_id":"DRN","i_lat":-6.255332,"time":3,"distance":1546,"line":2,"is_transit":false},{"station_id":"PSMB","time":2,"distance":824,"is_transit":false,"i_long":106.851577,"transit":false,"i_lat":-6.263214,"station_name":"Pasar Minggu Baru","line":2},{"time":2,"transit":false,"station_name":"Pasar Minggu","line":2,"i_long":106.843999,"distance":2380,"i_lat":-6.2842400000000005,"is_transit":false,"station_id":"PSM"},{"station_name":"Tanjung Barat","transit":false,"is_transit":false,"distance":2820,"line":2,"i_long":106.838896,"time":4,"station_id":"TNT","i_lat":-6.3080680000000005},{"station_name":"Lenteng Agung","is_transit":false,"time":3,"distance":2671,"line":2,"station_id":"LNA","i_lat":-6.330363,"i_long":106.832616,"transit":false},{"i_long":106.834175,"line":2,"station_id":"UP","is_transit":false,"time":2,"transit":false,"distance":1029,"station_name":"Univ. Pancasila","i_lat":-6.339291},{"is_transit":false,"station_id":"UI","line":2,"station_name":"Univ. Indonesia","transit":false,"distance":2264,"i_lat":-6.360749,"i_long":106.831474,"time":3},{"is_transit":false,"line":2,"station_id":"POC","time":2,"i_lat":-6.369073,"i_long":106.831114,"distance":1109,"station_name":"Pondok Cina","transit":false},{"station_name":"Depokbaru","line":2,"station_id":"DPB","is_transit":false,"i_long":106.819451,"transit":false,"distance":2727,"i_lat":-6.391065,"time":4}],[{"line":2,"i_long":106.840169,"transit":false,"station_name":"Cikini","i_lat":-6.198556,"station_id":"CKI","is_transit":false,"time":0,"distance":0},{"i_long":106.832183,"station_id":"GDD","is_transit":false,"line":2,"time":3,"station_name":"Gondangdia","transit":false,"distance":1750,"i_lat":-6.186295},{"time":4,"i_long":106.828284,"station_id":"JUA","line":2,"i_lat":-6.166716,"station_name":"Juanda","transit":false,"is_transit":false,"distance":2015},{"line":2,"time":2,"is_transit":false,"distance":1149,"i_lat":-6.160725,"transit":false,"station_name":"Sawah Besar","station_id":"SW","i_long":106.827103},{"time":2,"i_lat":-6.149769,"is_transit":false,"station_id":"MGB","distance":906,"line":2,"transit":false,"station_name":"Manggabesar","i_long":106.82482},{"station_name":"Jayakarta","i_long":106.820901,"station_id":"JAY","i_lat":-6.141205,"distance":1080,"is_transit":false,"line":2,"transit":false,"time":2},{"distance":1264,"line":2,"is_transit":true,"station_id":"JAKK","i_lat":-6.137569,"time":4,"transit":true,"i_long":106.812439,"station_name":"Jakarta Kota"},{"station_name":"Kampung Bandan","i_lat":-6.132549,"is_transit":true,"transit":true,"time":3,"station_id":"KPB","i_long":106.826365,"distance":1364,"line":4},{"i_long":106.836569,"line":11,"is_transit":false,"station_id":"RJW","time":3,"distance":1444,"station_name":"Rajawali","transit":false,"i_lat":-6.14505},{"i_long":106.839204,"line":11,"i_lat":-6.161728,"time":5,"transit":false,"station_id":"KMO","station_name":"Kemayoran","is_transit":false,"distance":1901},{"i_long":106.84368,"distance":1436,"i_lat":-6.174784,"line":11,"time":4,"transit":false,"is_transit":false,"station_name":"Pasar Senen","station_id":"PSE"},{"station_name":"Gang Sentiong","is_transit":false,"time":8,"i_lat":-6.185975,"station_id":"GST","line":11,"distance":1567,"i_long":106.850107,"transit":false},{"station_name":"Kramat","station_id":"KMT","distance":973,"i_long":106.855437,"is_transit":false,"i_lat":-6.193792,"line":11,"time":1,"transit":false},{"is_transit":false,"i_long":106.861737,"transit":false,"distance":1829,"time":2,"station_name":"Pondok Jati","i_lat":-6.209188,"station_id":"POK","line":11},{"time":9,"i_lat":-6.215091,"line":1,"station_name":"Jatinegara","distance":1236,"transit":true,"station_id":"JNG","is_transit":true,"i_long":106.86807400000001},{"i_long":106.858896,"station_id":"MTR","distance":1377,"time":2,"station_name":"Matraman","is_transit":false,"i_lat":-6.212485,"transit":false,"line":1},{"is_transit":true,"transit":true,"distance":1275,"time":2,"station_name":"Manggarai","line":2,"station_id":"MRI","i_lat":-6.209883,"i_long":106.84912},{"line":2,"transit":false,"time":4,"distance":2610,"station_id":"TEB","i_lat":-6.226659,"station_name":"Tebet","i_long":106.857948,"is_transit":false},{"station_name":"Cawang","i_long":106.856607,"i_lat":-6.242512,"is_transit":false,"transit":false,"station_id":"CW","line":2,"distance":1230,"time":2},{"station_id":"DRN","station_name":"Duren Kalibata","time":3,"transit":false,"i_lat":-6.255332,"i_long":106.85449,"is_transit":false,"line":2,"distance":1546},{"line":2,"is_transit":false,"distance":824,"i_lat":-6.263214,"transit":false,"station_id":"PSMB","time":2,"i_long":106.851577,"station_name":"Pasar Minggu Baru"},{"is_transit":false,"station_id":"PSM","i_long":106.843999,"line":2,"distance":2380,"station_name":"Pasar Minggu","time":2,"i_lat":-6.2842400000000005,"transit":false},{"i_long":106.838896,"time":4,"station_name":"Tanjung Barat","is_transit":false,"transit":false,"station_id":"TNT","line":2,"i_lat":-6.3080680000000005,"distance":2820},{"distance":2671,"line":2,"station_id":"LNA","transit":false,"is_transit":false,"i_lat":-6.330363,"station_name":"Lenteng Agung","time":3,"i_long":106.832616},{"time":2,"station_name":"Univ. Pancasila","is_transit":false,"i_lat":-6.339291,"transit":false,"i_long":106.834175,"station_id":"UP","distance":1029,"line":2},{"transit":false,"station_name":"Univ. Indonesia","line":2,"i_long":106.831474,"is_transit":false,"i_lat":-6.360749,"station_id":"UI","time":3,"distance":2264},{"station_name":"Pondok Cina","transit":false,"is_transit":false,"time":2,"station_id":"POC","i_lat":-6.369073,"i_long":106.831114,"line":2,"distance":1109},{"transit":false,"station_id":"DPB","station_name":"Depokbaru","is_transit":false,"time":4,"i_lat":-6.391065,"i_long":106.819451,"line":2,"distance":2727}]]}