{"data":[[{"line":2,"i_long":106.840169,"station_id":"CKI","distance":0,"transit":false,"time":0,"is_transit":false,"station_name":"Cikini","i_lat":-6.198556},{"i_lat":-6.209883,"transit":true,"distance":1590,"i_long":106.84912,"time":4,"is_transit":true,"line":2,"station_name":"Manggarai","station_id":"MRI"},{"i_long":106.822649,"station_id":"SUD","is_transit":false,"station_name":"Sudirman","i_lat":-6.202263,"time":4,"distance":3186,"transit":false,"line":1},{"station_name":"Sudirman Baru","i_lat":-6.201433,"station_id":"SUDB","line":1,"distance":280,"time":1,"is_transit":false,"transit":false,"i_long":106.819881},{"is_transit":false,"time":1,"line":1,"i_lat":-6.20132,"station_name":"Karet","station_id":"KAT","transit":false,"i_long":106.816351,"distance":471},{"station_name":"Tanah Abang","is_transit":false,"transit":false,"i_lat":-6.185545,"i_long":106.811091,"station_id":"THB","distance":2029,"time":5,"line":1},{"station_name":"Duri","time":8,"station_id":"DU","line":1,"i_lat":-6.155215,"is_transit":true,"distance":3632,"i_long":106.800832,"transit":true},{"transit":false,"line":5,"is_transit":false,"station_name":"Grogol","distance":1700,"i_lat":-6.162021,"station_id":"GGL","i_long":106.788277,"time":3},{"line":5,"distance":2036,"station_id":"PSG","transit":false,"time":2,"station_name":"Pesing","i_long":106.771379,"i_lat":-6.161433,"is_transit":false},{"is_transit":false,"i_long":106.756522,"i_lat":-6.1587309999999995,"transit":false,"station_name":"Taman Kota","time":2,"distance":1614,"station_id":"TKO","line":5},{"station_id":"BOI","is_transit":false,"i_lat":-6.159876,"time":2,"distance":2334,"i_long":106.737035,"transit":false,"station_name":"Bojongindah","line":5},{"distance":1152,"i_long":106.723064,"time":4,"transit":false,"station_id":"RW","is_transit":false,"i_lat":-6.162758,"line":5,"station_name":"Rawa Buaya"},{"i_lat":-6.166068,"i_long":106.701612,"transit":false,"line":5,"time":3,"station_name":"Kalideres","distance":2504,"is_transit":false,"station_id":"KDS"},{"is_transit":false,"i_lat":-6.169933,"i_long":106.679458,"time":3,"distance":2548,"transit":false,"line":5,"station_name":"Poris","station_id":"PI"}],[{"time":0,"station_name":"Cikini","line":2,"i_long":106.840169,"station_id":"CKI","is_transit":false,"distance":0,"transit":false,"i_lat":-6.198556},{"station_id":"GDD","line":2,"i_long":106.832183,"time":3,"distance":1750,"transit":false,"station_name":"Gondangdia","i_lat":-6.186295,"is_transit":false},{"time":4,"transit":false,"distance":2015,"i_long":106.828284,"station_name":"Juanda","station_id":"JUA","is_transit":false,"line":2,"i_lat":-6.166716},{"time":2,"transit":false,"station_id":"SW","is_transit":false,"i_lat":-6.160725,"line":2,"station_name":"Sawah Besar","i_long":106.827103,"distance":1149},{"is_transit":false,"transit":false,"distance":906,"i_lat":-6.149769,"i_long":106.82482,"station_id":"MGB","line":2,"time":2,"station_name":"Manggabesar"},{"i_lat":-6.141205,"line":2,"is_transit":false,"time":2,"station_id":"JAY","i_long":106.820901,"station_name":"Jayakarta","distance":1080,"transit":false},{"station_name":"Jakarta Kota","time":4,"line":2,"transit":true,"i_lat":-6.137569,"distance":1264,"station_id":"JAKK","is_transit":true,"i_long":106.812439},{"station_name":"Kampung Bandan","distance":1364,"line":4,"i_lat":-6.132549,"station_id":"KPB","transit":true,"is_transit":true,"time":3,"i_long":106.826365},{"i_lat":-6.144674,"transit":false,"i_long":106.79867,"is_transit":false,"time":9,"distance":4102,"station_name":"Angke","line":1,"station_id":"AK"},{"i_lat":-6.155215,"line":1,"is_transit":true,"station_id":"DU","station_name":"Duri","transit":true,"time":4,"distance":1230,"i_long":106.800832},{"is_transit":false,"i_long":106.788277,"distance":1700,"line":5,"transit":false,"i_lat":-6.162021,"time":3,"station_id":"GGL","station_name":"Grogol"},{"i_lat":-6.161433,"line":5,"station_id":"PSG","distance":2036,"station_name":"Pesing","i_long":106.771379,"time":2,"transit":false,"is_transit":false},{"transit":false,"station_id":"TKO","is_transit":false,"station_name":"Taman Kota","i_lat":-6.1587309999999995,"i_long":106.756522,"line":5,"distance":1614,"time":2},{"time":2,"station_name":"Bojongindah","station_id":"BOI","i_lat":-6.159876,"i_long":106.737035,"line":5,"distance":2334,"transit":false,"is_transit":false},{"transit":false,"station_name":"Rawa Buaya","line":5,"station_id":"RW","is_transit":false,"i_lat":-6.162758,"distance":1152,"time":4,"i_long":106.723064},{"station_name":"Kalideres","is_transit":false,"transit":false,"distance":2504,"time":3,"line":5,"i_lat":-6.166068,"i_long":106.701612,"station_id":"KDS"},{"i_long":106.679458,"line":5,"transit":false,"i_lat":-6.169933,"time":3,"is_transit":false,"station_name":"Poris","station_id":"PI","distance":2548}],[{"distance":0,"is_transit":false,"i_lat":-6.198556,"time":0,"i_long":106.840169,"station_id":"CKI","transit":false,"station_name":"Cikini","line":2},{"i_lat":-6.209883,"time":4,"transit":true,"station_id":"MRI","is_transit":true,"line":2,"i_long":106.84912,"station_name":"Manggarai","distance":1590},{"distance":1275,"station_name":"Matraman","transit":false,"is_transit":false,"line":1,"i_long":106.858896,"station_id":"MTR","i_lat":-6.212485,"time":2},{"station_name":"Jatinegara","time":8,"distance":1377,"i_long":106.86807400000001,"line":1,"is_transit":true,"station_id":"JNG","transit":true,"i_lat":-6.215091},{"line":11,"i_lat":-6.209188,"i_long":106.861737,"station_name":"Pondok Jati","station_id":"POK","transit":false,"time":2,"is_transit":false,"distance":1236},{"i_lat":-6.193792,"is_transit":false,"station_name":"Kramat","i_long":106.855437,"line":11,"distance":1829,"time":2,"station_id":"KMT","transit":false},{"i_lat":-6.185975,"station_id":"GST","i_long":106.850107,"line":11,"transit":false,"is_transit":false,"distance":973,"station_name":"Gang Sentiong","time":1},{"is_transit":false,"i_lat":-6.174784,"i_long":106.84368,"station_name":"Pasar Senen","time":8,"line":11,"station_id":"PSE","transit":false,"distance":1567},{"distance":1436,"station_name":"Kemayoran","i_lat":-6.161728,"time":4,"station_id":"KMO","transit":false,"line":11,"is_transit":false,"i_long":106.839204},{"time":5,"station_id":"RJW","i_long":106.836569,"station_name":"Rajawali","i_lat":-6.14505,"transit":false,"is_transit":false,"distance":1901,"line":11},{"distance":1444,"transit":true,"i_lat":-6.132549,"i_long":106.826365,"line":4,"time":3,"is_transit":true,"station_id":"KPB","station_name":"Kampung Bandan"},{"station_id":"AK","transit":false,"i_long":106.79867,"i_lat":-6.144674,"is_transit":false,"station_name":"Angke","time":9,"distance":4102,"line":1},{"time":4,"station_id":"DU","transit":true,"distance":1230,"is_transit":true,"i_lat":-6.155215,"station_name":"Duri","i_long":106.800832,"line":1},{"is_transit":false,"i_lat":-6.162021,"i_long":106.788277,"time":3,"station_id":"GGL","station_name":"Grogol","line":5,"distance":1700,"transit":false},{"station_name":"Pesing","transit":false,"time":2,"i_lat":-6.161433,"i_long":106.771379,"is_transit":false,"line":5,"station_id":"PSG","distance":2036},{"station_name":"Taman Kota","i_lat":-6.1587309999999995,"transit":false,"distance":1614,"i_long":106.756522,"station_id":"TKO","time":2,"is_transit":false,"line":5},{"is_transit":false,"line":5,"time":2,"transit":false,"distance":2334,"i_lat":-6.159876,"station_id":"BOI","station_name":"Bojongindah","i_long":106.737035},{"time":4,"transit":false,"is_transit":false,"station_id":"RW","station_name":"Rawa Buaya","distance":1152,"i_lat":-6.162758,"line":5,"i_long":106.723064},{"i_long":106.701612,"time":3,"station_name":"Kalideres","transit":false,"line":5,"distance":2504,"station_id":"KDS","is_transit":false,"i_lat":-6.166068},{"station_name":"Poris","i_long":106.679458,"i_lat":-6.169933,"time":3,"line":5,"transit":false,"is_transit":false,"distance":2548,"station_id":"PI"}],[{"is_transit":false,"distance":0,"i_long":106.840169,"line":2,"station_name":"Cikini","time":0,"station_id":"CKI","transit":false,"i_lat":-6.198556},{"is_transit":false,"station_name":"Gondangdia","time":3,"distance":1750,"i_lat":-6.186295,"i_long":106.832183,"station_id":"GDD","line":2,"transit":false},{"time":4,"station_id":"JUA","i_lat":-6.166716,"i_long":106.828284,"is_transit":false,"station_name":"Juanda","transit":false,"distance":2015,"line":2},{"transit":false,"time":2,"is_transit":false,"station_id":"SW","i_lat":-6.160725,"distance":1149,"i_long":106.827103,"line":2,"station_name":"Sawah Besar"},{"station_id":"MGB","line":2,"is_transit":false,"distance":906,"transit":false,"station_name":"Manggabesar","i_long":106.82482,"time":2,"i_lat":-6.149769},{"i_long":106.820901,"station_id":"JAY","station_name":"Jayakarta","i_lat":-6.141205,"time":2,"is_transit":false,"line":2,"transit":false,"distance":1080},{"station_name":"Jakarta Kota","is_transit":true,"distance":1264,"i_long":106.812439,"i_lat":-6.137569,"station_id":"JAKK","line":2,"time":4,"transit":true},{"transit":true,"i_long":106.826365,"i_lat":-6.132549,"station_name":"Kampung Bandan","is_transit":true,"distance":1364,"time":3,"station_id":"KPB","line":4},{"station_name":"Rajawali","i_lat":-6.14505,"distance":1444,"station_id":"RJW","transit":false,"line":11,"i_long":106.836569,"time":3,"is_transit":false},{"distance":1901,"station_id":"KMO","transit":false,"is_transit":false,"i_long":106.839204,"time":5,"i_lat":-6.161728,"line":11,"station_name":"Kemayoran"},{"transit":false,"is_transit":false,"station_name":"Pasar Senen","i_long":106.84368,"i_lat":-6.174784,"distance":1436,"line":11,"station_id":"PSE","time":4},{"time":8,"station_name":"Gang Sentiong","i_long":106.850107,"transit":false,"line":11,"i_lat":-6.185975,"station_id":"GST","distance":1567,"is_transit":false},{"station_id":"KMT","is_transit":false,"transit":false,"i_lat":-6.193792,"station_name":"Kramat","time":1,"i_long":106.855437,"line":11,"distance":973},{"station_name":"Pondok Jati","i_long":106.861737,"is_transit":false,"transit":false,"line":11,"time":2,"distance":1829,"i_lat":-6.209188,"station_id":"POK"},{"transit":true,"is_transit":true,"distance":1236,"i_long":106.86807400000001,"i_lat":-6.215091,"station_id":"JNG","time":9,"line":1,"station_name":"Jatinegara"},{"i_long":106.858896,"distance":1377,"station_name":"Matraman","line":1,"transit":false,"i_lat":-6.212485,"is_transit":false,"station_id":"MTR","time":2},{"i_long":106.84912,"distance":1275,"station_name":"Manggarai","line":2,"time":2,"is_transit":false,"i_lat":-6.209883,"station_id":"MRI","transit":false},{"station_name":"Sudirman","i_lat":-6.202263,"i_long":106.822649,"station_id":"SUD","transit":false,"is_transit":false,"distance":3186,"line":1,"time":4},{"i_long":106.819881,"i_lat":-6.201433,"is_transit":false,"transit":false,"time":1,"line":1,"station_name":"Sudirman Baru","station_id":"SUDB","distance":280},{"station_id":"KAT","time":1,"is_transit":false,"station_name":"Karet","i_lat":-6.20132,"i_long":106.816351,"transit":false,"distance":471,"line":1},{"transit":false,"line":1,"time":5,"i_lat":-6.185545,"station_id":"THB","station_name":"Tanah Abang","distance":2029,"i_long":106.811091,"is_transit":false},{"time":8,"transit":true,"line":1,"is_transit":true,"i_long":106.800832,"station_name":"Duri","i_lat":-6.155215,"station_id":"DU","distance":3632},{"line":5,"time":3,"distance":1700,"transit":false,"is_transit":false,"i_long":106.788277,"i_lat":-6.162021,"station_id":"GGL","station_name":"Grogol"},{"is_transit":false,"i_lat":-6.161433,"i_long":106.771379,"station_name":"Pesing","distance":2036,"time":2,"line":5,"transit":false,"station_id":"PSG"},{"transit":false,"is_transit":false,"station_id":"TKO","distance":1614,"line":5,"station_name":"Taman Kota","time":2,"i_lat":-6.1587309999999995,"i_long":106.756522},{"time":2,"i_lat":-6.159876,"i_long":106.737035,"distance":2334,"line":5,"transit":false,"station_id":"BOI","is_transit":false,"station_name":"Bojongindah"},{"time":4,"station_id":"RW","transit":false,"is_transit":false,"distance":1152,"i_long":106.723064,"line":5,"station_name":"Rawa Buaya","i_lat":-6.162758},{"time":3,"station_id":"KDS","i_lat":-6.166068,"distance":2504,"i_long":106.701612,"station_name":"Kalideres","is_transit":false,"line":5,"transit":false},{"transit":false,"station_id":"PI","i_lat":-6.169933,"line":5,"time":3,"station_name":"Poris","is_transit":false,"i_long":106.679458,"distance":2548}]]}