{"data":[[{"time":0,"distance":0,"station_name":"Cikini","i_lat":-6.198556,"i_long":106.840169,"line":2,"station_id":"CKI","is_transit":false,"transit":false},{"station_id":"MRI","distance":1590,"transit":true,"station_name":"Manggarai","time":4,"is_transit":true,"i_lat":-6.209883,"line":2,"i_long":106.84912},{"distance":3186,"station_id":"SUD","i_lat":-6.202263,"time":4,"i_long":106.822649,"is_transit":false,"line":1,"station_name":"Sudirman","transit":false},{"station_id":"SUDB","i_lat":-6.201433,"station_name":"Sudirman Baru","is_transit":false,"transit":false,"i_long":106.819881,"time":1,"line":1,"distance":280},{"i_lat":-6.20132,"i_long":106.816351,"station_name":"Karet","line":1,"time":1,"distance":471,"is_transit":false,"station_id":"KAT","transit":false},{"i_lat":-6.185545,"line":1,"distance":2029,"station_id":"THB","station_name":"Tanah Abang","is_transit":true,"transit":true,"i_long":106.811091,"time":5},{"line":6,"station_name":"Palmerah","transit":false,"is_transit":false,"time":6,"i_lat":-6.207404,"i_long":106.79689,"distance":3191,"station_id":"PLM"},{"is_transit":false,"i_long":106.780334,"i_lat":-6.237242,"station_name":"Kebayoran","distance":3737,"time":7,"line":6,"station_id":"KBY","transit":false},{"station_name":"Pondokranji","line":6,"i_lat":-6.276362,"distance":6218,"station_id":"PDJ","is_transit":false,"i_long":106.74273,"time":8,"transit":false},{"line":6,"time":3,"i_lat":-6.288927,"distance":2179,"i_long":106.728916,"is_transit":false,"transit":false,"station_id":"JMU","station_name":"Jurangmangu"},{"distance":1994,"i_long":106.712277,"i_lat":-6.296963,"station_id":"SDM","station_name":"Sudimara","is_transit":false,"time":4,"line":6,"transit":false},{"i_long":106.675475,"i_lat":-6.314823,"time":6,"distance":4566,"line":6,"station_name":"Rawa Buntu","station_id":"RU","is_transit":false,"transit":false},{"station_name":"Serpong","line":6,"i_long":106.66566,"station_id":"SRP","transit":false,"distance":2413,"time":4,"is_transit":false,"i_lat":-6.319871},{"distance":1784,"time":4,"i_long":106.640411,"i_lat":-6.32484,"line":3,"transit":false,"station_name":"Cisauk","is_transit":false,"station_id":"CSK"},{"i_long":106.617853,"is_transit":false,"distance":2519,"line":3,"station_name":"Cicayur","time":4,"transit":false,"station_id":"CC","i_lat":-6.329547},{"i_long":106.568863,"distance":5968,"line":6,"i_lat":-6.3441410000000005,"transit":false,"is_transit":false,"time":8,"station_id":"PRP","station_name":"Parung Panjang"},{"is_transit":false,"transit":false,"station_id":"CJT","station_name":"Cilejit","line":3,"time":9,"i_lat":-6.354349,"i_long":106.508482,"distance":7025},{"station_name":"Daru","i_long":106.491338,"distance":2675,"is_transit":false,"line":0,"i_lat":-6.338021,"transit":false,"station_id":"DAR","time":6},{"i_long":106.460812,"line":6,"station_name":"Tenjo","transit":false,"is_transit":false,"time":5,"distance":3902,"station_id":"TEJ","i_lat":-6.327251},{"station_id":"TGS","distance":2974,"i_long":106.425991,"time":5,"line":6,"station_name":"Tigaraksa","i_lat":-6.328533,"transit":false,"is_transit":false},{"transit":false,"i_lat":-6.33561,"station_id":"CKY","distance":2651,"time":3,"station_name":"Cikoya","is_transit":false,"i_long":106.411216,"line":3},{"distance":1853,"time":4,"transit":false,"station_name":"Maja","is_transit":false,"i_long":106.394373,"station_id":"MJ","i_lat":-6.332307,"line":6},{"station_id":"CTR","station_name":"Citeras","i_long":106.332092,"time":10,"line":3,"distance":7293,"is_transit":false,"i_lat":-6.334892,"transit":false}],[{"i_long":106.840169,"station_id":"CKI","station_name":"Cikini","time":0,"line":2,"is_transit":false,"transit":false,"distance":0,"i_lat":-6.198556},{"distance":1750,"time":3,"transit":false,"is_transit":false,"station_id":"GDD","i_long":106.832183,"line":2,"station_name":"Gondangdia","i_lat":-6.186295},{"transit":false,"i_lat":-6.166716,"line":2,"distance":2015,"station_name":"Juanda","is_transit":false,"i_long":106.828284,"station_id":"JUA","time":4},{"transit":false,"line":2,"station_id":"SW","distance":1149,"time":2,"station_name":"Sawah Besar","is_transit":false,"i_lat":-6.160725,"i_long":106.827103},{"station_id":"MGB","transit":false,"i_long":106.82482,"distance":906,"is_transit":false,"time":2,"i_lat":-6.149769,"line":2,"station_name":"Manggabesar"},{"i_long":106.820901,"station_name":"Jayakarta","line":2,"station_id":"JAY","distance":1080,"time":2,"transit":false,"is_transit":false,"i_lat":-6.141205},{"is_transit":true,"i_lat":-6.137569,"station_name":"Jakarta Kota","distance":1264,"time":4,"line":2,"i_long":106.812439,"station_id":"JAKK","transit":true},{"station_name":"Kampung Bandan","is_transit":true,"line":4,"distance":1364,"i_lat":-6.132549,"time":3,"station_id":"KPB","i_long":106.826365,"transit":true},{"i_lat":-6.144674,"time":9,"distance":4102,"transit":false,"station_id":"AK","station_name":"Angke","is_transit":false,"i_long":106.79867,"line":1},{"is_transit":false,"distance":1230,"time":4,"line":1,"station_name":"Duri","station_id":"DU","i_long":106.800832,"transit":false,"i_lat":-6.155215},{"station_name":"Tanah Abang","distance":3632,"i_lat":-6.185545,"i_long":106.811091,"line":1,"time":8,"station_id":"THB","is_transit":true,"transit":true},{"i_lat":-6.207404,"line":6,"station_name":"Palmerah","is_transit":false,"distance":3191,"i_long":106.79689,"time":6,"transit":false,"station_id":"PLM"},{"i_lat":-6.237242,"distance":3737,"transit":false,"station_name":"Kebayoran","i_long":106.780334,"time":7,"is_transit":false,"line":6,"station_id":"KBY"},{"station_id":"PDJ","is_transit":false,"line":6,"distance":6218,"station_name":"Pondokranji","i_lat":-6.276362,"i_long":106.74273,"transit":false,"time":8},{"i_long":106.728916,"time":3,"is_transit":false,"station_id":"JMU","transit":false,"distance":2179,"line":6,"station_name":"Jurangmangu","i_lat":-6.288927},{"station_name":"Sudimara","i_long":106.712277,"transit":false,"distance":1994,"station_id":"SDM","is_transit":false,"time":4,"i_lat":-6.296963,"line":6},{"i_lat":-6.314823,"transit":false,"distance":4566,"station_id":"RU","station_name":"Rawa Buntu","i_long":106.675475,"line":6,"time":6,"is_transit":false},{"station_name":"Serpong","i_long":106.66566,"line":6,"station_id":"SRP","time":4,"transit":false,"i_lat":-6.319871,"distance":2413,"is_transit":false},{"i_long":106.640411,"is_transit":false,"line":3,"station_name":"Cisauk","station_id":"CSK","distance":1784,"time":4,"transit":false,"i_lat":-6.32484},{"is_transit":false,"line":3,"i_lat":-6.329547,"distance":2519,"station_name":"Cicayur","time":4,"i_long":106.617853,"station_id":"CC","transit":false},{"i_lat":-6.3441410000000005,"time":8,"i_long":106.568863,"is_transit":false,"transit":false,"line":6,"distance":5968,"station_id":"PRP","station_name":"Parung Panjang"},{"station_name":"Cilejit","is_transit":false,"distance":7025,"station_id":"CJT","time":9,"transit":false,"i_long":106.508482,"i_lat":-6.354349,"line":3},{"time":6,"station_id":"DAR","transit":false,"station_name":"Daru","i_lat":-6.338021,"i_long":106.491338,"is_transit":false,"line":0,"distance":2675},{"is_transit":false,"i_long":106.460812,"line":6,"distance":3902,"transit":false,"i_lat":-6.327251,"station_id":"TEJ","station_name":"Tenjo","time":5},{"line":6,"station_id":"TGS","distance":2974,"transit":false,"station_name":"Tigaraksa","is_transit":false,"i_lat":-6.328533,"time":5,"i_long":106.425991},{"is_transit":false,"distance":2651,"time":3,"station_id":"CKY","i_lat":-6.33561,"line":3,"i_long":106.411216,"station_name":"Cikoya","transit":false},{"station_name":"Maja","distance":1853,"time":4,"is_transit":false,"i_lat":-6.332307,"i_long":106.394373,"station_id":"MJ","line":6,"transit":false},{"station_name":"Citeras","line":3,"distance":7293,"transit":false,"time":10,"i_lat":-6.334892,"station_id":"CTR","is_transit":false,"i_long":106.332092}],[{"is_transit":false,"line":2,"time":0,"station_id":"CKI","i_long":106.840169,"station_name":"Cikini","i_lat":-6.198556,"distance":0,"transit":false},{"distance":1590,"i_lat":-6.209883,"i_long":106.84912,"time":4,"station_name":"Manggarai","line":2,"is_transit":true,"station_id":"MRI","transit":true},{"distance":1275,"i_long":106.858896,"transit":false,"time":2,"station_name":"Matraman","line":1,"i_lat":-6.212485,"station_id":"MTR","is_transit":false},{"station_name":"Jatinegara","transit":true,"i_long":106.86807400000001,"is_transit":true,"distance":1377,"time":8,"line":1,"i_lat":-6.215091,"station_id":"JNG"},{"is_transit":false,"distance":1236,"transit":false,"i_long":106.861737,"time":2,"i_lat":-6.209188,"station_id":"POK","station_name":"Pondok Jati","line":11},{"distance":1829,"transit":false,"i_long":106.855437,"station_name":"Kramat","is_transit":false,"station_id":"KMT","line":11,"time":2,"i_lat":-6.193792},{"station_name":"Gang Sentiong","line":11,"i_long":106.850107,"transit":false,"i_lat":-6.185975,"time":1,"is_transit":false,"station_id":"GST","distance":973},{"i_lat":-6.174784,"distance":1567,"i_long":106.84368,"transit":false,"station_name":"Pasar Senen","station_id":"PSE","line":11,"time":8,"is_transit":false},{"distance":1436,"transit":false,"station_name":"Kemayoran","i_lat":-6.161728,"i_long":106.839204,"is_transit":false,"time":4,"line":11,"station_id":"KMO"},{"station_id":"RJW","distance":1901,"i_lat":-6.14505,"i_long":106.836569,"line":11,"transit":false,"station_name":"Rajawali","time":5,"is_transit":false},{"transit":true,"distance":1444,"station_name":"Kampung Bandan","i_long":106.826365,"station_id":"KPB","is_transit":true,"i_lat":-6.132549,"time":3,"line":4},{"i_long":106.79867,"i_lat":-6.144674,"time":9,"line":1,"station_name":"Angke","distance":4102,"transit":false,"station_id":"AK","is_transit":false},{"transit":false,"station_name":"Duri","is_transit":false,"i_long":106.800832,"time":4,"i_lat":-6.155215,"station_id":"DU","line":1,"distance":1230},{"time":8,"line":1,"station_id":"THB","distance":3632,"i_lat":-6.185545,"i_long":106.811091,"transit":true,"is_transit":true,"station_name":"Tanah Abang"},{"station_name":"Palmerah","distance":3191,"transit":false,"station_id":"PLM","line":6,"is_transit":false,"time":6,"i_long":106.79689,"i_lat":-6.207404},{"time":7,"distance":3737,"transit":false,"i_long":106.780334,"is_transit":false,"station_id":"KBY","i_lat":-6.237242,"station_name":"Kebayoran","line":6},{"i_lat":-6.276362,"distance":6218,"is_transit":false,"line":6,"station_id":"PDJ","time":8,"i_long":106.74273,"station_name":"Pondokranji","transit":false},{"station_id":"JMU","station_name":"Jurangmangu","i_lat":-6.288927,"is_transit":false,"time":3,"distance":2179,"line":6,"i_long":106.728916,"transit":false},{"distance":1994,"station_name":"Sudimara","time":4,"transit":false,"station_id":"SDM","line":6,"is_transit":false,"i_lat":-6.296963,"i_long":106.712277},{"transit":false,"distance":4566,"line":6,"time":6,"is_transit":false,"i_lat":-6.314823,"station_id":"RU","station_name":"Rawa Buntu","i_long":106.675475},{"is_transit":false,"time":4,"station_id":"SRP","transit":false,"station_name":"Serpong","i_lat":-6.319871,"line":6,"distance":2413,"i_long":106.66566},{"i_long":106.640411,"line":3,"transit":false,"station_name":"Cisauk","is_transit":false,"i_lat":-6.32484,"time":4,"distance":1784,"station_id":"CSK"},{"distance":2519,"station_name":"Cicayur","time":4,"is_transit":false,"line":3,"i_long":106.617853,"i_lat":-6.329547,"station_id":"CC","transit":false},{"i_long":106.568863,"station_id":"PRP","distance":5968,"time":8,"i_lat":-6.3441410000000005,"transit":false,"station_name":"Parung Panjang","line":6,"is_transit":false},{"station_name":"Cilejit","i_lat":-6.354349,"station_id":"CJT","time":9,"distance":7025,"i_long":106.508482,"transit":false,"line":3,"is_transit":false},{"time":6,"i_lat":-6.338021,"is_transit":false,"line":0,"station_name":"Daru","i_long":106.491338,"distance":2675,"transit":false,"station_id":"DAR"},{"i_lat":-6.327251,"station_id":"TEJ","is_transit":false,"time":5,"transit":false,"station_name":"Tenjo","i_long":106.460812,"distance":3902,"line":6},{"transit":false,"station_id":"TGS","is_transit":false,"station_name":"Tigaraksa","line":6,"i_lat":-6.328533,"i_long":106.425991,"distance":2974,"time":5},{"line":3,"time":3,"station_id":"CKY","distance":2651,"station_name":"Cikoya","i_long":106.411216,"transit":false,"i_lat":-6.33561,"is_transit":false},{"time":4,"station_name":"Maja","i_long":106.394373,"transit":false,"distance":1853,"is_transit":false,"station_id":"MJ","line":6,"i_lat":-6.332307},{"i_long":106.332092,"distance":7293,"transit":false,"i_lat":-6.334892,"line":3,"station_id":"CTR","station_name":"Citeras","is_transit":false,"time":10}],[{"time":0,"station_name":"Cikini","transit":false,"i_lat":-6.198556,"line":2,"station_id":"CKI","is_transit":false,"i_long":106.840169,"distance":0},{"station_id":"GDD","is_transit":false,"distance":1750,"station_name":"Gondangdia","time":3,"i_lat":-6.186295,"i_long":106.832183,"transit":false,"line":2},{"station_name":"Juanda","is_transit":false,"station_id":"JUA","distance":2015,"line":2,"time":4,"i_lat":-6.166716,"i_long":106.828284,"transit":false},{"is_transit":false,"i_lat":-6.160725,"station_name":"Sawah Besar","i_long":106.827103,"transit":false,"distance":1149,"line":2,"time":2,"station_id":"SW"},{"i_lat":-6.149769,"i_long":106.82482,"distance":906,"station_id":"MGB","is_transit":false,"line":2,"time":2,"transit":false,"station_name":"Manggabesar"},{"time":2,"i_lat":-6.141205,"i_long":106.820901,"is_transit":false,"distance":1080,"line":2,"transit":false,"station_name":"Jayakarta","station_id":"JAY"},{"station_name":"Jakarta Kota","is_transit":true,"transit":true,"i_lat":-6.137569,"time":4,"station_id":"JAKK","distance":1264,"i_long":106.812439,"line":2},{"time":3,"i_lat":-6.132549,"is_transit":true,"distance":1364,"transit":true,"i_long":106.826365,"station_name":"Kampung Bandan","line":4,"station_id":"KPB"},{"is_transit":false,"i_lat":-6.14505,"i_long":106.836569,"station_id":"RJW","station_name":"Rajawali","time":3,"line":11,"transit":false,"distance":1444},{"line":11,"transit":false,"station_id":"KMO","time":5,"is_transit":false,"i_long":106.839204,"distance":1901,"station_name":"Kemayoran","i_lat":-6.161728},{"station_id":"PSE","time":4,"station_name":"Pasar Senen","line":11,"distance":1436,"transit":false,"is_transit":false,"i_long":106.84368,"i_lat":-6.174784},{"transit":false,"time":8,"i_long":106.850107,"distance":1567,"i_lat":-6.185975,"station_id":"GST","station_name":"Gang Sentiong","is_transit":false,"line":11},{"i_long":106.855437,"is_transit":false,"station_id":"KMT","time":1,"transit":false,"station_name":"Kramat","i_lat":-6.193792,"distance":973,"line":11},{"i_long":106.861737,"station_id":"POK","is_transit":false,"time":2,"distance":1829,"i_lat":-6.209188,"transit":false,"station_name":"Pondok Jati","line":11},{"i_long":106.86807400000001,"i_lat":-6.215091,"line":1,"transit":true,"time":9,"distance":1236,"station_id":"JNG","station_name":"Jatinegara","is_transit":true},{"distance":1377,"station_id":"MTR","station_name":"Matraman","is_transit":false,"time":2,"line":1,"i_long":106.858896,"i_lat":-6.212485,"transit":false},{"is_transit":false,"station_id":"MRI","distance":1275,"i_long":106.84912,"station_name":"Manggarai","i_lat":-6.209883,"time":2,"line":2,"transit":false},{"distance":3186,"line":1,"transit":false,"time":4,"is_transit":false,"station_id":"SUD","station_name":"Sudirman","i_lat":-6.202263,"i_long":106.822649},{"station_id":"SUDB","i_long":106.819881,"is_transit":false,"time":1,"transit":false,"station_name":"Sudirman Baru","distance":280,"i_lat":-6.201433,"line":1},{"station_id":"KAT","is_transit":false,"i_long":106.816351,"station_name":"Karet","i_lat":-6.20132,"distance":471,"line":1,"time":1,"transit":false},{"distance":2029,"station_id":"THB","is_transit":true,"time":5,"station_name":"Tanah Abang","i_lat":-6.185545,"i_long":106.811091,"line":1,"transit":true},{"i_lat":-6.207404,"i_long":106.79689,"station_name":"Palmerah","line":6,"station_id":"PLM","distance":3191,"transit":false,"is_transit":false,"time":6},{"time":7,"station_name":"Kebayoran","station_id":"KBY","i_lat":-6.237242,"distance":3737,"transit":false,"is_transit":false,"i_long":106.780334,"line":6},{"line":6,"distance":6218,"transit":false,"station_id":"PDJ","is_transit":false,"time":8,"i_long":106.74273,"station_name":"Pondokranji","i_lat":-6.276362},{"station_name":"Jurangmangu","i_long":106.728916,"line":6,"is_transit":false,"distance":2179,"time":3,"station_id":"JMU","i_lat":-6.288927,"transit":false},{"station_name":"Sudimara","is_transit":false,"station_id":"SDM","i_long":106.712277,"i_lat":-6.296963,"distance":1994,"line":6,"time":4,"transit":false},{"station_name":"Rawa Buntu","is_transit":false,"time":6,"line":6,"i_long":106.675475,"station_id":"RU","transit":false,"i_lat":-6.314823,"distance":4566},{"transit":false,"time":4,"i_lat":-6.319871,"i_long":106.66566,"distance":2413,"station_id":"SRP","is_transit":false,"line":6,"station_name":"Serpong"},{"transit":false,"station_name":"Cisauk","line":3,"i_long":106.640411,"is_transit":false,"time":4,"station_id":"CSK","distance":1784,"i_lat":-6.32484},{"time":4,"station_id":"CC","transit":false,"is_transit":false,"station_name":"Cicayur","i_lat":-6.329547,"i_long":106.617853,"line":3,"distance":2519},{"i_long":106.568863,"transit":false,"station_id":"PRP","i_lat":-6.3441410000000005,"station_name":"Parung Panjang","is_transit":false,"time":8,"line":6,"distance":5968},{"station_name":"Cilejit","time":9,"i_lat":-6.354349,"line":3,"i_long":106.508482,"transit":false,"distance":7025,"station_id":"CJT","is_transit":false},{"transit":false,"station_name":"Daru","time":6,"is_transit":false,"station_id":"DAR","line":0,"i_lat":-6.338021,"distance":2675,"i_long":106.491338},{"time":5,"distance":3902,"is_transit":false,"i_long":106.460812,"line":6,"station_name":"Tenjo","transit":false,"station_id":"TEJ","i_lat":-6.327251},{"line":6,"i_lat":-6.328533,"is_transit":false,"transit":false,"time":5,"station_id":"TGS","i_long":106.425991,"station_name":"Tigaraksa","distance":2974},{"line":3,"i_lat":-6.33561,"is_transit":false,"transit":false,"station_id":"CKY","station_name":"Cikoya","distance":2651,"time":3,"i_long":106.411216},{"i_lat":-6.332307,"line":6,"transit":false,"station_name":"Maja","is_transit":false,"time":4,"station_id":"MJ","i_long":106.394373,"distance":1853},{"station_name":"Citeras","i_lat":-6.334892,"station_id":"CTR","i_long":106.332092,"distance":7293,"time":10,"transit":false,"is_transit":false,"line":3}]]}