{"data":[[{"transit":false,"distance":0,"station_id":"CKI","is_transit":false,"i_lat":-6.198556,"station_name":"Cikini","line":0,"i_long":106.840169,"time":0},{"distance":1590,"is_transit":true,"line":0,"station_id":"MRI","time":4,"i_lat":-6.209883,"station_name":"Manggarai","transit":true,"i_long":106.84912},{"line":1,"i_long":106.822649,"transit":false,"distance":3186,"station_id":"SUD","station_name":"Sudirman","time":4,"is_transit":false,"i_lat":-6.202263},{"station_id":"SUDB","transit":false,"station_name":"Sudirman Baru","is_transit":false,"distance":280,"time":1,"i_lat":-6.201433,"line":1,"i_long":106.819881},{"transit":false,"is_transit":false,"station_name":"Karet","station_id":"KAT","i_long":106.816351,"line":1,"i_lat":-6.20132,"distance":471,"time":1},{"transit":false,"distance":2029,"station_name":"Tanah Abang","station_id":"THB","i_long":106.811091,"is_transit":true,"line":1,"i_lat":-6.185545,"time":5},{"transit":true,"i_long":106.800832,"station_name":"Duri","line":1,"station_id":"DU","time":8,"is_transit":true,"i_lat":-6.155215,"distance":3632},{"station_id":"GGL","transit":false,"station_name":"Grogol","i_long":106.788277,"distance":1700,"i_lat":-6.162021,"is_transit":false,"line":5,"time":3},{"i_lat":-6.161433,"line":5,"time":2,"transit":false,"is_transit":false,"i_long":106.771379,"station_id":"PSG","distance":2036,"station_name":"Pesing"},{"i_long":106.756522,"station_id":"TKO","i_lat":-6.1587309999999995,"station_name":"Taman Kota","is_transit":false,"distance":1614,"line":5,"time":2,"transit":false},{"time":2,"line":0,"is_transit":false,"i_lat":-6.159876,"station_name":"Bojongindah","distance":2334,"transit":false,"i_long":106.737035,"station_id":"BOI"},{"i_long":106.723064,"station_id":"RW","is_transit":false,"transit":false,"time":4,"i_lat":-6.162758,"distance":1152,"station_name":"Rawa Buaya","line":5},{"time":3,"station_id":"KDS","i_lat":-6.166068,"line":5,"distance":2504,"transit":false,"is_transit":false,"i_long":106.701612,"station_name":"Kalideres"},{"station_name":"Poris","i_lat":-6.169933,"line":5,"distance":2548,"station_id":"PI","time":3,"transit":false,"i_long":106.679458,"is_transit":false},{"station_id":"BPR","i_lat":-6.171811,"time":3,"is_transit":false,"distance":1834,"transit":false,"station_name":"Batuceper","line":0,"i_long":106.665036},{"time":3,"station_name":"Tanah Tinggi","transit":false,"distance":2028,"i_long":106.64657,"station_id":"TTI","line":5,"i_lat":-6.17331,"is_transit":false}],[{"is_transit":false,"time":0,"i_lat":-6.198556,"station_name":"Cikini","line":0,"transit":false,"distance":0,"i_long":106.840169,"station_id":"CKI"},{"line":2,"i_lat":-6.186295,"is_transit":false,"station_id":"GDD","i_long":106.832183,"time":3,"distance":1750,"station_name":"Gondangdia","transit":false},{"i_lat":-6.166716,"station_id":"JUA","line":2,"distance":2015,"i_long":106.828284,"is_transit":false,"time":4,"transit":false,"station_name":"Juanda"},{"i_lat":-6.160725,"i_long":106.827103,"time":2,"line":2,"station_id":"SW","station_name":"Sawah Besar","is_transit":false,"distance":1149,"transit":false},{"time":2,"i_long":106.82482,"i_lat":-6.149769,"line":2,"transit":false,"station_name":"Manggabesar","is_transit":false,"distance":906,"station_id":"MGB"},{"station_name":"Jayakarta","is_transit":false,"distance":1080,"time":2,"transit":false,"i_lat":-6.141205,"i_long":106.820901,"station_id":"JAY","line":7},{"i_lat":-6.137569,"station_id":"JAKK","station_name":"Jakarta Kota","is_transit":true,"i_long":106.812439,"line":0,"time":4,"transit":true,"distance":1264},{"line":0,"time":3,"distance":1364,"is_transit":true,"i_long":106.826365,"station_id":"KPB","transit":false,"i_lat":-6.132549,"station_name":"Kampung Bandan"},{"station_name":"Angke","line":0,"station_id":"AK","is_transit":false,"transit":false,"i_long":106.79867,"time":9,"distance":4102,"i_lat":-6.144674},{"is_transit":true,"time":4,"station_name":"Duri","distance":1230,"transit":true,"i_lat":-6.155215,"station_id":"DU","i_long":106.800832,"line":1},{"i_lat":-6.162021,"line":5,"station_id":"GGL","distance":1700,"transit":false,"is_transit":false,"i_long":106.788277,"time":3,"station_name":"Grogol"},{"distance":2036,"time":2,"transit":false,"line":5,"i_long":106.771379,"station_id":"PSG","i_lat":-6.161433,"station_name":"Pesing","is_transit":false},{"distance":1614,"transit":false,"i_long":106.756522,"station_id":"TKO","is_transit":false,"time":2,"i_lat":-6.1587309999999995,"line":5,"station_name":"Taman Kota"},{"time":2,"is_transit":false,"station_id":"BOI","transit":false,"station_name":"Bojongindah","distance":2334,"i_lat":-6.159876,"line":0,"i_long":106.737035},{"time":4,"i_lat":-6.162758,"transit":false,"station_id":"RW","i_long":106.723064,"is_transit":false,"line":5,"station_name":"Rawa Buaya","distance":1152},{"distance":2504,"is_transit":false,"i_lat":-6.166068,"i_long":106.701612,"transit":false,"station_name":"Kalideres","station_id":"KDS","line":5,"time":3},{"transit":false,"i_lat":-6.169933,"station_name":"Poris","i_long":106.679458,"line":5,"is_transit":false,"time":3,"station_id":"PI","distance":2548},{"distance":1834,"line":0,"station_id":"BPR","i_lat":-6.171811,"i_long":106.665036,"time":3,"is_transit":false,"station_name":"Batuceper","transit":false},{"is_transit":false,"distance":2028,"i_long":106.64657,"transit":false,"station_id":"TTI","time":3,"i_lat":-6.17331,"line":5,"station_name":"Tanah Tinggi"}],[{"line":0,"is_transit":false,"distance":0,"i_long":106.840169,"time":0,"transit":false,"i_lat":-6.198556,"station_id":"CKI","station_name":"Cikini"},{"is_transit":true,"time":4,"station_name":"Manggarai","transit":true,"i_lat":-6.209883,"i_long":106.84912,"station_id":"MRI","distance":1590,"line":0},{"i_lat":-6.212485,"station_id":"MTR","station_name":"Matraman","distance":1275,"time":2,"transit":false,"i_long":106.858896,"line":1,"is_transit":false},{"i_long":106.86807400000001,"station_id":"JNG","is_transit":true,"time":8,"station_name":"Jatinegara","transit":true,"i_lat":-6.215091,"distance":1377,"line":0},{"i_lat":-6.209188,"is_transit":false,"transit":false,"i_long":106.861737,"line":11,"station_id":"POK","time":2,"distance":1236,"station_name":"Pondok Jati"},{"i_lat":-6.193792,"line":11,"distance":1829,"station_name":"Kramat","transit":false,"time":2,"i_long":106.855437,"station_id":"KMT","is_transit":false},{"station_id":"GST","station_name":"Gang Sentiong","time":1,"transit":false,"distance":973,"is_transit":false,"i_lat":-6.185975,"i_long":106.850107,"line":11},{"time":8,"i_lat":-6.174784,"station_name":"Pasar Senen","station_id":"PSE","is_transit":false,"distance":1567,"i_long":106.84368,"transit":false,"line":11},{"station_id":"KMO","is_transit":false,"i_long":106.839204,"time":4,"station_name":"Kemayoran","transit":false,"line":11,"distance":1436,"i_lat":-6.161728},{"transit":false,"station_name":"Rajawali","line":11,"distance":1901,"i_long":106.836569,"time":5,"station_id":"RJW","is_transit":false,"i_lat":-6.14505},{"is_transit":true,"distance":1444,"station_id":"KPB","station_name":"Kampung Bandan","time":3,"i_lat":-6.132549,"i_long":106.826365,"transit":true,"line":0},{"is_transit":false,"transit":false,"i_long":106.79867,"i_lat":-6.144674,"station_name":"Angke","time":9,"line":0,"station_id":"AK","distance":4102},{"time":4,"distance":1230,"i_lat":-6.155215,"line":1,"is_transit":true,"station_id":"DU","transit":true,"i_long":106.800832,"station_name":"Duri"},{"time":3,"distance":1700,"line":5,"i_long":106.788277,"station_name":"Grogol","is_transit":false,"station_id":"GGL","transit":false,"i_lat":-6.162021},{"distance":2036,"transit":false,"station_id":"PSG","i_long":106.771379,"is_transit":false,"time":2,"station_name":"Pesing","i_lat":-6.161433,"line":5},{"station_id":"TKO","is_transit":false,"distance":1614,"station_name":"Taman Kota","i_lat":-6.1587309999999995,"line":5,"i_long":106.756522,"time":2,"transit":false},{"time":2,"is_transit":false,"i_lat":-6.159876,"i_long":106.737035,"line":0,"distance":2334,"transit":false,"station_id":"BOI","station_name":"Bojongindah"},{"transit":false,"station_name":"Rawa Buaya","time":4,"is_transit":false,"i_long":106.723064,"station_id":"RW","i_lat":-6.162758,"distance":1152,"line":5},{"station_name":"Kalideres","distance":2504,"i_lat":-6.166068,"time":3,"i_long":106.701612,"line":5,"is_transit":false,"station_id":"KDS","transit":false},{"line":5,"time":3,"station_id":"PI","station_name":"Poris","is_transit":false,"distance":2548,"transit":false,"i_lat":-6.169933,"i_long":106.679458},{"is_transit":false,"transit":false,"station_id":"BPR","time":3,"i_lat":-6.171811,"line":0,"distance":1834,"i_long":106.665036,"station_name":"Batuceper"},{"is_transit":false,"line":5,"station_id":"TTI","station_name":"Tanah Tinggi","time":3,"distance":2028,"transit":false,"i_lat":-6.17331,"i_long":106.64657}],[{"line":0,"transit":false,"is_transit":false,"i_long":106.840169,"station_name":"Cikini","station_id":"CKI","distance":0,"time":0,"i_lat":-6.198556},{"station_id":"GDD","transit":false,"i_long":106.832183,"line":2,"i_lat":-6.186295,"time":3,"distance":1750,"is_transit":false,"station_name":"Gondangdia"},{"distance":2015,"i_long":106.828284,"time":4,"i_lat":-6.166716,"line":2,"station_name":"Juanda","is_transit":false,"station_id":"JUA","transit":false},{"i_long":106.827103,"distance":1149,"time":2,"station_id":"SW","transit":false,"station_name":"Sawah Besar","is_transit":false,"line":2,"i_lat":-6.160725},{"i_long":106.82482,"is_transit":false,"line":2,"time":2,"station_name":"Manggabesar","distance":906,"station_id":"MGB","transit":false,"i_lat":-6.149769},{"distance":1080,"is_transit":false,"i_lat":-6.141205,"station_name":"Jayakarta","transit":false,"i_long":106.820901,"time":2,"station_id":"JAY","line":7},{"i_long":106.812439,"line":0,"station_id":"JAKK","is_transit":true,"time":4,"distance":1264,"station_name":"Jakarta Kota","i_lat":-6.137569,"transit":true},{"i_lat":-6.132549,"i_long":106.826365,"distance":1364,"time":3,"station_name":"Kampung Bandan","station_id":"KPB","transit":true,"is_transit":true,"line":0},{"line":11,"time":3,"transit":false,"station_name":"Rajawali","i_lat":-6.14505,"is_transit":false,"station_id":"RJW","i_long":106.836569,"distance":1444},{"time":5,"station_id":"KMO","i_long":106.839204,"line":11,"distance":1901,"station_name":"Kemayoran","is_transit":false,"transit":false,"i_lat":-6.161728},{"line":11,"transit":false,"station_id":"PSE","is_transit":false,"distance":1436,"time":4,"i_lat":-6.174784,"i_long":106.84368,"station_name":"Pasar Senen"},{"station_id":"GST","time":8,"station_name":"Gang Sentiong","is_transit":false,"distance":1567,"line":11,"i_long":106.850107,"transit":false,"i_lat":-6.185975},{"distance":973,"i_long":106.855437,"time":1,"station_name":"Kramat","transit":false,"line":11,"station_id":"KMT","is_transit":false,"i_lat":-6.193792},{"transit":false,"is_transit":false,"i_long":106.861737,"i_lat":-6.209188,"station_name":"Pondok Jati","station_id":"POK","distance":1829,"line":11,"time":2},{"line":0,"is_transit":true,"time":9,"i_long":106.86807400000001,"transit":true,"i_lat":-6.215091,"station_id":"JNG","distance":1236,"station_name":"Jatinegara"},{"time":2,"i_long":106.858896,"line":1,"distance":1377,"transit":false,"station_name":"Matraman","i_lat":-6.212485,"station_id":"MTR","is_transit":false},{"i_long":106.84912,"time":2,"is_transit":true,"station_name":"Manggarai","distance":1275,"transit":false,"line":0,"station_id":"MRI","i_lat":-6.209883},{"transit":false,"line":1,"distance":3186,"station_name":"Sudirman","is_transit":false,"time":4,"station_id":"SUD","i_lat":-6.202263,"i_long":106.822649},{"station_id":"SUDB","station_name":"Sudirman Baru","is_transit":false,"time":1,"distance":280,"i_lat":-6.201433,"line":1,"i_long":106.819881,"transit":false},{"station_name":"Karet","transit":false,"i_lat":-6.20132,"station_id":"KAT","is_transit":false,"i_long":106.816351,"time":1,"line":1,"distance":471},{"i_long":106.811091,"station_name":"Tanah Abang","line":1,"station_id":"THB","time":5,"transit":false,"is_transit":true,"i_lat":-6.185545,"distance":2029},{"transit":true,"station_name":"Duri","is_transit":true,"i_lat":-6.155215,"station_id":"DU","time":8,"distance":3632,"i_long":106.800832,"line":1},{"station_name":"Grogol","station_id":"GGL","is_transit":false,"i_lat":-6.162021,"transit":false,"i_long":106.788277,"time":3,"distance":1700,"line":5},{"i_long":106.771379,"time":2,"is_transit":false,"station_name":"Pesing","distance":2036,"line":5,"station_id":"PSG","transit":false,"i_lat":-6.161433},{"line":5,"distance":1614,"is_transit":false,"i_lat":-6.1587309999999995,"station_id":"TKO","i_long":106.756522,"time":2,"station_name":"Taman Kota","transit":false},{"i_long":106.737035,"is_transit":false,"time":2,"distance":2334,"line":0,"i_lat":-6.159876,"station_id":"BOI","station_name":"Bojongindah","transit":false},{"line":5,"i_long":106.723064,"is_transit":false,"time":4,"distance":1152,"i_lat":-6.162758,"station_id":"RW","transit":false,"station_name":"Rawa Buaya"},{"line":5,"station_name":"Kalideres","station_id":"KDS","i_long":106.701612,"is_transit":false,"time":3,"distance":2504,"transit":false,"i_lat":-6.166068},{"station_name":"Poris","station_id":"PI","distance":2548,"i_lat":-6.169933,"line":5,"transit":false,"i_long":106.679458,"time":3,"is_transit":false},{"i_long":106.665036,"distance":1834,"time":3,"i_lat":-6.171811,"line":0,"station_id":"BPR","transit":false,"is_transit":false,"station_name":"Batuceper"},{"time":3,"distance":2028,"line":5,"station_id":"TTI","is_transit":false,"transit":false,"i_lat":-6.17331,"station_name":"Tanah Tinggi","i_long":106.64657}]]}