{"data":[[{"i_long":106.840169,"station_id":"CKI","transit":false,"station_name":"Cikini","line":2,"i_lat":-6.198556,"is_transit":false,"distance":0,"time":0},{"station_id":"MRI","station_name":"Manggarai","is_transit":true,"distance":1590,"time":4,"i_lat":-6.209883,"i_long":106.84912,"transit":true,"line":2},{"i_long":106.858896,"transit":false,"line":1,"time":2,"is_transit":false,"distance":1275,"station_id":"MTR","i_lat":-6.212485,"station_name":"Matraman"},{"station_name":"Jatinegara","line":1,"i_lat":-6.215091,"transit":false,"time":8,"distance":1377,"i_long":106.86807400000001,"is_transit":false,"station_id":"JNG"},{"transit":false,"i_long":106.899548,"station_name":"Klender","is_transit":false,"i_lat":-6.2135,"station_id":"KLD","distance":3395,"time":3,"line":1},{"time":2,"i_long":106.922662,"line":1,"transit":false,"station_name":"Buaran","is_transit":false,"station_id":"BUA","distance":3100,"i_lat":-6.215568},{"is_transit":false,"line":1,"station_id":"KLDB","i_long":106.939679,"distance":1305,"i_lat":-6.217455,"station_name":"Klenderbaru","transit":false,"time":1},{"station_name":"Cakung","time":8,"i_long":106.951283,"i_lat":-6.219053,"line":1,"distance":1385,"station_id":"CUK","is_transit":false,"transit":false}],[{"time":0,"station_name":"Cikini","station_id":"CKI","line":2,"distance":0,"transit":false,"is_transit":false,"i_lat":-6.198556,"i_long":106.840169},{"line":2,"station_name":"Gondangdia","i_long":106.832183,"transit":false,"time":3,"distance":1750,"station_id":"GDD","i_lat":-6.186295,"is_transit":false},{"i_long":106.828284,"station_id":"JUA","line":2,"station_name":"Juanda","time":4,"distance":2015,"transit":false,"is_transit":false,"i_lat":-6.166716},{"transit":false,"station_name":"Sawah Besar","is_transit":false,"time":2,"i_long":106.827103,"distance":1149,"station_id":"SW","i_lat":-6.160725,"line":2},{"i_long":106.82482,"is_transit":false,"transit":false,"station_name":"Manggabesar","line":2,"distance":906,"time":2,"i_lat":-6.149769,"station_id":"MGB"},{"line":2,"distance":1080,"station_name":"Jayakarta","is_transit":false,"transit":false,"time":2,"station_id":"JAY","i_lat":-6.141205,"i_long":106.820901},{"transit":true,"station_id":"JAKK","is_transit":true,"distance":1264,"time":4,"i_lat":-6.137569,"i_long":106.812439,"line":2,"station_name":"Jakarta Kota"},{"is_transit":true,"line":4,"i_long":106.826365,"station_id":"KPB","station_name":"Kampung Bandan","transit":true,"distance":1364,"i_lat":-6.132549,"time":3},{"is_transit":false,"time":3,"station_id":"RJW","station_name":"Rajawali","distance":1444,"i_lat":-6.14505,"line":11,"i_long":106.836569,"transit":false},{"line":11,"transit":false,"distance":1901,"i_long":106.839204,"time":5,"station_id":"KMO","station_name":"Kemayoran","is_transit":false,"i_lat":-6.161728},{"distance":1436,"is_transit":false,"station_name":"Pasar Senen","transit":false,"station_id":"PSE","time":4,"i_long":106.84368,"i_lat":-6.174784,"line":11},{"i_long":106.850107,"time":8,"i_lat":-6.185975,"station_name":"Gang Sentiong","line":11,"station_id":"GST","is_transit":false,"transit":false,"distance":1567},{"i_lat":-6.193792,"station_id":"KMT","transit":false,"is_transit":false,"distance":973,"i_long":106.855437,"station_name":"Kramat","time":1,"line":11},{"i_long":106.861737,"line":11,"is_transit":false,"station_id":"POK","distance":1829,"time":2,"station_name":"Pondok Jati","transit":false,"i_lat":-6.209188},{"distance":1236,"is_transit":true,"line":1,"station_id":"JNG","station_name":"Jatinegara","i_long":106.86807400000001,"transit":true,"i_lat":-6.215091,"time":9},{"station_id":"KLD","is_transit":false,"i_lat":-6.2135,"i_long":106.899548,"line":1,"distance":3395,"station_name":"Klender","time":3,"transit":false},{"is_transit":false,"station_name":"Buaran","i_long":106.922662,"station_id":"BUA","line":1,"distance":3100,"time":2,"i_lat":-6.215568,"transit":false},{"station_name":"Klenderbaru","is_transit":false,"i_lat":-6.217455,"i_long":106.939679,"time":1,"line":1,"transit":false,"station_id":"KLDB","distance":1305},{"station_id":"CUK","is_transit":false,"distance":1385,"i_lat":-6.219053,"transit":false,"i_long":106.951283,"line":1,"station_name":"Cakung","time":8}],[{"station_name":"Cikini","i_long":106.840169,"i_lat":-6.198556,"transit":false,"is_transit":false,"line":2,"distance":0,"station_id":"CKI","time":0},{"station_name":"Manggarai","i_long":106.84912,"transit":true,"time":4,"is_transit":true,"line":2,"distance":1590,"station_id":"MRI","i_lat":-6.209883},{"is_transit":false,"transit":false,"line":1,"station_id":"SUD","station_name":"Sudirman","i_long":106.822649,"distance":3186,"time":4,"i_lat":-6.202263},{"i_lat":-6.201433,"line":1,"distance":280,"station_name":"Sudirman Baru","is_transit":false,"time":1,"transit":false,"station_id":"SUDB","i_long":106.819881},{"is_transit":false,"time":1,"distance":471,"transit":false,"line":1,"station_id":"KAT","i_lat":-6.20132,"i_long":106.816351,"station_name":"Karet"},{"distance":2029,"station_name":"Tanah Abang","is_transit":false,"station_id":"THB","time":5,"transit":false,"line":1,"i_lat":-6.185545,"i_long":106.811091},{"time":8,"transit":false,"distance":3632,"i_lat":-6.155215,"station_id":"DU","i_long":106.800832,"is_transit":false,"station_name":"Duri","line":1},{"i_long":106.79867,"line":1,"station_id":"AK","distance":1230,"is_transit":false,"transit":false,"station_name":"Angke","time":4,"i_lat":-6.144674},{"distance":4102,"time":9,"i_long":106.826365,"line":4,"i_lat":-6.132549,"transit":true,"is_transit":true,"station_name":"Kampung Bandan","station_id":"KPB"},{"distance":1444,"i_lat":-6.14505,"is_transit":false,"i_long":106.836569,"station_id":"RJW","time":3,"line":11,"transit":false,"station_name":"Rajawali"},{"is_transit":false,"station_id":"KMO","station_name":"Kemayoran","distance":1901,"i_lat":-6.161728,"i_long":106.839204,"line":11,"transit":false,"time":5},{"transit":false,"station_id":"PSE","time":4,"i_lat":-6.174784,"i_long":106.84368,"distance":1436,"line":11,"is_transit":false,"station_name":"Pasar Senen"},{"distance":1567,"i_long":106.850107,"line":11,"i_lat":-6.185975,"station_name":"Gang Sentiong","transit":false,"time":8,"station_id":"GST","is_transit":false},{"time":1,"is_transit":false,"station_id":"KMT","station_name":"Kramat","i_long":106.855437,"distance":973,"line":11,"transit":false,"i_lat":-6.193792},{"transit":false,"is_transit":false,"distance":1829,"time":2,"station_name":"Pondok Jati","station_id":"POK","i_long":106.861737,"i_lat":-6.209188,"line":11},{"time":9,"station_name":"Jatinegara","is_transit":true,"i_long":106.86807400000001,"line":1,"transit":true,"station_id":"JNG","distance":1236,"i_lat":-6.215091},{"i_lat":-6.2135,"i_long":106.899548,"is_transit":false,"distance":3395,"transit":false,"line":1,"station_id":"KLD","station_name":"Klender","time":3},{"transit":false,"line":1,"distance":3100,"station_name":"Buaran","time":2,"i_lat":-6.215568,"station_id":"BUA","is_transit":false,"i_long":106.922662},{"transit":false,"distance":1305,"i_long":106.939679,"is_transit":false,"station_id":"KLDB","station_name":"Klenderbaru","time":1,"line":1,"i_lat":-6.217455},{"is_transit":false,"station_name":"Cakung","time":8,"transit":false,"line":1,"i_long":106.951283,"i_lat":-6.219053,"station_id":"CUK","distance":1385}],[{"distance":0,"station_id":"CKI","i_lat":-6.198556,"transit":false,"station_name":"Cikini","is_transit":false,"time":0,"i_long":106.840169,"line":2},{"station_name":"Gondangdia","time":3,"i_lat":-6.186295,"i_long":106.832183,"station_id":"GDD","distance":1750,"transit":false,"is_transit":false,"line":2},{"i_long":106.828284,"station_id":"JUA","is_transit":false,"distance":2015,"i_lat":-6.166716,"transit":false,"time":4,"line":2,"station_name":"Juanda"},{"station_name":"Sawah Besar","is_transit":false,"i_lat":-6.160725,"transit":false,"distance":1149,"time":2,"i_long":106.827103,"line":2,"station_id":"SW"},{"distance":906,"transit":false,"i_lat":-6.149769,"station_id":"MGB","time":2,"i_long":106.82482,"station_name":"Manggabesar","is_transit":false,"line":2},{"transit":false,"time":2,"distance":1080,"i_long":106.820901,"station_name":"Jayakarta","i_lat":-6.141205,"line":2,"station_id":"JAY","is_transit":false},{"transit":true,"distance":1264,"is_transit":true,"station_name":"Jakarta Kota","i_lat":-6.137569,"time":4,"i_long":106.812439,"station_id":"JAKK","line":2},{"time":3,"line":4,"distance":1364,"i_long":106.826365,"i_lat":-6.132549,"station_id":"KPB","station_name":"Kampung Bandan","is_transit":true,"transit":true},{"station_name":"Angke","line":1,"time":9,"i_long":106.79867,"station_id":"AK","distance":4102,"transit":false,"i_lat":-6.144674,"is_transit":false},{"transit":false,"is_transit":false,"i_long":106.800832,"line":1,"i_lat":-6.155215,"station_id":"DU","station_name":"Duri","distance":1230,"time":4},{"line":1,"station_id":"THB","i_lat":-6.185545,"station_name":"Tanah Abang","is_transit":false,"transit":false,"distance":3632,"time":8,"i_long":106.811091},{"time":5,"station_id":"KAT","line":1,"transit":false,"distance":2029,"is_transit":false,"station_name":"Karet","i_lat":-6.20132,"i_long":106.816351},{"i_long":106.819881,"distance":471,"time":1,"line":1,"station_name":"Sudirman Baru","is_transit":false,"transit":false,"station_id":"SUDB","i_lat":-6.201433},{"distance":280,"i_long":106.822649,"is_transit":false,"time":1,"transit":false,"station_id":"SUD","i_lat":-6.202263,"line":1,"station_name":"Sudirman"},{"is_transit":false,"station_id":"MRI","distance":3186,"station_name":"Manggarai","time":4,"line":2,"i_lat":-6.209883,"transit":false,"i_long":106.84912},{"transit":false,"station_id":"MTR","i_lat":-6.212485,"is_transit":false,"time":2,"distance":1275,"line":1,"station_name":"Matraman","i_long":106.858896},{"line":1,"transit":false,"is_transit":false,"i_lat":-6.215091,"distance":1377,"time":8,"station_id":"JNG","i_long":106.86807400000001,"station_name":"Jatinegara"},{"line":1,"distance":3395,"transit":false,"station_name":"Klender","time":3,"is_transit":false,"i_long":106.899548,"station_id":"KLD","i_lat":-6.2135},{"time":2,"i_long":106.922662,"station_name":"Buaran","is_transit":false,"line":1,"transit":false,"station_id":"BUA","i_lat":-6.215568,"distance":3100},{"line":1,"i_lat":-6.217455,"is_transit":false,"i_long":106.939679,"station_name":"Klenderbaru","transit":false,"time":1,"station_id":"KLDB","distance":1305},{"is_transit":false,"station_id":"CUK","station_name":"Cakung","transit":false,"time":8,"i_lat":-6.219053,"distance":1385,"i_long":106.951283,"line":1}]]}