{"data":[[{"time":0,"station_name":"Cikini","i_long":106.840169,"line":2,"is_transit":false,"i_lat":-6.198556,"distance":0,"station_id":"CKI","transit":false},{"distance":1590,"station_id":"MRI","i_lat":-6.209883,"line":2,"is_transit":true,"i_long":106.84912,"time":4,"station_name":"Manggarai","transit":true},{"station_name":"Matraman","time":2,"transit":false,"i_long":106.858896,"distance":1275,"line":1,"is_transit":false,"i_lat":-6.212485,"station_id":"MTR"},{"station_id":"JNG","line":1,"i_lat":-6.215091,"i_long":106.86807400000001,"station_name":"Jatinegara","distance":1377,"is_transit":true,"time":8,"transit":true},{"time":2,"station_id":"POK","line":11,"is_transit":false,"i_long":106.861737,"i_lat":-6.209188,"distance":1236,"station_name":"Pondok Jati","transit":false},{"station_name":"Kramat","time":2,"distance":1829,"i_long":106.855437,"transit":false,"station_id":"KMT","line":11,"i_lat":-6.193792,"is_transit":false},{"station_id":"GST","line":11,"distance":973,"i_long":106.850107,"time":1,"station_name":"Gang Sentiong","is_transit":false,"i_lat":-6.185975,"transit":false},{"station_name":"Pasar Senen","station_id":"PSE","transit":false,"distance":1567,"i_long":106.84368,"is_transit":false,"time":8,"line":11,"i_lat":-6.174784}],[{"station_name":"Cikini","distance":0,"is_transit":false,"i_lat":-6.198556,"i_long":106.840169,"line":2,"station_id":"CKI","time":0,"transit":false},{"time":3,"i_lat":-6.186295,"is_transit":false,"transit":false,"line":2,"station_name":"Gondangdia","distance":1750,"station_id":"GDD","i_long":106.832183},{"station_name":"Juanda","distance":2015,"line":2,"i_long":106.828284,"station_id":"JUA","transit":false,"is_transit":false,"i_lat":-6.166716,"time":4},{"station_id":"SW","station_name":"Sawah Besar","transit":false,"i_long":106.827103,"line":2,"time":2,"is_transit":false,"i_lat":-6.160725,"distance":1149},{"is_transit":false,"transit":false,"line":2,"station_name":"Manggabesar","time":2,"i_lat":-6.149769,"distance":906,"i_long":106.82482,"station_id":"MGB"},{"station_id":"JAY","transit":false,"distance":1080,"time":2,"is_transit":false,"i_lat":-6.141205,"i_long":106.820901,"line":2,"station_name":"Jayakarta"},{"station_id":"JAKK","is_transit":true,"line":2,"distance":1264,"transit":true,"i_lat":-6.137569,"station_name":"Jakarta Kota","time":4,"i_long":106.812439},{"line":4,"is_transit":true,"i_lat":-6.132549,"distance":1364,"station_id":"KPB","station_name":"Kampung Bandan","transit":true,"time":3,"i_long":106.826365},{"station_name":"Rajawali","station_id":"RJW","is_transit":false,"line":11,"transit":false,"time":3,"i_lat":-6.14505,"i_long":106.836569,"distance":1444},{"time":5,"station_name":"Kemayoran","is_transit":false,"i_long":106.839204,"transit":false,"i_lat":-6.161728,"line":11,"distance":1901,"station_id":"KMO"},{"time":4,"distance":1436,"i_lat":-6.174784,"station_name":"Pasar Senen","i_long":106.84368,"station_id":"PSE","line":11,"transit":false,"is_transit":false}],[{"station_name":"Cikini","transit":false,"i_lat":-6.198556,"line":2,"station_id":"CKI","i_long":106.840169,"distance":0,"is_transit":false,"time":0},{"i_long":106.84912,"station_id":"MRI","station_name":"Manggarai","line":2,"is_transit":true,"time":4,"distance":1590,"transit":true,"i_lat":-6.209883},{"distance":3186,"is_transit":false,"time":4,"transit":false,"line":1,"station_name":"Sudirman","station_id":"SUD","i_long":106.822649,"i_lat":-6.202263},{"is_transit":false,"station_name":"Sudirman Baru","i_long":106.819881,"station_id":"SUDB","i_lat":-6.201433,"distance":280,"time":1,"line":1,"transit":false},{"i_lat":-6.20132,"distance":471,"line":1,"station_id":"KAT","is_transit":false,"station_name":"Karet","i_long":106.816351,"transit":false,"time":1},{"station_id":"THB","line":1,"distance":2029,"time":5,"is_transit":false,"station_name":"Tanah Abang","i_long":106.811091,"i_lat":-6.185545,"transit":false},{"distance":3632,"time":8,"station_id":"DU","is_transit":false,"line":1,"station_name":"Duri","i_lat":-6.155215,"transit":false,"i_long":106.800832},{"i_lat":-6.144674,"distance":1230,"time":4,"station_id":"AK","station_name":"Angke","line":1,"i_long":106.79867,"transit":false,"is_transit":false},{"transit":true,"distance":4102,"station_name":"Kampung Bandan","i_long":106.826365,"is_transit":true,"station_id":"KPB","line":4,"time":9,"i_lat":-6.132549},{"time":3,"distance":1444,"station_id":"RJW","station_name":"Rajawali","is_transit":false,"transit":false,"i_long":106.836569,"i_lat":-6.14505,"line":11},{"distance":1901,"transit":false,"i_long":106.839204,"time":5,"station_id":"KMO","is_transit":false,"station_name":"Kemayoran","i_lat":-6.161728,"line":11},{"i_long":106.84368,"station_name":"Pasar Senen","transit":false,"distance":1436,"station_id":"PSE","time":4,"is_transit":false,"i_lat":-6.174784,"line":11}],[{"transit":false,"i_lat":-6.198556,"time":0,"station_id":"CKI","is_transit":false,"i_long":106.840169,"distance":0,"station_name":"Cikini","line":2},{"is_transit":false,"distance":1750,"i_lat":-6.186295,"i_long":106.832183,"station_name":"Gondangdia","time":3,"line":2,"station_id":"GDD","transit":false},{"i_long":106.828284,"station_name":"Juanda","i_lat":-6.166716,"time":4,"distance":2015,"line":2,"is_transit":false,"transit":false,"station_id":"JUA"},{"station_id":"SW","time":2,"transit":false,"station_name":"Sawah Besar","i_long":106.827103,"is_transit":false,"i_lat":-6.160725,"line":2,"distance":1149},{"station_name":"Manggabesar","i_long":106.82482,"line":2,"i_lat":-6.149769,"distance":906,"is_transit":false,"time":2,"station_id":"MGB","transit":false},{"time":2,"i_long":106.820901,"transit":false,"station_name":"Jayakarta","is_transit":false,"distance":1080,"i_lat":-6.141205,"line":2,"station_id":"JAY"},{"is_transit":true,"i_lat":-6.137569,"transit":true,"line":2,"i_long":106.812439,"station_id":"JAKK","time":4,"station_name":"Jakarta Kota","distance":1264},{"is_transit":true,"distance":1364,"i_lat":-6.132549,"station_id":"KPB","station_name":"Kampung Bandan","time":3,"i_long":106.826365,"line":4,"transit":true},{"time":9,"i_lat":-6.144674,"is_transit":false,"station_name":"Angke","line":1,"station_id":"AK","distance":4102,"transit":false,"i_long":106.79867},{"station_name":"Duri","transit":false,"distance":1230,"i_lat":-6.155215,"time":4,"is_transit":false,"i_long":106.800832,"line":1,"station_id":"DU"},{"is_transit":false,"i_long":106.811091,"line":1,"station_id":"THB","time":8,"station_name":"Tanah Abang","distance":3632,"transit":false,"i_lat":-6.185545},{"i_long":106.816351,"time":5,"distance":2029,"transit":false,"station_id":"KAT","line":1,"i_lat":-6.20132,"is_transit":false,"station_name":"Karet"},{"transit":false,"is_transit":false,"i_lat":-6.201433,"line":1,"station_name":"Sudirman Baru","time":1,"station_id":"SUDB","i_long":106.819881,"distance":471},{"transit":false,"distance":280,"i_long":106.822649,"is_transit":false,"i_lat":-6.202263,"station_name":"Sudirman","line":1,"time":1,"station_id":"SUD"},{"station_id":"MRI","transit":false,"distance":3186,"i_lat":-6.209883,"station_name":"Manggarai","time":4,"is_transit":false,"i_long":106.84912,"line":2},{"station_name":"Matraman","line":1,"time":2,"is_transit":false,"transit":false,"station_id":"MTR","i_lat":-6.212485,"i_long":106.858896,"distance":1275},{"is_transit":true,"distance":1377,"i_lat":-6.215091,"time":8,"station_name":"Jatinegara","i_long":106.86807400000001,"line":1,"station_id":"JNG","transit":true},{"station_name":"Pondok Jati","i_long":106.861737,"distance":1236,"station_id":"POK","time":2,"i_lat":-6.209188,"transit":false,"is_transit":false,"line":11},{"line":11,"transit":false,"time":2,"distance":1829,"i_lat":-6.193792,"is_transit":false,"station_name":"Kramat","station_id":"KMT","i_long":106.855437},{"is_transit":false,"distance":973,"transit":false,"i_lat":-6.185975,"i_long":106.850107,"line":11,"time":1,"station_id":"GST","station_name":"Gang Sentiong"},{"i_long":106.84368,"station_name":"Pasar Senen","line":11,"i_lat":-6.174784,"is_transit":false,"distance":1567,"transit":false,"time":8,"station_id":"PSE"}]]}