{"data":[[{"station_id":"CKI","i_long":106.840169,"is_transit":false,"time":0,"i_lat":-6.198556,"transit":false,"distance":0,"line":2,"station_name":"Cikini"},{"transit":false,"i_lat":-6.209883,"station_id":"MRI","line":2,"distance":1590,"is_transit":false,"i_long":106.84912,"station_name":"Manggarai","time":4},{"is_transit":false,"time":4,"i_lat":-6.226659,"line":2,"transit":false,"distance":2610,"station_id":"TEB","i_long":106.857948,"station_name":"Tebet"},{"i_long":106.856607,"station_name":"Cawang","station_id":"CW","is_transit":false,"time":2,"distance":1230,"line":2,"transit":false,"i_lat":-6.242512},{"station_name":"Duren Kalibata","is_transit":false,"distance":1546,"i_lat":-6.255332,"time":3,"i_long":106.85449,"transit":false,"station_id":"DRN","line":2}],[{"i_long":106.840169,"time":0,"i_lat":-6.198556,"transit":false,"line":2,"station_name":"Cikini","station_id":"CKI","is_transit":false,"distance":0},{"distance":1750,"station_name":"Gondangdia","is_transit":false,"station_id":"GDD","i_lat":-6.186295,"i_long":106.832183,"line":2,"time":3,"transit":false},{"is_transit":false,"transit":false,"i_lat":-6.166716,"i_long":106.828284,"line":2,"time":4,"distance":2015,"station_id":"JUA","station_name":"Juanda"},{"is_transit":false,"distance":1149,"i_long":106.827103,"transit":false,"i_lat":-6.160725,"line":2,"station_name":"Sawah Besar","time":2,"station_id":"SW"},{"station_id":"MGB","time":2,"distance":906,"transit":false,"i_lat":-6.149769,"i_long":106.82482,"station_name":"Manggabesar","is_transit":false,"line":2},{"is_transit":false,"station_id":"JAY","distance":1080,"line":2,"transit":false,"station_name":"Jayakarta","time":2,"i_lat":-6.141205,"i_long":106.820901},{"is_transit":true,"time":4,"line":2,"i_long":106.812439,"station_id":"JAKK","i_lat":-6.137569,"station_name":"Jakarta Kota","distance":1264,"transit":true},{"station_id":"KPB","time":3,"line":4,"transit":true,"i_lat":-6.132549,"i_long":106.826365,"is_transit":true,"distance":1364,"station_name":"Kampung Bandan"},{"line":1,"is_transit":false,"distance":4102,"i_long":106.79867,"transit":false,"station_id":"AK","station_name":"Angke","time":9,"i_lat":-6.144674},{"time":4,"distance":1230,"i_lat":-6.155215,"is_transit":false,"line":1,"i_long":106.800832,"transit":false,"station_name":"Duri","station_id":"DU"},{"i_long":106.811091,"station_name":"Tanah Abang","line":1,"is_transit":false,"transit":false,"i_lat":-6.185545,"station_id":"THB","distance":3632,"time":8},{"transit":false,"station_id":"KAT","is_transit":false,"distance":2029,"time":5,"i_lat":-6.20132,"station_name":"Karet","i_long":106.816351,"line":1},{"time":1,"station_name":"Sudirman Baru","i_lat":-6.201433,"i_long":106.819881,"line":1,"is_transit":false,"distance":471,"station_id":"SUDB","transit":false},{"distance":280,"time":1,"station_name":"Sudirman","line":1,"station_id":"SUD","transit":false,"is_transit":false,"i_lat":-6.202263,"i_long":106.822649},{"i_long":106.84912,"distance":3186,"i_lat":-6.209883,"is_transit":true,"transit":true,"time":4,"line":2,"station_id":"MRI","station_name":"Manggarai"},{"i_long":106.857948,"time":4,"station_name":"Tebet","line":2,"is_transit":false,"distance":2610,"transit":false,"station_id":"TEB","i_lat":-6.226659},{"transit":false,"time":2,"i_long":106.856607,"station_id":"CW","is_transit":false,"i_lat":-6.242512,"station_name":"Cawang","line":2,"distance":1230},{"transit":false,"station_id":"DRN","distance":1546,"i_long":106.85449,"is_transit":false,"time":3,"i_lat":-6.255332,"line":2,"station_name":"Duren Kalibata"}],[{"distance":0,"i_lat":-6.198556,"line":2,"station_id":"CKI","transit":false,"i_long":106.840169,"is_transit":false,"station_name":"Cikini","time":0},{"distance":1750,"transit":false,"time":3,"station_name":"Gondangdia","station_id":"GDD","is_transit":false,"i_long":106.832183,"i_lat":-6.186295,"line":2},{"station_name":"Juanda","time":4,"i_lat":-6.166716,"line":2,"distance":2015,"transit":false,"station_id":"JUA","is_transit":false,"i_long":106.828284},{"i_long":106.827103,"distance":1149,"time":2,"i_lat":-6.160725,"transit":false,"station_id":"SW","is_transit":false,"line":2,"station_name":"Sawah Besar"},{"station_name":"Manggabesar","is_transit":false,"station_id":"MGB","i_lat":-6.149769,"time":2,"distance":906,"transit":false,"i_long":106.82482,"line":2},{"station_id":"JAY","time":2,"i_long":106.820901,"line":2,"i_lat":-6.141205,"station_name":"Jayakarta","is_transit":false,"transit":false,"distance":1080},{"station_name":"Jakarta Kota","distance":1264,"i_lat":-6.137569,"transit":true,"station_id":"JAKK","is_transit":true,"i_long":106.812439,"time":4,"line":2},{"i_lat":-6.132549,"station_name":"Kampung Bandan","transit":true,"i_long":106.826365,"line":4,"distance":1364,"is_transit":true,"time":3,"station_id":"KPB"},{"station_id":"RJW","distance":1444,"line":11,"is_transit":false,"transit":false,"time":3,"i_lat":-6.14505,"i_long":106.836569,"station_name":"Rajawali"},{"i_long":106.839204,"is_transit":false,"distance":1901,"time":5,"transit":false,"station_id":"KMO","i_lat":-6.161728,"station_name":"Kemayoran","line":11},{"line":11,"distance":1436,"station_name":"Pasar Senen","transit":false,"station_id":"PSE","i_lat":-6.174784,"time":4,"is_transit":false,"i_long":106.84368},{"i_long":106.850107,"station_name":"Gang Sentiong","time":8,"distance":1567,"is_transit":false,"station_id":"GST","i_lat":-6.185975,"transit":false,"line":11},{"line":11,"station_id":"KMT","transit":false,"is_transit":false,"station_name":"Kramat","i_lat":-6.193792,"i_long":106.855437,"time":1,"distance":973},{"distance":1829,"station_name":"Pondok Jati","transit":false,"is_transit":false,"time":2,"i_lat":-6.209188,"line":11,"station_id":"POK","i_long":106.861737},{"station_id":"JNG","distance":1236,"i_lat":-6.215091,"line":1,"transit":true,"i_long":106.86807400000001,"time":9,"station_name":"Jatinegara","is_transit":true},{"i_long":106.858896,"transit":false,"station_name":"Matraman","line":1,"i_lat":-6.212485,"station_id":"MTR","is_transit":false,"time":2,"distance":1377},{"is_transit":true,"time":2,"i_lat":-6.209883,"line":2,"station_name":"Manggarai","transit":true,"distance":1275,"i_long":106.84912,"station_id":"MRI"},{"is_transit":false,"i_long":106.857948,"transit":false,"station_name":"Tebet","station_id":"TEB","i_lat":-6.226659,"line":2,"distance":2610,"time":4},{"distance":1230,"station_name":"Cawang","line":2,"station_id":"CW","i_long":106.856607,"transit":false,"i_lat":-6.242512,"is_transit":false,"time":2},{"i_long":106.85449,"time":3,"line":2,"station_id":"DRN","is_transit":false,"distance":1546,"transit":false,"i_lat":-6.255332,"station_name":"Duren Kalibata"}]]}