{"data":[[{"line":2,"is_transit":false,"station_id":"CKI","time":0,"station_name":"Cikini","i_long":106.840169,"distance":0,"i_lat":-6.198556,"transit":false},{"station_name":"Gondangdia","line":2,"transit":false,"distance":1750,"i_long":106.832183,"i_lat":-6.186295,"station_id":"GDD","is_transit":false,"time":3},{"time":4,"station_id":"JUA","transit":false,"is_transit":false,"distance":2015,"line":2,"station_name":"Juanda","i_lat":-6.166716,"i_long":106.828284},{"distance":1149,"station_name":"Sawah Besar","is_transit":false,"time":2,"i_long":106.827103,"station_id":"SW","line":2,"i_lat":-6.160725,"transit":false},{"line":2,"transit":false,"distance":906,"station_name":"Manggabesar","i_lat":-6.149769,"is_transit":false,"i_long":106.82482,"time":2,"station_id":"MGB"},{"time":2,"station_id":"JAY","i_lat":-6.141205,"is_transit":false,"station_name":"Jayakarta","i_long":106.820901,"transit":false,"line":2,"distance":1080},{"i_lat":-6.137569,"transit":true,"i_long":106.812439,"station_id":"JAKK","time":4,"is_transit":true,"station_name":"Jakarta Kota","distance":1264,"line":2},{"is_transit":true,"time":3,"station_name":"Kampung Bandan","station_id":"KPB","i_lat":-6.132549,"i_long":106.826365,"line":4,"transit":true,"distance":1364},{"i_long":106.84464,"is_transit":false,"line":4,"distance":2185,"time":4,"station_name":"Ancol","transit":false,"i_lat":-6.128023,"station_id":"AC"}],[{"distance":0,"i_lat":-6.198556,"station_id":"CKI","is_transit":false,"i_long":106.840169,"line":2,"time":0,"station_name":"Cikini","transit":false},{"time":4,"i_long":106.84912,"i_lat":-6.209883,"is_transit":true,"line":2,"station_name":"Manggarai","distance":1590,"station_id":"MRI","transit":true},{"i_long":106.822649,"station_name":"Sudirman","station_id":"SUD","is_transit":false,"i_lat":-6.202263,"distance":3186,"time":4,"line":1,"transit":false},{"station_name":"Sudirman Baru","i_long":106.819881,"distance":280,"time":1,"i_lat":-6.201433,"line":1,"station_id":"SUDB","transit":false,"is_transit":false},{"is_transit":false,"transit":false,"distance":471,"line":1,"station_name":"Karet","i_lat":-6.20132,"time":1,"i_long":106.816351,"station_id":"KAT"},{"i_long":106.811091,"is_transit":false,"station_name":"Tanah Abang","time":5,"line":1,"i_lat":-6.185545,"transit":false,"station_id":"THB","distance":2029},{"i_lat":-6.155215,"station_id":"DU","transit":false,"is_transit":false,"station_name":"Duri","distance":3632,"time":8,"i_long":106.800832,"line":1},{"station_name":"Angke","distance":1230,"station_id":"AK","i_lat":-6.144674,"i_long":106.79867,"line":1,"time":4,"is_transit":false,"transit":false},{"transit":true,"station_name":"Kampung Bandan","time":9,"i_lat":-6.132549,"i_long":106.826365,"distance":4102,"line":4,"station_id":"KPB","is_transit":true},{"transit":false,"i_long":106.84464,"line":4,"station_name":"Ancol","station_id":"AC","distance":2185,"time":4,"is_transit":false,"i_lat":-6.128023}],[{"i_long":106.840169,"i_lat":-6.198556,"distance":0,"station_name":"Cikini","time":0,"station_id":"CKI","is_transit":false,"line":2,"transit":false},{"transit":true,"time":4,"i_lat":-6.209883,"is_transit":true,"i_long":106.84912,"line":2,"station_id":"MRI","station_name":"Manggarai","distance":1590},{"i_long":106.858896,"station_name":"Matraman","is_transit":false,"distance":1275,"transit":false,"i_lat":-6.212485,"line":1,"station_id":"MTR","time":2},{"is_transit":true,"station_name":"Jatinegara","line":1,"station_id":"JNG","time":8,"distance":1377,"transit":true,"i_long":106.86807400000001,"i_lat":-6.215091},{"is_transit":false,"station_name":"Pondok Jati","transit":false,"time":2,"distance":1236,"station_id":"POK","i_lat":-6.209188,"i_long":106.861737,"line":11},{"station_id":"KMT","transit":false,"distance":1829,"is_transit":false,"time":2,"i_lat":-6.193792,"station_name":"Kramat","i_long":106.855437,"line":11},{"i_lat":-6.185975,"is_transit":false,"distance":973,"transit":false,"station_name":"Gang Sentiong","line":11,"i_long":106.850107,"station_id":"GST","time":1},{"is_transit":false,"i_long":106.84368,"station_name":"Pasar Senen","transit":false,"distance":1567,"time":8,"i_lat":-6.174784,"station_id":"PSE","line":11},{"station_name":"Kemayoran","station_id":"KMO","time":4,"transit":false,"i_long":106.839204,"is_transit":false,"i_lat":-6.161728,"line":11,"distance":1436},{"time":5,"station_id":"RJW","is_transit":false,"station_name":"Rajawali","line":11,"distance":1901,"transit":false,"i_lat":-6.14505,"i_long":106.836569},{"time":3,"i_lat":-6.132549,"distance":1444,"transit":true,"station_id":"KPB","is_transit":true,"i_long":106.826365,"line":4,"station_name":"Kampung Bandan"},{"is_transit":false,"transit":false,"station_id":"AC","station_name":"Ancol","distance":2185,"time":4,"line":4,"i_lat":-6.128023,"i_long":106.84464}]]}