{"data":[[{"station_id":"CKI","i_lat":-6.198556,"i_long":106.840169,"time":0,"line":2,"is_transit":false,"station_name":"Cikini","transit":false,"distance":0},{"is_transit":false,"station_id":"MRI","i_lat":-6.209883,"i_long":106.84912,"distance":1590,"line":2,"time":4,"transit":false,"station_name":"Manggarai"},{"time":4,"transit":false,"line":2,"station_name":"Tebet","distance":2610,"station_id":"TEB","i_lat":-6.226659,"i_long":106.857948,"is_transit":false},{"station_name":"Cawang","station_id":"CW","transit":false,"time":2,"i_long":106.856607,"distance":1230,"i_lat":-6.242512,"is_transit":false,"line":2},{"i_long":106.85449,"distance":1546,"time":3,"station_name":"Duren Kalibata","is_transit":false,"line":2,"i_lat":-6.255332,"station_id":"DRN","transit":false},{"i_lat":-6.263214,"is_transit":false,"distance":824,"transit":false,"time":2,"i_long":106.851577,"station_name":"Pasar Minggu Baru","station_id":"PSMB","line":2},{"line":2,"distance":2380,"is_transit":false,"station_id":"PSM","transit":false,"i_lat":-6.2842400000000005,"station_name":"Pasar Minggu","time":2,"i_long":106.843999},{"transit":false,"is_transit":false,"i_long":106.838896,"station_name":"Tanjung Barat","station_id":"TNT","time":4,"i_lat":-6.3080680000000005,"line":2,"distance":2820},{"i_long":106.832616,"distance":2671,"time":3,"line":2,"station_id":"LNA","is_transit":false,"transit":false,"station_name":"Lenteng Agung","i_lat":-6.330363},{"line":2,"distance":1029,"station_id":"UP","station_name":"Univ. Pancasila","i_long":106.834175,"i_lat":-6.339291,"is_transit":false,"time":2,"transit":false},{"station_name":"Univ. Indonesia","time":3,"station_id":"UI","i_lat":-6.360749,"i_long":106.831474,"line":2,"transit":false,"distance":2264,"is_transit":false},{"is_transit":false,"line":2,"distance":1109,"station_id":"POC","i_lat":-6.369073,"station_name":"Pondok Cina","transit":false,"time":2,"i_long":106.831114},{"i_lat":-6.391065,"i_long":106.819451,"transit":false,"station_id":"DPB","time":4,"line":2,"distance":2727,"station_name":"Depokbaru","is_transit":false}],[{"line":2,"i_lat":-6.198556,"is_transit":false,"transit":false,"time":0,"distance":0,"station_name":"Cikini","station_id":"CKI","i_long":106.840169},{"i_long":106.832183,"time":3,"distance":1750,"line":2,"station_name":"Gondangdia","i_lat":-6.186295,"transit":false,"is_transit":false,"station_id":"GDD"},{"distance":2015,"station_name":"Juanda","is_transit":false,"i_long":106.828284,"line":2,"transit":false,"i_lat":-6.166716,"time":4,"station_id":"JUA"},{"distance":1149,"i_long":106.827103,"i_lat":-6.160725,"transit":false,"station_name":"Sawah Besar","is_transit":false,"station_id":"SW","time":2,"line":2},{"i_long":106.82482,"i_lat":-6.149769,"station_name":"Manggabesar","distance":906,"transit":false,"is_transit":false,"time":2,"station_id":"MGB","line":2},{"distance":1080,"i_lat":-6.141205,"transit":false,"line":2,"is_transit":false,"station_name":"Jayakarta","i_long":106.820901,"time":2,"station_id":"JAY"},{"i_long":106.812439,"distance":1264,"transit":true,"station_id":"JAKK","line":2,"station_name":"Jakarta Kota","time":4,"is_transit":true,"i_lat":-6.137569},{"station_name":"Kampung Bandan","distance":1364,"line":4,"transit":true,"time":3,"is_transit":true,"station_id":"KPB","i_long":106.826365,"i_lat":-6.132549},{"is_transit":false,"station_id":"AK","i_long":106.79867,"distance":4102,"time":9,"station_name":"Angke","transit":false,"i_lat":-6.144674,"line":1},{"time":4,"is_transit":false,"i_long":106.800832,"station_id":"DU","i_lat":-6.155215,"line":1,"distance":1230,"transit":false,"station_name":"Duri"},{"transit":false,"i_long":106.811091,"station_id":"THB","is_transit":false,"i_lat":-6.185545,"station_name":"Tanah Abang","line":1,"time":8,"distance":3632},{"station_id":"KAT","i_lat":-6.20132,"distance":2029,"time":5,"line":1,"transit":false,"station_name":"Karet","is_transit":false,"i_long":106.816351},{"distance":471,"line":1,"i_long":106.819881,"is_transit":false,"station_name":"Sudirman Baru","time":1,"station_id":"SUDB","i_lat":-6.201433,"transit":false},{"line":1,"i_lat":-6.202263,"transit":false,"station_name":"Sudirman","distance":280,"station_id":"SUD","is_transit":false,"time":1,"i_long":106.822649},{"i_long":106.84912,"i_lat":-6.209883,"station_id":"MRI","line":2,"time":4,"station_name":"Manggarai","transit":true,"distance":3186,"is_transit":true},{"distance":2610,"i_lat":-6.226659,"time":4,"line":2,"is_transit":false,"station_id":"TEB","station_name":"Tebet","transit":false,"i_long":106.857948},{"is_transit":false,"distance":1230,"i_lat":-6.242512,"station_name":"Cawang","time":2,"station_id":"CW","i_long":106.856607,"transit":false,"line":2},{"i_lat":-6.255332,"station_name":"Duren Kalibata","station_id":"DRN","i_long":106.85449,"is_transit":false,"time":3,"transit":false,"distance":1546,"line":2},{"i_long":106.851577,"line":2,"time":2,"distance":824,"station_name":"Pasar Minggu Baru","i_lat":-6.263214,"transit":false,"station_id":"PSMB","is_transit":false},{"station_id":"PSM","station_name":"Pasar Minggu","i_long":106.843999,"line":2,"is_transit":false,"transit":false,"time":2,"i_lat":-6.2842400000000005,"distance":2380},{"station_name":"Tanjung Barat","transit":false,"i_long":106.838896,"is_transit":false,"line":2,"i_lat":-6.3080680000000005,"distance":2820,"time":4,"station_id":"TNT"},{"line":2,"station_id":"LNA","i_lat":-6.330363,"time":3,"i_long":106.832616,"station_name":"Lenteng Agung","is_transit":false,"transit":false,"distance":2671},{"is_transit":false,"transit":false,"i_lat":-6.339291,"i_long":106.834175,"time":2,"station_name":"Univ. Pancasila","line":2,"distance":1029,"station_id":"UP"},{"distance":2264,"transit":false,"station_name":"Univ. Indonesia","is_transit":false,"i_long":106.831474,"time":3,"line":2,"station_id":"UI","i_lat":-6.360749},{"station_id":"POC","i_long":106.831114,"transit":false,"station_name":"Pondok Cina","time":2,"i_lat":-6.369073,"line":2,"is_transit":false,"distance":1109},{"time":4,"station_id":"DPB","line":2,"i_long":106.819451,"i_lat":-6.391065,"is_transit":false,"station_name":"Depokbaru","distance":2727,"transit":false}],[{"time":0,"is_transit":false,"station_id":"CKI","line":2,"transit":false,"i_lat":-6.198556,"distance":0,"i_long":106.840169,"station_name":"Cikini"},{"is_transit":false,"transit":false,"i_long":106.832183,"station_id":"GDD","time":3,"i_lat":-6.186295,"distance":1750,"station_name":"Gondangdia","line":2},{"i_lat":-6.166716,"transit":false,"line":2,"time":4,"distance":2015,"station_name":"Juanda","is_transit":false,"station_id":"JUA","i_long":106.828284},{"time":2,"is_transit":false,"i_lat":-6.160725,"transit":false,"station_id":"SW","line":2,"i_long":106.827103,"distance":1149,"station_name":"Sawah Besar"},{"distance":906,"station_name":"Manggabesar","is_transit":false,"transit":false,"time":2,"i_lat":-6.149769,"i_long":106.82482,"station_id":"MGB","line":2},{"i_lat":-6.141205,"is_transit":false,"line":2,"station_name":"Jayakarta","time":2,"i_long":106.820901,"transit":false,"station_id":"JAY","distance":1080},{"i_long":106.812439,"station_name":"Jakarta Kota","time":4,"line":2,"i_lat":-6.137569,"distance":1264,"is_transit":true,"transit":true,"station_id":"JAKK"},{"transit":true,"station_name":"Kampung Bandan","station_id":"KPB","i_lat":-6.132549,"i_long":106.826365,"line":4,"time":3,"distance":1364,"is_transit":true},{"time":3,"i_lat":-6.14505,"i_long":106.836569,"transit":false,"line":11,"station_id":"RJW","distance":1444,"is_transit":false,"station_name":"Rajawali"},{"i_long":106.839204,"distance":1901,"transit":false,"station_name":"Kemayoran","time":5,"station_id":"KMO","line":11,"is_transit":false,"i_lat":-6.161728},{"i_long":106.84368,"distance":1436,"station_name":"Pasar Senen","is_transit":false,"line":11,"transit":false,"time":4,"station_id":"PSE","i_lat":-6.174784},{"transit":false,"time":8,"i_lat":-6.185975,"i_long":106.850107,"line":11,"is_transit":false,"distance":1567,"station_name":"Gang Sentiong","station_id":"GST"},{"i_long":106.855437,"station_id":"KMT","i_lat":-6.193792,"is_transit":false,"time":1,"station_name":"Kramat","transit":false,"line":11,"distance":973},{"i_long":106.861737,"line":11,"station_name":"Pondok Jati","transit":false,"i_lat":-6.209188,"time":2,"distance":1829,"station_id":"POK","is_transit":false},{"distance":1236,"i_lat":-6.215091,"station_name":"Jatinegara","is_transit":true,"transit":true,"station_id":"JNG","time":9,"i_long":106.86807400000001,"line":1},{"i_long":106.858896,"distance":1377,"station_name":"Matraman","is_transit":false,"station_id":"MTR","transit":false,"time":2,"i_lat":-6.212485,"line":1},{"station_name":"Manggarai","is_transit":true,"transit":true,"distance":1275,"time":2,"i_long":106.84912,"i_lat":-6.209883,"line":2,"station_id":"MRI"},{"station_id":"TEB","time":4,"distance":2610,"i_lat":-6.226659,"transit":false,"i_long":106.857948,"station_name":"Tebet","line":2,"is_transit":false},{"i_lat":-6.242512,"distance":1230,"line":2,"station_name":"Cawang","is_transit":false,"station_id":"CW","i_long":106.856607,"transit":false,"time":2},{"time":3,"is_transit":false,"distance":1546,"station_name":"Duren Kalibata","station_id":"DRN","i_long":106.85449,"line":2,"i_lat":-6.255332,"transit":false},{"distance":824,"transit":false,"station_name":"Pasar Minggu Baru","time":2,"station_id":"PSMB","i_lat":-6.263214,"is_transit":false,"i_long":106.851577,"line":2},{"i_lat":-6.2842400000000005,"i_long":106.843999,"line":2,"station_name":"Pasar Minggu","distance":2380,"transit":false,"is_transit":false,"station_id":"PSM","time":2},{"distance":2820,"is_transit":false,"station_id":"TNT","i_long":106.838896,"i_lat":-6.3080680000000005,"time":4,"transit":false,"line":2,"station_name":"Tanjung Barat"},{"station_name":"Lenteng Agung","is_transit":false,"transit":false,"line":2,"i_lat":-6.330363,"time":3,"station_id":"LNA","distance":2671,"i_long":106.832616},{"transit":false,"is_transit":false,"station_id":"UP","distance":1029,"time":2,"i_lat":-6.339291,"i_long":106.834175,"line":2,"station_name":"Univ. Pancasila"},{"station_name":"Univ. Indonesia","time":3,"line":2,"transit":false,"distance":2264,"is_transit":false,"station_id":"UI","i_long":106.831474,"i_lat":-6.360749},{"time":2,"distance":1109,"line":2,"transit":false,"is_transit":false,"station_id":"POC","i_long":106.831114,"station_name":"Pondok Cina","i_lat":-6.369073},{"i_long":106.819451,"line":2,"transit":false,"distance":2727,"time":4,"is_transit":false,"station_id":"DPB","i_lat":-6.391065,"station_name":"Depokbaru"}]]}