{"data":[[{"time":0,"distance":0,"line":2,"station_id":"CKI","is_transit":false,"i_long":106.840169,"station_name":"Cikini","transit":false,"i_lat":-6.198556},{"distance":1590,"time":4,"transit":true,"i_long":106.84912,"station_name":"Manggarai","station_id":"MRI","is_transit":true,"i_lat":-6.209883,"line":2},{"is_transit":false,"time":4,"station_id":"SUD","station_name":"Sudirman","i_long":106.822649,"transit":false,"distance":3186,"line":1,"i_lat":-6.202263},{"transit":false,"line":1,"time":1,"i_long":106.819881,"is_transit":false,"station_name":"Sudirman Baru","i_lat":-6.201433,"distance":280,"station_id":"SUDB"},{"line":1,"station_id":"KAT","station_name":"Karet","is_transit":false,"time":1,"distance":471,"i_lat":-6.20132,"i_long":106.816351,"transit":false},{"transit":false,"is_transit":false,"i_long":106.811091,"i_lat":-6.185545,"distance":2029,"station_id":"THB","time":5,"station_name":"Tanah Abang","line":1},{"time":8,"line":1,"station_id":"DU","is_transit":true,"i_lat":-6.155215,"distance":3632,"station_name":"Duri","i_long":106.800832,"transit":true},{"station_id":"GGL","i_long":106.788277,"station_name":"Grogol","time":3,"distance":1700,"transit":false,"line":5,"i_lat":-6.162021,"is_transit":false},{"i_long":106.771379,"station_id":"PSG","station_name":"Pesing","line":5,"is_transit":false,"distance":2036,"transit":false,"time":2,"i_lat":-6.161433},{"is_transit":false,"i_lat":-6.1587309999999995,"transit":false,"distance":1614,"time":2,"i_long":106.756522,"line":5,"station_id":"TKO","station_name":"Taman Kota"},{"station_id":"BOI","i_long":106.737035,"time":2,"station_name":"Bojongindah","is_transit":false,"i_lat":-6.159876,"distance":2334,"line":5,"transit":false},{"distance":1152,"transit":false,"line":5,"station_id":"RW","station_name":"Rawa Buaya","is_transit":false,"time":4,"i_lat":-6.162758,"i_long":106.723064},{"i_long":106.701612,"line":5,"station_name":"Kalideres","transit":false,"i_lat":-6.166068,"is_transit":false,"time":3,"station_id":"KDS","distance":2504},{"transit":false,"station_id":"PI","distance":2548,"line":5,"is_transit":false,"i_long":106.679458,"time":3,"station_name":"Poris","i_lat":-6.169933},{"distance":1834,"station_id":"BPR","transit":false,"time":3,"i_long":106.665036,"is_transit":false,"i_lat":-6.171811,"station_name":"Batuceper","line":5}],[{"station_name":"Cikini","is_transit":false,"i_long":106.840169,"time":0,"i_lat":-6.198556,"line":2,"station_id":"CKI","transit":false,"distance":0},{"distance":1750,"transit":false,"station_name":"Gondangdia","i_long":106.832183,"station_id":"GDD","line":2,"is_transit":false,"i_lat":-6.186295,"time":3},{"line":2,"i_lat":-6.166716,"i_long":106.828284,"station_id":"JUA","time":4,"transit":false,"distance":2015,"station_name":"Juanda","is_transit":false},{"station_id":"SW","i_long":106.827103,"station_name":"Sawah Besar","time":2,"i_lat":-6.160725,"transit":false,"line":2,"is_transit":false,"distance":1149},{"time":2,"transit":false,"station_id":"MGB","i_long":106.82482,"is_transit":false,"line":2,"distance":906,"station_name":"Manggabesar","i_lat":-6.149769},{"distance":1080,"time":2,"i_long":106.820901,"line":2,"station_name":"Jayakarta","is_transit":false,"transit":false,"station_id":"JAY","i_lat":-6.141205},{"line":2,"transit":true,"is_transit":true,"station_name":"Jakarta Kota","i_lat":-6.137569,"time":4,"distance":1264,"station_id":"JAKK","i_long":106.812439},{"is_transit":true,"station_name":"Kampung Bandan","distance":1364,"transit":true,"time":3,"i_lat":-6.132549,"station_id":"KPB","i_long":106.826365,"line":4},{"time":9,"distance":4102,"is_transit":false,"station_id":"AK","i_lat":-6.144674,"line":1,"station_name":"Angke","transit":false,"i_long":106.79867},{"station_id":"DU","time":4,"line":1,"is_transit":true,"i_long":106.800832,"transit":true,"distance":1230,"station_name":"Duri","i_lat":-6.155215},{"station_id":"GGL","line":5,"distance":1700,"i_long":106.788277,"is_transit":false,"transit":false,"i_lat":-6.162021,"time":3,"station_name":"Grogol"},{"distance":2036,"i_long":106.771379,"transit":false,"station_id":"PSG","is_transit":false,"time":2,"station_name":"Pesing","line":5,"i_lat":-6.161433},{"distance":1614,"line":5,"is_transit":false,"transit":false,"i_long":106.756522,"station_name":"Taman Kota","i_lat":-6.1587309999999995,"time":2,"station_id":"TKO"},{"time":2,"distance":2334,"station_id":"BOI","transit":false,"line":5,"is_transit":false,"station_name":"Bojongindah","i_lat":-6.159876,"i_long":106.737035},{"time":4,"station_id":"RW","distance":1152,"station_name":"Rawa Buaya","transit":false,"i_lat":-6.162758,"i_long":106.723064,"line":5,"is_transit":false},{"station_id":"KDS","distance":2504,"station_name":"Kalideres","line":5,"is_transit":false,"i_lat":-6.166068,"i_long":106.701612,"transit":false,"time":3},{"distance":2548,"station_id":"PI","transit":false,"i_long":106.679458,"line":5,"station_name":"Poris","is_transit":false,"time":3,"i_lat":-6.169933},{"i_lat":-6.171811,"transit":false,"time":3,"is_transit":false,"station_id":"BPR","distance":1834,"station_name":"Batuceper","line":5,"i_long":106.665036}],[{"transit":false,"line":2,"distance":0,"station_id":"CKI","is_transit":false,"i_lat":-6.198556,"i_long":106.840169,"time":0,"station_name":"Cikini"},{"station_name":"Manggarai","time":4,"distance":1590,"is_transit":true,"i_long":106.84912,"transit":true,"i_lat":-6.209883,"line":2,"station_id":"MRI"},{"station_name":"Matraman","is_transit":false,"station_id":"MTR","i_long":106.858896,"time":2,"transit":false,"distance":1275,"line":1,"i_lat":-6.212485},{"station_id":"JNG","line":1,"time":8,"station_name":"Jatinegara","transit":true,"is_transit":true,"i_long":106.86807400000001,"distance":1377,"i_lat":-6.215091},{"time":2,"station_name":"Pondok Jati","line":11,"i_lat":-6.209188,"is_transit":false,"transit":false,"distance":1236,"i_long":106.861737,"station_id":"POK"},{"i_lat":-6.193792,"station_name":"Kramat","line":11,"station_id":"KMT","transit":false,"i_long":106.855437,"distance":1829,"is_transit":false,"time":2},{"i_lat":-6.185975,"distance":973,"line":11,"is_transit":false,"transit":false,"i_long":106.850107,"time":1,"station_id":"GST","station_name":"Gang Sentiong"},{"transit":false,"i_lat":-6.174784,"i_long":106.84368,"time":8,"line":11,"is_transit":false,"station_name":"Pasar Senen","station_id":"PSE","distance":1567},{"station_name":"Kemayoran","i_lat":-6.161728,"is_transit":false,"transit":false,"time":4,"i_long":106.839204,"distance":1436,"station_id":"KMO","line":11},{"time":5,"distance":1901,"station_id":"RJW","is_transit":false,"i_lat":-6.14505,"line":11,"transit":false,"i_long":106.836569,"station_name":"Rajawali"},{"line":4,"station_id":"KPB","is_transit":true,"transit":true,"distance":1444,"time":3,"station_name":"Kampung Bandan","i_lat":-6.132549,"i_long":106.826365},{"i_lat":-6.144674,"distance":4102,"transit":false,"is_transit":false,"time":9,"station_id":"AK","i_long":106.79867,"station_name":"Angke","line":1},{"i_lat":-6.155215,"is_transit":true,"station_id":"DU","distance":1230,"transit":true,"time":4,"line":1,"station_name":"Duri","i_long":106.800832},{"time":3,"distance":1700,"i_lat":-6.162021,"is_transit":false,"transit":false,"i_long":106.788277,"station_id":"GGL","station_name":"Grogol","line":5},{"is_transit":false,"station_name":"Pesing","distance":2036,"time":2,"i_lat":-6.161433,"station_id":"PSG","i_long":106.771379,"line":5,"transit":false},{"is_transit":false,"time":2,"i_lat":-6.1587309999999995,"transit":false,"distance":1614,"i_long":106.756522,"line":5,"station_id":"TKO","station_name":"Taman Kota"},{"i_lat":-6.159876,"station_id":"BOI","distance":2334,"line":5,"i_long":106.737035,"is_transit":false,"transit":false,"time":2,"station_name":"Bojongindah"},{"transit":false,"line":5,"distance":1152,"station_name":"Rawa Buaya","time":4,"i_lat":-6.162758,"station_id":"RW","i_long":106.723064,"is_transit":false},{"is_transit":false,"line":5,"time":3,"station_id":"KDS","station_name":"Kalideres","distance":2504,"i_lat":-6.166068,"i_long":106.701612,"transit":false},{"transit":false,"i_lat":-6.169933,"i_long":106.679458,"distance":2548,"station_id":"PI","is_transit":false,"station_name":"Poris","time":3,"line":5},{"is_transit":false,"i_long":106.665036,"station_name":"Batuceper","line":5,"distance":1834,"station_id":"BPR","transit":false,"time":3,"i_lat":-6.171811}],[{"is_transit":false,"station_name":"Cikini","time":0,"station_id":"CKI","transit":false,"i_long":106.840169,"distance":0,"i_lat":-6.198556,"line":2},{"station_name":"Gondangdia","i_lat":-6.186295,"i_long":106.832183,"station_id":"GDD","is_transit":false,"time":3,"transit":false,"distance":1750,"line":2},{"station_id":"JUA","distance":2015,"time":4,"i_lat":-6.166716,"line":2,"transit":false,"is_transit":false,"station_name":"Juanda","i_long":106.828284},{"time":2,"i_long":106.827103,"transit":false,"distance":1149,"is_transit":false,"station_id":"SW","i_lat":-6.160725,"station_name":"Sawah Besar","line":2},{"i_lat":-6.149769,"time":2,"station_name":"Manggabesar","station_id":"MGB","is_transit":false,"distance":906,"i_long":106.82482,"line":2,"transit":false},{"i_lat":-6.141205,"line":2,"station_id":"JAY","i_long":106.820901,"is_transit":false,"station_name":"Jayakarta","distance":1080,"time":2,"transit":false},{"distance":1264,"station_name":"Jakarta Kota","i_long":106.812439,"line":2,"i_lat":-6.137569,"transit":true,"time":4,"is_transit":true,"station_id":"JAKK"},{"distance":1364,"i_long":106.826365,"transit":true,"station_id":"KPB","i_lat":-6.132549,"line":4,"time":3,"is_transit":true,"station_name":"Kampung Bandan"},{"line":11,"station_name":"Rajawali","is_transit":false,"distance":1444,"i_lat":-6.14505,"time":3,"station_id":"RJW","transit":false,"i_long":106.836569},{"time":5,"station_name":"Kemayoran","line":11,"transit":false,"station_id":"KMO","is_transit":false,"i_long":106.839204,"distance":1901,"i_lat":-6.161728},{"distance":1436,"station_id":"PSE","station_name":"Pasar Senen","i_lat":-6.174784,"i_long":106.84368,"time":4,"transit":false,"line":11,"is_transit":false},{"i_lat":-6.185975,"line":11,"i_long":106.850107,"station_name":"Gang Sentiong","is_transit":false,"transit":false,"time":8,"station_id":"GST","distance":1567},{"distance":973,"station_id":"KMT","is_transit":false,"time":1,"transit":false,"station_name":"Kramat","i_lat":-6.193792,"i_long":106.855437,"line":11},{"station_name":"Pondok Jati","time":2,"distance":1829,"i_long":106.861737,"station_id":"POK","i_lat":-6.209188,"transit":false,"line":11,"is_transit":false},{"distance":1236,"line":1,"time":9,"station_id":"JNG","station_name":"Jatinegara","is_transit":true,"transit":true,"i_lat":-6.215091,"i_long":106.86807400000001},{"line":1,"time":2,"station_id":"MTR","distance":1377,"station_name":"Matraman","i_lat":-6.212485,"is_transit":false,"transit":false,"i_long":106.858896},{"i_lat":-6.209883,"i_long":106.84912,"station_id":"MRI","line":2,"transit":false,"is_transit":false,"time":2,"station_name":"Manggarai","distance":1275},{"is_transit":false,"i_long":106.822649,"distance":3186,"station_id":"SUD","transit":false,"line":1,"station_name":"Sudirman","time":4,"i_lat":-6.202263},{"i_long":106.819881,"station_id":"SUDB","i_lat":-6.201433,"distance":280,"is_transit":false,"transit":false,"time":1,"line":1,"station_name":"Sudirman Baru"},{"time":1,"is_transit":false,"transit":false,"station_id":"KAT","station_name":"Karet","distance":471,"i_long":106.816351,"line":1,"i_lat":-6.20132},{"is_transit":false,"station_id":"THB","line":1,"distance":2029,"transit":false,"station_name":"Tanah Abang","time":5,"i_lat":-6.185545,"i_long":106.811091},{"time":8,"station_id":"DU","is_transit":true,"transit":true,"distance":3632,"station_name":"Duri","i_long":106.800832,"line":1,"i_lat":-6.155215},{"line":5,"transit":false,"station_id":"GGL","i_lat":-6.162021,"is_transit":false,"time":3,"distance":1700,"station_name":"Grogol","i_long":106.788277},{"station_id":"PSG","station_name":"Pesing","distance":2036,"transit":false,"line":5,"is_transit":false,"i_lat":-6.161433,"i_long":106.771379,"time":2},{"time":2,"station_id":"TKO","distance":1614,"i_long":106.756522,"is_transit":false,"i_lat":-6.1587309999999995,"line":5,"station_name":"Taman Kota","transit":false},{"is_transit":false,"station_id":"BOI","line":5,"time":2,"distance":2334,"station_name":"Bojongindah","i_lat":-6.159876,"i_long":106.737035,"transit":false},{"transit":false,"i_long":106.723064,"time":4,"distance":1152,"line":5,"is_transit":false,"i_lat":-6.162758,"station_id":"RW","station_name":"Rawa Buaya"},{"time":3,"i_long":106.701612,"is_transit":false,"station_id":"KDS","i_lat":-6.166068,"line":5,"transit":false,"distance":2504,"station_name":"Kalideres"},{"distance":2548,"transit":false,"time":3,"station_name":"Poris","is_transit":false,"i_lat":-6.169933,"station_id":"PI","line":5,"i_long":106.679458},{"distance":1834,"station_name":"Batuceper","i_long":106.665036,"line":5,"is_transit":false,"transit":false,"time":3,"station_id":"BPR","i_lat":-6.171811}]]}