{"data":[[{"time":0,"line":2,"i_long":106.840169,"is_transit":false,"distance":0,"station_name":"Cikini","station_id":"CKI","transit":false,"i_lat":-6.198556},{"is_transit":false,"distance":1590,"station_id":"MRI","transit":false,"i_long":106.84912,"time":4,"i_lat":-6.209883,"line":2,"station_name":"Manggarai"},{"time":4,"station_name":"Tebet","transit":false,"i_lat":-6.226659,"station_id":"TEB","line":2,"is_transit":false,"distance":2610,"i_long":106.857948},{"distance":1230,"station_name":"Cawang","transit":false,"station_id":"CW","time":2,"is_transit":false,"i_long":106.856607,"line":2,"i_lat":-6.242512},{"distance":1546,"i_long":106.85449,"is_transit":false,"line":2,"time":3,"i_lat":-6.255332,"station_id":"DRN","station_name":"Duren Kalibata","transit":false},{"time":2,"transit":false,"is_transit":false,"i_long":106.851577,"i_lat":-6.263214,"line":2,"distance":824,"station_id":"PSMB","station_name":"Pasar Minggu Baru"},{"station_id":"PSM","time":2,"i_long":106.843999,"i_lat":-6.2842400000000005,"station_name":"Pasar Minggu","distance":2380,"transit":false,"is_transit":false,"line":2},{"line":2,"i_long":106.838896,"is_transit":false,"distance":2820,"station_id":"TNT","time":4,"station_name":"Tanjung Barat","transit":false,"i_lat":-6.3080680000000005},{"i_lat":-6.330363,"station_name":"Lenteng Agung","transit":false,"i_long":106.832616,"time":3,"distance":2671,"is_transit":false,"line":2,"station_id":"LNA"},{"station_id":"UP","is_transit":false,"transit":false,"distance":1029,"station_name":"Univ. Pancasila","i_lat":-6.339291,"i_long":106.834175,"time":2,"line":2},{"line":2,"transit":false,"is_transit":false,"i_lat":-6.360749,"time":3,"distance":2264,"station_name":"Univ. Indonesia","i_long":106.831474,"station_id":"UI"},{"is_transit":false,"transit":false,"i_lat":-6.369073,"time":2,"distance":1109,"station_name":"Pondok Cina","station_id":"POC","line":2,"i_long":106.831114},{"distance":2727,"transit":false,"is_transit":false,"time":4,"i_long":106.819451,"station_id":"DPB","station_name":"Depokbaru","line":2,"i_lat":-6.391065}],[{"station_name":"Cikini","i_lat":-6.198556,"i_long":106.840169,"distance":0,"station_id":"CKI","time":0,"is_transit":false,"transit":false,"line":2},{"is_transit":false,"i_lat":-6.186295,"line":2,"transit":false,"station_name":"Gondangdia","i_long":106.832183,"distance":1750,"station_id":"GDD","time":3},{"is_transit":false,"line":2,"i_long":106.828284,"distance":2015,"station_id":"JUA","time":4,"station_name":"Juanda","i_lat":-6.166716,"transit":false},{"station_name":"Sawah Besar","i_lat":-6.160725,"i_long":106.827103,"transit":false,"time":2,"distance":1149,"station_id":"SW","is_transit":false,"line":2},{"is_transit":false,"i_lat":-6.149769,"i_long":106.82482,"line":2,"time":2,"distance":906,"station_id":"MGB","transit":false,"station_name":"Manggabesar"},{"time":2,"i_lat":-6.141205,"is_transit":false,"line":2,"station_name":"Jayakarta","station_id":"JAY","transit":false,"distance":1080,"i_long":106.820901},{"i_lat":-6.137569,"station_name":"Jakarta Kota","line":2,"i_long":106.812439,"distance":1264,"time":4,"transit":true,"station_id":"JAKK","is_transit":true},{"station_id":"KPB","i_long":106.826365,"is_transit":true,"transit":true,"line":4,"distance":1364,"time":3,"station_name":"Kampung Bandan","i_lat":-6.132549},{"i_long":106.79867,"distance":4102,"line":1,"transit":false,"time":9,"i_lat":-6.144674,"station_id":"AK","station_name":"Angke","is_transit":false},{"station_name":"Duri","transit":false,"station_id":"DU","time":4,"is_transit":false,"line":1,"i_long":106.800832,"distance":1230,"i_lat":-6.155215},{"i_lat":-6.185545,"line":1,"transit":false,"distance":3632,"i_long":106.811091,"station_name":"Tanah Abang","is_transit":false,"time":8,"station_id":"THB"},{"i_long":106.816351,"is_transit":false,"line":1,"station_id":"KAT","transit":false,"station_name":"Karet","i_lat":-6.20132,"time":5,"distance":2029},{"station_id":"SUDB","time":1,"transit":false,"distance":471,"i_long":106.819881,"is_transit":false,"i_lat":-6.201433,"station_name":"Sudirman Baru","line":1},{"is_transit":false,"line":1,"i_lat":-6.202263,"station_id":"SUD","time":1,"distance":280,"station_name":"Sudirman","transit":false,"i_long":106.822649},{"station_id":"MRI","i_lat":-6.209883,"i_long":106.84912,"line":2,"time":4,"is_transit":true,"distance":3186,"station_name":"Manggarai","transit":true},{"transit":false,"i_long":106.857948,"line":2,"is_transit":false,"distance":2610,"station_name":"Tebet","station_id":"TEB","time":4,"i_lat":-6.226659},{"line":2,"i_long":106.856607,"station_name":"Cawang","is_transit":false,"time":2,"distance":1230,"station_id":"CW","transit":false,"i_lat":-6.242512},{"distance":1546,"is_transit":false,"transit":false,"i_lat":-6.255332,"line":2,"station_name":"Duren Kalibata","time":3,"i_long":106.85449,"station_id":"DRN"},{"transit":false,"time":2,"station_id":"PSMB","is_transit":false,"line":2,"distance":824,"i_lat":-6.263214,"i_long":106.851577,"station_name":"Pasar Minggu Baru"},{"i_long":106.843999,"station_id":"PSM","time":2,"is_transit":false,"distance":2380,"line":2,"station_name":"Pasar Minggu","transit":false,"i_lat":-6.2842400000000005},{"time":4,"is_transit":false,"station_name":"Tanjung Barat","i_lat":-6.3080680000000005,"transit":false,"distance":2820,"i_long":106.838896,"station_id":"TNT","line":2},{"distance":2671,"line":2,"is_transit":false,"time":3,"station_name":"Lenteng Agung","i_lat":-6.330363,"station_id":"LNA","transit":false,"i_long":106.832616},{"transit":false,"station_id":"UP","line":2,"station_name":"Univ. Pancasila","distance":1029,"time":2,"i_long":106.834175,"is_transit":false,"i_lat":-6.339291},{"transit":false,"time":3,"is_transit":false,"i_long":106.831474,"line":2,"distance":2264,"station_id":"UI","station_name":"Univ. Indonesia","i_lat":-6.360749},{"i_lat":-6.369073,"time":2,"line":2,"transit":false,"distance":1109,"station_name":"Pondok Cina","i_long":106.831114,"station_id":"POC","is_transit":false},{"station_name":"Depokbaru","distance":2727,"station_id":"DPB","i_long":106.819451,"time":4,"transit":false,"i_lat":-6.391065,"line":2,"is_transit":false}],[{"time":0,"station_id":"CKI","is_transit":false,"transit":false,"i_long":106.840169,"line":2,"i_lat":-6.198556,"station_name":"Cikini","distance":0},{"station_name":"Gondangdia","i_long":106.832183,"line":2,"i_lat":-6.186295,"time":3,"distance":1750,"station_id":"GDD","transit":false,"is_transit":false},{"distance":2015,"transit":false,"time":4,"station_name":"Juanda","line":2,"i_long":106.828284,"i_lat":-6.166716,"station_id":"JUA","is_transit":false},{"is_transit":false,"time":2,"i_long":106.827103,"station_name":"Sawah Besar","station_id":"SW","line":2,"distance":1149,"i_lat":-6.160725,"transit":false},{"i_lat":-6.149769,"distance":906,"is_transit":false,"i_long":106.82482,"transit":false,"time":2,"line":2,"station_id":"MGB","station_name":"Manggabesar"},{"is_transit":false,"line":2,"transit":false,"station_id":"JAY","i_long":106.820901,"distance":1080,"station_name":"Jayakarta","time":2,"i_lat":-6.141205},{"line":2,"i_long":106.812439,"station_id":"JAKK","transit":true,"is_transit":true,"distance":1264,"i_lat":-6.137569,"station_name":"Jakarta Kota","time":4},{"i_lat":-6.132549,"line":4,"station_name":"Kampung Bandan","transit":true,"i_long":106.826365,"time":3,"distance":1364,"is_transit":true,"station_id":"KPB"},{"station_name":"Rajawali","i_long":106.836569,"line":11,"station_id":"RJW","is_transit":false,"distance":1444,"transit":false,"time":3,"i_lat":-6.14505},{"i_lat":-6.161728,"station_name":"Kemayoran","line":11,"distance":1901,"i_long":106.839204,"is_transit":false,"station_id":"KMO","transit":false,"time":5},{"station_name":"Pasar Senen","is_transit":false,"i_long":106.84368,"line":11,"transit":false,"station_id":"PSE","i_lat":-6.174784,"distance":1436,"time":4},{"i_lat":-6.185975,"station_id":"GST","station_name":"Gang Sentiong","line":11,"time":8,"distance":1567,"is_transit":false,"i_long":106.850107,"transit":false},{"station_id":"KMT","transit":false,"time":1,"i_long":106.855437,"distance":973,"is_transit":false,"station_name":"Kramat","i_lat":-6.193792,"line":11},{"i_long":106.861737,"station_name":"Pondok Jati","distance":1829,"line":11,"transit":false,"station_id":"POK","time":2,"is_transit":false,"i_lat":-6.209188},{"i_long":106.86807400000001,"station_id":"JNG","transit":true,"is_transit":true,"station_name":"Jatinegara","i_lat":-6.215091,"distance":1236,"line":1,"time":9},{"transit":false,"i_long":106.858896,"line":1,"distance":1377,"is_transit":false,"time":2,"station_name":"Matraman","i_lat":-6.212485,"station_id":"MTR"},{"line":2,"transit":true,"i_long":106.84912,"time":2,"station_id":"MRI","station_name":"Manggarai","distance":1275,"i_lat":-6.209883,"is_transit":true},{"station_id":"TEB","is_transit":false,"transit":false,"time":4,"distance":2610,"i_long":106.857948,"station_name":"Tebet","i_lat":-6.226659,"line":2},{"station_name":"Cawang","station_id":"CW","i_lat":-6.242512,"transit":false,"is_transit":false,"distance":1230,"time":2,"i_long":106.856607,"line":2},{"station_id":"DRN","time":3,"distance":1546,"i_lat":-6.255332,"i_long":106.85449,"transit":false,"station_name":"Duren Kalibata","line":2,"is_transit":false},{"time":2,"transit":false,"distance":824,"i_long":106.851577,"station_name":"Pasar Minggu Baru","i_lat":-6.263214,"line":2,"station_id":"PSMB","is_transit":false},{"i_lat":-6.2842400000000005,"line":2,"distance":2380,"transit":false,"station_id":"PSM","i_long":106.843999,"time":2,"station_name":"Pasar Minggu","is_transit":false},{"transit":false,"station_id":"TNT","time":4,"i_lat":-6.3080680000000005,"i_long":106.838896,"line":2,"station_name":"Tanjung Barat","is_transit":false,"distance":2820},{"distance":2671,"time":3,"station_name":"Lenteng Agung","i_long":106.832616,"line":2,"i_lat":-6.330363,"transit":false,"station_id":"LNA","is_transit":false},{"transit":false,"distance":1029,"station_id":"UP","is_transit":false,"i_long":106.834175,"station_name":"Univ. Pancasila","i_lat":-6.339291,"line":2,"time":2},{"i_lat":-6.360749,"time":3,"i_long":106.831474,"transit":false,"station_id":"UI","is_transit":false,"station_name":"Univ. Indonesia","line":2,"distance":2264},{"distance":1109,"line":2,"station_id":"POC","transit":false,"time":2,"i_long":106.831114,"station_name":"Pondok Cina","is_transit":false,"i_lat":-6.369073},{"line":2,"transit":false,"time":4,"station_name":"Depokbaru","is_transit":false,"i_long":106.819451,"distance":2727,"station_id":"DPB","i_lat":-6.391065}]]}