{"data":[[{"transit":false,"i_long":106.840169,"time":0,"distance":0,"i_lat":-6.198556,"line":0,"station_id":"CKI","is_transit":false,"station_name":"Cikini"},{"is_transit":false,"time":3,"i_lat":-6.186295,"distance":1750,"line":2,"i_long":106.832183,"station_name":"Gondangdia","transit":false,"station_id":"GDD"},{"line":2,"i_long":106.828284,"transit":false,"is_transit":false,"time":4,"station_id":"JUA","station_name":"Juanda","i_lat":-6.166716,"distance":2015},{"station_name":"Sawah Besar","transit":false,"i_lat":-6.160725,"i_long":106.827103,"station_id":"SW","is_transit":false,"distance":1149,"line":2,"time":2},{"line":2,"is_transit":false,"transit":false,"i_lat":-6.149769,"station_name":"Manggabesar","time":2,"station_id":"MGB","distance":906,"i_long":106.82482},{"transit":false,"station_name":"Jayakarta","station_id":"JAY","is_transit":false,"distance":1080,"i_lat":-6.141205,"time":2,"line":7,"i_long":106.820901},{"i_lat":-6.137569,"line":0,"i_long":106.812439,"station_id":"JAKK","transit":true,"time":4,"station_name":"Jakarta Kota","distance":1264,"is_transit":true},{"transit":false,"line":0,"i_long":106.826365,"distance":1364,"station_name":"Kampung Bandan","is_transit":true,"time":3,"station_id":"KPB","i_lat":-6.132549},{"distance":2185,"transit":false,"i_lat":-6.128023,"station_id":"AC","line":0,"station_name":"Ancol","is_transit":false,"i_long":106.84464,"time":4}],[{"is_transit":false,"station_id":"CKI","transit":false,"time":0,"i_lat":-6.198556,"distance":0,"i_long":106.840169,"station_name":"Cikini","line":0},{"i_long":106.84912,"time":4,"is_transit":true,"station_id":"MRI","line":0,"distance":1590,"transit":true,"station_name":"Manggarai","i_lat":-6.209883},{"is_transit":false,"distance":3186,"transit":false,"i_long":106.822649,"time":4,"line":1,"i_lat":-6.202263,"station_id":"SUD","station_name":"Sudirman"},{"time":1,"is_transit":false,"distance":280,"line":1,"transit":false,"i_lat":-6.201433,"station_name":"Sudirman Baru","i_long":106.819881,"station_id":"SUDB"},{"i_lat":-6.20132,"distance":471,"line":1,"station_id":"KAT","station_name":"Karet","time":1,"transit":false,"i_long":106.816351,"is_transit":false},{"distance":2029,"i_lat":-6.185545,"transit":false,"line":1,"is_transit":true,"i_long":106.811091,"station_id":"THB","station_name":"Tanah Abang","time":5},{"transit":true,"is_transit":true,"i_lat":-6.155215,"time":8,"distance":3632,"station_id":"DU","station_name":"Duri","line":1,"i_long":106.800832},{"time":4,"distance":1230,"station_id":"AK","is_transit":false,"transit":false,"station_name":"Angke","i_lat":-6.144674,"i_long":106.79867,"line":0},{"transit":false,"station_id":"KPB","i_lat":-6.132549,"station_name":"Kampung Bandan","time":9,"i_long":106.826365,"line":0,"is_transit":true,"distance":4102},{"is_transit":false,"i_lat":-6.128023,"station_name":"Ancol","distance":2185,"station_id":"AC","transit":false,"time":4,"i_long":106.84464,"line":0}],[{"transit":false,"i_long":106.840169,"station_id":"CKI","is_transit":false,"distance":0,"line":0,"time":0,"station_name":"Cikini","i_lat":-6.198556},{"time":4,"station_name":"Manggarai","i_long":106.84912,"line":0,"is_transit":true,"station_id":"MRI","transit":true,"i_lat":-6.209883,"distance":1590},{"distance":1275,"transit":false,"station_name":"Matraman","i_lat":-6.212485,"line":1,"is_transit":false,"station_id":"MTR","time":2,"i_long":106.858896},{"is_transit":true,"time":8,"line":0,"i_long":106.86807400000001,"station_id":"JNG","distance":1377,"i_lat":-6.215091,"station_name":"Jatinegara","transit":true},{"line":11,"i_long":106.861737,"station_id":"POK","distance":1236,"is_transit":false,"transit":false,"station_name":"Pondok Jati","i_lat":-6.209188,"time":2},{"distance":1829,"i_lat":-6.193792,"station_id":"KMT","transit":false,"station_name":"Kramat","is_transit":false,"time":2,"i_long":106.855437,"line":11},{"is_transit":false,"transit":false,"station_name":"Gang Sentiong","i_long":106.850107,"distance":973,"station_id":"GST","time":1,"line":11,"i_lat":-6.185975},{"station_name":"Pasar Senen","line":11,"time":8,"is_transit":false,"distance":1567,"station_id":"PSE","transit":false,"i_lat":-6.174784,"i_long":106.84368},{"distance":1436,"time":4,"i_long":106.839204,"is_transit":false,"line":11,"station_name":"Kemayoran","transit":false,"i_lat":-6.161728,"station_id":"KMO"},{"i_long":106.836569,"station_id":"RJW","line":11,"distance":1901,"time":5,"transit":false,"station_name":"Rajawali","i_lat":-6.14505,"is_transit":false},{"station_id":"KPB","is_transit":true,"transit":true,"station_name":"Kampung Bandan","i_long":106.826365,"line":0,"i_lat":-6.132549,"time":3,"distance":1444},{"time":4,"i_long":106.84464,"is_transit":false,"line":0,"distance":2185,"station_id":"AC","station_name":"Ancol","transit":false,"i_lat":-6.128023}]]}