{"data":[[{"station_name":"Cikini","transit":false,"station_id":"CKI","i_lat":-6.198556,"distance":0,"i_long":106.840169,"line":2,"time":0,"is_transit":false},{"station_name":"Manggarai","i_lat":-6.209883,"line":2,"transit":true,"is_transit":true,"station_id":"MRI","time":4,"i_long":106.84912,"distance":1590},{"time":4,"transit":false,"station_name":"Sudirman","station_id":"SUD","i_lat":-6.202263,"line":1,"distance":3186,"i_long":106.822649,"is_transit":false},{"line":1,"station_id":"SUDB","distance":280,"i_long":106.819881,"time":1,"i_lat":-6.201433,"transit":false,"station_name":"Sudirman Baru","is_transit":false},{"is_transit":false,"distance":471,"transit":false,"i_lat":-6.20132,"i_long":106.816351,"line":1,"station_name":"Karet","station_id":"KAT","time":1},{"i_lat":-6.185545,"time":5,"station_id":"THB","transit":true,"station_name":"Tanah Abang","distance":2029,"line":1,"i_long":106.811091,"is_transit":true},{"distance":3191,"transit":false,"time":6,"station_name":"Palmerah","line":6,"i_long":106.79689,"i_lat":-6.207404,"station_id":"PLM","is_transit":false},{"transit":false,"i_long":106.780334,"time":7,"line":6,"station_name":"Kebayoran","station_id":"KBY","i_lat":-6.237242,"is_transit":false,"distance":3737},{"transit":false,"station_id":"PDJ","i_long":106.74273,"distance":6218,"is_transit":false,"line":6,"i_lat":-6.276362,"time":8,"station_name":"Pondokranji"},{"i_lat":-6.288927,"time":3,"station_name":"Jurangmangu","transit":false,"line":6,"is_transit":false,"i_long":106.728916,"distance":2179,"station_id":"JMU"},{"is_transit":false,"station_name":"Sudimara","transit":false,"station_id":"SDM","i_long":106.712277,"line":6,"time":4,"i_lat":-6.296963,"distance":1994}],[{"station_name":"Cikini","station_id":"CKI","i_long":106.840169,"i_lat":-6.198556,"time":0,"line":2,"distance":0,"transit":false,"is_transit":false},{"station_name":"Gondangdia","transit":false,"i_lat":-6.186295,"distance":1750,"i_long":106.832183,"line":2,"is_transit":false,"station_id":"GDD","time":3},{"station_name":"Juanda","transit":false,"distance":2015,"i_long":106.828284,"is_transit":false,"line":2,"station_id":"JUA","i_lat":-6.166716,"time":4},{"i_lat":-6.160725,"transit":false,"i_long":106.827103,"station_id":"SW","line":2,"is_transit":false,"distance":1149,"station_name":"Sawah Besar","time":2},{"i_lat":-6.149769,"station_name":"Manggabesar","time":2,"station_id":"MGB","distance":906,"is_transit":false,"transit":false,"i_long":106.82482,"line":2},{"distance":1080,"is_transit":false,"time":2,"station_id":"JAY","i_lat":-6.141205,"station_name":"Jayakarta","transit":false,"line":2,"i_long":106.820901},{"time":4,"is_transit":true,"station_name":"Jakarta Kota","transit":true,"i_long":106.812439,"i_lat":-6.137569,"station_id":"JAKK","line":2,"distance":1264},{"time":3,"i_lat":-6.132549,"station_name":"Kampung Bandan","station_id":"KPB","line":4,"transit":true,"is_transit":true,"distance":1364,"i_long":106.826365},{"time":9,"station_id":"AK","line":1,"is_transit":false,"station_name":"Angke","i_long":106.79867,"i_lat":-6.144674,"distance":4102,"transit":false},{"i_long":106.800832,"station_name":"Duri","line":1,"transit":false,"time":4,"i_lat":-6.155215,"station_id":"DU","is_transit":false,"distance":1230},{"i_lat":-6.185545,"line":1,"station_name":"Tanah Abang","station_id":"THB","distance":3632,"transit":true,"time":8,"i_long":106.811091,"is_transit":true},{"time":6,"transit":false,"station_name":"Palmerah","is_transit":false,"station_id":"PLM","i_lat":-6.207404,"i_long":106.79689,"distance":3191,"line":6},{"station_id":"KBY","transit":false,"station_name":"Kebayoran","i_lat":-6.237242,"is_transit":false,"line":6,"time":7,"distance":3737,"i_long":106.780334},{"i_long":106.74273,"transit":false,"i_lat":-6.276362,"distance":6218,"station_name":"Pondokranji","line":6,"station_id":"PDJ","is_transit":false,"time":8},{"transit":false,"station_id":"JMU","time":3,"line":6,"i_lat":-6.288927,"is_transit":false,"station_name":"Jurangmangu","i_long":106.728916,"distance":2179},{"line":6,"distance":1994,"i_lat":-6.296963,"i_long":106.712277,"is_transit":false,"station_id":"SDM","station_name":"Sudimara","time":4,"transit":false}],[{"time":0,"station_id":"CKI","is_transit":false,"i_long":106.840169,"station_name":"Cikini","distance":0,"transit":false,"i_lat":-6.198556,"line":2},{"i_lat":-6.209883,"line":2,"time":4,"i_long":106.84912,"distance":1590,"station_id":"MRI","is_transit":true,"station_name":"Manggarai","transit":true},{"station_id":"MTR","station_name":"Matraman","transit":false,"time":2,"line":1,"i_long":106.858896,"distance":1275,"i_lat":-6.212485,"is_transit":false},{"distance":1377,"i_lat":-6.215091,"station_name":"Jatinegara","time":8,"station_id":"JNG","is_transit":true,"line":1,"i_long":106.86807400000001,"transit":true},{"station_name":"Pondok Jati","i_lat":-6.209188,"transit":false,"line":11,"distance":1236,"station_id":"POK","is_transit":false,"time":2,"i_long":106.861737},{"line":11,"i_long":106.855437,"transit":false,"station_name":"Kramat","is_transit":false,"distance":1829,"i_lat":-6.193792,"station_id":"KMT","time":2},{"station_id":"GST","transit":false,"i_long":106.850107,"i_lat":-6.185975,"is_transit":false,"distance":973,"time":1,"line":11,"station_name":"Gang Sentiong"},{"distance":1567,"i_lat":-6.174784,"i_long":106.84368,"station_name":"Pasar Senen","station_id":"PSE","is_transit":false,"line":11,"time":8,"transit":false},{"station_id":"KMO","is_transit":false,"time":4,"i_lat":-6.161728,"distance":1436,"station_name":"Kemayoran","i_long":106.839204,"transit":false,"line":11},{"station_id":"RJW","time":5,"i_long":106.836569,"distance":1901,"station_name":"Rajawali","i_lat":-6.14505,"line":11,"transit":false,"is_transit":false},{"i_long":106.826365,"time":3,"transit":true,"distance":1444,"i_lat":-6.132549,"station_name":"Kampung Bandan","is_transit":true,"station_id":"KPB","line":4},{"i_lat":-6.144674,"i_long":106.79867,"line":1,"is_transit":false,"distance":4102,"transit":false,"station_name":"Angke","station_id":"AK","time":9},{"station_id":"DU","station_name":"Duri","i_long":106.800832,"i_lat":-6.155215,"line":1,"transit":false,"distance":1230,"is_transit":false,"time":4},{"is_transit":true,"time":8,"i_lat":-6.185545,"line":1,"i_long":106.811091,"transit":true,"station_id":"THB","distance":3632,"station_name":"Tanah Abang"},{"station_name":"Palmerah","transit":false,"i_long":106.79689,"station_id":"PLM","time":6,"is_transit":false,"distance":3191,"line":6,"i_lat":-6.207404},{"time":7,"i_long":106.780334,"station_name":"Kebayoran","station_id":"KBY","is_transit":false,"line":6,"i_lat":-6.237242,"transit":false,"distance":3737},{"i_lat":-6.276362,"line":6,"station_id":"PDJ","distance":6218,"i_long":106.74273,"time":8,"transit":false,"station_name":"Pondokranji","is_transit":false},{"line":6,"i_lat":-6.288927,"station_name":"Jurangmangu","distance":2179,"i_long":106.728916,"is_transit":false,"station_id":"JMU","time":3,"transit":false},{"station_name":"Sudimara","station_id":"SDM","line":6,"is_transit":false,"time":4,"distance":1994,"i_long":106.712277,"i_lat":-6.296963,"transit":false}],[{"i_lat":-6.198556,"transit":false,"line":2,"i_long":106.840169,"is_transit":false,"time":0,"distance":0,"station_name":"Cikini","station_id":"CKI"},{"i_long":106.832183,"i_lat":-6.186295,"is_transit":false,"line":2,"station_id":"GDD","station_name":"Gondangdia","transit":false,"distance":1750,"time":3},{"distance":2015,"station_name":"Juanda","i_lat":-6.166716,"transit":false,"time":4,"line":2,"is_transit":false,"station_id":"JUA","i_long":106.828284},{"i_lat":-6.160725,"station_name":"Sawah Besar","station_id":"SW","i_long":106.827103,"time":2,"is_transit":false,"line":2,"distance":1149,"transit":false},{"station_name":"Manggabesar","i_lat":-6.149769,"station_id":"MGB","time":2,"i_long":106.82482,"line":2,"transit":false,"distance":906,"is_transit":false},{"i_long":106.820901,"transit":false,"time":2,"is_transit":false,"line":2,"i_lat":-6.141205,"distance":1080,"station_name":"Jayakarta","station_id":"JAY"},{"station_name":"Jakarta Kota","time":4,"distance":1264,"station_id":"JAKK","line":2,"is_transit":true,"transit":true,"i_lat":-6.137569,"i_long":106.812439},{"i_long":106.826365,"line":4,"i_lat":-6.132549,"transit":true,"station_id":"KPB","distance":1364,"time":3,"is_transit":true,"station_name":"Kampung Bandan"},{"line":11,"is_transit":false,"distance":1444,"transit":false,"i_lat":-6.14505,"time":3,"i_long":106.836569,"station_name":"Rajawali","station_id":"RJW"},{"transit":false,"distance":1901,"station_id":"KMO","station_name":"Kemayoran","time":5,"i_long":106.839204,"is_transit":false,"line":11,"i_lat":-6.161728},{"station_id":"PSE","station_name":"Pasar Senen","distance":1436,"transit":false,"i_long":106.84368,"time":4,"i_lat":-6.174784,"is_transit":false,"line":11},{"station_name":"Gang Sentiong","station_id":"GST","transit":false,"line":11,"is_transit":false,"i_long":106.850107,"distance":1567,"time":8,"i_lat":-6.185975},{"i_long":106.855437,"line":11,"time":1,"transit":false,"station_id":"KMT","is_transit":false,"station_name":"Kramat","distance":973,"i_lat":-6.193792},{"station_name":"Pondok Jati","time":2,"i_lat":-6.209188,"i_long":106.861737,"is_transit":false,"line":11,"station_id":"POK","distance":1829,"transit":false},{"time":9,"station_name":"Jatinegara","is_transit":true,"distance":1236,"i_lat":-6.215091,"i_long":106.86807400000001,"transit":true,"station_id":"JNG","line":1},{"time":2,"i_long":106.858896,"is_transit":false,"line":1,"station_name":"Matraman","i_lat":-6.212485,"distance":1377,"transit":false,"station_id":"MTR"},{"is_transit":false,"i_lat":-6.209883,"distance":1275,"station_id":"MRI","transit":false,"line":2,"time":2,"station_name":"Manggarai","i_long":106.84912},{"line":1,"station_name":"Sudirman","transit":false,"i_lat":-6.202263,"time":4,"i_long":106.822649,"distance":3186,"is_transit":false,"station_id":"SUD"},{"line":1,"station_name":"Sudirman Baru","distance":280,"i_long":106.819881,"i_lat":-6.201433,"station_id":"SUDB","is_transit":false,"transit":false,"time":1},{"i_long":106.816351,"station_name":"Karet","is_transit":false,"transit":false,"distance":471,"station_id":"KAT","time":1,"line":1,"i_lat":-6.20132},{"transit":true,"time":5,"i_lat":-6.185545,"station_id":"THB","distance":2029,"line":1,"is_transit":true,"station_name":"Tanah Abang","i_long":106.811091},{"line":6,"station_name":"Palmerah","station_id":"PLM","distance":3191,"is_transit":false,"transit":false,"i_long":106.79689,"time":6,"i_lat":-6.207404},{"station_name":"Kebayoran","station_id":"KBY","i_lat":-6.237242,"i_long":106.780334,"is_transit":false,"distance":3737,"transit":false,"line":6,"time":7},{"time":8,"line":6,"i_lat":-6.276362,"is_transit":false,"i_long":106.74273,"transit":false,"distance":6218,"station_id":"PDJ","station_name":"Pondokranji"},{"line":6,"station_name":"Jurangmangu","distance":2179,"station_id":"JMU","is_transit":false,"time":3,"transit":false,"i_lat":-6.288927,"i_long":106.728916},{"distance":1994,"i_long":106.712277,"i_lat":-6.296963,"transit":false,"time":4,"is_transit":false,"station_name":"Sudimara","station_id":"SDM","line":6}]]}