{"data":[[{"distance":0,"station_name":"Cikini","i_long":106.840169,"station_id":"CKI","line":2,"is_transit":false,"time":0,"i_lat":-6.198556,"transit":false},{"distance":1590,"is_transit":false,"transit":false,"station_id":"MRI","i_lat":-6.209883,"time":4,"station_name":"Manggarai","i_long":106.84912,"line":2},{"time":4,"station_id":"TEB","i_lat":-6.226659,"i_long":106.857948,"is_transit":false,"transit":false,"station_name":"Tebet","line":2,"distance":2610},{"distance":1230,"transit":false,"line":2,"i_long":106.856607,"is_transit":false,"time":2,"station_id":"CW","station_name":"Cawang","i_lat":-6.242512},{"station_id":"DRN","i_long":106.85449,"distance":1546,"transit":false,"is_transit":false,"i_lat":-6.255332,"station_name":"Duren Kalibata","time":3,"line":2},{"is_transit":false,"distance":824,"i_lat":-6.263214,"line":2,"station_name":"Pasar Minggu Baru","station_id":"PSMB","time":2,"transit":false,"i_long":106.851577},{"station_id":"PSM","station_name":"Pasar Minggu","is_transit":false,"transit":false,"line":2,"i_lat":-6.2842400000000005,"i_long":106.843999,"distance":2380,"time":2},{"i_long":106.838896,"station_id":"TNT","station_name":"Tanjung Barat","is_transit":false,"time":4,"distance":2820,"transit":false,"line":2,"i_lat":-6.3080680000000005},{"i_lat":-6.330363,"station_name":"Lenteng Agung","is_transit":false,"i_long":106.832616,"time":3,"station_id":"LNA","line":2,"transit":false,"distance":2671},{"i_long":106.834175,"distance":1029,"is_transit":false,"station_id":"UP","station_name":"Univ. Pancasila","transit":false,"line":2,"i_lat":-6.339291,"time":2},{"distance":2264,"station_name":"Univ. Indonesia","station_id":"UI","i_lat":-6.360749,"time":3,"i_long":106.831474,"line":2,"is_transit":false,"transit":false},{"distance":1109,"station_name":"Pondok Cina","i_long":106.831114,"station_id":"POC","i_lat":-6.369073,"is_transit":false,"transit":false,"line":2,"time":2},{"i_long":106.819451,"line":2,"time":4,"distance":2727,"station_id":"DPB","station_name":"Depokbaru","is_transit":false,"i_lat":-6.391065,"transit":false},{"time":3,"transit":false,"is_transit":false,"line":2,"i_long":106.816926,"i_lat":-6.405256,"distance":1584,"station_id":"DP","station_name":"Depok"},{"line":2,"i_long":106.800298,"is_transit":true,"distance":5084,"time":6,"i_lat":-6.448811,"station_name":"Citayam","transit":true,"station_id":"CTA"},{"time":0,"distance":0,"is_transit":false,"transit":false,"i_lat":-6.460735,"station_name":"Pondok Rajeg","line":21,"station_id":"PDRG","i_long":106.824374},{"station_id":"CBN","transit":false,"line":21,"time":0,"distance":0,"station_name":"Cibinong","is_transit":false,"i_lat":-6.46424,"i_long":106.851978},{"line":21,"distance":6527,"i_lat":-6.466285,"i_long":106.905196,"time":10,"is_transit":false,"station_name":"Nambo","transit":false,"station_id":"NMO"}],[{"transit":false,"is_transit":false,"i_long":106.840169,"i_lat":-6.198556,"station_name":"Cikini","line":2,"distance":0,"station_id":"CKI","time":0},{"line":2,"station_id":"GDD","is_transit":false,"time":3,"station_name":"Gondangdia","transit":false,"i_long":106.832183,"distance":1750,"i_lat":-6.186295},{"i_long":106.828284,"line":2,"station_id":"JUA","transit":false,"is_transit":false,"station_name":"Juanda","time":4,"distance":2015,"i_lat":-6.166716},{"distance":1149,"is_transit":false,"transit":false,"station_name":"Sawah Besar","station_id":"SW","i_lat":-6.160725,"line":2,"time":2,"i_long":106.827103},{"i_long":106.82482,"line":2,"station_name":"Manggabesar","i_lat":-6.149769,"transit":false,"time":2,"station_id":"MGB","is_transit":false,"distance":906},{"i_long":106.820901,"distance":1080,"i_lat":-6.141205,"line":2,"station_id":"JAY","time":2,"station_name":"Jayakarta","is_transit":false,"transit":false},{"station_id":"JAKK","distance":1264,"i_lat":-6.137569,"time":4,"station_name":"Jakarta Kota","is_transit":true,"i_long":106.812439,"transit":true,"line":2},{"station_id":"KPB","transit":true,"distance":1364,"i_lat":-6.132549,"station_name":"Kampung Bandan","time":3,"line":4,"i_long":106.826365,"is_transit":true},{"transit":false,"time":9,"station_name":"Angke","line":1,"is_transit":false,"i_lat":-6.144674,"i_long":106.79867,"station_id":"AK","distance":4102},{"i_long":106.800832,"station_id":"DU","transit":false,"time":4,"station_name":"Duri","is_transit":false,"line":1,"distance":1230,"i_lat":-6.155215},{"i_lat":-6.185545,"time":8,"transit":false,"distance":3632,"station_name":"Tanah Abang","station_id":"THB","i_long":106.811091,"line":1,"is_transit":false},{"station_name":"Karet","i_lat":-6.20132,"transit":false,"station_id":"KAT","i_long":106.816351,"time":5,"distance":2029,"is_transit":false,"line":1},{"station_name":"Sudirman Baru","transit":false,"i_lat":-6.201433,"line":1,"time":1,"station_id":"SUDB","is_transit":false,"i_long":106.819881,"distance":471},{"station_id":"SUD","i_lat":-6.202263,"i_long":106.822649,"distance":280,"station_name":"Sudirman","line":1,"is_transit":false,"transit":false,"time":1},{"i_lat":-6.209883,"i_long":106.84912,"transit":true,"is_transit":true,"station_id":"MRI","station_name":"Manggarai","line":2,"distance":3186,"time":4},{"is_transit":false,"station_id":"TEB","transit":false,"i_lat":-6.226659,"line":2,"station_name":"Tebet","time":4,"i_long":106.857948,"distance":2610},{"line":2,"station_id":"CW","i_lat":-6.242512,"i_long":106.856607,"distance":1230,"station_name":"Cawang","time":2,"transit":false,"is_transit":false},{"i_long":106.85449,"distance":1546,"i_lat":-6.255332,"line":2,"station_id":"DRN","transit":false,"station_name":"Duren Kalibata","time":3,"is_transit":false},{"transit":false,"station_id":"PSMB","i_long":106.851577,"station_name":"Pasar Minggu Baru","is_transit":false,"line":2,"distance":824,"time":2,"i_lat":-6.263214},{"distance":2380,"station_name":"Pasar Minggu","i_lat":-6.2842400000000005,"time":2,"transit":false,"is_transit":false,"i_long":106.843999,"line":2,"station_id":"PSM"},{"i_lat":-6.3080680000000005,"i_long":106.838896,"line":2,"time":4,"is_transit":false,"station_id":"TNT","distance":2820,"transit":false,"station_name":"Tanjung Barat"},{"transit":false,"distance":2671,"i_lat":-6.330363,"time":3,"station_id":"LNA","i_long":106.832616,"line":2,"station_name":"Lenteng Agung","is_transit":false},{"time":2,"station_id":"UP","station_name":"Univ. Pancasila","distance":1029,"i_long":106.834175,"line":2,"transit":false,"is_transit":false,"i_lat":-6.339291},{"i_lat":-6.360749,"transit":false,"is_transit":false,"i_long":106.831474,"line":2,"station_name":"Univ. Indonesia","distance":2264,"station_id":"UI","time":3},{"station_id":"POC","station_name":"Pondok Cina","transit":false,"line":2,"is_transit":false,"i_long":106.831114,"time":2,"i_lat":-6.369073,"distance":1109},{"is_transit":false,"time":4,"i_lat":-6.391065,"station_name":"Depokbaru","station_id":"DPB","transit":false,"distance":2727,"line":2,"i_long":106.819451},{"time":3,"i_long":106.816926,"line":2,"distance":1584,"transit":false,"station_id":"DP","i_lat":-6.405256,"station_name":"Depok","is_transit":false},{"distance":5084,"line":2,"time":6,"is_transit":true,"station_name":"Citayam","station_id":"CTA","i_long":106.800298,"transit":true,"i_lat":-6.448811},{"distance":0,"line":21,"i_lat":-6.460735,"i_long":106.824374,"station_id":"PDRG","time":0,"station_name":"Pondok Rajeg","is_transit":false,"transit":false},{"station_id":"CBN","is_transit":false,"distance":0,"transit":false,"time":0,"station_name":"Cibinong","i_lat":-6.46424,"i_long":106.851978,"line":21},{"station_id":"NMO","transit":false,"station_name":"Nambo","is_transit":false,"i_long":106.905196,"line":21,"i_lat":-6.466285,"distance":6527,"time":10}],[{"transit":false,"is_transit":false,"time":0,"i_long":106.840169,"distance":0,"station_id":"CKI","station_name":"Cikini","i_lat":-6.198556,"line":2},{"station_name":"Gondangdia","i_long":106.832183,"transit":false,"line":2,"is_transit":false,"distance":1750,"time":3,"i_lat":-6.186295,"station_id":"GDD"},{"line":2,"distance":2015,"station_id":"JUA","is_transit":false,"i_lat":-6.166716,"station_name":"Juanda","i_long":106.828284,"transit":false,"time":4},{"i_lat":-6.160725,"time":2,"distance":1149,"i_long":106.827103,"transit":false,"station_id":"SW","station_name":"Sawah Besar","line":2,"is_transit":false},{"i_lat":-6.149769,"is_transit":false,"transit":false,"i_long":106.82482,"line":2,"time":2,"station_id":"MGB","distance":906,"station_name":"Manggabesar"},{"transit":false,"station_name":"Jayakarta","is_transit":false,"i_lat":-6.141205,"line":2,"station_id":"JAY","distance":1080,"i_long":106.820901,"time":2},{"is_transit":true,"transit":true,"i_long":106.812439,"line":2,"time":4,"station_id":"JAKK","distance":1264,"i_lat":-6.137569,"station_name":"Jakarta Kota"},{"station_name":"Kampung Bandan","station_id":"KPB","line":4,"i_lat":-6.132549,"distance":1364,"is_transit":true,"transit":true,"time":3,"i_long":106.826365},{"i_long":106.836569,"distance":1444,"line":11,"station_id":"RJW","time":3,"is_transit":false,"station_name":"Rajawali","transit":false,"i_lat":-6.14505},{"distance":1901,"time":5,"is_transit":false,"station_name":"Kemayoran","line":11,"station_id":"KMO","transit":false,"i_lat":-6.161728,"i_long":106.839204},{"i_long":106.84368,"transit":false,"distance":1436,"i_lat":-6.174784,"time":4,"station_name":"Pasar Senen","line":11,"station_id":"PSE","is_transit":false},{"i_lat":-6.185975,"station_id":"GST","is_transit":false,"time":8,"transit":false,"station_name":"Gang Sentiong","i_long":106.850107,"distance":1567,"line":11},{"is_transit":false,"i_long":106.855437,"i_lat":-6.193792,"time":1,"transit":false,"station_name":"Kramat","line":11,"station_id":"KMT","distance":973},{"i_long":106.861737,"is_transit":false,"station_name":"Pondok Jati","time":2,"transit":false,"line":11,"station_id":"POK","distance":1829,"i_lat":-6.209188},{"is_transit":true,"i_long":106.86807400000001,"transit":true,"distance":1236,"station_name":"Jatinegara","line":1,"i_lat":-6.215091,"time":9,"station_id":"JNG"},{"i_long":106.858896,"station_id":"MTR","line":1,"i_lat":-6.212485,"transit":false,"time":2,"distance":1377,"station_name":"Matraman","is_transit":false},{"line":2,"i_long":106.84912,"i_lat":-6.209883,"station_id":"MRI","time":2,"is_transit":true,"distance":1275,"transit":true,"station_name":"Manggarai"},{"time":4,"is_transit":false,"transit":false,"station_id":"TEB","i_lat":-6.226659,"i_long":106.857948,"distance":2610,"station_name":"Tebet","line":2},{"time":2,"station_name":"Cawang","i_lat":-6.242512,"i_long":106.856607,"is_transit":false,"transit":false,"distance":1230,"line":2,"station_id":"CW"},{"station_id":"DRN","i_lat":-6.255332,"transit":false,"line":2,"is_transit":false,"i_long":106.85449,"station_name":"Duren Kalibata","time":3,"distance":1546},{"time":2,"station_id":"PSMB","i_long":106.851577,"transit":false,"i_lat":-6.263214,"line":2,"distance":824,"is_transit":false,"station_name":"Pasar Minggu Baru"},{"is_transit":false,"station_id":"PSM","time":2,"transit":false,"station_name":"Pasar Minggu","line":2,"i_lat":-6.2842400000000005,"distance":2380,"i_long":106.843999},{"transit":false,"time":4,"station_name":"Tanjung Barat","i_lat":-6.3080680000000005,"distance":2820,"i_long":106.838896,"line":2,"is_transit":false,"station_id":"TNT"},{"time":3,"transit":false,"is_transit":false,"line":2,"distance":2671,"i_long":106.832616,"i_lat":-6.330363,"station_name":"Lenteng Agung","station_id":"LNA"},{"i_long":106.834175,"time":2,"station_name":"Univ. Pancasila","station_id":"UP","line":2,"i_lat":-6.339291,"transit":false,"is_transit":false,"distance":1029},{"distance":2264,"i_lat":-6.360749,"transit":false,"i_long":106.831474,"time":3,"station_name":"Univ. Indonesia","is_transit":false,"station_id":"UI","line":2},{"station_name":"Pondok Cina","station_id":"POC","time":2,"i_long":106.831114,"i_lat":-6.369073,"distance":1109,"line":2,"is_transit":false,"transit":false},{"time":4,"distance":2727,"station_id":"DPB","is_transit":false,"transit":false,"station_name":"Depokbaru","i_lat":-6.391065,"line":2,"i_long":106.819451},{"line":2,"transit":false,"i_lat":-6.405256,"station_name":"Depok","i_long":106.816926,"station_id":"DP","is_transit":false,"distance":1584,"time":3},{"transit":true,"line":2,"station_id":"CTA","i_long":106.800298,"station_name":"Citayam","is_transit":true,"time":6,"distance":5084,"i_lat":-6.448811},{"i_long":106.824374,"transit":false,"is_transit":false,"station_id":"PDRG","distance":0,"time":0,"station_name":"Pondok Rajeg","i_lat":-6.460735,"line":21},{"line":21,"is_transit":false,"time":0,"station_id":"CBN","station_name":"Cibinong","distance":0,"i_lat":-6.46424,"i_long":106.851978,"transit":false},{"is_transit":false,"transit":false,"line":21,"distance":6527,"i_lat":-6.466285,"station_id":"NMO","i_long":106.905196,"time":10,"station_name":"Nambo"}]]}