{"data":[[{"station_id":"CKI","station_name":"Cikini","is_transit":false,"i_long":106.840169,"transit":false,"time":0,"i_lat":-6.198556,"line":2,"distance":0},{"i_long":106.84912,"line":2,"station_name":"Manggarai","is_transit":true,"distance":1590,"time":4,"station_id":"MRI","i_lat":-6.209883,"transit":true},{"station_id":"SUD","distance":3186,"time":4,"i_lat":-6.202263,"line":1,"i_long":106.822649,"transit":false,"station_name":"Sudirman","is_transit":false},{"station_id":"SUDB","station_name":"Sudirman Baru","i_long":106.819881,"i_lat":-6.201433,"transit":false,"is_transit":false,"line":1,"distance":280,"time":1},{"distance":471,"time":1,"line":1,"transit":false,"station_name":"Karet","station_id":"KAT","i_lat":-6.20132,"is_transit":false,"i_long":106.816351},{"time":5,"line":1,"transit":false,"distance":2029,"station_id":"THB","is_transit":false,"station_name":"Tanah Abang","i_lat":-6.185545,"i_long":106.811091},{"i_long":106.800832,"is_transit":true,"line":1,"time":8,"station_name":"Duri","i_lat":-6.155215,"transit":true,"station_id":"DU","distance":3632},{"is_transit":false,"i_lat":-6.162021,"station_id":"GGL","distance":1700,"i_long":106.788277,"transit":false,"line":5,"time":3,"station_name":"Grogol"},{"line":5,"station_name":"Pesing","station_id":"PSG","transit":false,"time":2,"is_transit":false,"distance":2036,"i_lat":-6.161433,"i_long":106.771379},{"distance":1614,"i_long":106.756522,"i_lat":-6.1587309999999995,"time":2,"is_transit":false,"station_name":"Taman Kota","transit":false,"station_id":"TKO","line":5},{"station_name":"Bojongindah","transit":false,"i_lat":-6.159876,"time":2,"i_long":106.737035,"distance":2334,"line":5,"station_id":"BOI","is_transit":false},{"i_long":106.723064,"i_lat":-6.162758,"station_id":"RW","time":4,"station_name":"Rawa Buaya","distance":1152,"line":5,"is_transit":false,"transit":false},{"station_name":"Kalideres","time":3,"i_long":106.701612,"transit":false,"distance":2504,"line":5,"is_transit":false,"i_lat":-6.166068,"station_id":"KDS"},{"distance":2548,"i_lat":-6.169933,"station_id":"PI","station_name":"Poris","i_long":106.679458,"line":5,"time":3,"transit":false,"is_transit":false},{"time":3,"station_id":"BPR","i_lat":-6.171811,"distance":1834,"transit":false,"station_name":"Batuceper","is_transit":false,"i_long":106.665036,"line":5},{"i_long":106.64657,"station_id":"TTI","is_transit":false,"distance":2028,"i_lat":-6.17331,"line":5,"transit":false,"station_name":"Tanah Tinggi","time":3}],[{"time":0,"distance":0,"i_lat":-6.198556,"line":2,"i_long":106.840169,"station_id":"CKI","station_name":"Cikini","is_transit":false,"transit":false},{"is_transit":false,"station_name":"Gondangdia","i_long":106.832183,"i_lat":-6.186295,"transit":false,"station_id":"GDD","time":3,"line":2,"distance":1750},{"i_long":106.828284,"is_transit":false,"distance":2015,"time":4,"line":2,"station_name":"Juanda","transit":false,"station_id":"JUA","i_lat":-6.166716},{"is_transit":false,"station_name":"Sawah Besar","i_lat":-6.160725,"transit":false,"station_id":"SW","i_long":106.827103,"time":2,"distance":1149,"line":2},{"line":2,"transit":false,"time":2,"distance":906,"station_id":"MGB","i_lat":-6.149769,"station_name":"Manggabesar","i_long":106.82482,"is_transit":false},{"station_name":"Jayakarta","i_long":106.820901,"i_lat":-6.141205,"is_transit":false,"transit":false,"station_id":"JAY","line":2,"distance":1080,"time":2},{"station_id":"JAKK","station_name":"Jakarta Kota","time":4,"transit":true,"i_lat":-6.137569,"i_long":106.812439,"is_transit":true,"line":2,"distance":1264},{"line":4,"is_transit":true,"distance":1364,"i_lat":-6.132549,"transit":true,"station_id":"KPB","time":3,"i_long":106.826365,"station_name":"Kampung Bandan"},{"is_transit":false,"station_id":"AK","i_long":106.79867,"line":1,"distance":4102,"station_name":"Angke","time":9,"i_lat":-6.144674,"transit":false},{"i_long":106.800832,"time":4,"station_name":"Duri","is_transit":true,"transit":true,"station_id":"DU","line":1,"i_lat":-6.155215,"distance":1230},{"distance":1700,"line":5,"station_id":"GGL","transit":false,"is_transit":false,"i_lat":-6.162021,"station_name":"Grogol","time":3,"i_long":106.788277},{"time":2,"station_name":"Pesing","is_transit":false,"i_lat":-6.161433,"transit":false,"i_long":106.771379,"station_id":"PSG","distance":2036,"line":5},{"transit":false,"station_name":"Taman Kota","line":5,"i_long":106.756522,"is_transit":false,"i_lat":-6.1587309999999995,"station_id":"TKO","time":2,"distance":1614},{"station_name":"Bojongindah","transit":false,"is_transit":false,"time":2,"station_id":"BOI","i_lat":-6.159876,"i_long":106.737035,"line":5,"distance":2334},{"transit":false,"station_id":"RW","station_name":"Rawa Buaya","is_transit":false,"time":4,"i_lat":-6.162758,"i_long":106.723064,"line":5,"distance":1152},{"station_id":"KDS","station_name":"Kalideres","is_transit":false,"i_lat":-6.166068,"i_long":106.701612,"transit":false,"time":3,"distance":2504,"line":5},{"distance":2548,"is_transit":false,"i_lat":-6.169933,"time":3,"line":5,"station_name":"Poris","station_id":"PI","i_long":106.679458,"transit":false},{"i_lat":-6.171811,"distance":1834,"line":5,"is_transit":false,"time":3,"station_id":"BPR","i_long":106.665036,"transit":false,"station_name":"Batuceper"},{"station_id":"TTI","transit":false,"i_long":106.64657,"time":3,"is_transit":false,"i_lat":-6.17331,"line":5,"station_name":"Tanah Tinggi","distance":2028}],[{"transit":false,"station_name":"Cikini","i_long":106.840169,"i_lat":-6.198556,"time":0,"line":2,"station_id":"CKI","distance":0,"is_transit":false},{"station_name":"Manggarai","time":4,"station_id":"MRI","is_transit":true,"distance":1590,"i_long":106.84912,"line":2,"transit":true,"i_lat":-6.209883},{"line":1,"time":2,"transit":false,"i_long":106.858896,"distance":1275,"station_name":"Matraman","is_transit":false,"i_lat":-6.212485,"station_id":"MTR"},{"transit":true,"i_lat":-6.215091,"station_id":"JNG","line":1,"is_transit":true,"time":8,"distance":1377,"station_name":"Jatinegara","i_long":106.86807400000001},{"time":2,"is_transit":false,"distance":1236,"i_long":106.861737,"transit":false,"i_lat":-6.209188,"line":11,"station_name":"Pondok Jati","station_id":"POK"},{"time":2,"station_name":"Kramat","is_transit":false,"transit":false,"station_id":"KMT","distance":1829,"line":11,"i_long":106.855437,"i_lat":-6.193792},{"i_long":106.850107,"line":11,"station_id":"GST","time":1,"distance":973,"transit":false,"is_transit":false,"station_name":"Gang Sentiong","i_lat":-6.185975},{"station_name":"Pasar Senen","time":8,"i_lat":-6.174784,"i_long":106.84368,"line":11,"station_id":"PSE","is_transit":false,"distance":1567,"transit":false},{"is_transit":false,"time":4,"distance":1436,"transit":false,"i_long":106.839204,"line":11,"station_name":"Kemayoran","station_id":"KMO","i_lat":-6.161728},{"i_long":106.836569,"is_transit":false,"i_lat":-6.14505,"line":11,"station_name":"Rajawali","station_id":"RJW","time":5,"transit":false,"distance":1901},{"transit":true,"station_id":"KPB","i_lat":-6.132549,"station_name":"Kampung Bandan","time":3,"distance":1444,"line":4,"is_transit":true,"i_long":106.826365},{"is_transit":false,"station_name":"Angke","transit":false,"time":9,"i_long":106.79867,"line":1,"i_lat":-6.144674,"distance":4102,"station_id":"AK"},{"time":4,"i_long":106.800832,"line":1,"station_name":"Duri","distance":1230,"i_lat":-6.155215,"transit":true,"station_id":"DU","is_transit":true},{"line":5,"is_transit":false,"station_name":"Grogol","time":3,"distance":1700,"transit":false,"station_id":"GGL","i_lat":-6.162021,"i_long":106.788277},{"station_name":"Pesing","station_id":"PSG","line":5,"i_lat":-6.161433,"distance":2036,"time":2,"transit":false,"i_long":106.771379,"is_transit":false},{"station_id":"TKO","is_transit":false,"station_name":"Taman Kota","time":2,"i_lat":-6.1587309999999995,"i_long":106.756522,"line":5,"transit":false,"distance":1614},{"line":5,"i_long":106.737035,"is_transit":false,"distance":2334,"station_name":"Bojongindah","transit":false,"station_id":"BOI","time":2,"i_lat":-6.159876},{"is_transit":false,"distance":1152,"i_long":106.723064,"i_lat":-6.162758,"station_name":"Rawa Buaya","station_id":"RW","line":5,"transit":false,"time":4},{"station_name":"Kalideres","station_id":"KDS","time":3,"distance":2504,"line":5,"i_long":106.701612,"transit":false,"is_transit":false,"i_lat":-6.166068},{"line":5,"time":3,"distance":2548,"is_transit":false,"transit":false,"station_id":"PI","i_lat":-6.169933,"station_name":"Poris","i_long":106.679458},{"i_lat":-6.171811,"i_long":106.665036,"transit":false,"station_id":"BPR","time":3,"line":5,"station_name":"Batuceper","distance":1834,"is_transit":false},{"time":3,"i_long":106.64657,"line":5,"station_name":"Tanah Tinggi","transit":false,"distance":2028,"station_id":"TTI","i_lat":-6.17331,"is_transit":false}],[{"i_long":106.840169,"line":2,"station_name":"Cikini","i_lat":-6.198556,"station_id":"CKI","time":0,"transit":false,"is_transit":false,"distance":0},{"i_long":106.832183,"is_transit":false,"line":2,"station_name":"Gondangdia","time":3,"i_lat":-6.186295,"station_id":"GDD","transit":false,"distance":1750},{"station_id":"JUA","i_lat":-6.166716,"transit":false,"distance":2015,"is_transit":false,"i_long":106.828284,"station_name":"Juanda","time":4,"line":2},{"i_long":106.827103,"line":2,"is_transit":false,"i_lat":-6.160725,"station_name":"Sawah Besar","distance":1149,"time":2,"station_id":"SW","transit":false},{"line":2,"i_long":106.82482,"station_name":"Manggabesar","is_transit":false,"distance":906,"transit":false,"time":2,"station_id":"MGB","i_lat":-6.149769},{"distance":1080,"i_long":106.820901,"time":2,"i_lat":-6.141205,"station_name":"Jayakarta","is_transit":false,"station_id":"JAY","line":2,"transit":false},{"distance":1264,"i_long":106.812439,"time":4,"transit":true,"is_transit":true,"station_id":"JAKK","station_name":"Jakarta Kota","i_lat":-6.137569,"line":2},{"distance":1364,"time":3,"i_lat":-6.132549,"station_name":"Kampung Bandan","transit":true,"is_transit":true,"station_id":"KPB","line":4,"i_long":106.826365},{"line":11,"is_transit":false,"station_id":"RJW","station_name":"Rajawali","time":3,"distance":1444,"i_lat":-6.14505,"transit":false,"i_long":106.836569},{"distance":1901,"is_transit":false,"transit":false,"station_id":"KMO","i_long":106.839204,"station_name":"Kemayoran","time":5,"line":11,"i_lat":-6.161728},{"i_long":106.84368,"station_name":"Pasar Senen","is_transit":false,"station_id":"PSE","line":11,"distance":1436,"transit":false,"i_lat":-6.174784,"time":4},{"is_transit":false,"i_long":106.850107,"transit":false,"station_name":"Gang Sentiong","station_id":"GST","time":8,"distance":1567,"line":11,"i_lat":-6.185975},{"transit":false,"time":1,"i_lat":-6.193792,"i_long":106.855437,"is_transit":false,"line":11,"station_name":"Kramat","station_id":"KMT","distance":973},{"line":11,"distance":1829,"i_lat":-6.209188,"station_name":"Pondok Jati","is_transit":false,"station_id":"POK","i_long":106.861737,"time":2,"transit":false},{"is_transit":true,"distance":1236,"i_lat":-6.215091,"i_long":106.86807400000001,"station_name":"Jatinegara","station_id":"JNG","time":9,"line":1,"transit":true},{"station_name":"Matraman","i_lat":-6.212485,"i_long":106.858896,"time":2,"line":1,"transit":false,"is_transit":false,"station_id":"MTR","distance":1377},{"i_long":106.84912,"station_id":"MRI","time":2,"transit":false,"distance":1275,"line":2,"is_transit":false,"i_lat":-6.209883,"station_name":"Manggarai"},{"line":1,"time":4,"is_transit":false,"i_long":106.822649,"transit":false,"i_lat":-6.202263,"station_name":"Sudirman","distance":3186,"station_id":"SUD"},{"time":1,"line":1,"transit":false,"distance":280,"station_name":"Sudirman Baru","station_id":"SUDB","i_lat":-6.201433,"i_long":106.819881,"is_transit":false},{"station_name":"Karet","time":1,"is_transit":false,"station_id":"KAT","distance":471,"i_lat":-6.20132,"line":1,"i_long":106.816351,"transit":false},{"line":1,"station_name":"Tanah Abang","distance":2029,"is_transit":false,"station_id":"THB","time":5,"transit":false,"i_lat":-6.185545,"i_long":106.811091},{"transit":true,"i_lat":-6.155215,"station_name":"Duri","station_id":"DU","time":8,"distance":3632,"is_transit":true,"line":1,"i_long":106.800832},{"line":5,"i_long":106.788277,"is_transit":false,"distance":1700,"station_name":"Grogol","transit":false,"station_id":"GGL","i_lat":-6.162021,"time":3},{"is_transit":false,"station_id":"PSG","i_long":106.771379,"line":5,"time":2,"transit":false,"station_name":"Pesing","distance":2036,"i_lat":-6.161433},{"station_name":"Taman Kota","i_lat":-6.1587309999999995,"i_long":106.756522,"distance":1614,"time":2,"transit":false,"is_transit":false,"station_id":"TKO","line":5},{"line":5,"time":2,"transit":false,"i_lat":-6.159876,"is_transit":false,"station_name":"Bojongindah","distance":2334,"station_id":"BOI","i_long":106.737035},{"time":4,"station_name":"Rawa Buaya","i_long":106.723064,"i_lat":-6.162758,"distance":1152,"transit":false,"station_id":"RW","is_transit":false,"line":5},{"i_long":106.701612,"is_transit":false,"i_lat":-6.166068,"transit":false,"station_id":"KDS","line":5,"time":3,"distance":2504,"station_name":"Kalideres"},{"is_transit":false,"i_long":106.679458,"line":5,"station_id":"PI","i_lat":-6.169933,"distance":2548,"transit":false,"time":3,"station_name":"Poris"},{"i_lat":-6.171811,"transit":false,"time":3,"i_long":106.665036,"line":5,"distance":1834,"station_id":"BPR","station_name":"Batuceper","is_transit":false},{"line":5,"distance":2028,"station_id":"TTI","i_long":106.64657,"transit":false,"station_name":"Tanah Tinggi","i_lat":-6.17331,"is_transit":false,"time":3}]]}