{"data":[[{"line":0,"i_lat":-6.198556,"distance":0,"i_long":106.840169,"transit":false,"time":0,"station_id":"CKI","station_name":"Cikini","is_transit":false},{"line":2,"station_name":"Gondangdia","i_long":106.832183,"time":3,"is_transit":false,"distance":1750,"transit":false,"i_lat":-6.186295,"station_id":"GDD"},{"transit":false,"time":4,"is_transit":false,"i_lat":-6.166716,"i_long":106.828284,"line":2,"station_id":"JUA","distance":2015,"station_name":"Juanda"},{"i_lat":-6.160725,"i_long":106.827103,"distance":1149,"station_name":"Sawah Besar","transit":false,"station_id":"SW","is_transit":false,"line":2,"time":2},{"is_transit":false,"time":2,"distance":906,"transit":false,"i_long":106.82482,"station_id":"MGB","i_lat":-6.149769,"line":2,"station_name":"Manggabesar"},{"i_long":106.820901,"i_lat":-6.141205,"station_id":"JAY","distance":1080,"transit":false,"line":7,"time":2,"station_name":"Jayakarta","is_transit":false},{"station_name":"Jakarta Kota","is_transit":true,"i_long":106.812439,"line":0,"time":4,"transit":false,"distance":1264,"i_lat":-6.137569,"station_id":"JAKK"}],[{"station_id":"CKI","i_long":106.840169,"i_lat":-6.198556,"transit":false,"is_transit":false,"time":0,"line":0,"station_name":"Cikini","distance":0},{"station_id":"MRI","is_transit":true,"distance":1590,"i_long":106.84912,"transit":true,"station_name":"Manggarai","i_lat":-6.209883,"line":0,"time":4},{"transit":false,"is_transit":false,"line":1,"i_long":106.822649,"i_lat":-6.202263,"station_id":"SUD","time":4,"distance":3186,"station_name":"Sudirman"},{"transit":false,"is_transit":false,"time":1,"i_long":106.819881,"i_lat":-6.201433,"distance":280,"line":1,"station_name":"Sudirman Baru","station_id":"SUDB"},{"i_long":106.816351,"distance":471,"time":1,"station_name":"Karet","is_transit":false,"line":1,"i_lat":-6.20132,"station_id":"KAT","transit":false},{"distance":2029,"transit":false,"time":5,"is_transit":true,"station_name":"Tanah Abang","i_lat":-6.185545,"station_id":"THB","i_long":106.811091,"line":1},{"i_long":106.800832,"i_lat":-6.155215,"distance":3632,"station_id":"DU","station_name":"Duri","transit":true,"is_transit":true,"time":8,"line":1},{"time":4,"transit":false,"station_id":"AK","station_name":"Angke","is_transit":false,"i_lat":-6.144674,"line":0,"i_long":106.79867,"distance":1230},{"line":0,"station_name":"Kampung Bandan","distance":4102,"station_id":"KPB","time":9,"is_transit":true,"i_lat":-6.132549,"transit":false,"i_long":106.826365},{"line":0,"i_lat":-6.137569,"is_transit":true,"distance":1364,"time":3,"station_id":"JAKK","station_name":"Jakarta Kota","transit":false,"i_long":106.812439}],[{"distance":0,"transit":false,"i_long":106.840169,"line":0,"station_id":"CKI","station_name":"Cikini","i_lat":-6.198556,"time":0,"is_transit":false},{"station_id":"MRI","time":4,"distance":1590,"i_lat":-6.209883,"i_long":106.84912,"line":0,"station_name":"Manggarai","transit":true,"is_transit":true},{"station_id":"MTR","is_transit":false,"i_lat":-6.212485,"line":1,"time":2,"station_name":"Matraman","distance":1275,"transit":false,"i_long":106.858896},{"distance":1377,"station_name":"Jatinegara","station_id":"JNG","transit":true,"i_long":106.86807400000001,"line":0,"i_lat":-6.215091,"time":8,"is_transit":true},{"distance":1236,"i_lat":-6.209188,"is_transit":false,"station_name":"Pondok Jati","transit":false,"i_long":106.861737,"time":2,"line":11,"station_id":"POK"},{"i_long":106.855437,"i_lat":-6.193792,"distance":1829,"time":2,"transit":false,"line":11,"station_name":"Kramat","station_id":"KMT","is_transit":false},{"distance":973,"time":1,"line":11,"i_lat":-6.185975,"station_id":"GST","transit":false,"is_transit":false,"station_name":"Gang Sentiong","i_long":106.850107},{"station_id":"PSE","i_long":106.84368,"is_transit":false,"distance":1567,"station_name":"Pasar Senen","i_lat":-6.174784,"line":11,"transit":false,"time":8},{"i_lat":-6.161728,"i_long":106.839204,"distance":1436,"time":4,"station_name":"Kemayoran","transit":false,"station_id":"KMO","is_transit":false,"line":11},{"station_name":"Rajawali","time":5,"i_lat":-6.14505,"transit":false,"is_transit":false,"line":11,"station_id":"RJW","i_long":106.836569,"distance":1901},{"i_lat":-6.132549,"transit":true,"time":3,"station_id":"KPB","distance":1444,"i_long":106.826365,"line":0,"station_name":"Kampung Bandan","is_transit":true},{"transit":false,"distance":1364,"line":0,"time":3,"i_lat":-6.137569,"station_id":"JAKK","station_name":"Jakarta Kota","is_transit":true,"i_long":106.812439}]]}