{"data":[[{"distance":0,"station_id":"CKI","station_name":"Cikini","i_long":106.840169,"is_transit":false,"line":2,"i_lat":-6.198556,"transit":false,"time":0},{"station_id":"GDD","i_long":106.832183,"station_name":"Gondangdia","time":3,"distance":1750,"transit":false,"i_lat":-6.186295,"line":2,"is_transit":false},{"i_lat":-6.166716,"time":4,"is_transit":false,"transit":false,"line":2,"station_name":"Juanda","i_long":106.828284,"station_id":"JUA","distance":2015},{"transit":false,"line":2,"time":2,"station_id":"SW","station_name":"Sawah Besar","i_lat":-6.160725,"i_long":106.827103,"distance":1149,"is_transit":false},{"transit":false,"line":2,"time":2,"distance":906,"station_id":"MGB","i_lat":-6.149769,"i_long":106.82482,"station_name":"Manggabesar","is_transit":false},{"station_id":"JAY","is_transit":false,"transit":false,"station_name":"Jayakarta","i_lat":-6.141205,"time":2,"distance":1080,"line":2,"i_long":106.820901},{"station_id":"JAKK","i_lat":-6.137569,"line":2,"distance":1264,"i_long":106.812439,"station_name":"Jakarta Kota","transit":true,"is_transit":true,"time":4},{"line":4,"distance":1364,"station_id":"KPB","station_name":"Kampung Bandan","i_long":106.826365,"transit":true,"is_transit":true,"time":3,"i_lat":-6.132549},{"i_lat":-6.128023,"transit":false,"station_id":"AC","time":4,"distance":2185,"line":4,"station_name":"Ancol","is_transit":false,"i_long":106.84464}],[{"transit":false,"i_lat":-6.198556,"line":2,"station_id":"CKI","time":0,"distance":0,"station_name":"Cikini","i_long":106.840169,"is_transit":false},{"i_long":106.84912,"transit":true,"line":2,"distance":1590,"time":4,"is_transit":true,"station_name":"Manggarai","station_id":"MRI","i_lat":-6.209883},{"i_lat":-6.202263,"i_long":106.822649,"distance":3186,"is_transit":false,"station_id":"SUD","transit":false,"time":4,"line":1,"station_name":"Sudirman"},{"is_transit":false,"station_name":"Sudirman Baru","transit":false,"line":1,"distance":280,"station_id":"SUDB","time":1,"i_long":106.819881,"i_lat":-6.201433},{"station_name":"Karet","station_id":"KAT","distance":471,"is_transit":false,"i_lat":-6.20132,"time":1,"transit":false,"line":1,"i_long":106.816351},{"station_id":"THB","transit":false,"is_transit":false,"distance":2029,"i_long":106.811091,"line":1,"i_lat":-6.185545,"time":5,"station_name":"Tanah Abang"},{"station_name":"Duri","station_id":"DU","i_long":106.800832,"is_transit":false,"time":8,"transit":false,"i_lat":-6.155215,"line":1,"distance":3632},{"is_transit":false,"station_name":"Angke","transit":false,"station_id":"AK","i_lat":-6.144674,"i_long":106.79867,"line":1,"time":4,"distance":1230},{"i_lat":-6.132549,"time":9,"line":4,"is_transit":true,"station_name":"Kampung Bandan","transit":true,"i_long":106.826365,"station_id":"KPB","distance":4102},{"is_transit":false,"time":4,"transit":false,"station_name":"Ancol","i_lat":-6.128023,"station_id":"AC","i_long":106.84464,"line":4,"distance":2185}],[{"transit":false,"line":2,"i_long":106.840169,"is_transit":false,"time":0,"distance":0,"i_lat":-6.198556,"station_name":"Cikini","station_id":"CKI"},{"transit":true,"i_long":106.84912,"is_transit":true,"station_name":"Manggarai","station_id":"MRI","line":2,"i_lat":-6.209883,"time":4,"distance":1590},{"station_name":"Matraman","transit":false,"i_lat":-6.212485,"i_long":106.858896,"line":1,"is_transit":false,"time":2,"distance":1275,"station_id":"MTR"},{"transit":true,"i_lat":-6.215091,"time":8,"station_name":"Jatinegara","distance":1377,"station_id":"JNG","is_transit":true,"line":1,"i_long":106.86807400000001},{"time":2,"transit":false,"station_name":"Pondok Jati","is_transit":false,"distance":1236,"line":11,"i_lat":-6.209188,"i_long":106.861737,"station_id":"POK"},{"station_id":"KMT","is_transit":false,"distance":1829,"i_long":106.855437,"i_lat":-6.193792,"line":11,"transit":false,"station_name":"Kramat","time":2},{"station_name":"Gang Sentiong","i_long":106.850107,"is_transit":false,"station_id":"GST","i_lat":-6.185975,"line":11,"distance":973,"transit":false,"time":1},{"is_transit":false,"time":8,"station_id":"PSE","i_lat":-6.174784,"station_name":"Pasar Senen","i_long":106.84368,"line":11,"transit":false,"distance":1567},{"line":11,"transit":false,"i_lat":-6.161728,"time":4,"station_name":"Kemayoran","distance":1436,"i_long":106.839204,"is_transit":false,"station_id":"KMO"},{"distance":1901,"is_transit":false,"i_long":106.836569,"time":5,"i_lat":-6.14505,"line":11,"transit":false,"station_name":"Rajawali","station_id":"RJW"},{"time":3,"line":4,"i_lat":-6.132549,"station_id":"KPB","is_transit":true,"station_name":"Kampung Bandan","transit":true,"distance":1444,"i_long":106.826365},{"is_transit":false,"distance":2185,"i_lat":-6.128023,"i_long":106.84464,"station_name":"Ancol","line":4,"transit":false,"time":4,"station_id":"AC"}]]}