{"data":[[{"line":0,"station_id":"CKI","i_lat":-6.198556,"is_transit":false,"station_name":"Cikini","transit":false,"i_long":106.840169,"distance":0,"time":0},{"distance":1590,"station_name":"Manggarai","transit":true,"station_id":"MRI","is_transit":true,"line":0,"i_long":106.84912,"time":4,"i_lat":-6.209883},{"time":4,"distance":3186,"i_lat":-6.202263,"station_name":"Sudirman","station_id":"SUD","transit":false,"is_transit":false,"i_long":106.822649,"line":1},{"station_name":"Sudirman Baru","i_long":106.819881,"line":1,"time":1,"transit":false,"distance":280,"station_id":"SUDB","is_transit":false,"i_lat":-6.201433},{"station_name":"Karet","distance":471,"transit":false,"station_id":"KAT","line":1,"i_long":106.816351,"i_lat":-6.20132,"is_transit":false,"time":1},{"i_long":106.811091,"is_transit":true,"i_lat":-6.185545,"station_name":"Tanah Abang","transit":false,"distance":2029,"station_id":"THB","time":5,"line":1},{"is_transit":true,"distance":3632,"i_lat":-6.155215,"line":1,"station_id":"DU","time":8,"i_long":106.800832,"transit":true,"station_name":"Duri"},{"distance":1700,"time":3,"i_lat":-6.162021,"line":5,"i_long":106.788277,"is_transit":false,"transit":false,"station_name":"Grogol","station_id":"GGL"},{"station_id":"PSG","i_lat":-6.161433,"distance":2036,"transit":false,"station_name":"Pesing","time":2,"i_long":106.771379,"is_transit":false,"line":5},{"is_transit":false,"distance":1614,"station_name":"Taman Kota","station_id":"TKO","i_lat":-6.1587309999999995,"i_long":106.756522,"line":5,"time":2,"transit":false},{"i_long":106.737035,"station_id":"BOI","time":2,"distance":2334,"is_transit":false,"line":0,"i_lat":-6.159876,"transit":false,"station_name":"Bojongindah"},{"is_transit":false,"time":4,"station_name":"Rawa Buaya","distance":1152,"i_long":106.723064,"i_lat":-6.162758,"line":5,"station_id":"RW","transit":false},{"distance":2504,"station_name":"Kalideres","i_long":106.701612,"station_id":"KDS","i_lat":-6.166068,"transit":false,"line":5,"is_transit":false,"time":3},{"time":3,"distance":2548,"transit":false,"i_long":106.679458,"station_name":"Poris","is_transit":false,"line":5,"i_lat":-6.169933,"station_id":"PI"}],[{"station_id":"CKI","distance":0,"station_name":"Cikini","is_transit":false,"time":0,"line":0,"i_lat":-6.198556,"transit":false,"i_long":106.840169},{"line":2,"transit":false,"i_lat":-6.186295,"i_long":106.832183,"distance":1750,"time":3,"is_transit":false,"station_id":"GDD","station_name":"Gondangdia"},{"is_transit":false,"time":4,"distance":2015,"station_name":"Juanda","station_id":"JUA","transit":false,"i_lat":-6.166716,"line":2,"i_long":106.828284},{"transit":false,"i_long":106.827103,"line":2,"time":2,"station_id":"SW","is_transit":false,"i_lat":-6.160725,"distance":1149,"station_name":"Sawah Besar"},{"distance":906,"station_name":"Manggabesar","transit":false,"time":2,"is_transit":false,"i_lat":-6.149769,"i_long":106.82482,"line":2,"station_id":"MGB"},{"transit":false,"line":7,"distance":1080,"station_name":"Jayakarta","i_long":106.820901,"i_lat":-6.141205,"time":2,"is_transit":false,"station_id":"JAY"},{"is_transit":true,"time":4,"distance":1264,"station_id":"JAKK","i_long":106.812439,"line":0,"station_name":"Jakarta Kota","i_lat":-6.137569,"transit":true},{"transit":false,"line":0,"station_id":"KPB","i_long":106.826365,"station_name":"Kampung Bandan","i_lat":-6.132549,"is_transit":true,"time":3,"distance":1364},{"i_lat":-6.144674,"distance":4102,"time":9,"line":0,"transit":false,"station_id":"AK","is_transit":false,"i_long":106.79867,"station_name":"Angke"},{"i_long":106.800832,"line":1,"time":4,"is_transit":true,"distance":1230,"transit":true,"station_id":"DU","station_name":"Duri","i_lat":-6.155215},{"time":3,"line":5,"station_name":"Grogol","station_id":"GGL","distance":1700,"is_transit":false,"transit":false,"i_long":106.788277,"i_lat":-6.162021},{"distance":2036,"transit":false,"time":2,"station_name":"Pesing","line":5,"is_transit":false,"i_lat":-6.161433,"i_long":106.771379,"station_id":"PSG"},{"distance":1614,"i_long":106.756522,"line":5,"i_lat":-6.1587309999999995,"is_transit":false,"transit":false,"time":2,"station_id":"TKO","station_name":"Taman Kota"},{"line":0,"time":2,"station_name":"Bojongindah","station_id":"BOI","distance":2334,"is_transit":false,"transit":false,"i_long":106.737035,"i_lat":-6.159876},{"station_name":"Rawa Buaya","i_lat":-6.162758,"time":4,"is_transit":false,"station_id":"RW","i_long":106.723064,"distance":1152,"line":5,"transit":false},{"is_transit":false,"transit":false,"station_id":"KDS","distance":2504,"time":3,"i_long":106.701612,"i_lat":-6.166068,"line":5,"station_name":"Kalideres"},{"is_transit":false,"station_name":"Poris","distance":2548,"station_id":"PI","transit":false,"time":3,"line":5,"i_lat":-6.169933,"i_long":106.679458}],[{"line":0,"station_id":"CKI","station_name":"Cikini","i_long":106.840169,"distance":0,"time":0,"i_lat":-6.198556,"is_transit":false,"transit":false},{"time":4,"i_lat":-6.209883,"line":0,"is_transit":true,"station_name":"Manggarai","transit":true,"station_id":"MRI","i_long":106.84912,"distance":1590},{"time":2,"distance":1275,"i_lat":-6.212485,"station_id":"MTR","i_long":106.858896,"is_transit":false,"line":1,"station_name":"Matraman","transit":false},{"distance":1377,"station_id":"JNG","time":8,"station_name":"Jatinegara","transit":true,"i_long":106.86807400000001,"is_transit":true,"i_lat":-6.215091,"line":0},{"station_name":"Pondok Jati","transit":false,"distance":1236,"station_id":"POK","is_transit":false,"time":2,"i_lat":-6.209188,"i_long":106.861737,"line":11},{"time":2,"i_lat":-6.193792,"i_long":106.855437,"line":11,"station_id":"KMT","transit":false,"distance":1829,"is_transit":false,"station_name":"Kramat"},{"i_long":106.850107,"transit":false,"station_name":"Gang Sentiong","is_transit":false,"line":11,"station_id":"GST","time":1,"i_lat":-6.185975,"distance":973},{"is_transit":false,"time":8,"transit":false,"line":11,"station_id":"PSE","i_long":106.84368,"distance":1567,"i_lat":-6.174784,"station_name":"Pasar Senen"},{"transit":false,"station_id":"KMO","i_lat":-6.161728,"is_transit":false,"distance":1436,"station_name":"Kemayoran","i_long":106.839204,"line":11,"time":4},{"time":5,"i_long":106.836569,"line":11,"is_transit":false,"transit":false,"i_lat":-6.14505,"station_name":"Rajawali","station_id":"RJW","distance":1901},{"line":0,"time":3,"transit":true,"i_lat":-6.132549,"i_long":106.826365,"distance":1444,"station_name":"Kampung Bandan","is_transit":true,"station_id":"KPB"},{"i_lat":-6.144674,"i_long":106.79867,"line":0,"station_name":"Angke","is_transit":false,"time":9,"station_id":"AK","transit":false,"distance":4102},{"is_transit":true,"line":1,"i_lat":-6.155215,"station_id":"DU","i_long":106.800832,"time":4,"transit":true,"distance":1230,"station_name":"Duri"},{"station_name":"Grogol","transit":false,"is_transit":false,"time":3,"distance":1700,"i_lat":-6.162021,"i_long":106.788277,"line":5,"station_id":"GGL"},{"line":5,"time":2,"station_id":"PSG","station_name":"Pesing","transit":false,"i_lat":-6.161433,"distance":2036,"i_long":106.771379,"is_transit":false},{"station_id":"TKO","transit":false,"line":5,"i_lat":-6.1587309999999995,"i_long":106.756522,"is_transit":false,"time":2,"station_name":"Taman Kota","distance":1614},{"station_id":"BOI","is_transit":false,"time":2,"i_lat":-6.159876,"transit":false,"line":0,"distance":2334,"i_long":106.737035,"station_name":"Bojongindah"},{"is_transit":false,"transit":false,"station_name":"Rawa Buaya","i_long":106.723064,"distance":1152,"line":5,"time":4,"i_lat":-6.162758,"station_id":"RW"},{"line":5,"is_transit":false,"i_long":106.701612,"transit":false,"station_name":"Kalideres","i_lat":-6.166068,"distance":2504,"station_id":"KDS","time":3},{"i_lat":-6.169933,"station_name":"Poris","station_id":"PI","distance":2548,"time":3,"i_long":106.679458,"transit":false,"line":5,"is_transit":false}],[{"distance":0,"i_lat":-6.198556,"station_name":"Cikini","time":0,"line":0,"i_long":106.840169,"station_id":"CKI","is_transit":false,"transit":false},{"i_long":106.832183,"line":2,"distance":1750,"station_id":"GDD","i_lat":-6.186295,"station_name":"Gondangdia","transit":false,"is_transit":false,"time":3},{"transit":false,"line":2,"station_id":"JUA","time":4,"distance":2015,"i_lat":-6.166716,"i_long":106.828284,"station_name":"Juanda","is_transit":false},{"station_name":"Sawah Besar","i_lat":-6.160725,"transit":false,"is_transit":false,"time":2,"distance":1149,"station_id":"SW","i_long":106.827103,"line":2},{"transit":false,"distance":906,"line":2,"i_lat":-6.149769,"i_long":106.82482,"is_transit":false,"time":2,"station_name":"Manggabesar","station_id":"MGB"},{"time":2,"i_lat":-6.141205,"line":7,"station_name":"Jayakarta","is_transit":false,"i_long":106.820901,"station_id":"JAY","distance":1080,"transit":false},{"time":4,"i_lat":-6.137569,"station_name":"Jakarta Kota","is_transit":true,"transit":true,"station_id":"JAKK","line":0,"distance":1264,"i_long":106.812439},{"transit":true,"i_long":106.826365,"station_id":"KPB","i_lat":-6.132549,"is_transit":true,"station_name":"Kampung Bandan","line":0,"time":3,"distance":1364},{"i_long":106.836569,"i_lat":-6.14505,"time":3,"station_name":"Rajawali","is_transit":false,"line":11,"distance":1444,"station_id":"RJW","transit":false},{"transit":false,"time":5,"i_lat":-6.161728,"distance":1901,"station_name":"Kemayoran","is_transit":false,"i_long":106.839204,"station_id":"KMO","line":11},{"transit":false,"is_transit":false,"i_long":106.84368,"station_id":"PSE","time":4,"distance":1436,"station_name":"Pasar Senen","line":11,"i_lat":-6.174784},{"station_id":"GST","line":11,"time":8,"is_transit":false,"distance":1567,"i_long":106.850107,"i_lat":-6.185975,"transit":false,"station_name":"Gang Sentiong"},{"i_long":106.855437,"i_lat":-6.193792,"station_name":"Kramat","distance":973,"station_id":"KMT","transit":false,"is_transit":false,"time":1,"line":11},{"line":11,"distance":1829,"transit":false,"i_lat":-6.209188,"station_id":"POK","i_long":106.861737,"station_name":"Pondok Jati","is_transit":false,"time":2},{"time":9,"transit":true,"station_id":"JNG","is_transit":true,"station_name":"Jatinegara","i_long":106.86807400000001,"i_lat":-6.215091,"line":0,"distance":1236},{"distance":1377,"i_lat":-6.212485,"line":1,"station_id":"MTR","transit":false,"i_long":106.858896,"station_name":"Matraman","is_transit":false,"time":2},{"transit":false,"i_long":106.84912,"station_name":"Manggarai","station_id":"MRI","distance":1275,"time":2,"i_lat":-6.209883,"is_transit":true,"line":0},{"line":1,"distance":3186,"station_name":"Sudirman","transit":false,"time":4,"i_lat":-6.202263,"is_transit":false,"station_id":"SUD","i_long":106.822649},{"time":1,"i_long":106.819881,"station_name":"Sudirman Baru","station_id":"SUDB","transit":false,"is_transit":false,"i_lat":-6.201433,"distance":280,"line":1},{"station_name":"Karet","i_lat":-6.20132,"line":1,"station_id":"KAT","i_long":106.816351,"distance":471,"transit":false,"is_transit":false,"time":1},{"transit":false,"i_lat":-6.185545,"line":1,"time":5,"station_id":"THB","i_long":106.811091,"is_transit":true,"distance":2029,"station_name":"Tanah Abang"},{"station_id":"DU","line":1,"i_long":106.800832,"time":8,"distance":3632,"is_transit":true,"transit":true,"station_name":"Duri","i_lat":-6.155215},{"line":5,"time":3,"is_transit":false,"transit":false,"station_name":"Grogol","distance":1700,"station_id":"GGL","i_lat":-6.162021,"i_long":106.788277},{"line":5,"is_transit":false,"distance":2036,"station_name":"Pesing","time":2,"i_long":106.771379,"station_id":"PSG","transit":false,"i_lat":-6.161433},{"station_name":"Taman Kota","i_long":106.756522,"time":2,"i_lat":-6.1587309999999995,"station_id":"TKO","transit":false,"is_transit":false,"line":5,"distance":1614},{"i_lat":-6.159876,"time":2,"line":0,"is_transit":false,"i_long":106.737035,"transit":false,"distance":2334,"station_name":"Bojongindah","station_id":"BOI"},{"time":4,"i_long":106.723064,"i_lat":-6.162758,"line":5,"station_name":"Rawa Buaya","is_transit":false,"distance":1152,"transit":false,"station_id":"RW"},{"distance":2504,"station_name":"Kalideres","i_long":106.701612,"is_transit":false,"time":3,"transit":false,"i_lat":-6.166068,"station_id":"KDS","line":5},{"is_transit":false,"distance":2548,"transit":false,"station_id":"PI","time":3,"line":5,"i_long":106.679458,"i_lat":-6.169933,"station_name":"Poris"}]]}