{"data":[[{"i_lat":-6.198556,"station_name":"Cikini","transit":false,"line":0,"distance":0,"time":0,"is_transit":false,"i_long":106.840169,"station_id":"CKI"},{"station_name":"Manggarai","is_transit":true,"distance":1590,"station_id":"MRI","transit":true,"line":0,"time":4,"i_lat":-6.209883,"i_long":106.84912},{"time":4,"station_id":"TEB","i_long":106.857948,"distance":2610,"i_lat":-6.226659,"line":2,"station_name":"Tebet","transit":false,"is_transit":false},{"transit":false,"is_transit":false,"line":0,"i_long":106.856607,"station_id":"CW","distance":1230,"i_lat":-6.242512,"time":2,"station_name":"Cawang"},{"i_long":106.85449,"i_lat":-6.255332,"line":0,"time":3,"distance":1546,"station_id":"DRN","station_name":"Duren Kalibata","transit":false,"is_transit":false},{"i_lat":-6.263214,"i_long":106.851577,"transit":false,"distance":824,"line":2,"time":2,"station_name":"Pasar Minggu Baru","station_id":"PSMB","is_transit":false},{"is_transit":false,"station_id":"PSM","line":2,"transit":false,"i_long":106.843999,"station_name":"Pasar Minggu","i_lat":-6.2842400000000005,"time":2,"distance":2380},{"distance":2820,"i_long":106.838896,"station_id":"TNT","station_name":"Tanjung Barat","transit":false,"is_transit":false,"line":2,"time":4,"i_lat":-6.3080680000000005},{"transit":false,"is_transit":false,"line":2,"time":3,"i_lat":-6.330363,"station_id":"LNA","station_name":"Lenteng Agung","i_long":106.832616,"distance":2671},{"is_transit":false,"i_long":106.834175,"transit":false,"line":2,"station_name":"Univ. Pancasila","i_lat":-6.339291,"time":2,"distance":1029,"station_id":"UP"},{"time":3,"i_long":106.831474,"station_id":"UI","line":2,"i_lat":-6.360749,"is_transit":false,"station_name":"Univ. Indonesia","distance":2264,"transit":false},{"station_id":"POC","is_transit":false,"i_lat":-6.369073,"transit":false,"distance":1109,"i_long":106.831114,"line":2,"station_name":"Pondok Cina","time":2},{"line":0,"time":4,"station_id":"DPB","is_transit":false,"distance":2727,"transit":false,"i_lat":-6.391065,"i_long":106.819451,"station_name":"Depokbaru"},{"station_id":"DP","is_transit":false,"distance":1584,"time":3,"transit":false,"i_lat":-6.405256,"i_long":106.816926,"line":0,"station_name":"Depok"},{"i_long":106.800298,"distance":5084,"is_transit":true,"i_lat":-6.448811,"line":1,"station_name":"Citayam","time":6,"transit":false,"station_id":"CTA"},{"i_long":106.851978,"i_lat":-6.46424,"distance":6740,"is_transit":false,"time":10,"transit":false,"station_id":"CBN","line":0,"station_name":"Cibinong"},{"station_name":"Nambo","station_id":"NMO","i_lat":-6.466285,"line":21,"i_long":106.905196,"is_transit":false,"transit":false,"time":10,"distance":6527}],[{"distance":0,"i_lat":-6.198556,"station_name":"Cikini","line":0,"station_id":"CKI","transit":false,"i_long":106.840169,"is_transit":false,"time":0},{"distance":1750,"is_transit":false,"i_long":106.832183,"i_lat":-6.186295,"station_name":"Gondangdia","line":2,"transit":false,"time":3,"station_id":"GDD"},{"is_transit":false,"i_lat":-6.166716,"line":2,"distance":2015,"station_name":"Juanda","time":4,"station_id":"JUA","transit":false,"i_long":106.828284},{"line":2,"is_transit":false,"station_name":"Sawah Besar","distance":1149,"transit":false,"i_long":106.827103,"time":2,"i_lat":-6.160725,"station_id":"SW"},{"i_lat":-6.149769,"distance":906,"i_long":106.82482,"line":2,"station_id":"MGB","time":2,"transit":false,"is_transit":false,"station_name":"Manggabesar"},{"time":2,"distance":1080,"station_id":"JAY","i_lat":-6.141205,"station_name":"Jayakarta","transit":false,"i_long":106.820901,"is_transit":false,"line":7},{"i_lat":-6.137569,"i_long":106.812439,"transit":true,"is_transit":true,"station_name":"Jakarta Kota","line":0,"time":4,"distance":1264,"station_id":"JAKK"},{"transit":false,"i_lat":-6.132549,"distance":1364,"station_id":"KPB","is_transit":true,"time":3,"i_long":106.826365,"line":0,"station_name":"Kampung Bandan"},{"station_id":"AK","is_transit":false,"distance":4102,"transit":false,"time":9,"station_name":"Angke","i_lat":-6.144674,"i_long":106.79867,"line":0},{"station_name":"Duri","line":1,"time":4,"station_id":"DU","is_transit":true,"i_lat":-6.155215,"distance":1230,"transit":true,"i_long":106.800832},{"i_lat":-6.185545,"time":8,"line":1,"i_long":106.811091,"is_transit":true,"station_name":"Tanah Abang","distance":3632,"station_id":"THB","transit":false},{"transit":false,"station_name":"Karet","i_lat":-6.20132,"time":5,"i_long":106.816351,"distance":2029,"station_id":"KAT","is_transit":false,"line":1},{"i_long":106.819881,"line":1,"time":1,"distance":471,"is_transit":false,"transit":false,"station_name":"Sudirman Baru","station_id":"SUDB","i_lat":-6.201433},{"transit":false,"i_lat":-6.202263,"distance":280,"station_name":"Sudirman","i_long":106.822649,"line":1,"station_id":"SUD","time":1,"is_transit":false},{"i_lat":-6.209883,"is_transit":true,"station_name":"Manggarai","distance":3186,"i_long":106.84912,"time":4,"line":0,"station_id":"MRI","transit":true},{"transit":false,"station_id":"TEB","distance":2610,"station_name":"Tebet","is_transit":false,"time":4,"i_lat":-6.226659,"line":2,"i_long":106.857948},{"distance":1230,"is_transit":false,"station_name":"Cawang","time":2,"line":0,"transit":false,"i_lat":-6.242512,"i_long":106.856607,"station_id":"CW"},{"time":3,"is_transit":false,"station_id":"DRN","transit":false,"i_long":106.85449,"station_name":"Duren Kalibata","line":0,"distance":1546,"i_lat":-6.255332},{"distance":824,"i_long":106.851577,"is_transit":false,"transit":false,"station_name":"Pasar Minggu Baru","time":2,"i_lat":-6.263214,"station_id":"PSMB","line":2},{"station_name":"Pasar Minggu","distance":2380,"is_transit":false,"transit":false,"i_lat":-6.2842400000000005,"line":2,"i_long":106.843999,"time":2,"station_id":"PSM"},{"i_lat":-6.3080680000000005,"station_name":"Tanjung Barat","i_long":106.838896,"is_transit":false,"time":4,"transit":false,"distance":2820,"station_id":"TNT","line":2},{"line":2,"station_id":"LNA","transit":false,"station_name":"Lenteng Agung","time":3,"is_transit":false,"distance":2671,"i_lat":-6.330363,"i_long":106.832616},{"time":2,"i_lat":-6.339291,"station_name":"Univ. Pancasila","distance":1029,"is_transit":false,"i_long":106.834175,"station_id":"UP","transit":false,"line":2},{"i_long":106.831474,"station_name":"Univ. Indonesia","line":2,"distance":2264,"station_id":"UI","i_lat":-6.360749,"time":3,"transit":false,"is_transit":false},{"station_name":"Pondok Cina","distance":1109,"station_id":"POC","is_transit":false,"i_long":106.831114,"line":2,"i_lat":-6.369073,"time":2,"transit":false},{"i_lat":-6.391065,"i_long":106.819451,"station_name":"Depokbaru","station_id":"DPB","line":0,"time":4,"distance":2727,"is_transit":false,"transit":false},{"time":3,"transit":false,"distance":1584,"i_lat":-6.405256,"station_name":"Depok","station_id":"DP","is_transit":false,"i_long":106.816926,"line":0},{"distance":5084,"station_name":"Citayam","station_id":"CTA","transit":false,"is_transit":true,"i_long":106.800298,"i_lat":-6.448811,"line":1,"time":6},{"station_name":"Cibinong","line":0,"distance":6740,"is_transit":false,"station_id":"CBN","transit":false,"time":10,"i_long":106.851978,"i_lat":-6.46424},{"distance":6527,"is_transit":false,"station_name":"Nambo","i_lat":-6.466285,"i_long":106.905196,"transit":false,"line":21,"time":10,"station_id":"NMO"}],[{"time":0,"is_transit":false,"station_id":"CKI","station_name":"Cikini","transit":false,"i_lat":-6.198556,"i_long":106.840169,"line":0,"distance":0},{"i_long":106.832183,"station_id":"GDD","i_lat":-6.186295,"time":3,"station_name":"Gondangdia","is_transit":false,"line":2,"distance":1750,"transit":false},{"line":2,"transit":false,"distance":2015,"i_lat":-6.166716,"station_id":"JUA","station_name":"Juanda","time":4,"i_long":106.828284,"is_transit":false},{"time":2,"station_id":"SW","distance":1149,"i_long":106.827103,"transit":false,"is_transit":false,"i_lat":-6.160725,"station_name":"Sawah Besar","line":2},{"transit":false,"i_long":106.82482,"station_name":"Manggabesar","time":2,"station_id":"MGB","distance":906,"line":2,"is_transit":false,"i_lat":-6.149769},{"is_transit":false,"i_lat":-6.141205,"i_long":106.820901,"line":7,"station_id":"JAY","station_name":"Jayakarta","time":2,"distance":1080,"transit":false},{"station_id":"JAKK","i_lat":-6.137569,"i_long":106.812439,"line":0,"transit":true,"distance":1264,"is_transit":true,"time":4,"station_name":"Jakarta Kota"},{"distance":1364,"station_id":"KPB","station_name":"Kampung Bandan","transit":true,"line":0,"is_transit":true,"i_lat":-6.132549,"i_long":106.826365,"time":3},{"distance":1444,"i_long":106.836569,"is_transit":false,"station_id":"RJW","transit":false,"line":11,"time":3,"station_name":"Rajawali","i_lat":-6.14505},{"station_name":"Kemayoran","time":5,"line":11,"is_transit":false,"distance":1901,"transit":false,"station_id":"KMO","i_long":106.839204,"i_lat":-6.161728},{"station_id":"PSE","station_name":"Pasar Senen","distance":1436,"time":4,"is_transit":false,"i_long":106.84368,"i_lat":-6.174784,"line":11,"transit":false},{"is_transit":false,"i_lat":-6.185975,"time":8,"station_name":"Gang Sentiong","station_id":"GST","transit":false,"i_long":106.850107,"line":11,"distance":1567},{"distance":973,"station_id":"KMT","station_name":"Kramat","transit":false,"is_transit":false,"time":1,"i_lat":-6.193792,"line":11,"i_long":106.855437},{"i_lat":-6.209188,"line":11,"station_name":"Pondok Jati","time":2,"distance":1829,"station_id":"POK","is_transit":false,"i_long":106.861737,"transit":false},{"time":9,"i_lat":-6.215091,"line":0,"station_name":"Jatinegara","distance":1236,"station_id":"JNG","is_transit":true,"transit":true,"i_long":106.86807400000001},{"i_lat":-6.212485,"transit":false,"station_id":"MTR","line":1,"time":2,"station_name":"Matraman","distance":1377,"is_transit":false,"i_long":106.858896},{"is_transit":true,"i_lat":-6.209883,"i_long":106.84912,"station_id":"MRI","time":2,"distance":1275,"station_name":"Manggarai","transit":true,"line":0},{"i_long":106.857948,"distance":2610,"transit":false,"station_id":"TEB","station_name":"Tebet","i_lat":-6.226659,"line":2,"is_transit":false,"time":4},{"time":2,"transit":false,"station_name":"Cawang","is_transit":false,"station_id":"CW","i_lat":-6.242512,"i_long":106.856607,"line":0,"distance":1230},{"distance":1546,"station_id":"DRN","line":0,"i_lat":-6.255332,"station_name":"Duren Kalibata","is_transit":false,"transit":false,"i_long":106.85449,"time":3},{"station_name":"Pasar Minggu Baru","time":2,"i_lat":-6.263214,"station_id":"PSMB","is_transit":false,"line":2,"transit":false,"i_long":106.851577,"distance":824},{"line":2,"i_lat":-6.2842400000000005,"station_name":"Pasar Minggu","i_long":106.843999,"is_transit":false,"transit":false,"time":2,"station_id":"PSM","distance":2380},{"distance":2820,"i_long":106.838896,"is_transit":false,"line":2,"transit":false,"i_lat":-6.3080680000000005,"station_name":"Tanjung Barat","time":4,"station_id":"TNT"},{"station_id":"LNA","station_name":"Lenteng Agung","distance":2671,"i_long":106.832616,"time":3,"i_lat":-6.330363,"line":2,"is_transit":false,"transit":false},{"distance":1029,"is_transit":false,"i_lat":-6.339291,"i_long":106.834175,"line":2,"station_name":"Univ. Pancasila","transit":false,"time":2,"station_id":"UP"},{"time":3,"is_transit":false,"transit":false,"i_lat":-6.360749,"station_name":"Univ. Indonesia","station_id":"UI","distance":2264,"i_long":106.831474,"line":2},{"line":2,"distance":1109,"i_long":106.831114,"is_transit":false,"station_name":"Pondok Cina","time":2,"station_id":"POC","transit":false,"i_lat":-6.369073},{"station_name":"Depokbaru","station_id":"DPB","time":4,"is_transit":false,"i_lat":-6.391065,"distance":2727,"i_long":106.819451,"line":0,"transit":false},{"line":0,"station_name":"Depok","distance":1584,"time":3,"i_lat":-6.405256,"is_transit":false,"station_id":"DP","i_long":106.816926,"transit":false},{"is_transit":true,"time":6,"distance":5084,"transit":false,"i_long":106.800298,"station_name":"Citayam","i_lat":-6.448811,"station_id":"CTA","line":1},{"distance":6740,"is_transit":false,"i_long":106.851978,"line":0,"transit":false,"station_name":"Cibinong","i_lat":-6.46424,"time":10,"station_id":"CBN"},{"transit":false,"i_lat":-6.466285,"i_long":106.905196,"station_name":"Nambo","line":21,"station_id":"NMO","time":10,"distance":6527,"is_transit":false}]]}