{"data":[[{"time":0,"station_name":"Cikini","station_id":"CKI","is_transit":false,"distance":0,"line":2,"transit":false,"i_lat":-6.198556,"i_long":106.840169},{"transit":false,"time":3,"line":2,"i_lat":-6.186295,"distance":1750,"i_long":106.832183,"station_name":"Gondangdia","is_transit":false,"station_id":"GDD"},{"is_transit":false,"distance":2015,"transit":false,"time":4,"station_name":"Juanda","station_id":"JUA","i_lat":-6.166716,"i_long":106.828284,"line":2}],[{"time":0,"line":2,"i_lat":-6.198556,"i_long":106.840169,"station_id":"CKI","station_name":"Cikini","is_transit":false,"transit":false,"distance":0},{"station_name":"Manggarai","distance":1590,"station_id":"MRI","time":4,"i_lat":-6.209883,"transit":true,"line":2,"i_long":106.84912,"is_transit":true},{"time":4,"distance":3186,"line":1,"station_name":"Sudirman","i_lat":-6.202263,"is_transit":false,"station_id":"SUD","i_long":106.822649,"transit":false},{"is_transit":false,"line":1,"i_lat":-6.201433,"station_name":"Sudirman Baru","time":1,"transit":false,"station_id":"SUDB","distance":280,"i_long":106.819881},{"transit":false,"is_transit":false,"station_name":"Karet","time":1,"distance":471,"line":1,"station_id":"KAT","i_lat":-6.20132,"i_long":106.816351},{"i_long":106.811091,"station_name":"Tanah Abang","time":5,"i_lat":-6.185545,"distance":2029,"line":1,"is_transit":false,"transit":false,"station_id":"THB"},{"is_transit":false,"transit":false,"line":1,"i_long":106.800832,"i_lat":-6.155215,"station_name":"Duri","time":8,"station_id":"DU","distance":3632},{"transit":false,"distance":1230,"line":1,"station_name":"Angke","station_id":"AK","time":4,"i_long":106.79867,"is_transit":false,"i_lat":-6.144674},{"i_long":106.826365,"station_id":"KPB","line":4,"station_name":"Kampung Bandan","distance":4102,"is_transit":true,"transit":true,"time":9,"i_lat":-6.132549},{"is_transit":true,"station_id":"JAKK","station_name":"Jakarta Kota","distance":1364,"transit":true,"i_long":106.812439,"line":2,"i_lat":-6.137569,"time":3},{"line":2,"i_lat":-6.141205,"station_name":"Jayakarta","station_id":"JAY","i_long":106.820901,"transit":false,"is_transit":false,"time":4,"distance":1264},{"is_transit":false,"station_id":"MGB","i_long":106.82482,"station_name":"Manggabesar","i_lat":-6.149769,"distance":1080,"transit":false,"line":2,"time":2},{"line":2,"time":2,"station_id":"SW","transit":false,"distance":906,"i_long":106.827103,"station_name":"Sawah Besar","is_transit":false,"i_lat":-6.160725},{"is_transit":false,"i_lat":-6.166716,"time":2,"station_id":"JUA","distance":1149,"i_long":106.828284,"line":2,"station_name":"Juanda","transit":false}],[{"i_lat":-6.198556,"time":0,"transit":false,"station_id":"CKI","line":2,"distance":0,"is_transit":false,"i_long":106.840169,"station_name":"Cikini"},{"is_transit":true,"i_long":106.84912,"station_name":"Manggarai","station_id":"MRI","distance":1590,"transit":true,"i_lat":-6.209883,"line":2,"time":4},{"i_lat":-6.212485,"line":1,"distance":1275,"station_name":"Matraman","i_long":106.858896,"is_transit":false,"transit":false,"station_id":"MTR","time":2},{"time":8,"station_name":"Jatinegara","is_transit":true,"station_id":"JNG","transit":true,"i_lat":-6.215091,"line":1,"i_long":106.86807400000001,"distance":1377},{"transit":false,"i_lat":-6.209188,"i_long":106.861737,"station_name":"Pondok Jati","distance":1236,"line":11,"is_transit":false,"station_id":"POK","time":2},{"line":11,"transit":false,"i_long":106.855437,"distance":1829,"i_lat":-6.193792,"station_name":"Kramat","is_transit":false,"station_id":"KMT","time":2},{"station_id":"GST","station_name":"Gang Sentiong","is_transit":false,"i_long":106.850107,"time":1,"line":11,"transit":false,"distance":973,"i_lat":-6.185975},{"time":8,"station_id":"PSE","transit":false,"is_transit":false,"distance":1567,"station_name":"Pasar Senen","line":11,"i_lat":-6.174784,"i_long":106.84368},{"line":11,"transit":false,"distance":1436,"time":4,"i_long":106.839204,"is_transit":false,"station_name":"Kemayoran","station_id":"KMO","i_lat":-6.161728},{"line":11,"i_lat":-6.14505,"station_id":"RJW","transit":false,"station_name":"Rajawali","i_long":106.836569,"distance":1901,"is_transit":false,"time":5},{"line":4,"time":3,"is_transit":true,"distance":1444,"i_lat":-6.132549,"transit":true,"i_long":106.826365,"station_id":"KPB","station_name":"Kampung Bandan"},{"i_lat":-6.137569,"transit":true,"station_id":"JAKK","i_long":106.812439,"line":2,"time":3,"distance":1364,"is_transit":true,"station_name":"Jakarta Kota"},{"time":4,"station_id":"JAY","transit":false,"is_transit":false,"distance":1264,"station_name":"Jayakarta","i_long":106.820901,"line":2,"i_lat":-6.141205},{"station_name":"Manggabesar","station_id":"MGB","time":2,"i_lat":-6.149769,"distance":1080,"i_long":106.82482,"is_transit":false,"line":2,"transit":false},{"transit":false,"i_lat":-6.160725,"i_long":106.827103,"line":2,"station_name":"Sawah Besar","is_transit":false,"time":2,"station_id":"SW","distance":906},{"station_id":"JUA","distance":1149,"is_transit":false,"transit":false,"i_long":106.828284,"time":2,"i_lat":-6.166716,"line":2,"station_name":"Juanda"}]]}