{"data":[[{"line":0,"time":0,"i_long":106.840169,"station_name":"Cikini","transit":false,"distance":0,"is_transit":false,"i_lat":-6.198556,"station_id":"CKI"},{"time":3,"is_transit":false,"line":2,"i_long":106.832183,"station_name":"Gondangdia","distance":1750,"transit":false,"i_lat":-6.186295,"station_id":"GDD"},{"station_name":"Juanda","is_transit":false,"distance":2015,"station_id":"JUA","i_lat":-6.166716,"time":4,"i_long":106.828284,"line":2,"transit":false}],[{"i_long":106.840169,"time":0,"station_name":"Cikini","transit":false,"is_transit":false,"i_lat":-6.198556,"line":0,"station_id":"CKI","distance":0},{"i_lat":-6.209883,"distance":1590,"time":4,"is_transit":true,"station_id":"MRI","i_long":106.84912,"transit":true,"line":0,"station_name":"Manggarai"},{"station_name":"Sudirman","distance":3186,"transit":false,"is_transit":false,"line":1,"station_id":"SUD","time":4,"i_long":106.822649,"i_lat":-6.202263},{"station_name":"Sudirman Baru","transit":false,"i_long":106.819881,"distance":280,"i_lat":-6.201433,"time":1,"line":1,"station_id":"SUDB","is_transit":false},{"line":1,"distance":471,"is_transit":false,"time":1,"i_long":106.816351,"i_lat":-6.20132,"transit":false,"station_id":"KAT","station_name":"Karet"},{"line":1,"station_id":"THB","time":5,"station_name":"Tanah Abang","distance":2029,"transit":false,"is_transit":true,"i_lat":-6.185545,"i_long":106.811091},{"distance":3632,"is_transit":true,"station_name":"Duri","transit":true,"time":8,"i_lat":-6.155215,"station_id":"DU","i_long":106.800832,"line":1},{"i_long":106.79867,"station_name":"Angke","line":0,"station_id":"AK","is_transit":false,"time":4,"distance":1230,"transit":false,"i_lat":-6.144674},{"i_lat":-6.132549,"distance":4102,"i_long":106.826365,"line":0,"is_transit":true,"station_id":"KPB","transit":false,"time":9,"station_name":"Kampung Bandan"},{"station_name":"Jakarta Kota","station_id":"JAKK","distance":1364,"transit":true,"i_lat":-6.137569,"is_transit":true,"i_long":106.812439,"line":0,"time":3},{"transit":false,"station_id":"JAY","time":4,"line":7,"is_transit":false,"i_lat":-6.141205,"distance":1264,"i_long":106.820901,"station_name":"Jayakarta"},{"time":2,"distance":1080,"transit":false,"is_transit":false,"station_id":"MGB","station_name":"Manggabesar","line":2,"i_long":106.82482,"i_lat":-6.149769},{"distance":906,"station_name":"Sawah Besar","time":2,"station_id":"SW","is_transit":false,"transit":false,"i_long":106.827103,"line":2,"i_lat":-6.160725},{"is_transit":false,"i_long":106.828284,"i_lat":-6.166716,"station_id":"JUA","time":2,"distance":1149,"station_name":"Juanda","transit":false,"line":2}],[{"i_long":106.840169,"time":0,"is_transit":false,"transit":false,"station_name":"Cikini","distance":0,"station_id":"CKI","line":0,"i_lat":-6.198556},{"transit":true,"distance":1590,"is_transit":true,"time":4,"line":0,"station_id":"MRI","station_name":"Manggarai","i_lat":-6.209883,"i_long":106.84912},{"is_transit":false,"time":2,"station_name":"Matraman","i_long":106.858896,"line":1,"station_id":"MTR","transit":false,"distance":1275,"i_lat":-6.212485},{"is_transit":true,"i_long":106.86807400000001,"station_id":"JNG","station_name":"Jatinegara","i_lat":-6.215091,"line":0,"time":8,"transit":true,"distance":1377},{"station_id":"POK","transit":false,"i_long":106.861737,"line":11,"time":2,"distance":1236,"is_transit":false,"i_lat":-6.209188,"station_name":"Pondok Jati"},{"line":11,"station_id":"KMT","distance":1829,"i_long":106.855437,"station_name":"Kramat","transit":false,"time":2,"is_transit":false,"i_lat":-6.193792},{"line":11,"i_long":106.850107,"i_lat":-6.185975,"transit":false,"station_id":"GST","station_name":"Gang Sentiong","time":1,"distance":973,"is_transit":false},{"is_transit":false,"i_lat":-6.174784,"station_id":"PSE","transit":false,"i_long":106.84368,"station_name":"Pasar Senen","distance":1567,"time":8,"line":11},{"transit":false,"i_lat":-6.161728,"line":11,"is_transit":false,"distance":1436,"time":4,"i_long":106.839204,"station_name":"Kemayoran","station_id":"KMO"},{"distance":1901,"i_long":106.836569,"station_name":"Rajawali","line":11,"i_lat":-6.14505,"time":5,"is_transit":false,"transit":false,"station_id":"RJW"},{"i_long":106.826365,"station_id":"KPB","i_lat":-6.132549,"time":3,"is_transit":true,"line":0,"station_name":"Kampung Bandan","distance":1444,"transit":true},{"is_transit":true,"time":3,"i_long":106.812439,"station_id":"JAKK","line":0,"station_name":"Jakarta Kota","i_lat":-6.137569,"distance":1364,"transit":true},{"distance":1264,"time":4,"is_transit":false,"station_name":"Jayakarta","station_id":"JAY","line":7,"i_long":106.820901,"transit":false,"i_lat":-6.141205},{"i_long":106.82482,"time":2,"station_name":"Manggabesar","is_transit":false,"i_lat":-6.149769,"distance":1080,"transit":false,"station_id":"MGB","line":2},{"time":2,"is_transit":false,"distance":906,"i_long":106.827103,"station_name":"Sawah Besar","station_id":"SW","transit":false,"line":2,"i_lat":-6.160725},{"line":2,"is_transit":false,"i_lat":-6.166716,"station_name":"Juanda","time":2,"transit":false,"station_id":"JUA","distance":1149,"i_long":106.828284}]]}