{"data":[[{"distance":0,"i_long":106.840169,"transit":false,"line":2,"time":0,"station_name":"Cikini","is_transit":false,"station_id":"CKI","i_lat":-6.198556},{"transit":true,"time":4,"station_id":"MRI","i_long":106.84912,"line":2,"distance":1590,"is_transit":true,"station_name":"Manggarai","i_lat":-6.209883},{"i_long":106.822649,"i_lat":-6.202263,"station_name":"Sudirman","time":4,"is_transit":false,"station_id":"SUD","distance":3186,"transit":false,"line":1},{"time":1,"station_id":"SUDB","distance":280,"i_long":106.819881,"is_transit":false,"i_lat":-6.201433,"station_name":"Sudirman Baru","line":1,"transit":false},{"transit":false,"station_id":"KAT","is_transit":false,"i_lat":-6.20132,"time":1,"station_name":"Karet","distance":471,"i_long":106.816351,"line":1},{"i_long":106.811091,"line":1,"i_lat":-6.185545,"station_id":"THB","is_transit":true,"distance":2029,"transit":true,"time":5,"station_name":"Tanah Abang"},{"station_id":"PLM","line":6,"distance":3191,"transit":false,"i_long":106.79689,"is_transit":false,"station_name":"Palmerah","time":6,"i_lat":-6.207404},{"line":6,"station_id":"KBY","i_long":106.780334,"distance":3737,"station_name":"Kebayoran","transit":false,"time":7,"i_lat":-6.237242,"is_transit":false},{"time":8,"i_long":106.74273,"is_transit":false,"station_name":"Pondokranji","station_id":"PDJ","i_lat":-6.276362,"transit":false,"distance":6218,"line":6},{"line":6,"distance":2179,"transit":false,"is_transit":false,"time":3,"i_long":106.728916,"i_lat":-6.288927,"station_id":"JMU","station_name":"Jurangmangu"},{"i_lat":-6.296963,"station_id":"SDM","i_long":106.712277,"distance":1994,"station_name":"Sudimara","transit":false,"time":4,"line":6,"is_transit":false},{"i_long":106.675475,"station_name":"Rawa Buntu","distance":4566,"time":6,"line":6,"station_id":"RU","is_transit":false,"transit":false,"i_lat":-6.314823},{"i_long":106.66566,"station_name":"Serpong","station_id":"SRP","transit":false,"i_lat":-6.319871,"line":6,"is_transit":false,"time":4,"distance":2413},{"is_transit":false,"transit":false,"i_long":106.640411,"time":4,"i_lat":-6.32484,"station_name":"Cisauk","distance":1784,"line":3,"station_id":"CSK"},{"station_id":"CC","i_long":106.617853,"line":3,"distance":2519,"time":4,"is_transit":false,"transit":false,"i_lat":-6.329547,"station_name":"Cicayur"},{"distance":5968,"i_long":106.568863,"line":6,"transit":false,"i_lat":-6.3441410000000005,"station_name":"Parung Panjang","time":8,"station_id":"PRP","is_transit":false},{"line":3,"is_transit":false,"i_long":106.508482,"transit":false,"time":9,"station_id":"CJT","station_name":"Cilejit","distance":7025,"i_lat":-6.354349},{"i_long":106.491338,"time":6,"distance":2675,"is_transit":false,"transit":false,"station_id":"DAR","line":0,"station_name":"Daru","i_lat":-6.338021},{"distance":3902,"i_lat":-6.327251,"line":6,"time":5,"station_id":"TEJ","i_long":106.460812,"station_name":"Tenjo","transit":false,"is_transit":false},{"station_id":"TGS","i_long":106.425991,"time":5,"transit":false,"i_lat":-6.328533,"line":6,"station_name":"Tigaraksa","distance":2974,"is_transit":false},{"line":3,"distance":2651,"i_lat":-6.33561,"i_long":106.411216,"time":3,"transit":false,"is_transit":false,"station_name":"Cikoya","station_id":"CKY"},{"i_long":106.394373,"transit":false,"distance":1853,"station_id":"MJ","station_name":"Maja","time":4,"is_transit":false,"i_lat":-6.332307,"line":6},{"distance":7293,"is_transit":false,"i_lat":-6.334892,"transit":false,"line":3,"time":10,"i_long":106.332092,"station_name":"Citeras","station_id":"CTR"}],[{"line":2,"time":0,"i_lat":-6.198556,"transit":false,"i_long":106.840169,"distance":0,"station_name":"Cikini","is_transit":false,"station_id":"CKI"},{"i_long":106.832183,"line":2,"distance":1750,"station_id":"GDD","transit":false,"station_name":"Gondangdia","time":3,"i_lat":-6.186295,"is_transit":false},{"distance":2015,"transit":false,"station_id":"JUA","i_lat":-6.166716,"time":4,"is_transit":false,"line":2,"i_long":106.828284,"station_name":"Juanda"},{"time":2,"distance":1149,"is_transit":false,"station_id":"SW","line":2,"i_long":106.827103,"station_name":"Sawah Besar","transit":false,"i_lat":-6.160725},{"line":2,"i_long":106.82482,"distance":906,"station_name":"Manggabesar","i_lat":-6.149769,"transit":false,"is_transit":false,"time":2,"station_id":"MGB"},{"station_id":"JAY","is_transit":false,"i_long":106.820901,"time":2,"i_lat":-6.141205,"distance":1080,"station_name":"Jayakarta","transit":false,"line":2},{"transit":true,"i_lat":-6.137569,"line":2,"station_name":"Jakarta Kota","station_id":"JAKK","time":4,"is_transit":true,"i_long":106.812439,"distance":1264},{"station_id":"KPB","i_lat":-6.132549,"line":4,"is_transit":true,"station_name":"Kampung Bandan","transit":true,"i_long":106.826365,"distance":1364,"time":3},{"time":9,"is_transit":false,"distance":4102,"station_name":"Angke","i_lat":-6.144674,"line":1,"station_id":"AK","transit":false,"i_long":106.79867},{"time":4,"i_long":106.800832,"i_lat":-6.155215,"transit":false,"station_id":"DU","station_name":"Duri","distance":1230,"line":1,"is_transit":false},{"i_lat":-6.185545,"i_long":106.811091,"time":8,"distance":3632,"station_name":"Tanah Abang","transit":true,"is_transit":true,"line":1,"station_id":"THB"},{"line":6,"distance":3191,"station_name":"Palmerah","station_id":"PLM","time":6,"is_transit":false,"i_long":106.79689,"transit":false,"i_lat":-6.207404},{"time":7,"transit":false,"distance":3737,"station_name":"Kebayoran","is_transit":false,"line":6,"station_id":"KBY","i_lat":-6.237242,"i_long":106.780334},{"line":6,"i_long":106.74273,"station_id":"PDJ","i_lat":-6.276362,"distance":6218,"time":8,"is_transit":false,"station_name":"Pondokranji","transit":false},{"transit":false,"i_long":106.728916,"distance":2179,"station_name":"Jurangmangu","i_lat":-6.288927,"time":3,"is_transit":false,"station_id":"JMU","line":6},{"i_long":106.712277,"station_name":"Sudimara","time":4,"transit":false,"is_transit":false,"distance":1994,"station_id":"SDM","line":6,"i_lat":-6.296963},{"station_name":"Rawa Buntu","i_lat":-6.314823,"station_id":"RU","distance":4566,"transit":false,"line":6,"i_long":106.675475,"is_transit":false,"time":6},{"time":4,"i_lat":-6.319871,"is_transit":false,"i_long":106.66566,"transit":false,"distance":2413,"station_name":"Serpong","line":6,"station_id":"SRP"},{"i_lat":-6.32484,"i_long":106.640411,"line":3,"time":4,"station_id":"CSK","distance":1784,"is_transit":false,"station_name":"Cisauk","transit":false},{"transit":false,"i_long":106.617853,"station_id":"CC","is_transit":false,"distance":2519,"i_lat":-6.329547,"line":3,"station_name":"Cicayur","time":4},{"transit":false,"line":6,"distance":5968,"station_name":"Parung Panjang","station_id":"PRP","time":8,"is_transit":false,"i_lat":-6.3441410000000005,"i_long":106.568863},{"i_long":106.508482,"is_transit":false,"station_id":"CJT","distance":7025,"time":9,"transit":false,"i_lat":-6.354349,"line":3,"station_name":"Cilejit"},{"is_transit":false,"i_lat":-6.338021,"distance":2675,"station_id":"DAR","transit":false,"i_long":106.491338,"time":6,"line":0,"station_name":"Daru"},{"i_lat":-6.327251,"station_name":"Tenjo","i_long":106.460812,"station_id":"TEJ","transit":false,"distance":3902,"time":5,"line":6,"is_transit":false},{"station_id":"TGS","line":6,"station_name":"Tigaraksa","time":5,"i_lat":-6.328533,"i_long":106.425991,"transit":false,"distance":2974,"is_transit":false},{"line":3,"station_name":"Cikoya","transit":false,"time":3,"station_id":"CKY","i_long":106.411216,"distance":2651,"i_lat":-6.33561,"is_transit":false},{"transit":false,"i_long":106.394373,"is_transit":false,"station_name":"Maja","line":6,"time":4,"station_id":"MJ","distance":1853,"i_lat":-6.332307},{"station_name":"Citeras","time":10,"i_lat":-6.334892,"line":3,"is_transit":false,"i_long":106.332092,"transit":false,"station_id":"CTR","distance":7293}],[{"time":0,"i_long":106.840169,"is_transit":false,"station_name":"Cikini","i_lat":-6.198556,"transit":false,"line":2,"station_id":"CKI","distance":0},{"line":2,"time":4,"transit":true,"distance":1590,"i_lat":-6.209883,"i_long":106.84912,"station_id":"MRI","is_transit":true,"station_name":"Manggarai"},{"station_name":"Matraman","is_transit":false,"station_id":"MTR","i_lat":-6.212485,"i_long":106.858896,"time":2,"line":1,"transit":false,"distance":1275},{"i_lat":-6.215091,"time":8,"line":1,"i_long":106.86807400000001,"distance":1377,"station_name":"Jatinegara","transit":true,"station_id":"JNG","is_transit":true},{"station_id":"POK","line":11,"i_lat":-6.209188,"i_long":106.861737,"transit":false,"is_transit":false,"station_name":"Pondok Jati","time":2,"distance":1236},{"station_id":"KMT","time":2,"transit":false,"distance":1829,"i_long":106.855437,"is_transit":false,"station_name":"Kramat","i_lat":-6.193792,"line":11},{"station_name":"Gang Sentiong","distance":973,"i_long":106.850107,"is_transit":false,"i_lat":-6.185975,"line":11,"station_id":"GST","transit":false,"time":1},{"station_name":"Pasar Senen","i_long":106.84368,"distance":1567,"transit":false,"i_lat":-6.174784,"time":8,"is_transit":false,"line":11,"station_id":"PSE"},{"line":11,"i_long":106.839204,"i_lat":-6.161728,"station_id":"KMO","distance":1436,"station_name":"Kemayoran","transit":false,"time":4,"is_transit":false},{"line":11,"station_name":"Rajawali","distance":1901,"time":5,"station_id":"RJW","is_transit":false,"transit":false,"i_lat":-6.14505,"i_long":106.836569},{"transit":true,"time":3,"line":4,"distance":1444,"i_lat":-6.132549,"is_transit":true,"station_name":"Kampung Bandan","station_id":"KPB","i_long":106.826365},{"time":9,"station_id":"AK","transit":false,"is_transit":false,"line":1,"distance":4102,"station_name":"Angke","i_lat":-6.144674,"i_long":106.79867},{"distance":1230,"is_transit":false,"line":1,"time":4,"station_id":"DU","transit":false,"i_lat":-6.155215,"i_long":106.800832,"station_name":"Duri"},{"station_id":"THB","is_transit":true,"distance":3632,"i_lat":-6.185545,"i_long":106.811091,"time":8,"line":1,"station_name":"Tanah Abang","transit":true},{"is_transit":false,"station_id":"PLM","distance":3191,"i_long":106.79689,"station_name":"Palmerah","transit":false,"time":6,"i_lat":-6.207404,"line":6},{"station_id":"KBY","time":7,"transit":false,"distance":3737,"line":6,"station_name":"Kebayoran","i_long":106.780334,"i_lat":-6.237242,"is_transit":false},{"line":6,"transit":false,"station_name":"Pondokranji","i_lat":-6.276362,"i_long":106.74273,"distance":6218,"is_transit":false,"time":8,"station_id":"PDJ"},{"i_lat":-6.288927,"line":6,"distance":2179,"is_transit":false,"transit":false,"time":3,"station_id":"JMU","station_name":"Jurangmangu","i_long":106.728916},{"time":4,"line":6,"transit":false,"is_transit":false,"i_lat":-6.296963,"i_long":106.712277,"station_id":"SDM","distance":1994,"station_name":"Sudimara"},{"time":6,"i_lat":-6.314823,"is_transit":false,"distance":4566,"line":6,"station_id":"RU","station_name":"Rawa Buntu","i_long":106.675475,"transit":false},{"transit":false,"station_name":"Serpong","i_long":106.66566,"i_lat":-6.319871,"station_id":"SRP","distance":2413,"time":4,"line":6,"is_transit":false},{"transit":false,"is_transit":false,"time":4,"i_lat":-6.32484,"station_name":"Cisauk","line":3,"i_long":106.640411,"distance":1784,"station_id":"CSK"},{"i_lat":-6.329547,"station_id":"CC","i_long":106.617853,"transit":false,"station_name":"Cicayur","time":4,"line":3,"distance":2519,"is_transit":false},{"station_id":"PRP","distance":5968,"time":8,"i_long":106.568863,"line":6,"i_lat":-6.3441410000000005,"transit":false,"is_transit":false,"station_name":"Parung Panjang"},{"station_name":"Cilejit","transit":false,"distance":7025,"i_lat":-6.354349,"i_long":106.508482,"line":3,"is_transit":false,"station_id":"CJT","time":9},{"transit":false,"i_long":106.491338,"line":0,"is_transit":false,"time":6,"station_name":"Daru","station_id":"DAR","distance":2675,"i_lat":-6.338021},{"transit":false,"distance":3902,"time":5,"station_name":"Tenjo","line":6,"i_lat":-6.327251,"is_transit":false,"i_long":106.460812,"station_id":"TEJ"},{"transit":false,"i_long":106.425991,"line":6,"distance":2974,"station_id":"TGS","time":5,"i_lat":-6.328533,"station_name":"Tigaraksa","is_transit":false},{"station_id":"CKY","time":3,"distance":2651,"transit":false,"i_long":106.411216,"line":3,"is_transit":false,"station_name":"Cikoya","i_lat":-6.33561},{"station_name":"Maja","is_transit":false,"i_lat":-6.332307,"distance":1853,"transit":false,"time":4,"i_long":106.394373,"station_id":"MJ","line":6},{"is_transit":false,"line":3,"station_id":"CTR","i_lat":-6.334892,"time":10,"station_name":"Citeras","distance":7293,"transit":false,"i_long":106.332092}],[{"is_transit":false,"time":0,"transit":false,"i_long":106.840169,"i_lat":-6.198556,"line":2,"station_id":"CKI","distance":0,"station_name":"Cikini"},{"distance":1750,"station_name":"Gondangdia","i_lat":-6.186295,"i_long":106.832183,"line":2,"is_transit":false,"station_id":"GDD","transit":false,"time":3},{"station_name":"Juanda","transit":false,"distance":2015,"i_lat":-6.166716,"is_transit":false,"i_long":106.828284,"line":2,"time":4,"station_id":"JUA"},{"is_transit":false,"distance":1149,"i_long":106.827103,"transit":false,"station_name":"Sawah Besar","time":2,"line":2,"station_id":"SW","i_lat":-6.160725},{"station_name":"Manggabesar","i_long":106.82482,"station_id":"MGB","transit":false,"line":2,"time":2,"distance":906,"i_lat":-6.149769,"is_transit":false},{"station_name":"Jayakarta","i_long":106.820901,"is_transit":false,"distance":1080,"line":2,"station_id":"JAY","transit":false,"i_lat":-6.141205,"time":2},{"i_long":106.812439,"time":4,"line":2,"station_name":"Jakarta Kota","distance":1264,"station_id":"JAKK","transit":true,"is_transit":true,"i_lat":-6.137569},{"time":3,"is_transit":true,"station_id":"KPB","distance":1364,"i_lat":-6.132549,"i_long":106.826365,"line":4,"transit":true,"station_name":"Kampung Bandan"},{"time":3,"transit":false,"i_long":106.836569,"station_name":"Rajawali","is_transit":false,"distance":1444,"line":11,"station_id":"RJW","i_lat":-6.14505},{"transit":false,"is_transit":false,"station_name":"Kemayoran","i_long":106.839204,"time":5,"line":11,"distance":1901,"i_lat":-6.161728,"station_id":"KMO"},{"transit":false,"station_name":"Pasar Senen","time":4,"station_id":"PSE","distance":1436,"is_transit":false,"i_lat":-6.174784,"i_long":106.84368,"line":11},{"station_name":"Gang Sentiong","is_transit":false,"time":8,"i_long":106.850107,"distance":1567,"line":11,"station_id":"GST","i_lat":-6.185975,"transit":false},{"transit":false,"station_name":"Kramat","line":11,"is_transit":false,"distance":973,"i_long":106.855437,"i_lat":-6.193792,"station_id":"KMT","time":1},{"i_long":106.861737,"station_name":"Pondok Jati","station_id":"POK","time":2,"is_transit":false,"i_lat":-6.209188,"line":11,"transit":false,"distance":1829},{"time":9,"transit":true,"i_lat":-6.215091,"i_long":106.86807400000001,"station_id":"JNG","line":1,"is_transit":true,"distance":1236,"station_name":"Jatinegara"},{"line":1,"station_name":"Matraman","is_transit":false,"i_long":106.858896,"i_lat":-6.212485,"station_id":"MTR","time":2,"distance":1377,"transit":false},{"station_id":"MRI","i_long":106.84912,"distance":1275,"is_transit":false,"line":2,"station_name":"Manggarai","i_lat":-6.209883,"time":2,"transit":false},{"line":1,"transit":false,"i_lat":-6.202263,"station_name":"Sudirman","is_transit":false,"distance":3186,"station_id":"SUD","time":4,"i_long":106.822649},{"time":1,"transit":false,"station_id":"SUDB","distance":280,"line":1,"i_long":106.819881,"station_name":"Sudirman Baru","is_transit":false,"i_lat":-6.201433},{"distance":471,"i_long":106.816351,"transit":false,"station_name":"Karet","time":1,"station_id":"KAT","i_lat":-6.20132,"is_transit":false,"line":1},{"time":5,"is_transit":true,"line":1,"station_name":"Tanah Abang","distance":2029,"transit":true,"i_long":106.811091,"station_id":"THB","i_lat":-6.185545},{"transit":false,"i_lat":-6.207404,"time":6,"i_long":106.79689,"distance":3191,"is_transit":false,"station_id":"PLM","line":6,"station_name":"Palmerah"},{"i_long":106.780334,"line":6,"transit":false,"time":7,"i_lat":-6.237242,"is_transit":false,"station_name":"Kebayoran","station_id":"KBY","distance":3737},{"line":6,"is_transit":false,"distance":6218,"transit":false,"station_id":"PDJ","station_name":"Pondokranji","i_lat":-6.276362,"time":8,"i_long":106.74273},{"time":3,"station_name":"Jurangmangu","station_id":"JMU","i_long":106.728916,"i_lat":-6.288927,"is_transit":false,"line":6,"transit":false,"distance":2179},{"distance":1994,"i_long":106.712277,"station_name":"Sudimara","is_transit":false,"station_id":"SDM","time":4,"line":6,"transit":false,"i_lat":-6.296963},{"is_transit":false,"i_long":106.675475,"line":6,"i_lat":-6.314823,"station_id":"RU","distance":4566,"station_name":"Rawa Buntu","time":6,"transit":false},{"transit":false,"i_lat":-6.319871,"distance":2413,"station_name":"Serpong","station_id":"SRP","is_transit":false,"line":6,"time":4,"i_long":106.66566},{"is_transit":false,"time":4,"station_name":"Cisauk","line":3,"i_long":106.640411,"distance":1784,"transit":false,"station_id":"CSK","i_lat":-6.32484},{"time":4,"i_lat":-6.329547,"transit":false,"i_long":106.617853,"station_name":"Cicayur","station_id":"CC","line":3,"distance":2519,"is_transit":false},{"i_lat":-6.3441410000000005,"station_name":"Parung Panjang","i_long":106.568863,"station_id":"PRP","is_transit":false,"time":8,"line":6,"transit":false,"distance":5968},{"i_lat":-6.354349,"time":9,"station_id":"CJT","station_name":"Cilejit","transit":false,"distance":7025,"is_transit":false,"line":3,"i_long":106.508482},{"i_long":106.491338,"line":0,"is_transit":false,"time":6,"station_id":"DAR","distance":2675,"i_lat":-6.338021,"station_name":"Daru","transit":false},{"station_name":"Tenjo","station_id":"TEJ","time":5,"i_long":106.460812,"transit":false,"line":6,"i_lat":-6.327251,"distance":3902,"is_transit":false},{"is_transit":false,"i_long":106.425991,"line":6,"time":5,"station_id":"TGS","distance":2974,"transit":false,"station_name":"Tigaraksa","i_lat":-6.328533},{"i_long":106.411216,"line":3,"station_id":"CKY","station_name":"Cikoya","is_transit":false,"transit":false,"time":3,"distance":2651,"i_lat":-6.33561},{"transit":false,"station_name":"Maja","i_long":106.394373,"distance":1853,"station_id":"MJ","time":4,"is_transit":false,"i_lat":-6.332307,"line":6},{"station_id":"CTR","i_lat":-6.334892,"station_name":"Citeras","i_long":106.332092,"distance":7293,"line":3,"time":10,"is_transit":false,"transit":false}]]}