{"data":[[{"i_long":106.840169,"transit":false,"station_id":"CKI","distance":0,"line":2,"i_lat":-6.198556,"is_transit":false,"station_name":"Cikini","time":0},{"distance":1590,"is_transit":false,"i_lat":-6.209883,"station_id":"MRI","i_long":106.84912,"line":2,"transit":false,"time":4,"station_name":"Manggarai"},{"time":4,"distance":2610,"station_name":"Tebet","transit":false,"is_transit":false,"station_id":"TEB","i_long":106.857948,"line":2,"i_lat":-6.226659},{"station_id":"CW","transit":false,"station_name":"Cawang","line":2,"time":2,"distance":1230,"is_transit":false,"i_lat":-6.242512,"i_long":106.856607},{"station_id":"DRN","is_transit":false,"transit":false,"i_long":106.85449,"line":2,"i_lat":-6.255332,"station_name":"Duren Kalibata","distance":1546,"time":3}],[{"station_name":"Cikini","time":0,"transit":false,"line":2,"is_transit":false,"station_id":"CKI","i_lat":-6.198556,"distance":0,"i_long":106.840169},{"time":3,"i_lat":-6.186295,"is_transit":false,"distance":1750,"line":2,"i_long":106.832183,"station_name":"Gondangdia","station_id":"GDD","transit":false},{"i_lat":-6.166716,"time":4,"station_name":"Juanda","is_transit":false,"transit":false,"i_long":106.828284,"line":2,"distance":2015,"station_id":"JUA"},{"station_id":"SW","i_lat":-6.160725,"line":2,"time":2,"station_name":"Sawah Besar","i_long":106.827103,"is_transit":false,"transit":false,"distance":1149},{"station_name":"Manggabesar","distance":906,"line":2,"is_transit":false,"i_lat":-6.149769,"i_long":106.82482,"time":2,"transit":false,"station_id":"MGB"},{"station_id":"JAY","is_transit":false,"time":2,"i_long":106.820901,"station_name":"Jayakarta","transit":false,"distance":1080,"i_lat":-6.141205,"line":2},{"station_name":"Jakarta Kota","distance":1264,"transit":true,"i_lat":-6.137569,"is_transit":true,"time":4,"station_id":"JAKK","line":2,"i_long":106.812439},{"transit":true,"station_id":"KPB","station_name":"Kampung Bandan","i_long":106.826365,"distance":1364,"line":4,"is_transit":true,"time":3,"i_lat":-6.132549},{"is_transit":false,"transit":false,"i_long":106.79867,"distance":4102,"station_id":"AK","time":9,"station_name":"Angke","line":1,"i_lat":-6.144674},{"station_name":"Duri","is_transit":false,"transit":false,"time":4,"i_lat":-6.155215,"distance":1230,"station_id":"DU","i_long":106.800832,"line":1},{"i_long":106.811091,"station_id":"THB","time":8,"station_name":"Tanah Abang","transit":false,"is_transit":false,"i_lat":-6.185545,"line":1,"distance":3632},{"line":1,"is_transit":false,"i_long":106.816351,"transit":false,"station_name":"Karet","station_id":"KAT","i_lat":-6.20132,"time":5,"distance":2029},{"station_name":"Sudirman Baru","distance":471,"is_transit":false,"i_lat":-6.201433,"time":1,"i_long":106.819881,"line":1,"station_id":"SUDB","transit":false},{"is_transit":false,"time":1,"station_id":"SUD","i_lat":-6.202263,"distance":280,"line":1,"station_name":"Sudirman","i_long":106.822649,"transit":false},{"transit":true,"i_lat":-6.209883,"station_name":"Manggarai","time":4,"is_transit":true,"line":2,"i_long":106.84912,"station_id":"MRI","distance":3186},{"line":2,"time":4,"i_long":106.857948,"is_transit":false,"distance":2610,"i_lat":-6.226659,"station_name":"Tebet","transit":false,"station_id":"TEB"},{"i_lat":-6.242512,"time":2,"station_name":"Cawang","is_transit":false,"distance":1230,"station_id":"CW","line":2,"transit":false,"i_long":106.856607},{"transit":false,"i_lat":-6.255332,"time":3,"station_id":"DRN","line":2,"distance":1546,"is_transit":false,"station_name":"Duren Kalibata","i_long":106.85449}],[{"time":0,"line":2,"station_id":"CKI","distance":0,"is_transit":false,"i_long":106.840169,"station_name":"Cikini","i_lat":-6.198556,"transit":false},{"station_name":"Gondangdia","line":2,"i_lat":-6.186295,"station_id":"GDD","time":3,"transit":false,"is_transit":false,"distance":1750,"i_long":106.832183},{"i_lat":-6.166716,"time":4,"transit":false,"distance":2015,"station_id":"JUA","i_long":106.828284,"line":2,"station_name":"Juanda","is_transit":false},{"is_transit":false,"station_id":"SW","transit":false,"station_name":"Sawah Besar","i_lat":-6.160725,"time":2,"line":2,"distance":1149,"i_long":106.827103},{"station_name":"Manggabesar","line":2,"i_lat":-6.149769,"i_long":106.82482,"time":2,"is_transit":false,"distance":906,"station_id":"MGB","transit":false},{"time":2,"is_transit":false,"i_lat":-6.141205,"line":2,"transit":false,"i_long":106.820901,"distance":1080,"station_id":"JAY","station_name":"Jayakarta"},{"time":4,"i_long":106.812439,"station_id":"JAKK","distance":1264,"is_transit":true,"station_name":"Jakarta Kota","line":2,"transit":true,"i_lat":-6.137569},{"distance":1364,"station_id":"KPB","i_lat":-6.132549,"line":4,"is_transit":true,"station_name":"Kampung Bandan","i_long":106.826365,"time":3,"transit":true},{"station_id":"RJW","distance":1444,"station_name":"Rajawali","is_transit":false,"i_lat":-6.14505,"time":3,"transit":false,"line":11,"i_long":106.836569},{"time":5,"transit":false,"i_lat":-6.161728,"is_transit":false,"station_id":"KMO","distance":1901,"line":11,"i_long":106.839204,"station_name":"Kemayoran"},{"time":4,"i_long":106.84368,"i_lat":-6.174784,"line":11,"station_id":"PSE","is_transit":false,"distance":1436,"transit":false,"station_name":"Pasar Senen"},{"distance":1567,"i_long":106.850107,"line":11,"is_transit":false,"time":8,"station_name":"Gang Sentiong","transit":false,"i_lat":-6.185975,"station_id":"GST"},{"line":11,"station_id":"KMT","distance":973,"i_long":106.855437,"is_transit":false,"transit":false,"station_name":"Kramat","i_lat":-6.193792,"time":1},{"is_transit":false,"station_name":"Pondok Jati","distance":1829,"line":11,"station_id":"POK","i_long":106.861737,"i_lat":-6.209188,"transit":false,"time":2},{"line":1,"transit":true,"distance":1236,"is_transit":true,"station_id":"JNG","time":9,"station_name":"Jatinegara","i_long":106.86807400000001,"i_lat":-6.215091},{"i_lat":-6.212485,"station_name":"Matraman","time":2,"line":1,"distance":1377,"station_id":"MTR","transit":false,"i_long":106.858896,"is_transit":false},{"distance":1275,"i_long":106.84912,"is_transit":true,"line":2,"station_id":"MRI","transit":true,"i_lat":-6.209883,"station_name":"Manggarai","time":2},{"i_lat":-6.226659,"line":2,"station_id":"TEB","transit":false,"i_long":106.857948,"is_transit":false,"time":4,"distance":2610,"station_name":"Tebet"},{"distance":1230,"time":2,"station_name":"Cawang","is_transit":false,"i_lat":-6.242512,"transit":false,"i_long":106.856607,"line":2,"station_id":"CW"},{"i_lat":-6.255332,"is_transit":false,"transit":false,"i_long":106.85449,"line":2,"time":3,"station_id":"DRN","distance":1546,"station_name":"Duren Kalibata"}]]}