{"data":[[{"i_long":106.840169,"time":0,"line":0,"station_name":"Cikini","station_id":"CKI","is_transit":false,"transit":false,"distance":0,"i_lat":-6.198556},{"is_transit":true,"time":4,"station_name":"Manggarai","transit":true,"distance":1590,"i_lat":-6.209883,"station_id":"MRI","line":0,"i_long":106.84912},{"i_lat":-6.226659,"station_id":"TEB","is_transit":false,"distance":2610,"i_long":106.857948,"transit":false,"line":2,"time":4,"station_name":"Tebet"},{"station_id":"CW","transit":false,"is_transit":false,"station_name":"Cawang","i_lat":-6.242512,"i_long":106.856607,"line":0,"time":2,"distance":1230},{"transit":false,"i_lat":-6.255332,"i_long":106.85449,"distance":1546,"line":0,"station_id":"DRN","time":3,"is_transit":false,"station_name":"Duren Kalibata"},{"time":2,"station_name":"Pasar Minggu Baru","i_lat":-6.263214,"is_transit":false,"transit":false,"i_long":106.851577,"distance":824,"line":2,"station_id":"PSMB"},{"transit":false,"station_id":"PSM","time":2,"is_transit":false,"station_name":"Pasar Minggu","i_lat":-6.2842400000000005,"i_long":106.843999,"line":2,"distance":2380},{"i_long":106.838896,"i_lat":-6.3080680000000005,"line":2,"is_transit":false,"transit":false,"time":4,"distance":2820,"station_name":"Tanjung Barat","station_id":"TNT"},{"station_id":"LNA","distance":2671,"i_lat":-6.330363,"line":2,"i_long":106.832616,"time":3,"station_name":"Lenteng Agung","is_transit":false,"transit":false},{"is_transit":false,"time":2,"distance":1029,"i_lat":-6.339291,"station_name":"Univ. Pancasila","transit":false,"i_long":106.834175,"station_id":"UP","line":2},{"i_lat":-6.360749,"station_name":"Univ. Indonesia","time":3,"is_transit":false,"station_id":"UI","distance":2264,"i_long":106.831474,"transit":false,"line":2},{"transit":false,"time":2,"station_name":"Pondok Cina","i_long":106.831114,"line":2,"i_lat":-6.369073,"is_transit":false,"station_id":"POC","distance":1109},{"is_transit":false,"time":4,"i_long":106.819451,"station_id":"DPB","transit":false,"line":0,"i_lat":-6.391065,"distance":2727,"station_name":"Depokbaru"}],[{"i_lat":-6.198556,"distance":0,"station_name":"Cikini","i_long":106.840169,"is_transit":false,"time":0,"transit":false,"station_id":"CKI","line":0},{"distance":1750,"time":3,"line":2,"is_transit":false,"i_long":106.832183,"station_id":"GDD","station_name":"Gondangdia","transit":false,"i_lat":-6.186295},{"i_lat":-6.166716,"i_long":106.828284,"time":4,"line":2,"transit":false,"station_id":"JUA","is_transit":false,"distance":2015,"station_name":"Juanda"},{"transit":false,"is_transit":false,"distance":1149,"station_name":"Sawah Besar","i_lat":-6.160725,"station_id":"SW","i_long":106.827103,"line":2,"time":2},{"i_long":106.82482,"station_name":"Manggabesar","line":2,"i_lat":-6.149769,"station_id":"MGB","time":2,"is_transit":false,"distance":906,"transit":false},{"time":2,"transit":false,"i_lat":-6.141205,"is_transit":false,"i_long":106.820901,"station_name":"Jayakarta","distance":1080,"line":7,"station_id":"JAY"},{"time":4,"distance":1264,"i_lat":-6.137569,"is_transit":true,"line":0,"station_name":"Jakarta Kota","i_long":106.812439,"station_id":"JAKK","transit":true},{"i_lat":-6.132549,"line":0,"distance":1364,"station_id":"KPB","station_name":"Kampung Bandan","time":3,"i_long":106.826365,"is_transit":true,"transit":false},{"station_id":"AK","time":9,"transit":false,"is_transit":false,"i_long":106.79867,"station_name":"Angke","distance":4102,"i_lat":-6.144674,"line":0},{"time":4,"is_transit":true,"line":1,"station_name":"Duri","station_id":"DU","distance":1230,"transit":true,"i_lat":-6.155215,"i_long":106.800832},{"transit":false,"i_lat":-6.185545,"line":1,"station_name":"Tanah Abang","station_id":"THB","i_long":106.811091,"distance":3632,"time":8,"is_transit":true},{"i_long":106.816351,"station_id":"KAT","time":5,"transit":false,"distance":2029,"station_name":"Karet","is_transit":false,"i_lat":-6.20132,"line":1},{"is_transit":false,"transit":false,"distance":471,"i_long":106.819881,"time":1,"line":1,"station_name":"Sudirman Baru","station_id":"SUDB","i_lat":-6.201433},{"distance":280,"station_id":"SUD","is_transit":false,"station_name":"Sudirman","i_long":106.822649,"line":1,"time":1,"i_lat":-6.202263,"transit":false},{"distance":3186,"station_id":"MRI","is_transit":true,"station_name":"Manggarai","transit":true,"i_lat":-6.209883,"i_long":106.84912,"line":0,"time":4},{"station_id":"TEB","distance":2610,"line":2,"transit":false,"is_transit":false,"station_name":"Tebet","i_long":106.857948,"i_lat":-6.226659,"time":4},{"i_long":106.856607,"transit":false,"i_lat":-6.242512,"station_name":"Cawang","station_id":"CW","is_transit":false,"time":2,"distance":1230,"line":0},{"time":3,"i_lat":-6.255332,"i_long":106.85449,"distance":1546,"station_name":"Duren Kalibata","transit":false,"line":0,"station_id":"DRN","is_transit":false},{"i_lat":-6.263214,"is_transit":false,"transit":false,"distance":824,"i_long":106.851577,"line":2,"station_id":"PSMB","time":2,"station_name":"Pasar Minggu Baru"},{"is_transit":false,"i_lat":-6.2842400000000005,"station_id":"PSM","time":2,"station_name":"Pasar Minggu","i_long":106.843999,"distance":2380,"transit":false,"line":2},{"line":2,"transit":false,"time":4,"station_name":"Tanjung Barat","is_transit":false,"station_id":"TNT","i_lat":-6.3080680000000005,"i_long":106.838896,"distance":2820},{"transit":false,"distance":2671,"station_name":"Lenteng Agung","time":3,"is_transit":false,"i_lat":-6.330363,"i_long":106.832616,"station_id":"LNA","line":2},{"station_name":"Univ. Pancasila","line":2,"station_id":"UP","i_long":106.834175,"transit":false,"i_lat":-6.339291,"is_transit":false,"time":2,"distance":1029},{"i_long":106.831474,"station_id":"UI","transit":false,"is_transit":false,"station_name":"Univ. Indonesia","distance":2264,"i_lat":-6.360749,"time":3,"line":2},{"time":2,"i_lat":-6.369073,"transit":false,"distance":1109,"station_name":"Pondok Cina","i_long":106.831114,"is_transit":false,"line":2,"station_id":"POC"},{"i_long":106.819451,"transit":false,"station_name":"Depokbaru","distance":2727,"is_transit":false,"line":0,"i_lat":-6.391065,"station_id":"DPB","time":4}],[{"time":0,"distance":0,"station_name":"Cikini","transit":false,"i_lat":-6.198556,"is_transit":false,"line":0,"i_long":106.840169,"station_id":"CKI"},{"line":2,"station_name":"Gondangdia","transit":false,"i_long":106.832183,"i_lat":-6.186295,"distance":1750,"station_id":"GDD","is_transit":false,"time":3},{"line":2,"i_long":106.828284,"is_transit":false,"i_lat":-6.166716,"transit":false,"station_id":"JUA","time":4,"distance":2015,"station_name":"Juanda"},{"station_name":"Sawah Besar","station_id":"SW","is_transit":false,"i_long":106.827103,"distance":1149,"transit":false,"i_lat":-6.160725,"line":2,"time":2},{"is_transit":false,"distance":906,"station_id":"MGB","transit":false,"line":2,"station_name":"Manggabesar","i_long":106.82482,"time":2,"i_lat":-6.149769},{"line":7,"station_name":"Jayakarta","time":2,"i_lat":-6.141205,"is_transit":false,"station_id":"JAY","i_long":106.820901,"distance":1080,"transit":false},{"station_id":"JAKK","transit":true,"i_lat":-6.137569,"time":4,"i_long":106.812439,"is_transit":true,"distance":1264,"line":0,"station_name":"Jakarta Kota"},{"station_name":"Kampung Bandan","i_long":106.826365,"transit":true,"i_lat":-6.132549,"distance":1364,"station_id":"KPB","line":0,"is_transit":true,"time":3},{"is_transit":false,"i_lat":-6.14505,"i_long":106.836569,"line":11,"time":3,"distance":1444,"station_id":"RJW","transit":false,"station_name":"Rajawali"},{"transit":false,"i_lat":-6.161728,"station_name":"Kemayoran","i_long":106.839204,"time":5,"line":11,"station_id":"KMO","distance":1901,"is_transit":false},{"i_long":106.84368,"station_name":"Pasar Senen","transit":false,"distance":1436,"time":4,"station_id":"PSE","is_transit":false,"i_lat":-6.174784,"line":11},{"transit":false,"time":8,"is_transit":false,"i_long":106.850107,"distance":1567,"line":11,"i_lat":-6.185975,"station_id":"GST","station_name":"Gang Sentiong"},{"distance":973,"station_id":"KMT","i_lat":-6.193792,"time":1,"station_name":"Kramat","is_transit":false,"i_long":106.855437,"transit":false,"line":11},{"time":2,"distance":1829,"is_transit":false,"station_id":"POK","i_lat":-6.209188,"line":11,"i_long":106.861737,"station_name":"Pondok Jati","transit":false},{"i_long":106.86807400000001,"is_transit":true,"distance":1236,"i_lat":-6.215091,"line":0,"station_name":"Jatinegara","station_id":"JNG","time":9,"transit":true},{"i_lat":-6.212485,"time":2,"station_name":"Matraman","transit":false,"i_long":106.858896,"station_id":"MTR","is_transit":false,"line":1,"distance":1377},{"distance":1275,"i_lat":-6.209883,"i_long":106.84912,"station_name":"Manggarai","line":0,"is_transit":true,"time":2,"transit":true,"station_id":"MRI"},{"station_name":"Tebet","is_transit":false,"i_long":106.857948,"station_id":"TEB","i_lat":-6.226659,"line":2,"transit":false,"time":4,"distance":2610},{"station_name":"Cawang","is_transit":false,"i_long":106.856607,"transit":false,"distance":1230,"station_id":"CW","i_lat":-6.242512,"line":0,"time":2},{"is_transit":false,"time":3,"station_id":"DRN","transit":false,"station_name":"Duren Kalibata","i_lat":-6.255332,"distance":1546,"line":0,"i_long":106.85449},{"time":2,"station_name":"Pasar Minggu Baru","i_long":106.851577,"station_id":"PSMB","i_lat":-6.263214,"is_transit":false,"transit":false,"line":2,"distance":824},{"i_long":106.843999,"is_transit":false,"time":2,"station_id":"PSM","distance":2380,"station_name":"Pasar Minggu","i_lat":-6.2842400000000005,"line":2,"transit":false},{"time":4,"distance":2820,"transit":false,"line":2,"station_id":"TNT","station_name":"Tanjung Barat","is_transit":false,"i_lat":-6.3080680000000005,"i_long":106.838896},{"transit":false,"line":2,"is_transit":false,"time":3,"i_long":106.832616,"station_id":"LNA","distance":2671,"i_lat":-6.330363,"station_name":"Lenteng Agung"},{"distance":1029,"i_long":106.834175,"time":2,"i_lat":-6.339291,"is_transit":false,"station_id":"UP","transit":false,"line":2,"station_name":"Univ. Pancasila"},{"i_long":106.831474,"line":2,"distance":2264,"station_name":"Univ. Indonesia","transit":false,"time":3,"i_lat":-6.360749,"station_id":"UI","is_transit":false},{"transit":false,"line":2,"time":2,"station_id":"POC","i_lat":-6.369073,"distance":1109,"is_transit":false,"i_long":106.831114,"station_name":"Pondok Cina"},{"is_transit":false,"i_long":106.819451,"station_id":"DPB","station_name":"Depokbaru","transit":false,"i_lat":-6.391065,"line":0,"distance":2727,"time":4}]]}