{"data":[[{"time":0,"distance":0,"i_lat":-6.2553149999999995,"station_name":"Cikarang","transit":false,"station_id":"CKR","is_transit":false,"i_long":107.144613,"line":1},{"line":1,"time":4,"station_id":"TLM","station_name":"Metland Telaga Murni","is_transit":false,"i_long":107.093313,"transit":false,"i_lat":-6.262938,"distance":3689},{"station_id":"CIT","transit":false,"line":1,"i_long":107.083084,"time":2,"is_transit":false,"station_name":"Cibitung","i_lat":-6.261877,"distance":2800},{"distance":3420,"i_lat":-6.258864,"line":1,"time":3,"is_transit":false,"transit":false,"i_long":107.055722,"station_name":"Tambun","station_id":"TB"},{"station_name":"Bekasi Timur","time":7,"is_transit":false,"i_long":107.016735,"distance":4460,"station_id":"BKST","line":1,"transit":false,"i_lat":-6.248029},{"station_id":"BKS","is_transit":false,"i_lat":-6.236616,"i_long":106.997013,"station_name":"Bekasi","line":1,"distance":2368,"transit":false,"time":2},{"distance":2520,"station_name":"Kranji","i_lat":-6.224515,"time":4,"transit":false,"is_transit":false,"i_long":106.977657,"line":1,"station_id":"KRI"},{"transit":false,"time":3,"station_id":"CUK","is_transit":false,"distance":3097,"station_name":"Cakung","i_lat":-6.219053,"i_long":106.951283,"line":1},{"transit":false,"station_name":"Klenderbaru","is_transit":false,"i_lat":-6.217455,"line":1,"i_long":106.939679,"distance":1385,"time":8,"station_id":"KLDB"},{"station_id":"BUA","station_name":"Buaran","transit":false,"is_transit":false,"i_long":106.922662,"i_lat":-6.215568,"line":1,"time":1,"distance":1305},{"distance":3100,"i_lat":-6.2135,"i_long":106.899548,"line":1,"station_id":"KLD","station_name":"Klender","transit":false,"is_transit":false,"time":2},{"is_transit":false,"distance":3395,"time":3,"station_id":"JNG","i_lat":-6.215091,"station_name":"Jatinegara","transit":false,"i_long":106.86807400000001,"line":1},{"station_name":"Matraman","i_lat":-6.212485,"i_long":106.858896,"time":2,"line":1,"transit":false,"is_transit":false,"distance":1377,"station_id":"MTR"},{"time":2,"i_long":106.84912,"i_lat":-6.209883,"station_name":"Manggarai","is_transit":true,"line":2,"station_id":"MRI","distance":1275,"transit":true},{"i_long":106.857948,"i_lat":-6.226659,"distance":2610,"station_name":"Tebet","is_transit":false,"time":4,"station_id":"TEB","line":2,"transit":false},{"line":2,"time":2,"station_id":"CW","station_name":"Cawang","i_long":106.856607,"distance":1230,"is_transit":false,"transit":false,"i_lat":-6.242512},{"station_name":"Duren Kalibata","station_id":"DRN","transit":false,"line":2,"distance":1546,"i_long":106.85449,"time":3,"is_transit":false,"i_lat":-6.255332},{"is_transit":false,"distance":824,"time":2,"i_lat":-6.263214,"i_long":106.851577,"line":2,"station_name":"Pasar Minggu Baru","station_id":"PSMB","transit":false},{"station_id":"PSM","time":2,"transit":false,"distance":2380,"is_transit":false,"i_long":106.843999,"line":2,"i_lat":-6.2842400000000005,"station_name":"Pasar Minggu"},{"transit":false,"station_id":"TNT","distance":2820,"time":4,"station_name":"Tanjung Barat","i_lat":-6.3080680000000005,"line":2,"is_transit":false,"i_long":106.838896},{"time":3,"station_id":"LNA","i_long":106.832616,"transit":false,"distance":2671,"line":2,"i_lat":-6.330363,"station_name":"Lenteng Agung","is_transit":false},{"distance":1029,"transit":false,"is_transit":false,"time":2,"station_name":"Univ. Pancasila","i_lat":-6.339291,"i_long":106.834175,"line":2,"station_id":"UP"},{"distance":2264,"i_long":106.831474,"line":2,"time":3,"station_id":"UI","i_lat":-6.360749,"is_transit":false,"station_name":"Univ. Indonesia","transit":false},{"time":2,"station_id":"POC","line":2,"distance":1109,"station_name":"Pondok Cina","i_long":106.831114,"i_lat":-6.369073,"transit":false,"is_transit":false},{"distance":2727,"is_transit":false,"station_name":"Depokbaru","i_lat":-6.391065,"time":4,"line":2,"transit":false,"i_long":106.819451,"station_id":"DPB"},{"distance":1584,"time":3,"station_name":"Depok","transit":false,"line":2,"i_lat":-6.405256,"is_transit":false,"i_long":106.816926,"station_id":"DP"},{"station_id":"CTA","is_transit":false,"distance":5084,"station_name":"Citayam","i_lat":-6.448811,"line":2,"time":6,"transit":false,"i_long":106.800298},{"distance":5197,"i_lat":-6.493243,"is_transit":false,"station_id":"BJD","i_long":106.792719,"time":5,"line":2,"transit":false,"station_name":"Bojonggede"},{"distance":4331,"station_name":"Cilebut","is_transit":false,"line":2,"transit":false,"station_id":"CLT","time":5,"i_long":106.800016,"i_lat":-6.530544}],[{"distance":0,"i_lat":-6.2553149999999995,"transit":false,"is_transit":false,"station_id":"CKR","time":0,"i_long":107.144613,"line":1,"station_name":"Cikarang"},{"line":1,"station_id":"TLM","i_long":107.093313,"transit":false,"time":4,"is_transit":false,"distance":3689,"station_name":"Metland Telaga Murni","i_lat":-6.262938},{"transit":false,"i_lat":-6.261877,"time":2,"station_name":"Cibitung","station_id":"CIT","distance":2800,"is_transit":false,"line":1,"i_long":107.083084},{"station_id":"TB","transit":false,"time":3,"line":1,"station_name":"Tambun","is_transit":false,"i_long":107.055722,"distance":3420,"i_lat":-6.258864},{"time":7,"line":1,"is_transit":false,"i_lat":-6.248029,"transit":false,"i_long":107.016735,"station_name":"Bekasi Timur","distance":4460,"station_id":"BKST"},{"i_long":106.997013,"station_id":"BKS","i_lat":-6.236616,"station_name":"Bekasi","time":2,"line":1,"is_transit":false,"distance":2368,"transit":false},{"is_transit":false,"station_name":"Kranji","line":1,"i_long":106.977657,"station_id":"KRI","time":4,"transit":false,"distance":2520,"i_lat":-6.224515},{"i_long":106.951283,"i_lat":-6.219053,"is_transit":false,"distance":3097,"line":1,"transit":false,"station_id":"CUK","time":3,"station_name":"Cakung"},{"is_transit":false,"distance":1385,"i_long":106.939679,"line":1,"i_lat":-6.217455,"transit":false,"station_id":"KLDB","time":8,"station_name":"Klenderbaru"},{"is_transit":false,"transit":false,"time":1,"i_lat":-6.215568,"station_name":"Buaran","distance":1305,"i_long":106.922662,"line":1,"station_id":"BUA"},{"i_long":106.899548,"transit":false,"time":2,"station_name":"Klender","is_transit":false,"i_lat":-6.2135,"distance":3100,"line":1,"station_id":"KLD"},{"i_lat":-6.215091,"time":3,"i_long":106.86807400000001,"distance":3395,"line":1,"station_name":"Jatinegara","is_transit":true,"transit":true,"station_id":"JNG"},{"line":11,"transit":false,"station_id":"POK","time":2,"station_name":"Pondok Jati","i_lat":-6.209188,"is_transit":false,"i_long":106.861737,"distance":1236},{"distance":1829,"station_id":"KMT","time":2,"station_name":"Kramat","i_long":106.855437,"i_lat":-6.193792,"is_transit":false,"transit":false,"line":11},{"time":1,"transit":false,"i_lat":-6.185975,"i_long":106.850107,"line":11,"is_transit":false,"station_id":"GST","distance":973,"station_name":"Gang Sentiong"},{"transit":false,"station_id":"PSE","line":11,"i_lat":-6.174784,"distance":1567,"i_long":106.84368,"is_transit":false,"time":8,"station_name":"Pasar Senen"},{"station_name":"Kemayoran","i_lat":-6.161728,"i_long":106.839204,"line":11,"station_id":"KMO","transit":false,"time":4,"is_transit":false,"distance":1436},{"distance":1901,"i_lat":-6.14505,"transit":false,"line":11,"station_name":"Rajawali","time":5,"is_transit":false,"station_id":"RJW","i_long":106.836569},{"station_name":"Kampung Bandan","station_id":"KPB","i_lat":-6.132549,"transit":true,"time":3,"i_long":106.826365,"distance":1444,"line":4,"is_transit":true},{"distance":4102,"transit":false,"i_long":106.79867,"station_id":"AK","time":9,"i_lat":-6.144674,"line":1,"station_name":"Angke","is_transit":false},{"distance":1230,"station_name":"Duri","i_lat":-6.155215,"is_transit":false,"time":4,"i_long":106.800832,"transit":false,"line":1,"station_id":"DU"},{"distance":3632,"i_long":106.811091,"is_transit":false,"i_lat":-6.185545,"transit":false,"station_id":"THB","time":8,"line":1,"station_name":"Tanah Abang"},{"i_long":106.816351,"i_lat":-6.20132,"is_transit":false,"time":5,"station_name":"Karet","station_id":"KAT","distance":2029,"line":1,"transit":false},{"line":1,"i_long":106.819881,"station_name":"Sudirman Baru","time":1,"transit":false,"station_id":"SUDB","distance":471,"is_transit":false,"i_lat":-6.201433},{"station_name":"Sudirman","is_transit":false,"transit":false,"station_id":"SUD","distance":280,"time":1,"i_long":106.822649,"i_lat":-6.202263,"line":1},{"station_id":"MRI","station_name":"Manggarai","line":2,"i_long":106.84912,"time":4,"distance":3186,"is_transit":true,"i_lat":-6.209883,"transit":true},{"transit":false,"time":4,"station_id":"TEB","distance":2610,"i_long":106.857948,"line":2,"is_transit":false,"i_lat":-6.226659,"station_name":"Tebet"},{"transit":false,"line":2,"distance":1230,"station_id":"CW","is_transit":false,"station_name":"Cawang","time":2,"i_long":106.856607,"i_lat":-6.242512},{"transit":false,"time":3,"distance":1546,"i_lat":-6.255332,"i_long":106.85449,"line":2,"is_transit":false,"station_id":"DRN","station_name":"Duren Kalibata"},{"is_transit":false,"line":2,"station_id":"PSMB","i_lat":-6.263214,"i_long":106.851577,"distance":824,"station_name":"Pasar Minggu Baru","time":2,"transit":false},{"transit":false,"time":2,"distance":2380,"station_name":"Pasar Minggu","station_id":"PSM","i_long":106.843999,"line":2,"i_lat":-6.2842400000000005,"is_transit":false},{"i_long":106.838896,"is_transit":false,"i_lat":-6.3080680000000005,"transit":false,"station_id":"TNT","time":4,"line":2,"station_name":"Tanjung Barat","distance":2820},{"i_long":106.832616,"station_id":"LNA","line":2,"time":3,"station_name":"Lenteng Agung","is_transit":false,"distance":2671,"transit":false,"i_lat":-6.330363},{"station_id":"UP","distance":1029,"station_name":"Univ. Pancasila","i_long":106.834175,"line":2,"i_lat":-6.339291,"transit":false,"time":2,"is_transit":false},{"i_lat":-6.360749,"distance":2264,"i_long":106.831474,"station_name":"Univ. Indonesia","transit":false,"line":2,"time":3,"is_transit":false,"station_id":"UI"},{"station_name":"Pondok Cina","is_transit":false,"i_long":106.831114,"line":2,"time":2,"transit":false,"station_id":"POC","i_lat":-6.369073,"distance":1109},{"is_transit":false,"i_lat":-6.391065,"distance":2727,"i_long":106.819451,"line":2,"time":4,"station_id":"DPB","transit":false,"station_name":"Depokbaru"},{"station_id":"DP","i_long":106.816926,"time":3,"is_transit":false,"transit":false,"i_lat":-6.405256,"line":2,"distance":1584,"station_name":"Depok"},{"transit":false,"distance":5084,"time":6,"is_transit":false,"i_lat":-6.448811,"line":2,"station_id":"CTA","station_name":"Citayam","i_long":106.800298},{"station_id":"BJD","time":5,"distance":5197,"is_transit":false,"line":2,"i_lat":-6.493243,"transit":false,"station_name":"Bojonggede","i_long":106.792719},{"station_id":"CLT","distance":4331,"is_transit":false,"i_lat":-6.530544,"line":2,"time":5,"i_long":106.800016,"station_name":"Cilebut","transit":false}],[{"transit":false,"is_transit":false,"time":0,"i_long":107.144613,"line":1,"station_id":"CKR","i_lat":-6.2553149999999995,"station_name":"Cikarang","distance":0},{"time":4,"station_name":"Metland Telaga Murni","i_lat":-6.262938,"transit":false,"is_transit":false,"station_id":"TLM","i_long":107.093313,"distance":3689,"line":1},{"i_long":107.083084,"line":1,"is_transit":false,"station_id":"CIT","distance":2800,"station_name":"Cibitung","i_lat":-6.261877,"time":2,"transit":false},{"time":3,"line":1,"transit":false,"station_id":"TB","station_name":"Tambun","i_lat":-6.258864,"distance":3420,"is_transit":false,"i_long":107.055722},{"station_name":"Bekasi Timur","is_transit":false,"transit":false,"i_long":107.016735,"station_id":"BKST","time":7,"distance":4460,"i_lat":-6.248029,"line":1},{"station_name":"Bekasi","transit":false,"distance":2368,"time":2,"i_long":106.997013,"is_transit":false,"i_lat":-6.236616,"station_id":"BKS","line":1},{"line":1,"time":4,"station_id":"KRI","is_transit":false,"distance":2520,"transit":false,"station_name":"Kranji","i_lat":-6.224515,"i_long":106.977657},{"station_name":"Cakung","time":3,"distance":3097,"i_lat":-6.219053,"is_transit":false,"i_long":106.951283,"line":1,"transit":false,"station_id":"CUK"},{"i_long":106.939679,"i_lat":-6.217455,"line":1,"is_transit":false,"time":8,"station_id":"KLDB","distance":1385,"transit":false,"station_name":"Klenderbaru"},{"time":1,"i_lat":-6.215568,"distance":1305,"station_id":"BUA","i_long":106.922662,"line":1,"is_transit":false,"station_name":"Buaran","transit":false},{"station_id":"KLD","transit":false,"time":2,"i_long":106.899548,"line":1,"station_name":"Klender","i_lat":-6.2135,"is_transit":false,"distance":3100},{"station_id":"JNG","i_long":106.86807400000001,"distance":3395,"i_lat":-6.215091,"is_transit":true,"time":3,"station_name":"Jatinegara","transit":true,"line":1},{"is_transit":false,"line":11,"i_lat":-6.209188,"i_long":106.861737,"transit":false,"time":2,"station_name":"Pondok Jati","distance":1236,"station_id":"POK"},{"station_name":"Kramat","transit":false,"i_lat":-6.193792,"line":11,"distance":1829,"i_long":106.855437,"station_id":"KMT","time":2,"is_transit":false},{"transit":false,"distance":973,"time":1,"station_name":"Gang Sentiong","line":11,"is_transit":false,"i_lat":-6.185975,"station_id":"GST","i_long":106.850107},{"distance":1567,"is_transit":false,"time":8,"i_long":106.84368,"i_lat":-6.174784,"transit":false,"line":11,"station_id":"PSE","station_name":"Pasar Senen"},{"is_transit":false,"station_name":"Kemayoran","distance":1436,"transit":false,"time":4,"station_id":"KMO","i_long":106.839204,"line":11,"i_lat":-6.161728},{"station_id":"RJW","station_name":"Rajawali","i_long":106.836569,"is_transit":false,"distance":1901,"time":5,"line":11,"i_lat":-6.14505,"transit":false},{"line":4,"distance":1444,"i_long":106.826365,"station_id":"KPB","time":3,"transit":true,"is_transit":true,"i_lat":-6.132549,"station_name":"Kampung Bandan"},{"line":2,"station_name":"Jakarta Kota","time":3,"is_transit":true,"station_id":"JAKK","transit":true,"i_lat":-6.137569,"i_long":106.812439,"distance":1364},{"i_lat":-6.141205,"time":4,"i_long":106.820901,"is_transit":false,"station_name":"Jayakarta","transit":false,"line":2,"station_id":"JAY","distance":1264},{"station_id":"MGB","is_transit":false,"line":2,"i_lat":-6.149769,"transit":false,"station_name":"Manggabesar","i_long":106.82482,"time":2,"distance":1080},{"i_lat":-6.160725,"station_name":"Sawah Besar","station_id":"SW","i_long":106.827103,"is_transit":false,"line":2,"time":2,"transit":false,"distance":906},{"station_name":"Juanda","i_lat":-6.166716,"is_transit":false,"station_id":"JUA","transit":false,"i_long":106.828284,"line":2,"distance":1149,"time":2},{"station_name":"Gondangdia","line":2,"is_transit":false,"transit":false,"i_lat":-6.186295,"station_id":"GDD","time":4,"i_long":106.832183,"distance":2015},{"distance":1750,"station_id":"CKI","is_transit":false,"time":3,"station_name":"Cikini","i_long":106.840169,"i_lat":-6.198556,"transit":false,"line":2},{"time":4,"line":2,"distance":1590,"station_name":"Manggarai","i_long":106.84912,"i_lat":-6.209883,"is_transit":false,"station_id":"MRI","transit":false},{"distance":2610,"is_transit":false,"station_name":"Tebet","i_lat":-6.226659,"i_long":106.857948,"line":2,"station_id":"TEB","time":4,"transit":false},{"time":2,"station_name":"Cawang","line":2,"i_lat":-6.242512,"is_transit":false,"station_id":"CW","distance":1230,"transit":false,"i_long":106.856607},{"transit":false,"is_transit":false,"station_id":"DRN","distance":1546,"time":3,"station_name":"Duren Kalibata","i_lat":-6.255332,"i_long":106.85449,"line":2},{"distance":824,"time":2,"i_long":106.851577,"line":2,"station_id":"PSMB","i_lat":-6.263214,"transit":false,"station_name":"Pasar Minggu Baru","is_transit":false},{"i_lat":-6.2842400000000005,"station_id":"PSM","line":2,"time":2,"i_long":106.843999,"transit":false,"is_transit":false,"distance":2380,"station_name":"Pasar Minggu"},{"time":4,"i_long":106.838896,"station_name":"Tanjung Barat","station_id":"TNT","i_lat":-6.3080680000000005,"is_transit":false,"transit":false,"distance":2820,"line":2},{"i_lat":-6.330363,"line":2,"transit":false,"station_id":"LNA","time":3,"distance":2671,"station_name":"Lenteng Agung","i_long":106.832616,"is_transit":false},{"station_id":"UP","station_name":"Univ. Pancasila","line":2,"is_transit":false,"distance":1029,"i_lat":-6.339291,"i_long":106.834175,"time":2,"transit":false},{"time":3,"station_name":"Univ. Indonesia","i_long":106.831474,"station_id":"UI","i_lat":-6.360749,"transit":false,"line":2,"is_transit":false,"distance":2264},{"is_transit":false,"station_name":"Pondok Cina","i_lat":-6.369073,"time":2,"line":2,"distance":1109,"station_id":"POC","i_long":106.831114,"transit":false},{"transit":false,"time":4,"is_transit":false,"distance":2727,"i_long":106.819451,"station_name":"Depokbaru","i_lat":-6.391065,"station_id":"DPB","line":2},{"time":3,"i_long":106.816926,"is_transit":false,"station_id":"DP","station_name":"Depok","i_lat":-6.405256,"transit":false,"distance":1584,"line":2},{"transit":false,"station_id":"CTA","station_name":"Citayam","i_lat":-6.448811,"is_transit":false,"i_long":106.800298,"line":2,"time":6,"distance":5084},{"i_lat":-6.493243,"is_transit":false,"station_name":"Bojonggede","distance":5197,"i_long":106.792719,"time":5,"station_id":"BJD","transit":false,"line":2},{"is_transit":false,"distance":4331,"time":5,"i_lat":-6.530544,"station_name":"Cilebut","station_id":"CLT","i_long":106.800016,"transit":false,"line":2}]]}