{"data":[[{"is_transit":false,"line":0,"time":0,"station_id":"CKR","station_name":"Cikarang","i_long":107.144613,"distance":0,"i_lat":-6.2553149999999995,"transit":false},{"transit":false,"i_long":107.093313,"line":1,"time":4,"station_id":"TLM","is_transit":false,"i_lat":-6.262938,"distance":3689,"station_name":"Metland Telaga Murni"},{"is_transit":false,"line":0,"i_lat":-6.261877,"station_name":"Cibitung","station_id":"CIT","time":2,"distance":2800,"transit":false,"i_long":107.083084},{"distance":3420,"line":1,"station_id":"TB","station_name":"Tambun","time":3,"i_long":107.055722,"is_transit":false,"transit":false,"i_lat":-6.258864},{"distance":4460,"station_id":"BKST","i_long":107.016735,"i_lat":-6.248029,"station_name":"Bekasi Timur","is_transit":false,"line":0,"transit":false,"time":7},{"line":0,"i_lat":-6.236616,"i_long":106.997013,"distance":2368,"station_name":"Bekasi","transit":false,"station_id":"BKS","is_transit":false,"time":2},{"station_name":"Kranji","time":4,"transit":false,"station_id":"KRI","distance":2520,"i_lat":-6.224515,"line":1,"i_long":106.977657,"is_transit":false},{"station_name":"Cakung","transit":false,"i_long":106.951283,"distance":3097,"station_id":"CUK","i_lat":-6.219053,"is_transit":false,"time":3,"line":0},{"i_long":106.939679,"i_lat":-6.217455,"station_id":"KLDB","station_name":"Klenderbaru","transit":false,"time":8,"distance":1385,"is_transit":false,"line":1},{"i_long":106.922662,"line":0,"station_id":"BUA","station_name":"Buaran","transit":false,"distance":1305,"i_lat":-6.215568,"is_transit":false,"time":1},{"transit":false,"is_transit":false,"line":1,"station_name":"Klender","station_id":"KLD","distance":3100,"i_lat":-6.2135,"i_long":106.899548,"time":2},{"is_transit":true,"line":0,"station_id":"JNG","time":3,"station_name":"Jatinegara","i_lat":-6.215091,"distance":3395,"transit":false,"i_long":106.86807400000001},{"i_long":106.858896,"time":2,"station_id":"MTR","is_transit":false,"line":1,"station_name":"Matraman","transit":false,"distance":1377,"i_lat":-6.212485},{"station_id":"MRI","is_transit":true,"time":2,"line":0,"transit":false,"i_long":106.84912,"station_name":"Manggarai","distance":1275,"i_lat":-6.209883},{"i_long":106.822649,"distance":3186,"is_transit":false,"transit":false,"station_id":"SUD","time":4,"station_name":"Sudirman","i_lat":-6.202263,"line":1},{"transit":false,"is_transit":false,"station_id":"SUDB","i_lat":-6.201433,"i_long":106.819881,"line":1,"time":1,"station_name":"Sudirman Baru","distance":280},{"transit":false,"station_name":"Karet","is_transit":false,"time":1,"distance":471,"line":1,"i_lat":-6.20132,"i_long":106.816351,"station_id":"KAT"},{"i_long":106.811091,"line":1,"time":5,"transit":true,"station_id":"THB","distance":2029,"is_transit":true,"station_name":"Tanah Abang","i_lat":-6.185545},{"station_name":"Palmerah","i_lat":-6.207404,"station_id":"PLM","distance":3191,"transit":false,"i_long":106.79689,"line":6,"is_transit":false,"time":6},{"time":7,"station_name":"Kebayoran","transit":false,"is_transit":false,"i_lat":-6.237242,"distance":3737,"station_id":"KBY","i_long":106.780334,"line":6},{"station_id":"PDJ","transit":false,"distance":6218,"time":8,"line":6,"is_transit":false,"i_lat":-6.276362,"i_long":106.74273,"station_name":"Pondokranji"},{"is_transit":false,"time":3,"distance":2179,"transit":false,"station_name":"Jurangmangu","line":6,"station_id":"JMU","i_long":106.728916,"i_lat":-6.288927},{"i_long":106.712277,"distance":1994,"station_id":"SDM","line":6,"station_name":"Sudimara","transit":false,"time":4,"i_lat":-6.296963,"is_transit":false},{"station_name":"Rawa Buntu","i_long":106.675475,"line":6,"station_id":"RU","i_lat":-6.314823,"transit":false,"time":6,"is_transit":false,"distance":4566},{"line":6,"transit":false,"i_lat":-6.319871,"station_id":"SRP","time":4,"distance":2413,"is_transit":false,"station_name":"Serpong","i_long":106.66566},{"station_id":"CSK","transit":false,"line":0,"i_lat":-6.32484,"i_long":106.640411,"station_name":"Cisauk","distance":1784,"is_transit":false,"time":4}],[{"distance":0,"transit":false,"line":0,"station_name":"Cikarang","time":0,"station_id":"CKR","is_transit":false,"i_long":107.144613,"i_lat":-6.2553149999999995},{"line":1,"station_name":"Metland Telaga Murni","time":4,"i_long":107.093313,"is_transit":false,"station_id":"TLM","transit":false,"distance":3689,"i_lat":-6.262938},{"distance":2800,"station_name":"Cibitung","is_transit":false,"time":2,"transit":false,"i_long":107.083084,"line":0,"station_id":"CIT","i_lat":-6.261877},{"i_lat":-6.258864,"i_long":107.055722,"time":3,"line":1,"distance":3420,"transit":false,"station_name":"Tambun","station_id":"TB","is_transit":false},{"station_name":"Bekasi Timur","line":0,"i_lat":-6.248029,"station_id":"BKST","i_long":107.016735,"time":7,"distance":4460,"transit":false,"is_transit":false},{"i_lat":-6.236616,"i_long":106.997013,"station_name":"Bekasi","station_id":"BKS","is_transit":false,"time":2,"transit":false,"line":0,"distance":2368},{"time":4,"distance":2520,"i_lat":-6.224515,"is_transit":false,"station_name":"Kranji","transit":false,"station_id":"KRI","i_long":106.977657,"line":1},{"i_long":106.951283,"i_lat":-6.219053,"station_name":"Cakung","line":0,"is_transit":false,"station_id":"CUK","transit":false,"time":3,"distance":3097},{"time":8,"line":1,"is_transit":false,"station_id":"KLDB","transit":false,"i_lat":-6.217455,"distance":1385,"station_name":"Klenderbaru","i_long":106.939679},{"is_transit":false,"station_name":"Buaran","transit":false,"i_long":106.922662,"station_id":"BUA","time":1,"distance":1305,"i_lat":-6.215568,"line":0},{"time":2,"i_long":106.899548,"is_transit":false,"distance":3100,"station_name":"Klender","i_lat":-6.2135,"station_id":"KLD","transit":false,"line":1},{"time":3,"i_long":106.86807400000001,"line":0,"station_id":"JNG","i_lat":-6.215091,"is_transit":true,"distance":3395,"station_name":"Jatinegara","transit":true},{"time":2,"distance":1236,"line":11,"is_transit":false,"station_id":"POK","station_name":"Pondok Jati","i_lat":-6.209188,"i_long":106.861737,"transit":false},{"i_lat":-6.193792,"station_name":"Kramat","is_transit":false,"i_long":106.855437,"line":11,"station_id":"KMT","distance":1829,"time":2,"transit":false},{"time":1,"distance":973,"i_lat":-6.185975,"station_id":"GST","i_long":106.850107,"station_name":"Gang Sentiong","is_transit":false,"line":11,"transit":false},{"station_name":"Pasar Senen","distance":1567,"transit":false,"time":8,"i_long":106.84368,"station_id":"PSE","i_lat":-6.174784,"line":11,"is_transit":false},{"i_lat":-6.161728,"distance":1436,"line":11,"station_id":"KMO","time":4,"is_transit":false,"station_name":"Kemayoran","i_long":106.839204,"transit":false},{"i_lat":-6.14505,"line":11,"station_name":"Rajawali","station_id":"RJW","time":5,"is_transit":false,"transit":false,"i_long":106.836569,"distance":1901},{"is_transit":true,"i_lat":-6.132549,"line":0,"i_long":106.826365,"time":3,"station_name":"Kampung Bandan","distance":1444,"station_id":"KPB","transit":true},{"line":0,"time":9,"station_id":"AK","station_name":"Angke","i_long":106.79867,"i_lat":-6.144674,"distance":4102,"is_transit":false,"transit":false},{"station_name":"Duri","i_long":106.800832,"transit":true,"distance":1230,"station_id":"DU","time":4,"i_lat":-6.155215,"line":1,"is_transit":true},{"i_lat":-6.185545,"is_transit":true,"i_long":106.811091,"station_id":"THB","line":1,"distance":3632,"time":8,"transit":true,"station_name":"Tanah Abang"},{"is_transit":false,"line":6,"station_id":"PLM","i_long":106.79689,"i_lat":-6.207404,"distance":3191,"station_name":"Palmerah","time":6,"transit":false},{"is_transit":false,"distance":3737,"transit":false,"i_long":106.780334,"line":6,"station_id":"KBY","time":7,"i_lat":-6.237242,"station_name":"Kebayoran"},{"station_name":"Pondokranji","station_id":"PDJ","time":8,"distance":6218,"line":6,"is_transit":false,"i_lat":-6.276362,"i_long":106.74273,"transit":false},{"distance":2179,"i_long":106.728916,"station_id":"JMU","line":6,"transit":false,"time":3,"is_transit":false,"i_lat":-6.288927,"station_name":"Jurangmangu"},{"transit":false,"line":6,"i_long":106.712277,"station_name":"Sudimara","is_transit":false,"station_id":"SDM","i_lat":-6.296963,"time":4,"distance":1994},{"i_lat":-6.314823,"transit":false,"time":6,"i_long":106.675475,"station_id":"RU","is_transit":false,"line":6,"distance":4566,"station_name":"Rawa Buntu"},{"is_transit":false,"distance":2413,"time":4,"transit":false,"station_name":"Serpong","i_lat":-6.319871,"i_long":106.66566,"station_id":"SRP","line":6},{"i_lat":-6.32484,"distance":1784,"transit":false,"i_long":106.640411,"line":0,"station_id":"CSK","station_name":"Cisauk","time":4,"is_transit":false}],[{"time":0,"transit":false,"i_long":107.144613,"is_transit":false,"distance":0,"station_id":"CKR","station_name":"Cikarang","i_lat":-6.2553149999999995,"line":0},{"station_id":"TLM","station_name":"Metland Telaga Murni","line":1,"distance":3689,"i_lat":-6.262938,"transit":false,"time":4,"i_long":107.093313,"is_transit":false},{"i_long":107.083084,"station_id":"CIT","time":2,"transit":false,"is_transit":false,"line":0,"distance":2800,"station_name":"Cibitung","i_lat":-6.261877},{"transit":false,"i_lat":-6.258864,"station_id":"TB","i_long":107.055722,"time":3,"station_name":"Tambun","is_transit":false,"line":1,"distance":3420},{"station_id":"BKST","is_transit":false,"time":7,"distance":4460,"i_lat":-6.248029,"i_long":107.016735,"station_name":"Bekasi Timur","transit":false,"line":0},{"line":0,"i_lat":-6.236616,"distance":2368,"station_name":"Bekasi","transit":false,"i_long":106.997013,"time":2,"station_id":"BKS","is_transit":false},{"station_name":"Kranji","line":1,"i_long":106.977657,"transit":false,"i_lat":-6.224515,"is_transit":false,"time":4,"station_id":"KRI","distance":2520},{"is_transit":false,"station_name":"Cakung","transit":false,"distance":3097,"time":3,"line":0,"i_lat":-6.219053,"i_long":106.951283,"station_id":"CUK"},{"i_long":106.939679,"transit":false,"station_name":"Klenderbaru","time":8,"i_lat":-6.217455,"line":1,"station_id":"KLDB","is_transit":false,"distance":1385},{"time":1,"distance":1305,"is_transit":false,"station_name":"Buaran","i_lat":-6.215568,"line":0,"i_long":106.922662,"station_id":"BUA","transit":false},{"i_lat":-6.2135,"is_transit":false,"station_name":"Klender","time":2,"distance":3100,"station_id":"KLD","line":1,"transit":false,"i_long":106.899548},{"transit":false,"line":0,"is_transit":true,"station_name":"Jatinegara","distance":3395,"i_long":106.86807400000001,"station_id":"JNG","i_lat":-6.215091,"time":3},{"i_lat":-6.212485,"distance":1377,"line":1,"station_name":"Matraman","is_transit":false,"transit":false,"station_id":"MTR","time":2,"i_long":106.858896},{"distance":1275,"transit":true,"time":2,"is_transit":true,"i_long":106.84912,"line":0,"i_lat":-6.209883,"station_id":"MRI","station_name":"Manggarai"},{"station_id":"CKI","line":0,"time":4,"i_long":106.840169,"distance":1590,"is_transit":false,"station_name":"Cikini","transit":false,"i_lat":-6.198556},{"i_lat":-6.186295,"station_name":"Gondangdia","transit":false,"i_long":106.832183,"line":2,"time":3,"station_id":"GDD","distance":1750,"is_transit":false},{"station_id":"JUA","transit":false,"distance":2015,"line":2,"is_transit":false,"time":4,"station_name":"Juanda","i_lat":-6.166716,"i_long":106.828284},{"i_lat":-6.160725,"transit":false,"i_long":106.827103,"is_transit":false,"station_name":"Sawah Besar","station_id":"SW","time":2,"line":2,"distance":1149},{"distance":906,"station_name":"Manggabesar","is_transit":false,"station_id":"MGB","time":2,"i_lat":-6.149769,"i_long":106.82482,"transit":false,"line":2},{"distance":1080,"transit":false,"is_transit":false,"i_lat":-6.141205,"i_long":106.820901,"station_id":"JAY","time":2,"line":7,"station_name":"Jayakarta"},{"i_long":106.812439,"line":0,"distance":1264,"time":4,"station_name":"Jakarta Kota","transit":true,"is_transit":true,"i_lat":-6.137569,"station_id":"JAKK"},{"distance":1364,"is_transit":true,"station_name":"Kampung Bandan","i_lat":-6.132549,"i_long":106.826365,"time":3,"station_id":"KPB","line":0,"transit":false},{"is_transit":false,"i_long":106.79867,"station_id":"AK","i_lat":-6.144674,"time":9,"distance":4102,"transit":false,"line":0,"station_name":"Angke"},{"transit":true,"time":4,"is_transit":true,"station_id":"DU","distance":1230,"station_name":"Duri","i_lat":-6.155215,"line":1,"i_long":106.800832},{"transit":true,"i_long":106.811091,"is_transit":true,"line":1,"i_lat":-6.185545,"station_name":"Tanah Abang","station_id":"THB","time":8,"distance":3632},{"i_lat":-6.207404,"i_long":106.79689,"distance":3191,"transit":false,"time":6,"line":6,"station_id":"PLM","is_transit":false,"station_name":"Palmerah"},{"station_name":"Kebayoran","i_lat":-6.237242,"line":6,"distance":3737,"is_transit":false,"i_long":106.780334,"transit":false,"station_id":"KBY","time":7},{"time":8,"i_long":106.74273,"line":6,"is_transit":false,"transit":false,"i_lat":-6.276362,"distance":6218,"station_name":"Pondokranji","station_id":"PDJ"},{"i_long":106.728916,"i_lat":-6.288927,"transit":false,"station_id":"JMU","is_transit":false,"distance":2179,"station_name":"Jurangmangu","time":3,"line":6},{"distance":1994,"i_long":106.712277,"station_id":"SDM","is_transit":false,"transit":false,"i_lat":-6.296963,"line":6,"time":4,"station_name":"Sudimara"},{"station_name":"Rawa Buntu","time":6,"station_id":"RU","is_transit":false,"i_lat":-6.314823,"distance":4566,"transit":false,"i_long":106.675475,"line":6},{"transit":false,"i_lat":-6.319871,"is_transit":false,"i_long":106.66566,"station_id":"SRP","time":4,"station_name":"Serpong","distance":2413,"line":6},{"transit":false,"i_lat":-6.32484,"station_id":"CSK","station_name":"Cisauk","time":4,"i_long":106.640411,"is_transit":false,"distance":1784,"line":0}],[{"is_transit":false,"line":0,"i_long":107.144613,"station_id":"CKR","distance":0,"transit":false,"station_name":"Cikarang","i_lat":-6.2553149999999995,"time":0},{"station_id":"TLM","is_transit":false,"station_name":"Metland Telaga Murni","transit":false,"i_lat":-6.262938,"i_long":107.093313,"line":1,"time":4,"distance":3689},{"station_id":"CIT","line":0,"distance":2800,"transit":false,"is_transit":false,"time":2,"i_lat":-6.261877,"i_long":107.083084,"station_name":"Cibitung"},{"i_long":107.055722,"time":3,"line":1,"transit":false,"station_name":"Tambun","is_transit":false,"station_id":"TB","distance":3420,"i_lat":-6.258864},{"is_transit":false,"time":7,"distance":4460,"i_lat":-6.248029,"i_long":107.016735,"line":0,"station_name":"Bekasi Timur","transit":false,"station_id":"BKST"},{"i_lat":-6.236616,"station_id":"BKS","is_transit":false,"i_long":106.997013,"line":0,"time":2,"station_name":"Bekasi","transit":false,"distance":2368},{"transit":false,"station_id":"KRI","i_long":106.977657,"distance":2520,"line":1,"is_transit":false,"i_lat":-6.224515,"time":4,"station_name":"Kranji"},{"distance":3097,"time":3,"station_name":"Cakung","transit":false,"is_transit":false,"i_lat":-6.219053,"line":0,"station_id":"CUK","i_long":106.951283},{"is_transit":false,"time":8,"distance":1385,"i_lat":-6.217455,"line":1,"transit":false,"i_long":106.939679,"station_id":"KLDB","station_name":"Klenderbaru"},{"is_transit":false,"i_long":106.922662,"distance":1305,"i_lat":-6.215568,"station_name":"Buaran","time":1,"transit":false,"line":0,"station_id":"BUA"},{"station_name":"Klender","transit":false,"time":2,"i_lat":-6.2135,"i_long":106.899548,"line":1,"distance":3100,"station_id":"KLD","is_transit":false},{"is_transit":true,"time":3,"transit":true,"i_long":106.86807400000001,"i_lat":-6.215091,"station_name":"Jatinegara","line":0,"distance":3395,"station_id":"JNG"},{"is_transit":false,"station_id":"POK","distance":1236,"i_lat":-6.209188,"i_long":106.861737,"station_name":"Pondok Jati","time":2,"line":11,"transit":false},{"i_long":106.855437,"station_id":"KMT","transit":false,"i_lat":-6.193792,"line":11,"is_transit":false,"distance":1829,"station_name":"Kramat","time":2},{"station_name":"Gang Sentiong","i_lat":-6.185975,"station_id":"GST","i_long":106.850107,"distance":973,"transit":false,"line":11,"is_transit":false,"time":1},{"station_id":"PSE","time":8,"i_long":106.84368,"distance":1567,"station_name":"Pasar Senen","line":11,"is_transit":false,"transit":false,"i_lat":-6.174784},{"is_transit":false,"i_lat":-6.161728,"station_id":"KMO","distance":1436,"transit":false,"line":11,"i_long":106.839204,"time":4,"station_name":"Kemayoran"},{"transit":false,"station_name":"Rajawali","line":11,"distance":1901,"i_long":106.836569,"i_lat":-6.14505,"station_id":"RJW","is_transit":false,"time":5},{"distance":1444,"line":0,"station_name":"Kampung Bandan","i_lat":-6.132549,"station_id":"KPB","i_long":106.826365,"is_transit":true,"transit":true,"time":3},{"transit":true,"time":3,"station_name":"Jakarta Kota","is_transit":true,"distance":1364,"i_lat":-6.137569,"line":0,"station_id":"JAKK","i_long":106.812439},{"station_name":"Jayakarta","is_transit":false,"time":4,"transit":false,"distance":1264,"i_lat":-6.141205,"station_id":"JAY","i_long":106.820901,"line":7},{"distance":1080,"time":2,"transit":false,"i_long":106.82482,"i_lat":-6.149769,"line":2,"station_id":"MGB","is_transit":false,"station_name":"Manggabesar"},{"line":2,"station_id":"SW","distance":906,"is_transit":false,"transit":false,"i_long":106.827103,"i_lat":-6.160725,"time":2,"station_name":"Sawah Besar"},{"transit":false,"distance":1149,"time":2,"i_lat":-6.166716,"station_id":"JUA","is_transit":false,"station_name":"Juanda","i_long":106.828284,"line":2},{"is_transit":false,"station_name":"Gondangdia","line":2,"distance":2015,"i_lat":-6.186295,"i_long":106.832183,"time":4,"transit":false,"station_id":"GDD"},{"i_long":106.840169,"station_id":"CKI","distance":1750,"i_lat":-6.198556,"line":0,"is_transit":false,"time":3,"transit":false,"station_name":"Cikini"},{"station_id":"MRI","i_long":106.84912,"i_lat":-6.209883,"station_name":"Manggarai","distance":1590,"line":0,"time":4,"is_transit":true,"transit":true},{"is_transit":false,"distance":3186,"station_id":"SUD","station_name":"Sudirman","i_long":106.822649,"line":1,"time":4,"i_lat":-6.202263,"transit":false},{"is_transit":false,"transit":false,"i_long":106.819881,"station_name":"Sudirman Baru","i_lat":-6.201433,"line":1,"time":1,"distance":280,"station_id":"SUDB"},{"i_long":106.816351,"time":1,"transit":false,"station_id":"KAT","station_name":"Karet","is_transit":false,"line":1,"distance":471,"i_lat":-6.20132},{"line":1,"i_long":106.811091,"transit":true,"station_id":"THB","is_transit":true,"i_lat":-6.185545,"time":5,"distance":2029,"station_name":"Tanah Abang"},{"time":6,"station_id":"PLM","i_lat":-6.207404,"station_name":"Palmerah","line":6,"is_transit":false,"i_long":106.79689,"transit":false,"distance":3191},{"is_transit":false,"time":7,"station_name":"Kebayoran","distance":3737,"transit":false,"i_lat":-6.237242,"i_long":106.780334,"station_id":"KBY","line":6},{"is_transit":false,"station_id":"PDJ","i_long":106.74273,"line":6,"distance":6218,"time":8,"station_name":"Pondokranji","transit":false,"i_lat":-6.276362},{"i_lat":-6.288927,"line":6,"is_transit":false,"i_long":106.728916,"station_name":"Jurangmangu","time":3,"station_id":"JMU","transit":false,"distance":2179},{"transit":false,"distance":1994,"is_transit":false,"station_name":"Sudimara","i_lat":-6.296963,"time":4,"i_long":106.712277,"line":6,"station_id":"SDM"},{"station_id":"RU","transit":false,"i_lat":-6.314823,"distance":4566,"is_transit":false,"line":6,"time":6,"station_name":"Rawa Buntu","i_long":106.675475},{"i_long":106.66566,"station_id":"SRP","is_transit":false,"distance":2413,"i_lat":-6.319871,"station_name":"Serpong","time":4,"transit":false,"line":6},{"i_lat":-6.32484,"distance":1784,"time":4,"i_long":106.640411,"is_transit":false,"transit":false,"line":0,"station_id":"CSK","station_name":"Cisauk"}]]}