{"data":[[{"is_transit":false,"transit":false,"station_name":"Cikarang","distance":0,"i_lat":-6.2553149999999995,"time":0,"i_long":107.144613,"line":1,"station_id":"CKR"},{"station_id":"TLM","distance":3689,"station_name":"Metland Telaga Murni","i_lat":-6.262938,"i_long":107.093313,"time":4,"transit":false,"is_transit":false,"line":1},{"i_lat":-6.261877,"distance":2800,"time":2,"station_name":"Cibitung","transit":false,"i_long":107.083084,"is_transit":false,"station_id":"CIT","line":1},{"i_long":107.055722,"station_name":"Tambun","is_transit":false,"time":3,"station_id":"TB","distance":3420,"transit":false,"i_lat":-6.258864,"line":1},{"line":1,"distance":4460,"station_name":"Bekasi Timur","is_transit":false,"station_id":"BKST","time":7,"transit":false,"i_long":107.016735,"i_lat":-6.248029},{"time":2,"transit":false,"is_transit":false,"station_name":"Bekasi","i_long":106.997013,"line":1,"i_lat":-6.236616,"station_id":"BKS","distance":2368},{"station_id":"KRI","time":4,"transit":false,"i_lat":-6.224515,"line":1,"i_long":106.977657,"distance":2520,"station_name":"Kranji","is_transit":false},{"i_long":106.951283,"time":3,"transit":false,"i_lat":-6.219053,"station_name":"Cakung","station_id":"CUK","line":1,"distance":3097,"is_transit":false},{"line":1,"station_name":"Klenderbaru","distance":1385,"time":8,"transit":false,"i_lat":-6.217455,"is_transit":false,"i_long":106.939679,"station_id":"KLDB"},{"station_name":"Buaran","time":1,"i_long":106.922662,"is_transit":false,"line":1,"transit":false,"i_lat":-6.215568,"distance":1305,"station_id":"BUA"},{"station_id":"KLD","station_name":"Klender","transit":false,"time":2,"i_lat":-6.2135,"is_transit":false,"i_long":106.899548,"line":1,"distance":3100},{"station_id":"JNG","station_name":"Jatinegara","transit":false,"is_transit":false,"time":3,"i_lat":-6.215091,"line":1,"i_long":106.86807400000001,"distance":3395},{"station_id":"MTR","i_long":106.858896,"distance":1377,"station_name":"Matraman","is_transit":false,"i_lat":-6.212485,"transit":false,"time":2,"line":1},{"i_long":106.84912,"is_transit":true,"transit":true,"station_name":"Manggarai","i_lat":-6.209883,"line":2,"time":2,"station_id":"MRI","distance":1275},{"line":2,"transit":false,"station_name":"Tebet","time":4,"is_transit":false,"station_id":"TEB","i_lat":-6.226659,"i_long":106.857948,"distance":2610},{"transit":false,"time":2,"line":2,"station_name":"Cawang","i_lat":-6.242512,"i_long":106.856607,"distance":1230,"is_transit":false,"station_id":"CW"},{"is_transit":false,"station_id":"DRN","distance":1546,"station_name":"Duren Kalibata","transit":false,"i_lat":-6.255332,"line":2,"time":3,"i_long":106.85449},{"distance":824,"station_name":"Pasar Minggu Baru","station_id":"PSMB","time":2,"line":2,"transit":false,"is_transit":false,"i_lat":-6.263214,"i_long":106.851577},{"station_id":"PSM","time":2,"line":2,"distance":2380,"i_long":106.843999,"transit":false,"is_transit":false,"i_lat":-6.2842400000000005,"station_name":"Pasar Minggu"},{"i_lat":-6.3080680000000005,"distance":2820,"i_long":106.838896,"time":4,"station_name":"Tanjung Barat","is_transit":false,"station_id":"TNT","line":2,"transit":false},{"station_name":"Lenteng Agung","time":3,"i_lat":-6.330363,"line":2,"distance":2671,"i_long":106.832616,"transit":false,"is_transit":false,"station_id":"LNA"},{"is_transit":false,"line":2,"distance":1029,"transit":false,"i_lat":-6.339291,"time":2,"station_id":"UP","i_long":106.834175,"station_name":"Univ. Pancasila"},{"station_name":"Univ. Indonesia","station_id":"UI","time":3,"distance":2264,"line":2,"i_long":106.831474,"i_lat":-6.360749,"is_transit":false,"transit":false},{"station_name":"Pondok Cina","line":2,"i_lat":-6.369073,"distance":1109,"station_id":"POC","time":2,"transit":false,"is_transit":false,"i_long":106.831114},{"i_lat":-6.391065,"i_long":106.819451,"time":4,"station_id":"DPB","is_transit":false,"distance":2727,"station_name":"Depokbaru","line":2,"transit":false},{"i_lat":-6.405256,"station_name":"Depok","distance":1584,"i_long":106.816926,"line":2,"time":3,"is_transit":false,"station_id":"DP","transit":false},{"station_id":"CTA","distance":5084,"i_long":106.800298,"station_name":"Citayam","is_transit":false,"time":6,"transit":false,"i_lat":-6.448811,"line":2},{"station_id":"BJD","distance":5197,"i_long":106.792719,"station_name":"Bojonggede","transit":false,"i_lat":-6.493243,"time":5,"is_transit":false,"line":2},{"transit":false,"i_long":106.800016,"distance":4331,"is_transit":false,"station_id":"CLT","line":2,"time":5,"station_name":"Cilebut","i_lat":-6.530544}],[{"station_id":"CKR","is_transit":false,"i_long":107.144613,"line":1,"distance":0,"i_lat":-6.2553149999999995,"time":0,"station_name":"Cikarang","transit":false},{"distance":3689,"transit":false,"i_lat":-6.262938,"line":1,"station_id":"TLM","i_long":107.093313,"time":4,"station_name":"Metland Telaga Murni","is_transit":false},{"station_id":"CIT","time":2,"transit":false,"is_transit":false,"distance":2800,"i_long":107.083084,"station_name":"Cibitung","i_lat":-6.261877,"line":1},{"i_long":107.055722,"time":3,"line":1,"distance":3420,"is_transit":false,"station_id":"TB","transit":false,"i_lat":-6.258864,"station_name":"Tambun"},{"is_transit":false,"time":7,"transit":false,"distance":4460,"station_id":"BKST","line":1,"i_lat":-6.248029,"station_name":"Bekasi Timur","i_long":107.016735},{"station_id":"BKS","time":2,"is_transit":false,"line":1,"distance":2368,"i_long":106.997013,"i_lat":-6.236616,"transit":false,"station_name":"Bekasi"},{"time":4,"i_long":106.977657,"line":1,"station_name":"Kranji","i_lat":-6.224515,"distance":2520,"transit":false,"is_transit":false,"station_id":"KRI"},{"distance":3097,"is_transit":false,"line":1,"transit":false,"i_long":106.951283,"i_lat":-6.219053,"station_id":"CUK","time":3,"station_name":"Cakung"},{"station_id":"KLDB","station_name":"Klenderbaru","i_long":106.939679,"time":8,"line":1,"is_transit":false,"transit":false,"i_lat":-6.217455,"distance":1385},{"is_transit":false,"i_lat":-6.215568,"line":1,"station_name":"Buaran","time":1,"transit":false,"station_id":"BUA","distance":1305,"i_long":106.922662},{"i_lat":-6.2135,"station_id":"KLD","time":2,"distance":3100,"transit":false,"is_transit":false,"i_long":106.899548,"station_name":"Klender","line":1},{"time":3,"station_id":"JNG","distance":3395,"station_name":"Jatinegara","i_long":106.86807400000001,"is_transit":true,"i_lat":-6.215091,"transit":true,"line":1},{"i_long":106.861737,"station_name":"Pondok Jati","line":11,"is_transit":false,"transit":false,"time":2,"distance":1236,"station_id":"POK","i_lat":-6.209188},{"time":2,"i_lat":-6.193792,"station_name":"Kramat","is_transit":false,"station_id":"KMT","line":11,"i_long":106.855437,"distance":1829,"transit":false},{"time":1,"station_name":"Gang Sentiong","line":11,"is_transit":false,"station_id":"GST","transit":false,"i_lat":-6.185975,"i_long":106.850107,"distance":973},{"distance":1567,"i_lat":-6.174784,"i_long":106.84368,"station_id":"PSE","station_name":"Pasar Senen","time":8,"transit":false,"is_transit":false,"line":11},{"station_id":"KMO","i_long":106.839204,"time":4,"station_name":"Kemayoran","i_lat":-6.161728,"distance":1436,"line":11,"is_transit":false,"transit":false},{"station_id":"RJW","i_long":106.836569,"transit":false,"line":11,"station_name":"Rajawali","time":5,"distance":1901,"is_transit":false,"i_lat":-6.14505},{"station_name":"Kampung Bandan","i_lat":-6.132549,"is_transit":true,"distance":1444,"time":3,"station_id":"KPB","i_long":106.826365,"line":4,"transit":true},{"station_id":"AK","station_name":"Angke","i_lat":-6.144674,"time":9,"i_long":106.79867,"line":1,"distance":4102,"transit":false,"is_transit":false},{"i_lat":-6.155215,"transit":false,"is_transit":false,"station_name":"Duri","line":1,"distance":1230,"time":4,"i_long":106.800832,"station_id":"DU"},{"station_name":"Tanah Abang","station_id":"THB","i_long":106.811091,"distance":3632,"is_transit":false,"i_lat":-6.185545,"transit":false,"line":1,"time":8},{"is_transit":false,"station_id":"KAT","line":1,"i_long":106.816351,"transit":false,"station_name":"Karet","distance":2029,"i_lat":-6.20132,"time":5},{"transit":false,"i_long":106.819881,"station_name":"Sudirman Baru","station_id":"SUDB","i_lat":-6.201433,"line":1,"distance":471,"is_transit":false,"time":1},{"station_id":"SUD","distance":280,"i_long":106.822649,"transit":false,"i_lat":-6.202263,"time":1,"station_name":"Sudirman","is_transit":false,"line":1},{"station_name":"Manggarai","distance":3186,"is_transit":true,"station_id":"MRI","transit":true,"i_lat":-6.209883,"line":2,"time":4,"i_long":106.84912},{"distance":2610,"station_name":"Tebet","is_transit":false,"transit":false,"time":4,"i_long":106.857948,"line":2,"i_lat":-6.226659,"station_id":"TEB"},{"station_name":"Cawang","line":2,"transit":false,"time":2,"station_id":"CW","distance":1230,"is_transit":false,"i_long":106.856607,"i_lat":-6.242512},{"i_long":106.85449,"is_transit":false,"distance":1546,"station_id":"DRN","transit":false,"station_name":"Duren Kalibata","line":2,"time":3,"i_lat":-6.255332},{"transit":false,"time":2,"station_id":"PSMB","is_transit":false,"i_lat":-6.263214,"i_long":106.851577,"line":2,"station_name":"Pasar Minggu Baru","distance":824},{"distance":2380,"station_name":"Pasar Minggu","transit":false,"line":2,"is_transit":false,"station_id":"PSM","i_lat":-6.2842400000000005,"time":2,"i_long":106.843999},{"i_long":106.838896,"station_name":"Tanjung Barat","is_transit":false,"time":4,"transit":false,"distance":2820,"i_lat":-6.3080680000000005,"line":2,"station_id":"TNT"},{"transit":false,"line":2,"station_name":"Lenteng Agung","is_transit":false,"distance":2671,"station_id":"LNA","time":3,"i_long":106.832616,"i_lat":-6.330363},{"time":2,"station_name":"Univ. Pancasila","i_lat":-6.339291,"is_transit":false,"distance":1029,"line":2,"i_long":106.834175,"transit":false,"station_id":"UP"},{"time":3,"transit":false,"line":2,"i_long":106.831474,"distance":2264,"i_lat":-6.360749,"station_id":"UI","station_name":"Univ. Indonesia","is_transit":false},{"i_long":106.831114,"station_id":"POC","time":2,"station_name":"Pondok Cina","is_transit":false,"i_lat":-6.369073,"distance":1109,"transit":false,"line":2},{"time":4,"distance":2727,"is_transit":false,"station_id":"DPB","station_name":"Depokbaru","line":2,"i_lat":-6.391065,"transit":false,"i_long":106.819451},{"line":2,"i_long":106.816926,"is_transit":false,"time":3,"station_name":"Depok","transit":false,"i_lat":-6.405256,"station_id":"DP","distance":1584},{"transit":false,"i_long":106.800298,"line":2,"distance":5084,"station_name":"Citayam","i_lat":-6.448811,"station_id":"CTA","time":6,"is_transit":false},{"i_lat":-6.493243,"station_name":"Bojonggede","transit":false,"line":2,"is_transit":false,"i_long":106.792719,"distance":5197,"time":5,"station_id":"BJD"},{"station_id":"CLT","line":2,"distance":4331,"time":5,"i_lat":-6.530544,"station_name":"Cilebut","transit":false,"i_long":106.800016,"is_transit":false}],[{"time":0,"transit":false,"distance":0,"line":1,"i_lat":-6.2553149999999995,"i_long":107.144613,"station_name":"Cikarang","is_transit":false,"station_id":"CKR"},{"distance":3689,"time":4,"station_id":"TLM","i_long":107.093313,"is_transit":false,"station_name":"Metland Telaga Murni","i_lat":-6.262938,"line":1,"transit":false},{"line":1,"station_id":"CIT","i_lat":-6.261877,"transit":false,"time":2,"distance":2800,"is_transit":false,"station_name":"Cibitung","i_long":107.083084},{"time":3,"i_lat":-6.258864,"is_transit":false,"line":1,"station_id":"TB","station_name":"Tambun","i_long":107.055722,"distance":3420,"transit":false},{"station_name":"Bekasi Timur","line":1,"time":7,"transit":false,"i_lat":-6.248029,"is_transit":false,"station_id":"BKST","i_long":107.016735,"distance":4460},{"is_transit":false,"transit":false,"station_id":"BKS","i_long":106.997013,"distance":2368,"station_name":"Bekasi","i_lat":-6.236616,"time":2,"line":1},{"time":4,"transit":false,"is_transit":false,"i_long":106.977657,"distance":2520,"station_id":"KRI","station_name":"Kranji","i_lat":-6.224515,"line":1},{"time":3,"i_long":106.951283,"station_id":"CUK","line":1,"i_lat":-6.219053,"distance":3097,"transit":false,"is_transit":false,"station_name":"Cakung"},{"is_transit":false,"time":8,"distance":1385,"i_long":106.939679,"transit":false,"station_id":"KLDB","line":1,"station_name":"Klenderbaru","i_lat":-6.217455},{"line":1,"station_id":"BUA","time":1,"station_name":"Buaran","i_long":106.922662,"i_lat":-6.215568,"distance":1305,"is_transit":false,"transit":false},{"i_lat":-6.2135,"is_transit":false,"line":1,"station_id":"KLD","transit":false,"i_long":106.899548,"distance":3100,"time":2,"station_name":"Klender"},{"line":1,"i_lat":-6.215091,"is_transit":true,"station_id":"JNG","i_long":106.86807400000001,"transit":true,"distance":3395,"time":3,"station_name":"Jatinegara"},{"i_long":106.861737,"line":11,"time":2,"distance":1236,"station_name":"Pondok Jati","transit":false,"i_lat":-6.209188,"station_id":"POK","is_transit":false},{"distance":1829,"station_id":"KMT","transit":false,"is_transit":false,"station_name":"Kramat","line":11,"i_lat":-6.193792,"i_long":106.855437,"time":2},{"station_id":"GST","distance":973,"transit":false,"time":1,"i_long":106.850107,"station_name":"Gang Sentiong","i_lat":-6.185975,"is_transit":false,"line":11},{"station_id":"PSE","transit":false,"distance":1567,"i_lat":-6.174784,"i_long":106.84368,"line":11,"time":8,"station_name":"Pasar Senen","is_transit":false},{"station_name":"Kemayoran","transit":false,"is_transit":false,"distance":1436,"station_id":"KMO","i_lat":-6.161728,"i_long":106.839204,"time":4,"line":11},{"i_long":106.836569,"line":11,"station_id":"RJW","distance":1901,"time":5,"station_name":"Rajawali","transit":false,"is_transit":false,"i_lat":-6.14505},{"i_long":106.826365,"station_name":"Kampung Bandan","station_id":"KPB","i_lat":-6.132549,"distance":1444,"transit":true,"line":4,"is_transit":true,"time":3},{"line":2,"i_lat":-6.137569,"station_id":"JAKK","time":3,"station_name":"Jakarta Kota","transit":true,"i_long":106.812439,"distance":1364,"is_transit":true},{"is_transit":false,"i_lat":-6.141205,"transit":false,"i_long":106.820901,"station_name":"Jayakarta","station_id":"JAY","line":2,"distance":1264,"time":4},{"is_transit":false,"station_id":"MGB","station_name":"Manggabesar","distance":1080,"i_lat":-6.149769,"transit":false,"time":2,"i_long":106.82482,"line":2},{"is_transit":false,"distance":906,"transit":false,"line":2,"i_long":106.827103,"time":2,"station_name":"Sawah Besar","i_lat":-6.160725,"station_id":"SW"},{"i_long":106.828284,"line":2,"time":2,"i_lat":-6.166716,"station_name":"Juanda","is_transit":false,"station_id":"JUA","distance":1149,"transit":false},{"line":2,"transit":false,"i_lat":-6.186295,"is_transit":false,"station_name":"Gondangdia","time":4,"station_id":"GDD","i_long":106.832183,"distance":2015},{"distance":1750,"transit":false,"i_long":106.840169,"station_name":"Cikini","time":3,"is_transit":false,"station_id":"CKI","i_lat":-6.198556,"line":2},{"i_long":106.84912,"is_transit":false,"line":2,"distance":1590,"i_lat":-6.209883,"time":4,"transit":false,"station_name":"Manggarai","station_id":"MRI"},{"line":2,"station_name":"Tebet","is_transit":false,"distance":2610,"transit":false,"i_lat":-6.226659,"station_id":"TEB","i_long":106.857948,"time":4},{"i_long":106.856607,"line":2,"station_id":"CW","distance":1230,"transit":false,"station_name":"Cawang","time":2,"is_transit":false,"i_lat":-6.242512},{"station_name":"Duren Kalibata","is_transit":false,"distance":1546,"time":3,"transit":false,"station_id":"DRN","i_lat":-6.255332,"i_long":106.85449,"line":2},{"time":2,"station_id":"PSMB","is_transit":false,"station_name":"Pasar Minggu Baru","line":2,"distance":824,"i_long":106.851577,"i_lat":-6.263214,"transit":false},{"is_transit":false,"distance":2380,"station_id":"PSM","i_long":106.843999,"line":2,"time":2,"transit":false,"i_lat":-6.2842400000000005,"station_name":"Pasar Minggu"},{"transit":false,"distance":2820,"station_name":"Tanjung Barat","i_lat":-6.3080680000000005,"time":4,"i_long":106.838896,"station_id":"TNT","is_transit":false,"line":2},{"time":3,"transit":false,"line":2,"distance":2671,"i_lat":-6.330363,"i_long":106.832616,"is_transit":false,"station_name":"Lenteng Agung","station_id":"LNA"},{"distance":1029,"station_name":"Univ. Pancasila","time":2,"transit":false,"is_transit":false,"i_long":106.834175,"i_lat":-6.339291,"station_id":"UP","line":2},{"distance":2264,"station_name":"Univ. Indonesia","transit":false,"is_transit":false,"station_id":"UI","i_lat":-6.360749,"line":2,"time":3,"i_long":106.831474},{"line":2,"station_name":"Pondok Cina","time":2,"station_id":"POC","i_lat":-6.369073,"distance":1109,"transit":false,"is_transit":false,"i_long":106.831114},{"time":4,"distance":2727,"i_long":106.819451,"line":2,"station_id":"DPB","i_lat":-6.391065,"is_transit":false,"transit":false,"station_name":"Depokbaru"},{"station_id":"DP","line":2,"is_transit":false,"time":3,"transit":false,"station_name":"Depok","i_lat":-6.405256,"distance":1584,"i_long":106.816926},{"i_long":106.800298,"line":2,"distance":5084,"is_transit":false,"station_id":"CTA","i_lat":-6.448811,"time":6,"station_name":"Citayam","transit":false},{"line":2,"i_long":106.792719,"time":5,"station_name":"Bojonggede","is_transit":false,"i_lat":-6.493243,"transit":false,"distance":5197,"station_id":"BJD"},{"station_id":"CLT","time":5,"is_transit":false,"transit":false,"station_name":"Cilebut","distance":4331,"i_lat":-6.530544,"i_long":106.800016,"line":2}]]}