{"data":[[{"line":1,"time":0,"station_name":"Cikarang","station_id":"CKR","is_transit":false,"i_long":107.144613,"distance":0,"i_lat":-6.2553149999999995,"transit":false},{"station_name":"Metland Telaga Murni","i_lat":-6.262938,"distance":3689,"transit":false,"line":1,"i_long":107.093313,"time":4,"station_id":"TLM","is_transit":false},{"line":1,"i_lat":-6.261877,"is_transit":false,"time":2,"transit":false,"station_id":"CIT","station_name":"Cibitung","distance":2800,"i_long":107.083084},{"time":3,"station_name":"Tambun","transit":false,"line":1,"distance":3420,"station_id":"TB","i_long":107.055722,"is_transit":false,"i_lat":-6.258864},{"is_transit":false,"time":7,"line":1,"station_id":"BKST","station_name":"Bekasi Timur","distance":4460,"i_lat":-6.248029,"transit":false,"i_long":107.016735},{"line":1,"i_lat":-6.236616,"time":2,"transit":false,"i_long":106.997013,"distance":2368,"station_id":"BKS","station_name":"Bekasi","is_transit":false},{"transit":false,"line":1,"station_id":"KRI","distance":2520,"station_name":"Kranji","i_long":106.977657,"i_lat":-6.224515,"time":4,"is_transit":false},{"i_lat":-6.219053,"i_long":106.951283,"line":1,"station_name":"Cakung","time":3,"distance":3097,"transit":false,"is_transit":false,"station_id":"CUK"},{"station_name":"Klenderbaru","line":1,"transit":false,"time":8,"is_transit":false,"station_id":"KLDB","i_lat":-6.217455,"i_long":106.939679,"distance":1385},{"line":1,"i_lat":-6.215568,"station_name":"Buaran","is_transit":false,"time":1,"distance":1305,"transit":false,"i_long":106.922662,"station_id":"BUA"},{"time":2,"distance":3100,"is_transit":false,"i_long":106.899548,"line":1,"station_name":"Klender","station_id":"KLD","transit":false,"i_lat":-6.2135},{"line":1,"i_lat":-6.215091,"is_transit":false,"transit":false,"time":3,"station_id":"JNG","i_long":106.86807400000001,"station_name":"Jatinegara","distance":3395},{"line":1,"i_lat":-6.212485,"is_transit":false,"station_name":"Matraman","station_id":"MTR","transit":false,"time":2,"distance":1377,"i_long":106.858896},{"i_lat":-6.209883,"line":2,"transit":false,"station_name":"Manggarai","is_transit":false,"time":2,"station_id":"MRI","i_long":106.84912,"distance":1275},{"station_name":"Sudirman","i_lat":-6.202263,"station_id":"SUD","i_long":106.822649,"time":4,"distance":3186,"is_transit":false,"transit":false,"line":1},{"i_lat":-6.201433,"distance":280,"station_name":"Sudirman Baru","station_id":"SUDB","i_long":106.819881,"line":1,"transit":false,"time":1,"is_transit":false},{"line":1,"distance":471,"is_transit":false,"transit":false,"station_id":"KAT","time":1,"i_lat":-6.20132,"station_name":"Karet","i_long":106.816351},{"is_transit":true,"i_long":106.811091,"distance":2029,"station_name":"Tanah Abang","time":5,"i_lat":-6.185545,"line":1,"transit":true,"station_id":"THB"},{"distance":3191,"station_name":"Palmerah","is_transit":false,"station_id":"PLM","time":6,"i_long":106.79689,"transit":false,"i_lat":-6.207404,"line":6},{"line":6,"station_name":"Kebayoran","distance":3737,"station_id":"KBY","i_lat":-6.237242,"transit":false,"time":7,"i_long":106.780334,"is_transit":false},{"i_lat":-6.276362,"transit":false,"is_transit":false,"i_long":106.74273,"line":6,"time":8,"station_name":"Pondokranji","distance":6218,"station_id":"PDJ"},{"distance":2179,"transit":false,"station_id":"JMU","i_lat":-6.288927,"time":3,"line":6,"is_transit":false,"station_name":"Jurangmangu","i_long":106.728916},{"i_long":106.712277,"line":6,"distance":1994,"station_id":"SDM","transit":false,"station_name":"Sudimara","time":4,"i_lat":-6.296963,"is_transit":false},{"is_transit":false,"i_lat":-6.314823,"i_long":106.675475,"line":6,"transit":false,"time":6,"distance":4566,"station_name":"Rawa Buntu","station_id":"RU"},{"time":4,"line":6,"transit":false,"i_lat":-6.319871,"station_id":"SRP","i_long":106.66566,"station_name":"Serpong","distance":2413,"is_transit":false},{"station_id":"CSK","station_name":"Cisauk","i_lat":-6.32484,"i_long":106.640411,"time":4,"transit":false,"distance":1784,"is_transit":false,"line":3},{"distance":2519,"time":4,"is_transit":false,"i_lat":-6.329547,"transit":false,"i_long":106.617853,"line":3,"station_name":"Cicayur","station_id":"CC"}],[{"is_transit":false,"transit":false,"time":0,"station_name":"Cikarang","station_id":"CKR","distance":0,"i_lat":-6.2553149999999995,"i_long":107.144613,"line":1},{"station_id":"TLM","i_lat":-6.262938,"line":1,"is_transit":false,"station_name":"Metland Telaga Murni","distance":3689,"transit":false,"time":4,"i_long":107.093313},{"time":2,"is_transit":false,"transit":false,"i_long":107.083084,"line":1,"i_lat":-6.261877,"station_id":"CIT","distance":2800,"station_name":"Cibitung"},{"line":1,"i_long":107.055722,"is_transit":false,"station_id":"TB","transit":false,"distance":3420,"time":3,"station_name":"Tambun","i_lat":-6.258864},{"line":1,"i_long":107.016735,"is_transit":false,"transit":false,"station_id":"BKST","station_name":"Bekasi Timur","distance":4460,"i_lat":-6.248029,"time":7},{"station_name":"Bekasi","i_lat":-6.236616,"is_transit":false,"station_id":"BKS","i_long":106.997013,"time":2,"distance":2368,"transit":false,"line":1},{"i_lat":-6.224515,"i_long":106.977657,"transit":false,"is_transit":false,"distance":2520,"station_id":"KRI","line":1,"station_name":"Kranji","time":4},{"time":3,"station_name":"Cakung","line":1,"i_long":106.951283,"station_id":"CUK","i_lat":-6.219053,"distance":3097,"transit":false,"is_transit":false},{"distance":1385,"transit":false,"i_long":106.939679,"station_name":"Klenderbaru","i_lat":-6.217455,"station_id":"KLDB","line":1,"time":8,"is_transit":false},{"transit":false,"is_transit":false,"i_long":106.922662,"i_lat":-6.215568,"station_name":"Buaran","time":1,"line":1,"distance":1305,"station_id":"BUA"},{"i_lat":-6.2135,"is_transit":false,"time":2,"transit":false,"i_long":106.899548,"line":1,"station_name":"Klender","station_id":"KLD","distance":3100},{"station_id":"JNG","distance":3395,"i_lat":-6.215091,"line":1,"transit":true,"station_name":"Jatinegara","is_transit":true,"time":3,"i_long":106.86807400000001},{"line":11,"is_transit":false,"station_id":"POK","i_lat":-6.209188,"i_long":106.861737,"time":2,"transit":false,"station_name":"Pondok Jati","distance":1236},{"is_transit":false,"time":2,"i_lat":-6.193792,"station_id":"KMT","station_name":"Kramat","line":11,"transit":false,"distance":1829,"i_long":106.855437},{"time":1,"is_transit":false,"line":11,"distance":973,"station_name":"Gang Sentiong","transit":false,"i_long":106.850107,"station_id":"GST","i_lat":-6.185975},{"station_name":"Pasar Senen","i_lat":-6.174784,"i_long":106.84368,"line":11,"is_transit":false,"distance":1567,"station_id":"PSE","transit":false,"time":8},{"time":4,"distance":1436,"i_long":106.839204,"i_lat":-6.161728,"station_name":"Kemayoran","line":11,"is_transit":false,"transit":false,"station_id":"KMO"},{"station_name":"Rajawali","time":5,"line":11,"distance":1901,"transit":false,"i_lat":-6.14505,"station_id":"RJW","is_transit":false,"i_long":106.836569},{"station_id":"KPB","line":4,"time":3,"distance":1444,"i_lat":-6.132549,"i_long":106.826365,"is_transit":true,"transit":true,"station_name":"Kampung Bandan"},{"station_name":"Angke","line":1,"station_id":"AK","is_transit":false,"time":9,"i_lat":-6.144674,"distance":4102,"transit":false,"i_long":106.79867},{"station_name":"Duri","station_id":"DU","is_transit":false,"line":1,"distance":1230,"i_long":106.800832,"transit":false,"i_lat":-6.155215,"time":4},{"time":8,"i_lat":-6.185545,"line":1,"station_id":"THB","i_long":106.811091,"station_name":"Tanah Abang","distance":3632,"is_transit":true,"transit":true},{"i_long":106.79689,"is_transit":false,"time":6,"station_name":"Palmerah","transit":false,"station_id":"PLM","distance":3191,"line":6,"i_lat":-6.207404},{"line":6,"station_id":"KBY","station_name":"Kebayoran","distance":3737,"is_transit":false,"i_long":106.780334,"transit":false,"i_lat":-6.237242,"time":7},{"station_id":"PDJ","is_transit":false,"station_name":"Pondokranji","i_long":106.74273,"distance":6218,"transit":false,"time":8,"i_lat":-6.276362,"line":6},{"distance":2179,"line":6,"is_transit":false,"i_long":106.728916,"i_lat":-6.288927,"transit":false,"station_id":"JMU","time":3,"station_name":"Jurangmangu"},{"i_lat":-6.296963,"station_name":"Sudimara","i_long":106.712277,"line":6,"transit":false,"distance":1994,"time":4,"is_transit":false,"station_id":"SDM"},{"i_long":106.675475,"station_name":"Rawa Buntu","distance":4566,"is_transit":false,"station_id":"RU","transit":false,"i_lat":-6.314823,"line":6,"time":6},{"transit":false,"i_lat":-6.319871,"time":4,"station_name":"Serpong","station_id":"SRP","line":6,"is_transit":false,"distance":2413,"i_long":106.66566},{"i_lat":-6.32484,"i_long":106.640411,"line":3,"transit":false,"distance":1784,"is_transit":false,"time":4,"station_id":"CSK","station_name":"Cisauk"},{"i_long":106.617853,"is_transit":false,"distance":2519,"station_name":"Cicayur","line":3,"transit":false,"time":4,"i_lat":-6.329547,"station_id":"CC"}],[{"line":1,"time":0,"station_id":"CKR","station_name":"Cikarang","i_lat":-6.2553149999999995,"transit":false,"distance":0,"is_transit":false,"i_long":107.144613},{"station_name":"Metland Telaga Murni","transit":false,"distance":3689,"i_lat":-6.262938,"line":1,"time":4,"station_id":"TLM","i_long":107.093313,"is_transit":false},{"i_lat":-6.261877,"is_transit":false,"distance":2800,"station_name":"Cibitung","station_id":"CIT","transit":false,"i_long":107.083084,"line":1,"time":2},{"distance":3420,"line":1,"station_id":"TB","transit":false,"i_long":107.055722,"station_name":"Tambun","i_lat":-6.258864,"is_transit":false,"time":3},{"station_name":"Bekasi Timur","transit":false,"distance":4460,"station_id":"BKST","i_lat":-6.248029,"i_long":107.016735,"line":1,"is_transit":false,"time":7},{"station_name":"Bekasi","transit":false,"i_long":106.997013,"i_lat":-6.236616,"is_transit":false,"distance":2368,"line":1,"time":2,"station_id":"BKS"},{"transit":false,"line":1,"i_lat":-6.224515,"station_id":"KRI","i_long":106.977657,"distance":2520,"time":4,"is_transit":false,"station_name":"Kranji"},{"transit":false,"time":3,"station_name":"Cakung","station_id":"CUK","distance":3097,"i_long":106.951283,"i_lat":-6.219053,"line":1,"is_transit":false},{"line":1,"i_lat":-6.217455,"distance":1385,"transit":false,"time":8,"station_name":"Klenderbaru","is_transit":false,"i_long":106.939679,"station_id":"KLDB"},{"station_id":"BUA","is_transit":false,"i_long":106.922662,"time":1,"distance":1305,"transit":false,"station_name":"Buaran","i_lat":-6.215568,"line":1},{"is_transit":false,"station_id":"KLD","time":2,"i_lat":-6.2135,"line":1,"i_long":106.899548,"distance":3100,"transit":false,"station_name":"Klender"},{"time":3,"station_id":"JNG","i_long":106.86807400000001,"station_name":"Jatinegara","i_lat":-6.215091,"line":1,"transit":false,"is_transit":false,"distance":3395},{"station_name":"Matraman","station_id":"MTR","transit":false,"i_lat":-6.212485,"i_long":106.858896,"time":2,"distance":1377,"line":1,"is_transit":false},{"transit":true,"time":2,"station_id":"MRI","i_lat":-6.209883,"i_long":106.84912,"is_transit":true,"station_name":"Manggarai","distance":1275,"line":2},{"distance":1590,"transit":false,"line":2,"station_id":"CKI","i_long":106.840169,"time":4,"is_transit":false,"station_name":"Cikini","i_lat":-6.198556},{"i_long":106.832183,"time":3,"is_transit":false,"station_name":"Gondangdia","distance":1750,"line":2,"transit":false,"station_id":"GDD","i_lat":-6.186295},{"station_name":"Juanda","time":4,"is_transit":false,"station_id":"JUA","i_lat":-6.166716,"distance":2015,"i_long":106.828284,"transit":false,"line":2},{"i_lat":-6.160725,"i_long":106.827103,"line":2,"station_name":"Sawah Besar","time":2,"station_id":"SW","distance":1149,"transit":false,"is_transit":false},{"station_id":"MGB","is_transit":false,"time":2,"station_name":"Manggabesar","i_lat":-6.149769,"distance":906,"i_long":106.82482,"transit":false,"line":2},{"is_transit":false,"time":2,"station_id":"JAY","i_lat":-6.141205,"station_name":"Jayakarta","i_long":106.820901,"line":2,"transit":false,"distance":1080},{"transit":true,"i_long":106.812439,"station_id":"JAKK","time":4,"is_transit":true,"i_lat":-6.137569,"line":2,"distance":1264,"station_name":"Jakarta Kota"},{"is_transit":true,"line":4,"distance":1364,"i_long":106.826365,"transit":true,"i_lat":-6.132549,"time":3,"station_id":"KPB","station_name":"Kampung Bandan"},{"is_transit":false,"i_lat":-6.144674,"station_name":"Angke","line":1,"i_long":106.79867,"time":9,"station_id":"AK","distance":4102,"transit":false},{"station_name":"Duri","i_long":106.800832,"i_lat":-6.155215,"station_id":"DU","line":1,"distance":1230,"time":4,"transit":false,"is_transit":false},{"i_lat":-6.185545,"transit":true,"i_long":106.811091,"station_id":"THB","time":8,"distance":3632,"is_transit":true,"station_name":"Tanah Abang","line":1},{"station_id":"PLM","transit":false,"line":6,"time":6,"i_lat":-6.207404,"i_long":106.79689,"is_transit":false,"station_name":"Palmerah","distance":3191},{"transit":false,"station_id":"KBY","i_long":106.780334,"is_transit":false,"i_lat":-6.237242,"distance":3737,"station_name":"Kebayoran","time":7,"line":6},{"time":8,"line":6,"i_long":106.74273,"station_id":"PDJ","is_transit":false,"transit":false,"distance":6218,"i_lat":-6.276362,"station_name":"Pondokranji"},{"is_transit":false,"i_long":106.728916,"station_name":"Jurangmangu","i_lat":-6.288927,"transit":false,"time":3,"line":6,"station_id":"JMU","distance":2179},{"is_transit":false,"distance":1994,"station_name":"Sudimara","station_id":"SDM","line":6,"i_long":106.712277,"time":4,"transit":false,"i_lat":-6.296963},{"transit":false,"station_id":"RU","station_name":"Rawa Buntu","distance":4566,"i_long":106.675475,"is_transit":false,"i_lat":-6.314823,"time":6,"line":6},{"i_lat":-6.319871,"transit":false,"distance":2413,"i_long":106.66566,"line":6,"time":4,"station_id":"SRP","station_name":"Serpong","is_transit":false},{"i_long":106.640411,"is_transit":false,"time":4,"station_id":"CSK","station_name":"Cisauk","distance":1784,"i_lat":-6.32484,"line":3,"transit":false},{"distance":2519,"time":4,"i_long":106.617853,"station_name":"Cicayur","is_transit":false,"station_id":"CC","transit":false,"i_lat":-6.329547,"line":3}],[{"distance":0,"station_id":"CKR","transit":false,"time":0,"i_long":107.144613,"station_name":"Cikarang","line":1,"is_transit":false,"i_lat":-6.2553149999999995},{"station_id":"TLM","is_transit":false,"i_lat":-6.262938,"i_long":107.093313,"transit":false,"time":4,"line":1,"distance":3689,"station_name":"Metland Telaga Murni"},{"time":2,"station_id":"CIT","i_lat":-6.261877,"is_transit":false,"transit":false,"i_long":107.083084,"distance":2800,"line":1,"station_name":"Cibitung"},{"station_name":"Tambun","transit":false,"i_long":107.055722,"line":1,"time":3,"i_lat":-6.258864,"is_transit":false,"station_id":"TB","distance":3420},{"time":7,"i_long":107.016735,"station_id":"BKST","line":1,"is_transit":false,"i_lat":-6.248029,"station_name":"Bekasi Timur","distance":4460,"transit":false},{"transit":false,"time":2,"station_id":"BKS","line":1,"i_long":106.997013,"is_transit":false,"station_name":"Bekasi","distance":2368,"i_lat":-6.236616},{"time":4,"i_long":106.977657,"station_id":"KRI","is_transit":false,"transit":false,"line":1,"i_lat":-6.224515,"distance":2520,"station_name":"Kranji"},{"is_transit":false,"time":3,"station_name":"Cakung","station_id":"CUK","i_long":106.951283,"line":1,"transit":false,"distance":3097,"i_lat":-6.219053},{"station_id":"KLDB","i_long":106.939679,"distance":1385,"time":8,"i_lat":-6.217455,"is_transit":false,"transit":false,"station_name":"Klenderbaru","line":1},{"i_long":106.922662,"line":1,"i_lat":-6.215568,"station_id":"BUA","transit":false,"time":1,"is_transit":false,"distance":1305,"station_name":"Buaran"},{"time":2,"i_long":106.899548,"transit":false,"i_lat":-6.2135,"station_name":"Klender","station_id":"KLD","distance":3100,"is_transit":false,"line":1},{"station_name":"Jatinegara","distance":3395,"transit":true,"i_lat":-6.215091,"is_transit":true,"i_long":106.86807400000001,"time":3,"line":1,"station_id":"JNG"},{"line":11,"station_id":"POK","distance":1236,"i_lat":-6.209188,"time":2,"station_name":"Pondok Jati","is_transit":false,"i_long":106.861737,"transit":false},{"station_name":"Kramat","i_long":106.855437,"station_id":"KMT","distance":1829,"is_transit":false,"i_lat":-6.193792,"transit":false,"line":11,"time":2},{"station_id":"GST","transit":false,"time":1,"i_long":106.850107,"distance":973,"station_name":"Gang Sentiong","is_transit":false,"line":11,"i_lat":-6.185975},{"distance":1567,"is_transit":false,"i_long":106.84368,"transit":false,"station_id":"PSE","i_lat":-6.174784,"time":8,"station_name":"Pasar Senen","line":11},{"is_transit":false,"station_id":"KMO","i_long":106.839204,"line":11,"station_name":"Kemayoran","distance":1436,"transit":false,"time":4,"i_lat":-6.161728},{"time":5,"distance":1901,"line":11,"is_transit":false,"station_name":"Rajawali","i_long":106.836569,"station_id":"RJW","i_lat":-6.14505,"transit":false},{"time":3,"station_id":"KPB","i_long":106.826365,"line":4,"station_name":"Kampung Bandan","distance":1444,"is_transit":true,"i_lat":-6.132549,"transit":true},{"time":3,"is_transit":true,"i_lat":-6.137569,"i_long":106.812439,"line":2,"distance":1364,"station_id":"JAKK","transit":true,"station_name":"Jakarta Kota"},{"station_id":"JAY","time":4,"distance":1264,"station_name":"Jayakarta","line":2,"is_transit":false,"i_lat":-6.141205,"transit":false,"i_long":106.820901},{"time":2,"i_lat":-6.149769,"line":2,"i_long":106.82482,"transit":false,"station_id":"MGB","distance":1080,"station_name":"Manggabesar","is_transit":false},{"station_name":"Sawah Besar","distance":906,"transit":false,"is_transit":false,"time":2,"line":2,"station_id":"SW","i_lat":-6.160725,"i_long":106.827103},{"is_transit":false,"station_name":"Juanda","i_long":106.828284,"station_id":"JUA","i_lat":-6.166716,"distance":1149,"transit":false,"line":2,"time":2},{"station_name":"Gondangdia","is_transit":false,"transit":false,"i_long":106.832183,"station_id":"GDD","distance":2015,"time":4,"i_lat":-6.186295,"line":2},{"i_lat":-6.198556,"i_long":106.840169,"line":2,"station_name":"Cikini","time":3,"transit":false,"station_id":"CKI","is_transit":false,"distance":1750},{"is_transit":true,"station_name":"Manggarai","time":4,"transit":true,"i_lat":-6.209883,"station_id":"MRI","distance":1590,"i_long":106.84912,"line":2},{"time":4,"is_transit":false,"line":1,"station_name":"Sudirman","distance":3186,"i_long":106.822649,"station_id":"SUD","i_lat":-6.202263,"transit":false},{"line":1,"i_long":106.819881,"time":1,"station_id":"SUDB","transit":false,"distance":280,"station_name":"Sudirman Baru","is_transit":false,"i_lat":-6.201433},{"line":1,"station_id":"KAT","station_name":"Karet","time":1,"transit":false,"i_long":106.816351,"is_transit":false,"distance":471,"i_lat":-6.20132},{"transit":true,"station_name":"Tanah Abang","time":5,"station_id":"THB","i_lat":-6.185545,"i_long":106.811091,"line":1,"distance":2029,"is_transit":true},{"is_transit":false,"station_name":"Palmerah","i_lat":-6.207404,"distance":3191,"station_id":"PLM","i_long":106.79689,"transit":false,"time":6,"line":6},{"i_lat":-6.237242,"line":6,"is_transit":false,"time":7,"distance":3737,"station_name":"Kebayoran","transit":false,"station_id":"KBY","i_long":106.780334},{"i_lat":-6.276362,"is_transit":false,"transit":false,"station_id":"PDJ","distance":6218,"station_name":"Pondokranji","line":6,"time":8,"i_long":106.74273},{"station_name":"Jurangmangu","distance":2179,"time":3,"station_id":"JMU","transit":false,"i_lat":-6.288927,"i_long":106.728916,"line":6,"is_transit":false},{"station_id":"SDM","distance":1994,"i_long":106.712277,"line":6,"i_lat":-6.296963,"is_transit":false,"time":4,"station_name":"Sudimara","transit":false},{"i_lat":-6.314823,"distance":4566,"is_transit":false,"transit":false,"station_id":"RU","time":6,"station_name":"Rawa Buntu","i_long":106.675475,"line":6},{"distance":2413,"time":4,"i_long":106.66566,"is_transit":false,"transit":false,"station_name":"Serpong","i_lat":-6.319871,"station_id":"SRP","line":6},{"transit":false,"distance":1784,"i_long":106.640411,"time":4,"station_name":"Cisauk","line":3,"is_transit":false,"station_id":"CSK","i_lat":-6.32484},{"is_transit":false,"time":4,"station_name":"Cicayur","distance":2519,"i_long":106.617853,"i_lat":-6.329547,"transit":false,"station_id":"CC","line":3}]]}