{"data":[[{"station_name":"Cikarang","transit":false,"distance":0,"station_id":"CKR","time":0,"i_long":107.144613,"is_transit":false,"i_lat":-6.2553149999999995,"line":0},{"i_long":107.093313,"station_name":"Metland Telaga Murni","line":1,"station_id":"TLM","is_transit":false,"time":4,"distance":3689,"i_lat":-6.262938,"transit":false},{"time":2,"station_name":"Cibitung","i_long":107.083084,"i_lat":-6.261877,"is_transit":false,"station_id":"CIT","distance":2800,"transit":false,"line":0},{"distance":3420,"time":3,"transit":false,"i_lat":-6.258864,"line":1,"station_name":"Tambun","is_transit":false,"i_long":107.055722,"station_id":"TB"},{"i_lat":-6.248029,"distance":4460,"transit":false,"time":7,"line":0,"i_long":107.016735,"station_id":"BKST","is_transit":false,"station_name":"Bekasi Timur"},{"time":2,"station_id":"BKS","distance":2368,"station_name":"Bekasi","i_long":106.997013,"transit":false,"i_lat":-6.236616,"line":0,"is_transit":false},{"station_id":"KRI","time":4,"line":1,"distance":2520,"transit":false,"i_lat":-6.224515,"station_name":"Kranji","is_transit":false,"i_long":106.977657},{"distance":3097,"i_long":106.951283,"is_transit":false,"transit":false,"i_lat":-6.219053,"line":0,"station_id":"CUK","time":3,"station_name":"Cakung"},{"i_long":106.939679,"is_transit":false,"time":8,"line":1,"transit":false,"station_id":"KLDB","i_lat":-6.217455,"station_name":"Klenderbaru","distance":1385},{"distance":1305,"time":1,"transit":false,"i_long":106.922662,"station_name":"Buaran","i_lat":-6.215568,"station_id":"BUA","is_transit":false,"line":0},{"transit":false,"i_lat":-6.2135,"station_id":"KLD","station_name":"Klender","line":1,"distance":3100,"i_long":106.899548,"is_transit":false,"time":2},{"time":3,"line":0,"transit":true,"i_long":106.86807400000001,"i_lat":-6.215091,"distance":3395,"is_transit":true,"station_name":"Jatinegara","station_id":"JNG"},{"is_transit":false,"i_long":106.861737,"distance":1236,"line":11,"i_lat":-6.209188,"time":2,"station_name":"Pondok Jati","transit":false,"station_id":"POK"}],[{"transit":false,"i_long":107.144613,"is_transit":false,"i_lat":-6.2553149999999995,"line":0,"station_name":"Cikarang","time":0,"station_id":"CKR","distance":0},{"line":1,"station_id":"TLM","time":4,"is_transit":false,"distance":3689,"transit":false,"i_lat":-6.262938,"i_long":107.093313,"station_name":"Metland Telaga Murni"},{"is_transit":false,"i_long":107.083084,"time":2,"station_id":"CIT","i_lat":-6.261877,"line":0,"transit":false,"station_name":"Cibitung","distance":2800},{"station_id":"TB","i_lat":-6.258864,"line":1,"is_transit":false,"time":3,"transit":false,"i_long":107.055722,"station_name":"Tambun","distance":3420},{"is_transit":false,"i_long":107.016735,"line":0,"station_name":"Bekasi Timur","time":7,"transit":false,"i_lat":-6.248029,"distance":4460,"station_id":"BKST"},{"transit":false,"i_lat":-6.236616,"station_id":"BKS","time":2,"i_long":106.997013,"line":0,"is_transit":false,"distance":2368,"station_name":"Bekasi"},{"transit":false,"i_lat":-6.224515,"i_long":106.977657,"line":1,"station_id":"KRI","time":4,"is_transit":false,"distance":2520,"station_name":"Kranji"},{"i_long":106.951283,"is_transit":false,"transit":false,"i_lat":-6.219053,"station_id":"CUK","time":3,"station_name":"Cakung","line":0,"distance":3097},{"i_lat":-6.217455,"station_id":"KLDB","distance":1385,"time":8,"line":1,"station_name":"Klenderbaru","is_transit":false,"transit":false,"i_long":106.939679},{"time":1,"is_transit":false,"distance":1305,"station_name":"Buaran","i_long":106.922662,"station_id":"BUA","i_lat":-6.215568,"line":0,"transit":false},{"transit":false,"time":2,"distance":3100,"station_id":"KLD","station_name":"Klender","i_lat":-6.2135,"i_long":106.899548,"is_transit":false,"line":1},{"i_lat":-6.215091,"distance":3395,"is_transit":true,"line":0,"station_id":"JNG","transit":false,"station_name":"Jatinegara","i_long":106.86807400000001,"time":3},{"station_name":"Matraman","i_long":106.858896,"distance":1377,"station_id":"MTR","i_lat":-6.212485,"is_transit":false,"time":2,"transit":false,"line":1},{"i_long":106.84912,"i_lat":-6.209883,"is_transit":true,"line":0,"station_id":"MRI","distance":1275,"station_name":"Manggarai","time":2,"transit":false},{"station_id":"SUD","distance":3186,"station_name":"Sudirman","i_long":106.822649,"time":4,"transit":false,"i_lat":-6.202263,"is_transit":false,"line":1},{"is_transit":false,"time":1,"station_name":"Sudirman Baru","i_lat":-6.201433,"station_id":"SUDB","distance":280,"transit":false,"i_long":106.819881,"line":1},{"time":1,"is_transit":false,"station_name":"Karet","distance":471,"transit":false,"i_long":106.816351,"i_lat":-6.20132,"line":1,"station_id":"KAT"},{"transit":false,"i_lat":-6.185545,"line":1,"station_name":"Tanah Abang","station_id":"THB","distance":2029,"time":5,"is_transit":true,"i_long":106.811091},{"transit":true,"station_name":"Duri","i_lat":-6.155215,"line":1,"station_id":"DU","distance":3632,"is_transit":true,"time":8,"i_long":106.800832},{"line":0,"i_lat":-6.144674,"is_transit":false,"i_long":106.79867,"time":4,"distance":1230,"transit":false,"station_id":"AK","station_name":"Angke"},{"transit":true,"i_lat":-6.132549,"line":0,"time":9,"is_transit":true,"i_long":106.826365,"station_id":"KPB","station_name":"Kampung Bandan","distance":4102},{"station_name":"Rajawali","is_transit":false,"transit":false,"station_id":"RJW","line":11,"distance":1444,"i_lat":-6.14505,"time":3,"i_long":106.836569},{"distance":1901,"station_name":"Kemayoran","time":5,"i_lat":-6.161728,"is_transit":false,"station_id":"KMO","i_long":106.839204,"transit":false,"line":11},{"line":11,"is_transit":false,"transit":false,"station_id":"PSE","distance":1436,"station_name":"Pasar Senen","i_long":106.84368,"time":4,"i_lat":-6.174784},{"i_long":106.850107,"station_id":"GST","is_transit":false,"station_name":"Gang Sentiong","line":11,"transit":false,"i_lat":-6.185975,"time":8,"distance":1567},{"distance":973,"is_transit":false,"station_name":"Kramat","transit":false,"i_lat":-6.193792,"time":1,"station_id":"KMT","i_long":106.855437,"line":11},{"station_name":"Pondok Jati","i_lat":-6.209188,"time":2,"station_id":"POK","i_long":106.861737,"transit":false,"distance":1829,"line":11,"is_transit":false}],[{"station_id":"CKR","time":0,"transit":false,"line":0,"is_transit":false,"i_lat":-6.2553149999999995,"i_long":107.144613,"distance":0,"station_name":"Cikarang"},{"station_id":"TLM","i_lat":-6.262938,"line":1,"transit":false,"is_transit":false,"distance":3689,"time":4,"station_name":"Metland Telaga Murni","i_long":107.093313},{"station_name":"Cibitung","is_transit":false,"station_id":"CIT","transit":false,"i_lat":-6.261877,"distance":2800,"time":2,"i_long":107.083084,"line":0},{"time":3,"i_lat":-6.258864,"station_id":"TB","is_transit":false,"i_long":107.055722,"line":1,"station_name":"Tambun","distance":3420,"transit":false},{"line":0,"station_name":"Bekasi Timur","i_lat":-6.248029,"distance":4460,"is_transit":false,"transit":false,"station_id":"BKST","i_long":107.016735,"time":7},{"is_transit":false,"transit":false,"line":0,"station_name":"Bekasi","distance":2368,"station_id":"BKS","time":2,"i_lat":-6.236616,"i_long":106.997013},{"i_long":106.977657,"station_id":"KRI","is_transit":false,"line":1,"distance":2520,"i_lat":-6.224515,"transit":false,"time":4,"station_name":"Kranji"},{"i_lat":-6.219053,"i_long":106.951283,"is_transit":false,"distance":3097,"station_name":"Cakung","time":3,"station_id":"CUK","line":0,"transit":false},{"station_id":"KLDB","distance":1385,"transit":false,"i_lat":-6.217455,"station_name":"Klenderbaru","is_transit":false,"line":1,"time":8,"i_long":106.939679},{"line":0,"i_long":106.922662,"is_transit":false,"distance":1305,"transit":false,"station_id":"BUA","station_name":"Buaran","i_lat":-6.215568,"time":1},{"i_long":106.899548,"line":1,"time":2,"distance":3100,"is_transit":false,"station_name":"Klender","transit":false,"i_lat":-6.2135,"station_id":"KLD"},{"station_name":"Jatinegara","station_id":"JNG","transit":false,"i_lat":-6.215091,"time":3,"distance":3395,"i_long":106.86807400000001,"is_transit":true,"line":0},{"is_transit":false,"station_name":"Matraman","transit":false,"i_long":106.858896,"distance":1377,"station_id":"MTR","line":1,"i_lat":-6.212485,"time":2},{"station_id":"MRI","transit":true,"i_lat":-6.209883,"distance":1275,"is_transit":true,"station_name":"Manggarai","i_long":106.84912,"time":2,"line":0},{"i_lat":-6.198556,"i_long":106.840169,"line":0,"is_transit":false,"distance":1590,"station_name":"Cikini","transit":false,"station_id":"CKI","time":4},{"time":3,"i_lat":-6.186295,"i_long":106.832183,"station_name":"Gondangdia","line":2,"is_transit":false,"distance":1750,"transit":false,"station_id":"GDD"},{"time":4,"transit":false,"station_id":"JUA","distance":2015,"station_name":"Juanda","is_transit":false,"i_lat":-6.166716,"i_long":106.828284,"line":2},{"station_id":"SW","time":2,"is_transit":false,"line":2,"distance":1149,"i_lat":-6.160725,"station_name":"Sawah Besar","transit":false,"i_long":106.827103},{"time":2,"distance":906,"station_name":"Manggabesar","i_lat":-6.149769,"i_long":106.82482,"line":2,"station_id":"MGB","transit":false,"is_transit":false},{"transit":false,"station_name":"Jayakarta","line":7,"is_transit":false,"station_id":"JAY","distance":1080,"i_lat":-6.141205,"time":2,"i_long":106.820901},{"time":4,"distance":1264,"i_lat":-6.137569,"line":0,"is_transit":true,"station_name":"Jakarta Kota","station_id":"JAKK","transit":true,"i_long":106.812439},{"is_transit":true,"station_id":"KPB","station_name":"Kampung Bandan","transit":true,"i_lat":-6.132549,"time":3,"distance":1364,"line":0,"i_long":106.826365},{"time":3,"is_transit":false,"line":11,"distance":1444,"station_name":"Rajawali","station_id":"RJW","transit":false,"i_lat":-6.14505,"i_long":106.836569},{"station_id":"KMO","time":5,"transit":false,"i_lat":-6.161728,"i_long":106.839204,"station_name":"Kemayoran","distance":1901,"line":11,"is_transit":false},{"is_transit":false,"i_long":106.84368,"station_id":"PSE","i_lat":-6.174784,"time":4,"distance":1436,"line":11,"transit":false,"station_name":"Pasar Senen"},{"line":11,"i_long":106.850107,"time":8,"is_transit":false,"transit":false,"distance":1567,"station_name":"Gang Sentiong","i_lat":-6.185975,"station_id":"GST"},{"transit":false,"station_name":"Kramat","is_transit":false,"line":11,"time":1,"station_id":"KMT","distance":973,"i_lat":-6.193792,"i_long":106.855437},{"station_id":"POK","transit":false,"distance":1829,"line":11,"i_long":106.861737,"is_transit":false,"time":2,"station_name":"Pondok Jati","i_lat":-6.209188}]]}