{"data":[[{"station_name":"Cikarang","distance":0,"time":0,"station_id":"CKR","transit":false,"i_lat":-6.2553149999999995,"is_transit":false,"line":1,"i_long":107.144613},{"is_transit":false,"transit":false,"station_name":"Metland Telaga Murni","distance":3689,"line":1,"i_lat":-6.262938,"i_long":107.093313,"station_id":"TLM","time":4},{"i_lat":-6.261877,"station_name":"Cibitung","is_transit":false,"station_id":"CIT","distance":2800,"time":2,"transit":false,"i_long":107.083084,"line":1},{"station_id":"TB","time":3,"transit":false,"station_name":"Tambun","distance":3420,"i_lat":-6.258864,"is_transit":false,"i_long":107.055722,"line":1},{"transit":false,"station_name":"Bekasi Timur","station_id":"BKST","is_transit":false,"i_lat":-6.248029,"i_long":107.016735,"line":1,"distance":4460,"time":7},{"i_long":106.997013,"transit":false,"station_name":"Bekasi","line":1,"is_transit":false,"distance":2368,"station_id":"BKS","time":2,"i_lat":-6.236616},{"station_name":"Kranji","transit":false,"station_id":"KRI","time":4,"line":1,"is_transit":false,"i_lat":-6.224515,"i_long":106.977657,"distance":2520},{"distance":3097,"i_lat":-6.219053,"transit":false,"is_transit":false,"time":3,"line":1,"station_id":"CUK","i_long":106.951283,"station_name":"Cakung"},{"distance":1385,"transit":false,"time":8,"i_long":106.939679,"is_transit":false,"station_name":"Klenderbaru","station_id":"KLDB","i_lat":-6.217455,"line":1},{"is_transit":false,"time":1,"i_lat":-6.215568,"station_id":"BUA","i_long":106.922662,"transit":false,"station_name":"Buaran","distance":1305,"line":1},{"station_id":"KLD","time":2,"transit":false,"line":1,"station_name":"Klender","is_transit":false,"i_long":106.899548,"i_lat":-6.2135,"distance":3100},{"transit":false,"distance":3395,"i_lat":-6.215091,"i_long":106.86807400000001,"station_id":"JNG","is_transit":false,"time":3,"station_name":"Jatinegara","line":1},{"transit":false,"distance":1377,"station_name":"Matraman","station_id":"MTR","i_lat":-6.212485,"is_transit":false,"line":1,"time":2,"i_long":106.858896},{"station_id":"MRI","is_transit":false,"line":2,"transit":false,"i_lat":-6.209883,"distance":1275,"time":2,"station_name":"Manggarai","i_long":106.84912},{"station_id":"SUD","i_long":106.822649,"is_transit":false,"i_lat":-6.202263,"transit":false,"line":1,"time":4,"distance":3186,"station_name":"Sudirman"},{"station_id":"SUDB","transit":false,"i_lat":-6.201433,"i_long":106.819881,"is_transit":false,"line":1,"time":1,"distance":280,"station_name":"Sudirman Baru"},{"station_id":"KAT","i_lat":-6.20132,"distance":471,"line":1,"station_name":"Karet","is_transit":false,"i_long":106.816351,"transit":false,"time":1},{"i_long":106.811091,"line":1,"time":5,"distance":2029,"i_lat":-6.185545,"station_id":"THB","transit":false,"station_name":"Tanah Abang","is_transit":false},{"transit":true,"i_long":106.800832,"i_lat":-6.155215,"station_name":"Duri","time":8,"line":1,"station_id":"DU","is_transit":true,"distance":3632},{"i_lat":-6.162021,"line":5,"time":3,"station_id":"GGL","is_transit":false,"transit":false,"station_name":"Grogol","distance":1700,"i_long":106.788277},{"distance":2036,"i_lat":-6.161433,"i_long":106.771379,"line":5,"station_id":"PSG","transit":false,"time":2,"is_transit":false,"station_name":"Pesing"},{"line":5,"transit":false,"is_transit":false,"distance":1614,"station_id":"TKO","time":2,"i_lat":-6.1587309999999995,"i_long":106.756522,"station_name":"Taman Kota"},{"is_transit":false,"station_id":"BOI","station_name":"Bojongindah","distance":2334,"line":5,"i_long":106.737035,"time":2,"transit":false,"i_lat":-6.159876},{"distance":1152,"i_long":106.723064,"transit":false,"line":5,"i_lat":-6.162758,"is_transit":false,"station_id":"RW","time":4,"station_name":"Rawa Buaya"},{"time":3,"station_id":"KDS","i_lat":-6.166068,"station_name":"Kalideres","is_transit":false,"i_long":106.701612,"line":5,"transit":false,"distance":2504},{"distance":2548,"station_name":"Poris","line":5,"is_transit":false,"time":3,"transit":false,"i_lat":-6.169933,"station_id":"PI","i_long":106.679458},{"transit":false,"i_lat":-6.171811,"station_id":"BPR","i_long":106.665036,"line":5,"distance":1834,"station_name":"Batuceper","is_transit":false,"time":3},{"transit":false,"line":5,"i_lat":-6.17331,"station_name":"Tanah Tinggi","station_id":"TTI","time":3,"distance":2028,"is_transit":false,"i_long":106.64657},{"station_id":"TNG","transit":false,"station_name":"Tangerang","is_transit":false,"i_long":106.632761,"line":5,"distance":1547,"i_lat":-6.176583,"time":3}],[{"station_name":"Cikarang","transit":false,"time":0,"station_id":"CKR","i_long":107.144613,"line":1,"distance":0,"i_lat":-6.2553149999999995,"is_transit":false},{"time":4,"i_long":107.093313,"distance":3689,"i_lat":-6.262938,"is_transit":false,"station_id":"TLM","station_name":"Metland Telaga Murni","transit":false,"line":1},{"station_id":"CIT","time":2,"transit":false,"i_lat":-6.261877,"line":1,"i_long":107.083084,"station_name":"Cibitung","distance":2800,"is_transit":false},{"distance":3420,"line":1,"station_name":"Tambun","i_lat":-6.258864,"is_transit":false,"transit":false,"i_long":107.055722,"station_id":"TB","time":3},{"line":1,"transit":false,"station_name":"Bekasi Timur","station_id":"BKST","is_transit":false,"i_long":107.016735,"i_lat":-6.248029,"time":7,"distance":4460},{"distance":2368,"transit":false,"is_transit":false,"i_lat":-6.236616,"time":2,"i_long":106.997013,"station_name":"Bekasi","station_id":"BKS","line":1},{"distance":2520,"station_id":"KRI","station_name":"Kranji","i_long":106.977657,"is_transit":false,"time":4,"line":1,"transit":false,"i_lat":-6.224515},{"station_name":"Cakung","station_id":"CUK","distance":3097,"time":3,"line":1,"transit":false,"i_lat":-6.219053,"i_long":106.951283,"is_transit":false},{"i_lat":-6.217455,"distance":1385,"i_long":106.939679,"is_transit":false,"station_id":"KLDB","time":8,"line":1,"station_name":"Klenderbaru","transit":false},{"station_id":"BUA","distance":1305,"time":1,"i_long":106.922662,"transit":false,"line":1,"is_transit":false,"station_name":"Buaran","i_lat":-6.215568},{"is_transit":false,"station_id":"KLD","i_long":106.899548,"line":1,"transit":false,"station_name":"Klender","i_lat":-6.2135,"time":2,"distance":3100},{"station_id":"JNG","line":1,"distance":3395,"is_transit":true,"i_long":106.86807400000001,"station_name":"Jatinegara","i_lat":-6.215091,"time":3,"transit":true},{"i_lat":-6.209188,"station_id":"POK","i_long":106.861737,"line":11,"time":2,"station_name":"Pondok Jati","distance":1236,"transit":false,"is_transit":false},{"distance":1829,"i_long":106.855437,"station_id":"KMT","time":2,"i_lat":-6.193792,"is_transit":false,"station_name":"Kramat","transit":false,"line":11},{"transit":false,"is_transit":false,"distance":973,"i_lat":-6.185975,"line":11,"station_name":"Gang Sentiong","i_long":106.850107,"station_id":"GST","time":1},{"station_id":"PSE","distance":1567,"is_transit":false,"transit":false,"line":11,"station_name":"Pasar Senen","i_long":106.84368,"i_lat":-6.174784,"time":8},{"station_name":"Kemayoran","i_lat":-6.161728,"station_id":"KMO","is_transit":false,"time":4,"i_long":106.839204,"transit":false,"distance":1436,"line":11},{"station_name":"Rajawali","line":11,"i_lat":-6.14505,"transit":false,"i_long":106.836569,"distance":1901,"time":5,"station_id":"RJW","is_transit":false},{"station_name":"Kampung Bandan","time":3,"is_transit":true,"i_lat":-6.132549,"i_long":106.826365,"line":4,"station_id":"KPB","transit":true,"distance":1444},{"distance":4102,"transit":false,"station_id":"AK","is_transit":false,"time":9,"i_long":106.79867,"line":1,"station_name":"Angke","i_lat":-6.144674},{"transit":true,"station_id":"DU","station_name":"Duri","is_transit":true,"distance":1230,"i_lat":-6.155215,"time":4,"i_long":106.800832,"line":1},{"station_id":"GGL","line":5,"i_lat":-6.162021,"time":3,"transit":false,"station_name":"Grogol","i_long":106.788277,"is_transit":false,"distance":1700},{"is_transit":false,"distance":2036,"transit":false,"i_lat":-6.161433,"line":5,"station_name":"Pesing","station_id":"PSG","time":2,"i_long":106.771379},{"station_name":"Taman Kota","is_transit":false,"station_id":"TKO","time":2,"line":5,"distance":1614,"i_long":106.756522,"i_lat":-6.1587309999999995,"transit":false},{"line":5,"station_name":"Bojongindah","distance":2334,"i_long":106.737035,"is_transit":false,"transit":false,"station_id":"BOI","time":2,"i_lat":-6.159876},{"is_transit":false,"station_id":"RW","i_long":106.723064,"transit":false,"distance":1152,"i_lat":-6.162758,"time":4,"station_name":"Rawa Buaya","line":5},{"i_lat":-6.166068,"line":5,"time":3,"station_name":"Kalideres","is_transit":false,"distance":2504,"transit":false,"i_long":106.701612,"station_id":"KDS"},{"time":3,"i_long":106.679458,"station_name":"Poris","distance":2548,"line":5,"is_transit":false,"station_id":"PI","i_lat":-6.169933,"transit":false},{"i_long":106.665036,"is_transit":false,"i_lat":-6.171811,"station_name":"Batuceper","transit":false,"line":5,"time":3,"station_id":"BPR","distance":1834},{"station_id":"TTI","is_transit":false,"time":3,"transit":false,"station_name":"Tanah Tinggi","distance":2028,"i_lat":-6.17331,"i_long":106.64657,"line":5},{"station_name":"Tangerang","i_long":106.632761,"i_lat":-6.176583,"station_id":"TNG","distance":1547,"is_transit":false,"time":3,"line":5,"transit":false}],[{"distance":0,"i_lat":-6.2553149999999995,"transit":false,"line":1,"station_name":"Cikarang","is_transit":false,"station_id":"CKR","i_long":107.144613,"time":0},{"station_id":"TLM","time":4,"transit":false,"is_transit":false,"line":1,"i_long":107.093313,"distance":3689,"station_name":"Metland Telaga Murni","i_lat":-6.262938},{"i_lat":-6.261877,"station_name":"Cibitung","station_id":"CIT","line":1,"time":2,"i_long":107.083084,"transit":false,"is_transit":false,"distance":2800},{"distance":3420,"i_long":107.055722,"i_lat":-6.258864,"transit":false,"line":1,"station_id":"TB","is_transit":false,"station_name":"Tambun","time":3},{"transit":false,"time":7,"station_id":"BKST","is_transit":false,"distance":4460,"i_lat":-6.248029,"line":1,"station_name":"Bekasi Timur","i_long":107.016735},{"line":1,"time":2,"i_long":106.997013,"distance":2368,"station_name":"Bekasi","i_lat":-6.236616,"is_transit":false,"station_id":"BKS","transit":false},{"transit":false,"is_transit":false,"i_lat":-6.224515,"station_name":"Kranji","distance":2520,"i_long":106.977657,"line":1,"time":4,"station_id":"KRI"},{"is_transit":false,"distance":3097,"station_name":"Cakung","time":3,"i_lat":-6.219053,"transit":false,"line":1,"station_id":"CUK","i_long":106.951283},{"station_name":"Klenderbaru","time":8,"transit":false,"line":1,"distance":1385,"i_long":106.939679,"is_transit":false,"i_lat":-6.217455,"station_id":"KLDB"},{"transit":false,"time":1,"i_long":106.922662,"line":1,"distance":1305,"station_id":"BUA","i_lat":-6.215568,"station_name":"Buaran","is_transit":false},{"station_name":"Klender","distance":3100,"i_long":106.899548,"is_transit":false,"line":1,"transit":false,"time":2,"i_lat":-6.2135,"station_id":"KLD"},{"i_long":106.86807400000001,"transit":false,"distance":3395,"line":1,"time":3,"station_name":"Jatinegara","station_id":"JNG","is_transit":false,"i_lat":-6.215091},{"transit":false,"station_id":"MTR","station_name":"Matraman","line":1,"time":2,"i_long":106.858896,"is_transit":false,"i_lat":-6.212485,"distance":1377},{"transit":true,"i_lat":-6.209883,"station_name":"Manggarai","i_long":106.84912,"line":2,"station_id":"MRI","is_transit":true,"time":2,"distance":1275},{"is_transit":false,"time":4,"i_lat":-6.198556,"station_id":"CKI","transit":false,"station_name":"Cikini","line":2,"distance":1590,"i_long":106.840169},{"is_transit":false,"station_id":"GDD","transit":false,"time":3,"i_lat":-6.186295,"distance":1750,"station_name":"Gondangdia","i_long":106.832183,"line":2},{"is_transit":false,"i_lat":-6.166716,"i_long":106.828284,"time":4,"transit":false,"line":2,"station_id":"JUA","station_name":"Juanda","distance":2015},{"line":2,"distance":1149,"station_name":"Sawah Besar","transit":false,"station_id":"SW","time":2,"i_long":106.827103,"i_lat":-6.160725,"is_transit":false},{"time":2,"i_long":106.82482,"line":2,"station_name":"Manggabesar","distance":906,"is_transit":false,"i_lat":-6.149769,"station_id":"MGB","transit":false},{"line":2,"station_name":"Jayakarta","i_long":106.820901,"i_lat":-6.141205,"station_id":"JAY","time":2,"transit":false,"distance":1080,"is_transit":false},{"distance":1264,"i_long":106.812439,"i_lat":-6.137569,"is_transit":true,"transit":true,"time":4,"station_name":"Jakarta Kota","line":2,"station_id":"JAKK"},{"time":3,"i_lat":-6.132549,"transit":true,"line":4,"station_id":"KPB","i_long":106.826365,"station_name":"Kampung Bandan","is_transit":true,"distance":1364},{"time":9,"transit":false,"station_name":"Angke","i_lat":-6.144674,"station_id":"AK","is_transit":false,"i_long":106.79867,"distance":4102,"line":1},{"station_name":"Duri","time":4,"line":1,"i_lat":-6.155215,"i_long":106.800832,"distance":1230,"transit":true,"station_id":"DU","is_transit":true},{"is_transit":false,"i_long":106.788277,"time":3,"distance":1700,"transit":false,"station_id":"GGL","station_name":"Grogol","i_lat":-6.162021,"line":5},{"distance":2036,"station_name":"Pesing","transit":false,"i_lat":-6.161433,"line":5,"station_id":"PSG","time":2,"is_transit":false,"i_long":106.771379},{"distance":1614,"station_id":"TKO","i_lat":-6.1587309999999995,"i_long":106.756522,"transit":false,"is_transit":false,"line":5,"time":2,"station_name":"Taman Kota"},{"transit":false,"station_id":"BOI","distance":2334,"line":5,"time":2,"i_lat":-6.159876,"station_name":"Bojongindah","i_long":106.737035,"is_transit":false},{"distance":1152,"time":4,"i_lat":-6.162758,"transit":false,"station_name":"Rawa Buaya","station_id":"RW","is_transit":false,"i_long":106.723064,"line":5},{"station_name":"Kalideres","station_id":"KDS","i_long":106.701612,"transit":false,"line":5,"is_transit":false,"distance":2504,"i_lat":-6.166068,"time":3},{"distance":2548,"i_lat":-6.169933,"line":5,"i_long":106.679458,"station_id":"PI","station_name":"Poris","transit":false,"is_transit":false,"time":3},{"i_lat":-6.171811,"line":5,"is_transit":false,"distance":1834,"station_name":"Batuceper","station_id":"BPR","i_long":106.665036,"transit":false,"time":3},{"i_long":106.64657,"distance":2028,"i_lat":-6.17331,"transit":false,"station_name":"Tanah Tinggi","line":5,"station_id":"TTI","is_transit":false,"time":3},{"distance":1547,"i_long":106.632761,"i_lat":-6.176583,"station_id":"TNG","time":3,"line":5,"station_name":"Tangerang","transit":false,"is_transit":false}],[{"station_name":"Cikarang","i_lat":-6.2553149999999995,"distance":0,"transit":false,"station_id":"CKR","line":1,"is_transit":false,"i_long":107.144613,"time":0},{"time":4,"station_id":"TLM","i_lat":-6.262938,"i_long":107.093313,"distance":3689,"is_transit":false,"transit":false,"line":1,"station_name":"Metland Telaga Murni"},{"line":1,"station_id":"CIT","i_lat":-6.261877,"is_transit":false,"transit":false,"station_name":"Cibitung","time":2,"distance":2800,"i_long":107.083084},{"transit":false,"distance":3420,"time":3,"station_id":"TB","is_transit":false,"i_lat":-6.258864,"i_long":107.055722,"station_name":"Tambun","line":1},{"i_lat":-6.248029,"station_name":"Bekasi Timur","transit":false,"time":7,"line":1,"is_transit":false,"station_id":"BKST","i_long":107.016735,"distance":4460},{"distance":2368,"i_lat":-6.236616,"line":1,"transit":false,"is_transit":false,"station_id":"BKS","time":2,"i_long":106.997013,"station_name":"Bekasi"},{"station_name":"Kranji","station_id":"KRI","transit":false,"distance":2520,"i_lat":-6.224515,"i_long":106.977657,"line":1,"time":4,"is_transit":false},{"station_name":"Cakung","line":1,"i_long":106.951283,"i_lat":-6.219053,"distance":3097,"is_transit":false,"station_id":"CUK","transit":false,"time":3},{"is_transit":false,"distance":1385,"transit":false,"station_id":"KLDB","time":8,"i_long":106.939679,"station_name":"Klenderbaru","i_lat":-6.217455,"line":1},{"station_id":"BUA","line":1,"transit":false,"i_lat":-6.215568,"time":1,"distance":1305,"i_long":106.922662,"station_name":"Buaran","is_transit":false},{"i_long":106.899548,"station_name":"Klender","transit":false,"distance":3100,"is_transit":false,"i_lat":-6.2135,"line":1,"time":2,"station_id":"KLD"},{"line":1,"station_name":"Jatinegara","i_long":106.86807400000001,"station_id":"JNG","i_lat":-6.215091,"is_transit":true,"time":3,"distance":3395,"transit":true},{"i_lat":-6.209188,"time":2,"line":11,"i_long":106.861737,"transit":false,"distance":1236,"station_id":"POK","station_name":"Pondok Jati","is_transit":false},{"station_name":"Kramat","i_lat":-6.193792,"i_long":106.855437,"time":2,"distance":1829,"station_id":"KMT","line":11,"is_transit":false,"transit":false},{"station_id":"GST","time":1,"is_transit":false,"distance":973,"i_lat":-6.185975,"i_long":106.850107,"station_name":"Gang Sentiong","line":11,"transit":false},{"i_long":106.84368,"station_id":"PSE","transit":false,"line":11,"distance":1567,"station_name":"Pasar Senen","is_transit":false,"time":8,"i_lat":-6.174784},{"time":4,"i_long":106.839204,"transit":false,"distance":1436,"station_id":"KMO","station_name":"Kemayoran","i_lat":-6.161728,"is_transit":false,"line":11},{"distance":1901,"i_lat":-6.14505,"line":11,"station_name":"Rajawali","i_long":106.836569,"station_id":"RJW","transit":false,"is_transit":false,"time":5},{"station_id":"KPB","distance":1444,"line":4,"time":3,"transit":true,"is_transit":true,"i_long":106.826365,"i_lat":-6.132549,"station_name":"Kampung Bandan"},{"is_transit":true,"station_id":"JAKK","transit":true,"i_lat":-6.137569,"line":2,"station_name":"Jakarta Kota","time":3,"i_long":106.812439,"distance":1364},{"station_name":"Jayakarta","time":4,"distance":1264,"station_id":"JAY","i_lat":-6.141205,"i_long":106.820901,"line":2,"transit":false,"is_transit":false},{"distance":1080,"station_name":"Manggabesar","is_transit":false,"station_id":"MGB","time":2,"transit":false,"i_lat":-6.149769,"line":2,"i_long":106.82482},{"transit":false,"is_transit":false,"station_name":"Sawah Besar","i_lat":-6.160725,"i_long":106.827103,"line":2,"time":2,"station_id":"SW","distance":906},{"transit":false,"distance":1149,"i_long":106.828284,"i_lat":-6.166716,"station_id":"JUA","line":2,"station_name":"Juanda","is_transit":false,"time":2},{"station_id":"GDD","station_name":"Gondangdia","i_long":106.832183,"line":2,"transit":false,"i_lat":-6.186295,"time":4,"is_transit":false,"distance":2015},{"distance":1750,"is_transit":false,"time":3,"line":2,"i_long":106.840169,"i_lat":-6.198556,"station_name":"Cikini","station_id":"CKI","transit":false},{"is_transit":true,"i_lat":-6.209883,"transit":true,"i_long":106.84912,"distance":1590,"line":2,"station_name":"Manggarai","station_id":"MRI","time":4},{"transit":false,"time":4,"distance":3186,"station_name":"Sudirman","is_transit":false,"i_lat":-6.202263,"line":1,"i_long":106.822649,"station_id":"SUD"},{"line":1,"station_id":"SUDB","station_name":"Sudirman Baru","i_lat":-6.201433,"distance":280,"transit":false,"time":1,"is_transit":false,"i_long":106.819881},{"is_transit":false,"station_name":"Karet","station_id":"KAT","distance":471,"i_long":106.816351,"line":1,"transit":false,"i_lat":-6.20132,"time":1},{"transit":false,"distance":2029,"time":5,"station_id":"THB","is_transit":false,"line":1,"station_name":"Tanah Abang","i_long":106.811091,"i_lat":-6.185545},{"is_transit":true,"time":8,"i_lat":-6.155215,"transit":true,"line":1,"station_id":"DU","distance":3632,"i_long":106.800832,"station_name":"Duri"},{"station_id":"GGL","i_lat":-6.162021,"station_name":"Grogol","time":3,"i_long":106.788277,"line":5,"is_transit":false,"transit":false,"distance":1700},{"station_name":"Pesing","distance":2036,"transit":false,"is_transit":false,"time":2,"i_lat":-6.161433,"station_id":"PSG","line":5,"i_long":106.771379},{"time":2,"distance":1614,"is_transit":false,"station_id":"TKO","station_name":"Taman Kota","i_lat":-6.1587309999999995,"transit":false,"i_long":106.756522,"line":5},{"distance":2334,"time":2,"i_long":106.737035,"transit":false,"station_id":"BOI","line":5,"station_name":"Bojongindah","is_transit":false,"i_lat":-6.159876},{"station_name":"Rawa Buaya","i_long":106.723064,"line":5,"is_transit":false,"station_id":"RW","time":4,"distance":1152,"transit":false,"i_lat":-6.162758},{"transit":false,"is_transit":false,"station_name":"Kalideres","i_long":106.701612,"distance":2504,"station_id":"KDS","time":3,"i_lat":-6.166068,"line":5},{"station_name":"Poris","station_id":"PI","transit":false,"is_transit":false,"time":3,"distance":2548,"i_lat":-6.169933,"line":5,"i_long":106.679458},{"i_long":106.665036,"i_lat":-6.171811,"transit":false,"distance":1834,"time":3,"is_transit":false,"line":5,"station_id":"BPR","station_name":"Batuceper"},{"distance":2028,"station_id":"TTI","i_lat":-6.17331,"transit":false,"time":3,"i_long":106.64657,"line":5,"station_name":"Tanah Tinggi","is_transit":false},{"distance":1547,"station_id":"TNG","is_transit":false,"line":5,"station_name":"Tangerang","time":3,"i_lat":-6.176583,"i_long":106.632761,"transit":false}]]}