{"data":[[{"i_long":107.144613,"line":1,"is_transit":false,"transit":false,"distance":0,"station_id":"CKR","i_lat":-6.2553149999999995,"station_name":"Cikarang","time":0},{"line":1,"station_name":"Metland Telaga Murni","station_id":"TLM","i_lat":-6.262938,"is_transit":false,"transit":false,"distance":3689,"time":4,"i_long":107.093313},{"i_lat":-6.261877,"station_id":"CIT","station_name":"Cibitung","is_transit":false,"i_long":107.083084,"time":2,"line":1,"distance":2800,"transit":false},{"time":3,"is_transit":false,"i_lat":-6.258864,"station_id":"TB","distance":3420,"i_long":107.055722,"transit":false,"line":1,"station_name":"Tambun"},{"i_long":107.016735,"station_name":"Bekasi Timur","line":1,"distance":4460,"time":7,"is_transit":false,"station_id":"BKST","transit":false,"i_lat":-6.248029},{"time":2,"i_lat":-6.236616,"distance":2368,"line":1,"station_name":"Bekasi","station_id":"BKS","transit":false,"i_long":106.997013,"is_transit":false},{"is_transit":false,"transit":false,"i_lat":-6.224515,"line":1,"station_name":"Kranji","distance":2520,"station_id":"KRI","i_long":106.977657,"time":4},{"station_name":"Cakung","distance":3097,"transit":false,"time":3,"is_transit":false,"i_lat":-6.219053,"station_id":"CUK","i_long":106.951283,"line":1},{"line":1,"i_lat":-6.217455,"transit":false,"is_transit":false,"distance":1385,"station_name":"Klenderbaru","i_long":106.939679,"time":8,"station_id":"KLDB"},{"station_name":"Buaran","line":1,"station_id":"BUA","distance":1305,"transit":false,"i_lat":-6.215568,"i_long":106.922662,"is_transit":false,"time":1},{"line":1,"i_lat":-6.2135,"is_transit":false,"i_long":106.899548,"distance":3100,"time":2,"station_id":"KLD","station_name":"Klender","transit":false},{"station_name":"Jatinegara","is_transit":false,"distance":3395,"line":1,"time":3,"transit":false,"i_lat":-6.215091,"i_long":106.86807400000001,"station_id":"JNG"},{"distance":1377,"transit":false,"station_name":"Matraman","is_transit":false,"station_id":"MTR","line":1,"i_lat":-6.212485,"time":2,"i_long":106.858896},{"line":2,"is_transit":false,"station_name":"Manggarai","time":2,"transit":false,"i_lat":-6.209883,"distance":1275,"station_id":"MRI","i_long":106.84912},{"transit":false,"i_lat":-6.202263,"i_long":106.822649,"distance":3186,"is_transit":false,"time":4,"station_id":"SUD","station_name":"Sudirman","line":1},{"i_long":106.819881,"i_lat":-6.201433,"distance":280,"station_name":"Sudirman Baru","time":1,"station_id":"SUDB","is_transit":false,"line":1,"transit":false},{"time":1,"station_name":"Karet","is_transit":false,"station_id":"KAT","i_long":106.816351,"distance":471,"i_lat":-6.20132,"line":1,"transit":false},{"is_transit":false,"i_lat":-6.185545,"i_long":106.811091,"transit":false,"station_id":"THB","line":1,"distance":2029,"time":5,"station_name":"Tanah Abang"},{"is_transit":true,"i_long":106.800832,"transit":true,"distance":3632,"line":1,"station_id":"DU","i_lat":-6.155215,"time":8,"station_name":"Duri"},{"station_id":"GRG","transit":false,"is_transit":false,"time":3,"i_lat":-6.162021,"station_name":"Grogol","distance":1700,"line":5,"i_long":106.788277},{"station_id":"PSG","line":5,"transit":false,"station_name":"Pesing","i_lat":-6.161433,"time":2,"i_long":106.771379,"is_transit":false,"distance":2036},{"transit":false,"i_long":106.756522,"i_lat":-6.1587309999999995,"is_transit":false,"time":2,"distance":1614,"station_name":"Taman Kota","station_id":"TKO","line":5},{"line":5,"time":2,"station_name":"Bojongindah","distance":2334,"is_transit":false,"station_id":"BOI","transit":false,"i_lat":-6.159876,"i_long":106.737035}],[{"time":0,"line":1,"station_id":"CKR","station_name":"Cikarang","i_long":107.144613,"distance":0,"i_lat":-6.2553149999999995,"transit":false,"is_transit":false},{"transit":false,"i_long":107.093313,"is_transit":false,"time":4,"station_id":"TLM","i_lat":-6.262938,"distance":3689,"station_name":"Metland Telaga Murni","line":1},{"is_transit":false,"transit":false,"station_name":"Cibitung","i_long":107.083084,"i_lat":-6.261877,"distance":2800,"line":1,"station_id":"CIT","time":2},{"i_lat":-6.258864,"time":3,"distance":3420,"is_transit":false,"line":1,"transit":false,"station_id":"TB","station_name":"Tambun","i_long":107.055722},{"station_name":"Bekasi Timur","station_id":"BKST","time":7,"i_long":107.016735,"is_transit":false,"i_lat":-6.248029,"transit":false,"line":1,"distance":4460},{"time":2,"i_long":106.997013,"station_name":"Bekasi","i_lat":-6.236616,"distance":2368,"line":1,"is_transit":false,"station_id":"BKS","transit":false},{"is_transit":false,"transit":false,"time":4,"line":1,"station_id":"KRI","station_name":"Kranji","i_lat":-6.224515,"i_long":106.977657,"distance":2520},{"time":3,"distance":3097,"i_long":106.951283,"transit":false,"is_transit":false,"station_name":"Cakung","station_id":"CUK","i_lat":-6.219053,"line":1},{"line":1,"is_transit":false,"transit":false,"i_long":106.939679,"station_id":"KLDB","station_name":"Klenderbaru","time":8,"distance":1385,"i_lat":-6.217455},{"i_long":106.922662,"time":1,"distance":1305,"transit":false,"station_name":"Buaran","i_lat":-6.215568,"line":1,"station_id":"BUA","is_transit":false},{"time":2,"distance":3100,"is_transit":false,"station_id":"KLD","station_name":"Klender","i_long":106.899548,"transit":false,"i_lat":-6.2135,"line":1},{"transit":true,"station_id":"JNG","is_transit":true,"time":3,"station_name":"Jatinegara","i_long":106.86807400000001,"i_lat":-6.215091,"line":1,"distance":3395},{"i_lat":-6.209188,"time":2,"distance":1236,"transit":false,"i_long":106.861737,"line":11,"is_transit":false,"station_name":"Pondok Jati","station_id":"POK"},{"distance":1829,"time":2,"transit":false,"i_lat":-6.193792,"station_name":"Kramat","is_transit":false,"station_id":"KMT","i_long":106.855437,"line":11},{"transit":false,"distance":973,"is_transit":false,"line":11,"time":1,"station_id":"GST","i_lat":-6.185975,"station_name":"Gang Sentiong","i_long":106.850107},{"station_id":"PSE","i_long":106.84368,"line":11,"time":8,"station_name":"Pasar Senen","i_lat":-6.174784,"distance":1567,"is_transit":false,"transit":false},{"distance":1436,"transit":false,"station_id":"KMO","station_name":"Kemayoran","i_lat":-6.161728,"i_long":106.839204,"line":11,"is_transit":false,"time":4},{"transit":false,"station_name":"Rajawali","time":5,"is_transit":false,"distance":1901,"i_long":106.836569,"station_id":"RJW","line":11,"i_lat":-6.14505},{"i_long":106.826365,"is_transit":true,"station_id":"KPB","line":4,"time":3,"i_lat":-6.132549,"transit":true,"distance":1444,"station_name":"Kampung Bandan"},{"i_lat":-6.144674,"station_name":"Angke","station_id":"AK","transit":false,"i_long":106.79867,"is_transit":false,"time":9,"distance":4102,"line":1},{"station_name":"Duri","station_id":"DU","i_lat":-6.155215,"time":4,"line":1,"is_transit":true,"transit":true,"i_long":106.800832,"distance":1230},{"i_lat":-6.162021,"transit":false,"distance":1700,"station_id":"GRG","station_name":"Grogol","line":5,"is_transit":false,"i_long":106.788277,"time":3},{"time":2,"transit":false,"i_lat":-6.161433,"station_name":"Pesing","line":5,"is_transit":false,"i_long":106.771379,"distance":2036,"station_id":"PSG"},{"time":2,"is_transit":false,"line":5,"i_long":106.756522,"station_name":"Taman Kota","i_lat":-6.1587309999999995,"transit":false,"station_id":"TKO","distance":1614},{"line":5,"time":2,"station_id":"BOI","i_lat":-6.159876,"is_transit":false,"distance":2334,"transit":false,"station_name":"Bojongindah","i_long":106.737035}],[{"distance":0,"station_id":"CKR","is_transit":false,"time":0,"station_name":"Cikarang","i_long":107.144613,"line":1,"transit":false,"i_lat":-6.2553149999999995},{"line":1,"station_id":"TLM","i_lat":-6.262938,"i_long":107.093313,"is_transit":false,"transit":false,"distance":3689,"time":4,"station_name":"Metland Telaga Murni"},{"station_id":"CIT","i_lat":-6.261877,"station_name":"Cibitung","is_transit":false,"distance":2800,"transit":false,"i_long":107.083084,"line":1,"time":2},{"transit":false,"distance":3420,"station_name":"Tambun","is_transit":false,"i_long":107.055722,"i_lat":-6.258864,"time":3,"station_id":"TB","line":1},{"i_lat":-6.248029,"station_id":"BKST","distance":4460,"time":7,"station_name":"Bekasi Timur","line":1,"is_transit":false,"transit":false,"i_long":107.016735},{"line":1,"station_name":"Bekasi","is_transit":false,"i_lat":-6.236616,"station_id":"BKS","time":2,"distance":2368,"i_long":106.997013,"transit":false},{"is_transit":false,"distance":2520,"i_long":106.977657,"line":1,"station_name":"Kranji","i_lat":-6.224515,"transit":false,"station_id":"KRI","time":4},{"station_name":"Cakung","i_long":106.951283,"transit":false,"i_lat":-6.219053,"line":1,"time":3,"is_transit":false,"distance":3097,"station_id":"CUK"},{"time":8,"station_name":"Klenderbaru","i_lat":-6.217455,"line":1,"distance":1385,"station_id":"KLDB","is_transit":false,"transit":false,"i_long":106.939679},{"station_name":"Buaran","station_id":"BUA","time":1,"is_transit":false,"i_lat":-6.215568,"i_long":106.922662,"line":1,"transit":false,"distance":1305},{"station_name":"Klender","line":1,"transit":false,"i_lat":-6.2135,"i_long":106.899548,"station_id":"KLD","time":2,"distance":3100,"is_transit":false},{"distance":3395,"station_id":"JNG","i_long":106.86807400000001,"i_lat":-6.215091,"transit":false,"time":3,"station_name":"Jatinegara","line":1,"is_transit":false},{"time":2,"distance":1377,"transit":false,"i_long":106.858896,"is_transit":false,"station_name":"Matraman","i_lat":-6.212485,"station_id":"MTR","line":1},{"is_transit":true,"i_long":106.84912,"station_id":"MRI","station_name":"Manggarai","i_lat":-6.209883,"transit":true,"time":2,"distance":1275,"line":2},{"time":4,"station_name":"Cikini","distance":1590,"station_id":"CKI","i_long":106.840169,"line":2,"transit":false,"is_transit":false,"i_lat":-6.198556},{"distance":1750,"station_name":"Gondangdia","i_long":106.832183,"line":2,"transit":false,"station_id":"GDD","is_transit":false,"time":3,"i_lat":-6.186295},{"distance":2015,"i_long":106.828284,"time":4,"station_id":"JUA","transit":false,"line":2,"i_lat":-6.166716,"is_transit":false,"station_name":"Juanda"},{"i_lat":-6.160725,"transit":false,"station_id":"SW","is_transit":false,"distance":1149,"line":2,"i_long":106.827103,"time":2,"station_name":"Sawah Besar"},{"i_lat":-6.149769,"line":2,"distance":906,"time":2,"transit":false,"station_id":"MGB","station_name":"Manggabesar","i_long":106.82482,"is_transit":false},{"station_id":"JAY","time":2,"station_name":"Jayakarta","is_transit":false,"distance":1080,"line":2,"i_lat":-6.141205,"transit":false,"i_long":106.820901},{"i_long":106.812439,"station_name":"Jakarta Kota","time":4,"distance":1264,"transit":true,"line":2,"is_transit":true,"station_id":"JAKK","i_lat":-6.137569},{"i_lat":-6.132549,"time":3,"i_long":106.826365,"is_transit":true,"distance":1364,"station_id":"KPB","transit":true,"station_name":"Kampung Bandan","line":4},{"line":1,"time":9,"is_transit":false,"distance":4102,"transit":false,"station_id":"AK","station_name":"Angke","i_lat":-6.144674,"i_long":106.79867},{"transit":true,"station_name":"Duri","station_id":"DU","distance":1230,"i_long":106.800832,"time":4,"is_transit":true,"i_lat":-6.155215,"line":1},{"station_name":"Grogol","distance":1700,"transit":false,"is_transit":false,"time":3,"station_id":"GRG","i_long":106.788277,"line":5,"i_lat":-6.162021},{"station_name":"Pesing","station_id":"PSG","is_transit":false,"i_long":106.771379,"line":5,"time":2,"transit":false,"distance":2036,"i_lat":-6.161433},{"time":2,"is_transit":false,"distance":1614,"station_id":"TKO","i_lat":-6.1587309999999995,"i_long":106.756522,"line":5,"station_name":"Taman Kota","transit":false},{"line":5,"i_lat":-6.159876,"station_id":"BOI","i_long":106.737035,"is_transit":false,"time":2,"transit":false,"station_name":"Bojongindah","distance":2334}],[{"is_transit":false,"station_name":"Cikarang","i_lat":-6.2553149999999995,"distance":0,"time":0,"i_long":107.144613,"line":1,"transit":false,"station_id":"CKR"},{"is_transit":false,"transit":false,"distance":3689,"station_id":"TLM","i_long":107.093313,"station_name":"Metland Telaga Murni","i_lat":-6.262938,"time":4,"line":1},{"distance":2800,"transit":false,"time":2,"station_id":"CIT","i_long":107.083084,"i_lat":-6.261877,"line":1,"is_transit":false,"station_name":"Cibitung"},{"time":3,"station_name":"Tambun","transit":false,"is_transit":false,"station_id":"TB","distance":3420,"i_lat":-6.258864,"line":1,"i_long":107.055722},{"time":7,"is_transit":false,"station_id":"BKST","i_long":107.016735,"station_name":"Bekasi Timur","distance":4460,"transit":false,"i_lat":-6.248029,"line":1},{"time":2,"station_name":"Bekasi","line":1,"station_id":"BKS","is_transit":false,"i_long":106.997013,"distance":2368,"transit":false,"i_lat":-6.236616},{"station_id":"KRI","station_name":"Kranji","i_long":106.977657,"transit":false,"line":1,"i_lat":-6.224515,"distance":2520,"is_transit":false,"time":4},{"transit":false,"station_name":"Cakung","line":1,"station_id":"CUK","is_transit":false,"i_long":106.951283,"i_lat":-6.219053,"distance":3097,"time":3},{"station_id":"KLDB","station_name":"Klenderbaru","line":1,"time":8,"distance":1385,"i_long":106.939679,"is_transit":false,"transit":false,"i_lat":-6.217455},{"station_name":"Buaran","i_lat":-6.215568,"distance":1305,"i_long":106.922662,"time":1,"transit":false,"station_id":"BUA","line":1,"is_transit":false},{"transit":false,"station_id":"KLD","line":1,"distance":3100,"is_transit":false,"station_name":"Klender","i_lat":-6.2135,"i_long":106.899548,"time":2},{"station_id":"JNG","transit":true,"time":3,"i_long":106.86807400000001,"line":1,"distance":3395,"i_lat":-6.215091,"is_transit":true,"station_name":"Jatinegara"},{"i_long":106.861737,"station_id":"POK","time":2,"distance":1236,"transit":false,"line":11,"station_name":"Pondok Jati","is_transit":false,"i_lat":-6.209188},{"distance":1829,"time":2,"i_lat":-6.193792,"station_id":"KMT","i_long":106.855437,"is_transit":false,"line":11,"station_name":"Kramat","transit":false},{"station_name":"Gang Sentiong","transit":false,"station_id":"GST","is_transit":false,"time":1,"distance":973,"i_long":106.850107,"i_lat":-6.185975,"line":11},{"station_name":"Pasar Senen","line":11,"transit":false,"time":8,"i_long":106.84368,"station_id":"PSE","i_lat":-6.174784,"is_transit":false,"distance":1567},{"i_long":106.839204,"station_name":"Kemayoran","distance":1436,"station_id":"KMO","is_transit":false,"transit":false,"i_lat":-6.161728,"time":4,"line":11},{"station_id":"RJW","time":5,"is_transit":false,"distance":1901,"i_lat":-6.14505,"i_long":106.836569,"line":11,"transit":false,"station_name":"Rajawali"},{"i_lat":-6.132549,"is_transit":true,"time":3,"transit":true,"station_id":"KPB","station_name":"Kampung Bandan","distance":1444,"i_long":106.826365,"line":4},{"time":3,"line":2,"transit":true,"i_long":106.812439,"distance":1364,"i_lat":-6.137569,"station_name":"Jakarta Kota","is_transit":true,"station_id":"JAKK"},{"time":4,"i_long":106.820901,"station_id":"JAY","line":2,"transit":false,"station_name":"Jayakarta","is_transit":false,"i_lat":-6.141205,"distance":1264},{"i_long":106.82482,"transit":false,"i_lat":-6.149769,"distance":1080,"station_name":"Manggabesar","station_id":"MGB","is_transit":false,"time":2,"line":2},{"i_long":106.827103,"line":2,"distance":906,"i_lat":-6.160725,"is_transit":false,"transit":false,"station_name":"Sawah Besar","time":2,"station_id":"SW"},{"i_long":106.828284,"distance":1149,"is_transit":false,"line":2,"station_id":"JUA","time":2,"transit":false,"station_name":"Juanda","i_lat":-6.166716},{"is_transit":false,"i_long":106.832183,"transit":false,"station_name":"Gondangdia","time":4,"distance":2015,"i_lat":-6.186295,"station_id":"GDD","line":2},{"transit":false,"i_lat":-6.198556,"line":2,"is_transit":false,"station_name":"Cikini","i_long":106.840169,"station_id":"CKI","distance":1750,"time":3},{"station_name":"Manggarai","i_long":106.84912,"line":2,"time":4,"distance":1590,"transit":true,"is_transit":true,"station_id":"MRI","i_lat":-6.209883},{"station_id":"SUD","is_transit":false,"line":1,"transit":false,"station_name":"Sudirman","distance":3186,"time":4,"i_lat":-6.202263,"i_long":106.822649},{"is_transit":false,"line":1,"time":1,"station_id":"SUDB","distance":280,"station_name":"Sudirman Baru","i_lat":-6.201433,"i_long":106.819881,"transit":false},{"i_long":106.816351,"transit":false,"is_transit":false,"station_name":"Karet","line":1,"time":1,"distance":471,"station_id":"KAT","i_lat":-6.20132},{"station_id":"THB","line":1,"is_transit":false,"transit":false,"station_name":"Tanah Abang","time":5,"i_lat":-6.185545,"distance":2029,"i_long":106.811091},{"distance":3632,"station_id":"DU","transit":true,"station_name":"Duri","i_lat":-6.155215,"i_long":106.800832,"is_transit":true,"time":8,"line":1},{"transit":false,"station_name":"Grogol","is_transit":false,"time":3,"distance":1700,"i_long":106.788277,"i_lat":-6.162021,"station_id":"GRG","line":5},{"i_lat":-6.161433,"time":2,"distance":2036,"station_id":"PSG","line":5,"is_transit":false,"i_long":106.771379,"transit":false,"station_name":"Pesing"},{"station_name":"Taman Kota","line":5,"i_long":106.756522,"distance":1614,"time":2,"i_lat":-6.1587309999999995,"station_id":"TKO","is_transit":false,"transit":false},{"time":2,"station_name":"Bojongindah","i_long":106.737035,"distance":2334,"line":5,"transit":false,"station_id":"BOI","i_lat":-6.159876,"is_transit":false}]]}