{"data":[[{"i_lat":-6.2553149999999995,"transit":false,"line":1,"station_id":"CKR","station_name":"Cikarang","is_transit":false,"distance":0,"time":0,"i_long":107.144613},{"transit":false,"i_long":107.093313,"is_transit":false,"line":1,"time":4,"i_lat":-6.262938,"station_id":"TLM","station_name":"Metland Telaga Murni","distance":3689},{"line":1,"i_long":107.083084,"station_id":"CIT","distance":2800,"station_name":"Cibitung","transit":false,"is_transit":false,"i_lat":-6.261877,"time":2},{"station_name":"Tambun","distance":3420,"line":1,"time":3,"is_transit":false,"station_id":"TB","transit":false,"i_lat":-6.258864,"i_long":107.055722},{"i_lat":-6.248029,"i_long":107.016735,"line":1,"time":7,"is_transit":false,"transit":false,"station_name":"Bekasi Timur","station_id":"BKST","distance":4460},{"transit":false,"line":1,"time":2,"distance":2368,"i_lat":-6.236616,"station_id":"BKS","i_long":106.997013,"station_name":"Bekasi","is_transit":false},{"time":4,"distance":2520,"station_id":"KRI","is_transit":false,"line":1,"i_lat":-6.224515,"transit":false,"i_long":106.977657,"station_name":"Kranji"},{"line":1,"station_id":"CUK","transit":false,"station_name":"Cakung","distance":3097,"i_lat":-6.219053,"is_transit":false,"time":3,"i_long":106.951283},{"time":8,"station_id":"KLDB","transit":false,"i_long":106.939679,"i_lat":-6.217455,"distance":1385,"is_transit":false,"line":1,"station_name":"Klenderbaru"},{"distance":1305,"i_long":106.922662,"station_name":"Buaran","i_lat":-6.215568,"time":1,"station_id":"BUA","transit":false,"line":1,"is_transit":false},{"station_name":"Klender","time":2,"distance":3100,"i_long":106.899548,"line":1,"station_id":"KLD","is_transit":false,"transit":false,"i_lat":-6.2135},{"station_name":"Jatinegara","i_lat":-6.215091,"station_id":"JNG","distance":3395,"is_transit":false,"transit":false,"line":1,"i_long":106.86807400000001,"time":3},{"i_long":106.858896,"is_transit":false,"station_name":"Matraman","transit":false,"time":2,"station_id":"MTR","distance":1377,"line":1,"i_lat":-6.212485},{"time":2,"i_long":106.84912,"distance":1275,"line":2,"transit":false,"station_name":"Manggarai","i_lat":-6.209883,"is_transit":false,"station_id":"MRI"},{"station_name":"Sudirman","is_transit":false,"transit":false,"time":4,"station_id":"SUD","line":1,"distance":3186,"i_lat":-6.202263,"i_long":106.822649},{"station_name":"Sudirman Baru","is_transit":false,"distance":280,"line":1,"transit":false,"time":1,"i_lat":-6.201433,"i_long":106.819881,"station_id":"SUDB"},{"line":1,"time":1,"station_id":"KAT","station_name":"Karet","is_transit":false,"transit":false,"i_lat":-6.20132,"distance":471,"i_long":106.816351},{"i_lat":-6.185545,"is_transit":true,"i_long":106.811091,"line":1,"station_id":"THB","transit":true,"distance":2029,"station_name":"Tanah Abang","time":5},{"station_name":"Palmerah","is_transit":false,"i_lat":-6.207404,"transit":false,"station_id":"PLM","time":6,"i_long":106.79689,"distance":3191,"line":6},{"station_name":"Kebayoran","distance":3737,"line":6,"time":7,"i_long":106.780334,"i_lat":-6.237242,"station_id":"KBY","transit":false,"is_transit":false},{"station_name":"Pondokranji","i_lat":-6.276362,"i_long":106.74273,"line":6,"transit":false,"time":8,"station_id":"PDJ","is_transit":false,"distance":6218},{"station_name":"Jurangmangu","station_id":"JMU","transit":false,"distance":2179,"i_long":106.728916,"time":3,"line":6,"is_transit":false,"i_lat":-6.288927},{"is_transit":false,"station_name":"Sudimara","i_long":106.712277,"line":6,"time":4,"station_id":"SDM","transit":false,"distance":1994,"i_lat":-6.296963},{"station_name":"Rawa Buntu","station_id":"RU","transit":false,"is_transit":false,"i_lat":-6.314823,"time":6,"line":6,"i_long":106.675475,"distance":4566},{"i_long":106.66566,"i_lat":-6.319871,"distance":2413,"is_transit":false,"station_name":"Serpong","line":6,"time":4,"station_id":"SRP","transit":false},{"station_id":"CSK","transit":false,"i_long":106.640411,"i_lat":-6.32484,"distance":1784,"station_name":"Cisauk","is_transit":false,"line":3,"time":4}],[{"time":0,"is_transit":false,"i_long":107.144613,"i_lat":-6.2553149999999995,"station_id":"CKR","station_name":"Cikarang","transit":false,"line":1,"distance":0},{"i_long":107.093313,"is_transit":false,"time":4,"station_name":"Metland Telaga Murni","line":1,"transit":false,"distance":3689,"i_lat":-6.262938,"station_id":"TLM"},{"is_transit":false,"time":2,"station_id":"CIT","distance":2800,"i_long":107.083084,"station_name":"Cibitung","transit":false,"line":1,"i_lat":-6.261877},{"station_id":"TB","distance":3420,"transit":false,"is_transit":false,"i_lat":-6.258864,"line":1,"station_name":"Tambun","i_long":107.055722,"time":3},{"transit":false,"line":1,"station_name":"Bekasi Timur","station_id":"BKST","is_transit":false,"distance":4460,"i_long":107.016735,"time":7,"i_lat":-6.248029},{"distance":2368,"time":2,"station_id":"BKS","transit":false,"is_transit":false,"i_lat":-6.236616,"i_long":106.997013,"line":1,"station_name":"Bekasi"},{"station_name":"Kranji","is_transit":false,"station_id":"KRI","i_lat":-6.224515,"line":1,"i_long":106.977657,"time":4,"distance":2520,"transit":false},{"i_lat":-6.219053,"time":3,"i_long":106.951283,"distance":3097,"station_id":"CUK","station_name":"Cakung","transit":false,"line":1,"is_transit":false},{"time":8,"distance":1385,"station_name":"Klenderbaru","i_lat":-6.217455,"line":1,"transit":false,"i_long":106.939679,"station_id":"KLDB","is_transit":false},{"time":1,"is_transit":false,"transit":false,"station_name":"Buaran","station_id":"BUA","i_lat":-6.215568,"i_long":106.922662,"distance":1305,"line":1},{"station_name":"Klender","i_lat":-6.2135,"line":1,"distance":3100,"i_long":106.899548,"is_transit":false,"time":2,"station_id":"KLD","transit":false},{"i_long":106.86807400000001,"line":1,"time":3,"station_name":"Jatinegara","i_lat":-6.215091,"distance":3395,"is_transit":true,"transit":true,"station_id":"JNG"},{"time":2,"distance":1236,"line":11,"station_name":"Pondok Jati","transit":false,"is_transit":false,"station_id":"POK","i_long":106.861737,"i_lat":-6.209188},{"time":2,"station_id":"KMT","transit":false,"station_name":"Kramat","is_transit":false,"distance":1829,"i_lat":-6.193792,"i_long":106.855437,"line":11},{"station_name":"Gang Sentiong","i_lat":-6.185975,"is_transit":false,"time":1,"i_long":106.850107,"line":11,"transit":false,"station_id":"GST","distance":973},{"station_name":"Pasar Senen","transit":false,"i_lat":-6.174784,"is_transit":false,"distance":1567,"time":8,"station_id":"PSE","i_long":106.84368,"line":11},{"transit":false,"i_lat":-6.161728,"distance":1436,"is_transit":false,"i_long":106.839204,"time":4,"line":11,"station_name":"Kemayoran","station_id":"KMO"},{"i_long":106.836569,"i_lat":-6.14505,"line":11,"transit":false,"is_transit":false,"station_id":"RJW","time":5,"distance":1901,"station_name":"Rajawali"},{"time":3,"i_lat":-6.132549,"station_id":"KPB","transit":true,"line":4,"i_long":106.826365,"is_transit":true,"station_name":"Kampung Bandan","distance":1444},{"i_long":106.79867,"line":1,"is_transit":false,"distance":4102,"i_lat":-6.144674,"station_name":"Angke","time":9,"transit":false,"station_id":"AK"},{"line":1,"i_long":106.800832,"time":4,"i_lat":-6.155215,"distance":1230,"station_id":"DU","station_name":"Duri","transit":false,"is_transit":false},{"line":1,"station_name":"Tanah Abang","is_transit":true,"distance":3632,"i_lat":-6.185545,"i_long":106.811091,"time":8,"transit":true,"station_id":"THB"},{"distance":3191,"i_lat":-6.207404,"line":6,"transit":false,"i_long":106.79689,"station_name":"Palmerah","time":6,"station_id":"PLM","is_transit":false},{"transit":false,"station_name":"Kebayoran","i_lat":-6.237242,"line":6,"station_id":"KBY","time":7,"distance":3737,"i_long":106.780334,"is_transit":false},{"station_name":"Pondokranji","line":6,"transit":false,"i_long":106.74273,"i_lat":-6.276362,"distance":6218,"is_transit":false,"station_id":"PDJ","time":8},{"station_name":"Jurangmangu","time":3,"i_long":106.728916,"station_id":"JMU","transit":false,"line":6,"distance":2179,"i_lat":-6.288927,"is_transit":false},{"i_lat":-6.296963,"station_id":"SDM","line":6,"i_long":106.712277,"transit":false,"time":4,"station_name":"Sudimara","is_transit":false,"distance":1994},{"i_lat":-6.314823,"transit":false,"station_name":"Rawa Buntu","line":6,"time":6,"is_transit":false,"station_id":"RU","distance":4566,"i_long":106.675475},{"i_long":106.66566,"time":4,"i_lat":-6.319871,"distance":2413,"line":6,"is_transit":false,"station_name":"Serpong","station_id":"SRP","transit":false},{"station_id":"CSK","i_lat":-6.32484,"i_long":106.640411,"time":4,"transit":false,"distance":1784,"line":3,"is_transit":false,"station_name":"Cisauk"}],[{"station_name":"Cikarang","i_lat":-6.2553149999999995,"is_transit":false,"transit":false,"station_id":"CKR","distance":0,"time":0,"i_long":107.144613,"line":1},{"station_id":"TLM","i_lat":-6.262938,"is_transit":false,"time":4,"transit":false,"station_name":"Metland Telaga Murni","distance":3689,"line":1,"i_long":107.093313},{"i_long":107.083084,"station_id":"CIT","is_transit":false,"station_name":"Cibitung","i_lat":-6.261877,"time":2,"line":1,"transit":false,"distance":2800},{"line":1,"is_transit":false,"time":3,"i_long":107.055722,"transit":false,"station_id":"TB","i_lat":-6.258864,"station_name":"Tambun","distance":3420},{"is_transit":false,"station_name":"Bekasi Timur","distance":4460,"i_lat":-6.248029,"line":1,"time":7,"station_id":"BKST","transit":false,"i_long":107.016735},{"time":2,"is_transit":false,"i_lat":-6.236616,"station_id":"BKS","distance":2368,"line":1,"i_long":106.997013,"station_name":"Bekasi","transit":false},{"distance":2520,"transit":false,"is_transit":false,"time":4,"station_name":"Kranji","i_long":106.977657,"line":1,"station_id":"KRI","i_lat":-6.224515},{"transit":false,"line":1,"station_id":"CUK","station_name":"Cakung","distance":3097,"is_transit":false,"i_lat":-6.219053,"i_long":106.951283,"time":3},{"distance":1385,"station_id":"KLDB","transit":false,"i_lat":-6.217455,"is_transit":false,"station_name":"Klenderbaru","line":1,"i_long":106.939679,"time":8},{"distance":1305,"line":1,"i_lat":-6.215568,"i_long":106.922662,"station_name":"Buaran","is_transit":false,"station_id":"BUA","time":1,"transit":false},{"transit":false,"station_name":"Klender","i_lat":-6.2135,"line":1,"i_long":106.899548,"is_transit":false,"time":2,"station_id":"KLD","distance":3100},{"transit":false,"is_transit":false,"time":3,"i_long":106.86807400000001,"i_lat":-6.215091,"distance":3395,"line":1,"station_name":"Jatinegara","station_id":"JNG"},{"distance":1377,"i_long":106.858896,"time":2,"is_transit":false,"station_id":"MTR","station_name":"Matraman","transit":false,"i_lat":-6.212485,"line":1},{"station_id":"MRI","station_name":"Manggarai","is_transit":true,"i_lat":-6.209883,"transit":true,"distance":1275,"i_long":106.84912,"line":2,"time":2},{"line":2,"distance":1590,"is_transit":false,"station_name":"Cikini","station_id":"CKI","i_long":106.840169,"i_lat":-6.198556,"transit":false,"time":4},{"transit":false,"station_name":"Gondangdia","station_id":"GDD","i_long":106.832183,"time":3,"line":2,"is_transit":false,"i_lat":-6.186295,"distance":1750},{"transit":false,"time":4,"i_long":106.828284,"is_transit":false,"station_name":"Juanda","station_id":"JUA","distance":2015,"i_lat":-6.166716,"line":2},{"distance":1149,"line":2,"time":2,"transit":false,"i_lat":-6.160725,"is_transit":false,"station_id":"SW","i_long":106.827103,"station_name":"Sawah Besar"},{"is_transit":false,"transit":false,"station_id":"MGB","i_long":106.82482,"distance":906,"station_name":"Manggabesar","i_lat":-6.149769,"time":2,"line":2},{"is_transit":false,"time":2,"transit":false,"i_long":106.820901,"station_id":"JAY","distance":1080,"station_name":"Jayakarta","i_lat":-6.141205,"line":2},{"time":4,"i_long":106.812439,"station_id":"JAKK","line":2,"i_lat":-6.137569,"distance":1264,"transit":true,"is_transit":true,"station_name":"Jakarta Kota"},{"is_transit":true,"time":3,"distance":1364,"i_long":106.826365,"transit":true,"station_id":"KPB","line":4,"station_name":"Kampung Bandan","i_lat":-6.132549},{"line":1,"station_id":"AK","time":9,"station_name":"Angke","i_long":106.79867,"i_lat":-6.144674,"distance":4102,"is_transit":false,"transit":false},{"i_lat":-6.155215,"is_transit":false,"line":1,"station_id":"DU","transit":false,"i_long":106.800832,"distance":1230,"time":4,"station_name":"Duri"},{"line":1,"i_lat":-6.185545,"is_transit":true,"station_id":"THB","i_long":106.811091,"transit":true,"station_name":"Tanah Abang","time":8,"distance":3632},{"i_long":106.79689,"line":6,"time":6,"distance":3191,"station_name":"Palmerah","transit":false,"i_lat":-6.207404,"station_id":"PLM","is_transit":false},{"station_id":"KBY","distance":3737,"transit":false,"is_transit":false,"station_name":"Kebayoran","line":6,"i_lat":-6.237242,"i_long":106.780334,"time":7},{"station_id":"PDJ","transit":false,"distance":6218,"time":8,"i_long":106.74273,"station_name":"Pondokranji","i_lat":-6.276362,"is_transit":false,"line":6},{"station_id":"JMU","transit":false,"distance":2179,"i_lat":-6.288927,"i_long":106.728916,"line":6,"time":3,"station_name":"Jurangmangu","is_transit":false},{"station_name":"Sudimara","is_transit":false,"transit":false,"station_id":"SDM","distance":1994,"i_lat":-6.296963,"i_long":106.712277,"time":4,"line":6},{"i_long":106.675475,"line":6,"station_id":"RU","distance":4566,"time":6,"station_name":"Rawa Buntu","is_transit":false,"transit":false,"i_lat":-6.314823},{"i_long":106.66566,"station_name":"Serpong","station_id":"SRP","i_lat":-6.319871,"distance":2413,"transit":false,"line":6,"is_transit":false,"time":4},{"line":3,"i_lat":-6.32484,"station_id":"CSK","time":4,"station_name":"Cisauk","transit":false,"i_long":106.640411,"is_transit":false,"distance":1784}],[{"is_transit":false,"station_id":"CKR","time":0,"station_name":"Cikarang","i_long":107.144613,"transit":false,"i_lat":-6.2553149999999995,"distance":0,"line":1},{"transit":false,"i_long":107.093313,"time":4,"station_name":"Metland Telaga Murni","i_lat":-6.262938,"station_id":"TLM","distance":3689,"line":1,"is_transit":false},{"time":2,"line":1,"distance":2800,"i_lat":-6.261877,"transit":false,"station_name":"Cibitung","is_transit":false,"station_id":"CIT","i_long":107.083084},{"transit":false,"station_id":"TB","i_lat":-6.258864,"is_transit":false,"station_name":"Tambun","time":3,"distance":3420,"line":1,"i_long":107.055722},{"i_long":107.016735,"time":7,"transit":false,"is_transit":false,"station_id":"BKST","i_lat":-6.248029,"station_name":"Bekasi Timur","line":1,"distance":4460},{"is_transit":false,"time":2,"line":1,"station_id":"BKS","transit":false,"i_lat":-6.236616,"station_name":"Bekasi","distance":2368,"i_long":106.997013},{"i_lat":-6.224515,"station_id":"KRI","transit":false,"time":4,"distance":2520,"i_long":106.977657,"station_name":"Kranji","line":1,"is_transit":false},{"line":1,"station_name":"Cakung","time":3,"station_id":"CUK","transit":false,"distance":3097,"is_transit":false,"i_long":106.951283,"i_lat":-6.219053},{"i_long":106.939679,"transit":false,"line":1,"station_name":"Klenderbaru","time":8,"station_id":"KLDB","is_transit":false,"i_lat":-6.217455,"distance":1385},{"time":1,"station_name":"Buaran","i_lat":-6.215568,"line":1,"is_transit":false,"i_long":106.922662,"transit":false,"distance":1305,"station_id":"BUA"},{"is_transit":false,"i_lat":-6.2135,"i_long":106.899548,"transit":false,"time":2,"station_name":"Klender","station_id":"KLD","distance":3100,"line":1},{"i_long":106.86807400000001,"is_transit":true,"time":3,"distance":3395,"station_id":"JNG","transit":true,"station_name":"Jatinegara","i_lat":-6.215091,"line":1},{"i_long":106.861737,"time":2,"station_id":"POK","distance":1236,"is_transit":false,"line":11,"station_name":"Pondok Jati","transit":false,"i_lat":-6.209188},{"time":2,"transit":false,"line":11,"distance":1829,"i_lat":-6.193792,"i_long":106.855437,"is_transit":false,"station_name":"Kramat","station_id":"KMT"},{"distance":973,"station_name":"Gang Sentiong","is_transit":false,"time":1,"transit":false,"i_long":106.850107,"i_lat":-6.185975,"station_id":"GST","line":11},{"is_transit":false,"station_name":"Pasar Senen","station_id":"PSE","transit":false,"distance":1567,"i_lat":-6.174784,"line":11,"time":8,"i_long":106.84368},{"line":11,"station_name":"Kemayoran","time":4,"station_id":"KMO","i_lat":-6.161728,"is_transit":false,"transit":false,"distance":1436,"i_long":106.839204},{"time":5,"distance":1901,"i_long":106.836569,"line":11,"station_id":"RJW","i_lat":-6.14505,"is_transit":false,"transit":false,"station_name":"Rajawali"},{"station_id":"KPB","line":4,"is_transit":true,"time":3,"transit":true,"station_name":"Kampung Bandan","i_lat":-6.132549,"distance":1444,"i_long":106.826365},{"i_long":106.812439,"line":2,"is_transit":true,"station_id":"JAKK","distance":1364,"i_lat":-6.137569,"time":3,"station_name":"Jakarta Kota","transit":true},{"line":2,"i_long":106.820901,"time":4,"station_name":"Jayakarta","is_transit":false,"i_lat":-6.141205,"transit":false,"distance":1264,"station_id":"JAY"},{"station_id":"MGB","time":2,"is_transit":false,"transit":false,"station_name":"Manggabesar","distance":1080,"i_lat":-6.149769,"i_long":106.82482,"line":2},{"i_long":106.827103,"is_transit":false,"line":2,"time":2,"station_id":"SW","distance":906,"transit":false,"station_name":"Sawah Besar","i_lat":-6.160725},{"time":2,"i_long":106.828284,"station_name":"Juanda","is_transit":false,"transit":false,"i_lat":-6.166716,"distance":1149,"line":2,"station_id":"JUA"},{"distance":2015,"is_transit":false,"time":4,"station_id":"GDD","i_long":106.832183,"station_name":"Gondangdia","transit":false,"line":2,"i_lat":-6.186295},{"time":3,"transit":false,"station_id":"CKI","i_lat":-6.198556,"distance":1750,"line":2,"station_name":"Cikini","i_long":106.840169,"is_transit":false},{"station_id":"MRI","transit":true,"station_name":"Manggarai","line":2,"is_transit":true,"i_long":106.84912,"distance":1590,"i_lat":-6.209883,"time":4},{"station_name":"Sudirman","distance":3186,"i_lat":-6.202263,"i_long":106.822649,"time":4,"line":1,"is_transit":false,"station_id":"SUD","transit":false},{"time":1,"distance":280,"station_name":"Sudirman Baru","station_id":"SUDB","is_transit":false,"line":1,"i_lat":-6.201433,"transit":false,"i_long":106.819881},{"time":1,"i_lat":-6.20132,"line":1,"distance":471,"is_transit":false,"station_id":"KAT","i_long":106.816351,"station_name":"Karet","transit":false},{"i_long":106.811091,"i_lat":-6.185545,"distance":2029,"station_id":"THB","time":5,"transit":true,"line":1,"station_name":"Tanah Abang","is_transit":true},{"time":6,"i_lat":-6.207404,"station_name":"Palmerah","distance":3191,"line":6,"i_long":106.79689,"transit":false,"station_id":"PLM","is_transit":false},{"i_long":106.780334,"is_transit":false,"station_name":"Kebayoran","transit":false,"distance":3737,"time":7,"station_id":"KBY","line":6,"i_lat":-6.237242},{"time":8,"station_name":"Pondokranji","i_long":106.74273,"line":6,"i_lat":-6.276362,"is_transit":false,"station_id":"PDJ","distance":6218,"transit":false},{"station_name":"Jurangmangu","i_long":106.728916,"is_transit":false,"station_id":"JMU","i_lat":-6.288927,"distance":2179,"time":3,"transit":false,"line":6},{"time":4,"is_transit":false,"transit":false,"i_long":106.712277,"line":6,"i_lat":-6.296963,"station_name":"Sudimara","station_id":"SDM","distance":1994},{"transit":false,"is_transit":false,"time":6,"i_lat":-6.314823,"station_name":"Rawa Buntu","line":6,"i_long":106.675475,"distance":4566,"station_id":"RU"},{"line":6,"station_name":"Serpong","i_lat":-6.319871,"time":4,"i_long":106.66566,"is_transit":false,"station_id":"SRP","distance":2413,"transit":false},{"time":4,"station_name":"Cisauk","station_id":"CSK","i_long":106.640411,"distance":1784,"line":3,"i_lat":-6.32484,"transit":false,"is_transit":false}]]}