{"data":[[{"transit":false,"distance":0,"i_lat":-6.2553149999999995,"station_name":"Cikarang","i_long":107.144613,"time":0,"line":1,"is_transit":false,"station_id":"CKR"},{"time":4,"is_transit":false,"station_name":"Metland Telaga Murni","distance":3689,"i_lat":-6.262938,"i_long":107.093313,"transit":false,"line":1,"station_id":"TLM"},{"distance":2800,"line":1,"time":2,"station_name":"Cibitung","station_id":"CIT","is_transit":false,"transit":false,"i_lat":-6.261877,"i_long":107.083084},{"station_name":"Tambun","is_transit":false,"transit":false,"i_lat":-6.258864,"distance":3420,"i_long":107.055722,"line":1,"station_id":"TB","time":3},{"station_id":"BKST","i_lat":-6.248029,"distance":4460,"i_long":107.016735,"is_transit":false,"time":7,"station_name":"Bekasi Timur","line":1,"transit":false},{"is_transit":false,"transit":false,"i_long":106.997013,"line":1,"station_name":"Bekasi","station_id":"BKS","time":2,"distance":2368,"i_lat":-6.236616},{"distance":2520,"transit":false,"is_transit":false,"station_id":"KRI","time":4,"i_long":106.977657,"station_name":"Kranji","i_lat":-6.224515,"line":1},{"station_name":"Cakung","is_transit":false,"transit":false,"line":1,"time":3,"distance":3097,"station_id":"CUK","i_long":106.951283,"i_lat":-6.219053},{"distance":1385,"is_transit":false,"i_long":106.939679,"station_id":"KLDB","line":1,"station_name":"Klenderbaru","transit":false,"time":8,"i_lat":-6.217455},{"station_name":"Buaran","is_transit":false,"line":1,"i_lat":-6.215568,"station_id":"BUA","distance":1305,"time":1,"i_long":106.922662,"transit":false},{"time":2,"line":1,"i_long":106.899548,"i_lat":-6.2135,"distance":3100,"station_id":"KLD","is_transit":false,"transit":false,"station_name":"Klender"},{"station_id":"JNG","is_transit":false,"distance":3395,"time":3,"station_name":"Jatinegara","i_lat":-6.215091,"i_long":106.86807400000001,"transit":false,"line":1},{"time":2,"station_name":"Matraman","i_lat":-6.212485,"distance":1377,"i_long":106.858896,"is_transit":false,"line":1,"transit":false,"station_id":"MTR"},{"station_id":"MRI","is_transit":false,"i_long":106.84912,"station_name":"Manggarai","i_lat":-6.209883,"line":2,"distance":1275,"transit":false,"time":2},{"distance":3186,"station_name":"Sudirman","line":1,"is_transit":false,"station_id":"SUD","transit":false,"time":4,"i_lat":-6.202263,"i_long":106.822649},{"station_name":"Sudirman Baru","line":1,"i_long":106.819881,"is_transit":false,"distance":280,"station_id":"SUDB","transit":false,"time":1,"i_lat":-6.201433},{"i_long":106.816351,"station_name":"Karet","line":1,"time":1,"is_transit":false,"transit":false,"i_lat":-6.20132,"distance":471,"station_id":"KAT"},{"distance":2029,"station_name":"Tanah Abang","transit":false,"i_long":106.811091,"line":1,"station_id":"THB","is_transit":false,"i_lat":-6.185545,"time":5},{"i_lat":-6.155215,"time":8,"station_name":"Duri","station_id":"DU","transit":true,"distance":3632,"i_long":106.800832,"line":1,"is_transit":true},{"line":5,"station_name":"Grogol","station_id":"GGL","time":3,"is_transit":false,"distance":1700,"transit":false,"i_long":106.788277,"i_lat":-6.162021}],[{"transit":false,"is_transit":false,"station_id":"CKR","station_name":"Cikarang","distance":0,"i_lat":-6.2553149999999995,"line":1,"time":0,"i_long":107.144613},{"transit":false,"is_transit":false,"i_lat":-6.262938,"distance":3689,"station_name":"Metland Telaga Murni","time":4,"station_id":"TLM","line":1,"i_long":107.093313},{"line":1,"distance":2800,"station_id":"CIT","i_lat":-6.261877,"i_long":107.083084,"is_transit":false,"time":2,"transit":false,"station_name":"Cibitung"},{"line":1,"is_transit":false,"distance":3420,"station_name":"Tambun","time":3,"i_long":107.055722,"transit":false,"i_lat":-6.258864,"station_id":"TB"},{"station_name":"Bekasi Timur","i_long":107.016735,"distance":4460,"time":7,"i_lat":-6.248029,"line":1,"is_transit":false,"station_id":"BKST","transit":false},{"line":1,"transit":false,"station_id":"BKS","is_transit":false,"i_long":106.997013,"distance":2368,"time":2,"i_lat":-6.236616,"station_name":"Bekasi"},{"time":4,"station_name":"Kranji","is_transit":false,"line":1,"distance":2520,"transit":false,"i_long":106.977657,"i_lat":-6.224515,"station_id":"KRI"},{"distance":3097,"is_transit":false,"transit":false,"time":3,"station_id":"CUK","i_long":106.951283,"line":1,"i_lat":-6.219053,"station_name":"Cakung"},{"distance":1385,"station_name":"Klenderbaru","i_long":106.939679,"time":8,"station_id":"KLDB","i_lat":-6.217455,"line":1,"is_transit":false,"transit":false},{"i_long":106.922662,"transit":false,"i_lat":-6.215568,"distance":1305,"line":1,"station_name":"Buaran","is_transit":false,"station_id":"BUA","time":1},{"time":2,"transit":false,"distance":3100,"i_long":106.899548,"i_lat":-6.2135,"station_name":"Klender","station_id":"KLD","line":1,"is_transit":false},{"transit":true,"i_lat":-6.215091,"distance":3395,"time":3,"is_transit":true,"i_long":106.86807400000001,"station_name":"Jatinegara","line":1,"station_id":"JNG"},{"distance":1236,"station_id":"POK","time":2,"station_name":"Pondok Jati","transit":false,"i_lat":-6.209188,"is_transit":false,"i_long":106.861737,"line":11},{"is_transit":false,"station_name":"Kramat","transit":false,"time":2,"station_id":"KMT","i_lat":-6.193792,"i_long":106.855437,"distance":1829,"line":11},{"station_id":"GST","line":11,"transit":false,"time":1,"is_transit":false,"station_name":"Gang Sentiong","i_long":106.850107,"distance":973,"i_lat":-6.185975},{"transit":false,"station_id":"PSE","i_lat":-6.174784,"distance":1567,"time":8,"station_name":"Pasar Senen","line":11,"i_long":106.84368,"is_transit":false},{"station_name":"Kemayoran","station_id":"KMO","is_transit":false,"transit":false,"i_lat":-6.161728,"distance":1436,"i_long":106.839204,"line":11,"time":4},{"station_id":"RJW","i_long":106.836569,"time":5,"station_name":"Rajawali","distance":1901,"i_lat":-6.14505,"line":11,"is_transit":false,"transit":false},{"line":4,"i_lat":-6.132549,"is_transit":true,"transit":true,"station_name":"Kampung Bandan","time":3,"distance":1444,"station_id":"KPB","i_long":106.826365},{"station_id":"AK","distance":4102,"station_name":"Angke","is_transit":false,"transit":false,"i_lat":-6.144674,"i_long":106.79867,"time":9,"line":1},{"i_lat":-6.155215,"transit":true,"line":1,"i_long":106.800832,"station_name":"Duri","distance":1230,"station_id":"DU","is_transit":true,"time":4},{"line":5,"is_transit":false,"distance":1700,"i_lat":-6.162021,"station_id":"GGL","station_name":"Grogol","time":3,"i_long":106.788277,"transit":false}],[{"distance":0,"line":1,"is_transit":false,"transit":false,"i_lat":-6.2553149999999995,"i_long":107.144613,"time":0,"station_id":"CKR","station_name":"Cikarang"},{"distance":3689,"is_transit":false,"station_id":"TLM","i_lat":-6.262938,"transit":false,"station_name":"Metland Telaga Murni","time":4,"line":1,"i_long":107.093313},{"station_id":"CIT","transit":false,"time":2,"distance":2800,"is_transit":false,"i_lat":-6.261877,"station_name":"Cibitung","i_long":107.083084,"line":1},{"transit":false,"i_long":107.055722,"line":1,"distance":3420,"is_transit":false,"station_id":"TB","time":3,"station_name":"Tambun","i_lat":-6.258864},{"station_name":"Bekasi Timur","i_long":107.016735,"station_id":"BKST","transit":false,"distance":4460,"i_lat":-6.248029,"is_transit":false,"time":7,"line":1},{"i_lat":-6.236616,"station_id":"BKS","distance":2368,"i_long":106.997013,"line":1,"station_name":"Bekasi","is_transit":false,"transit":false,"time":2},{"station_id":"KRI","station_name":"Kranji","i_long":106.977657,"transit":false,"time":4,"is_transit":false,"distance":2520,"line":1,"i_lat":-6.224515},{"distance":3097,"time":3,"is_transit":false,"i_lat":-6.219053,"i_long":106.951283,"station_name":"Cakung","transit":false,"line":1,"station_id":"CUK"},{"station_id":"KLDB","i_long":106.939679,"time":8,"is_transit":false,"i_lat":-6.217455,"distance":1385,"transit":false,"station_name":"Klenderbaru","line":1},{"i_long":106.922662,"is_transit":false,"time":1,"i_lat":-6.215568,"line":1,"distance":1305,"station_id":"BUA","transit":false,"station_name":"Buaran"},{"station_name":"Klender","distance":3100,"i_lat":-6.2135,"line":1,"transit":false,"station_id":"KLD","time":2,"i_long":106.899548,"is_transit":false},{"line":1,"i_lat":-6.215091,"distance":3395,"station_name":"Jatinegara","station_id":"JNG","i_long":106.86807400000001,"is_transit":false,"transit":false,"time":3},{"station_id":"MTR","is_transit":false,"transit":false,"distance":1377,"i_long":106.858896,"time":2,"line":1,"i_lat":-6.212485,"station_name":"Matraman"},{"i_long":106.84912,"transit":true,"station_name":"Manggarai","distance":1275,"line":2,"station_id":"MRI","is_transit":true,"i_lat":-6.209883,"time":2},{"line":2,"station_id":"CKI","transit":false,"is_transit":false,"i_long":106.840169,"i_lat":-6.198556,"distance":1590,"time":4,"station_name":"Cikini"},{"station_id":"GDD","i_long":106.832183,"is_transit":false,"transit":false,"i_lat":-6.186295,"time":3,"station_name":"Gondangdia","distance":1750,"line":2},{"line":2,"is_transit":false,"transit":false,"i_long":106.828284,"station_id":"JUA","time":4,"distance":2015,"station_name":"Juanda","i_lat":-6.166716},{"i_long":106.827103,"station_name":"Sawah Besar","line":2,"distance":1149,"i_lat":-6.160725,"transit":false,"is_transit":false,"time":2,"station_id":"SW"},{"time":2,"i_lat":-6.149769,"distance":906,"line":2,"is_transit":false,"station_id":"MGB","transit":false,"i_long":106.82482,"station_name":"Manggabesar"},{"transit":false,"time":2,"i_lat":-6.141205,"station_name":"Jayakarta","i_long":106.820901,"distance":1080,"line":2,"is_transit":false,"station_id":"JAY"},{"i_long":106.812439,"line":2,"station_name":"Jakarta Kota","transit":true,"station_id":"JAKK","time":4,"distance":1264,"i_lat":-6.137569,"is_transit":true},{"i_lat":-6.132549,"is_transit":true,"transit":true,"line":4,"station_id":"KPB","station_name":"Kampung Bandan","time":3,"i_long":106.826365,"distance":1364},{"station_id":"AK","i_lat":-6.144674,"i_long":106.79867,"station_name":"Angke","is_transit":false,"line":1,"time":9,"transit":false,"distance":4102},{"i_long":106.800832,"station_name":"Duri","distance":1230,"transit":true,"line":1,"is_transit":true,"time":4,"station_id":"DU","i_lat":-6.155215},{"is_transit":false,"transit":false,"i_lat":-6.162021,"i_long":106.788277,"station_name":"Grogol","distance":1700,"station_id":"GGL","time":3,"line":5}],[{"transit":false,"station_id":"CKR","station_name":"Cikarang","distance":0,"i_long":107.144613,"i_lat":-6.2553149999999995,"is_transit":false,"time":0,"line":1},{"station_name":"Metland Telaga Murni","i_long":107.093313,"distance":3689,"time":4,"transit":false,"i_lat":-6.262938,"station_id":"TLM","is_transit":false,"line":1},{"transit":false,"i_long":107.083084,"time":2,"line":1,"station_id":"CIT","distance":2800,"station_name":"Cibitung","is_transit":false,"i_lat":-6.261877},{"distance":3420,"i_lat":-6.258864,"station_id":"TB","time":3,"line":1,"i_long":107.055722,"is_transit":false,"transit":false,"station_name":"Tambun"},{"is_transit":false,"i_lat":-6.248029,"distance":4460,"station_name":"Bekasi Timur","transit":false,"i_long":107.016735,"time":7,"line":1,"station_id":"BKST"},{"time":2,"i_lat":-6.236616,"station_id":"BKS","transit":false,"distance":2368,"line":1,"is_transit":false,"i_long":106.997013,"station_name":"Bekasi"},{"i_lat":-6.224515,"line":1,"station_name":"Kranji","station_id":"KRI","distance":2520,"is_transit":false,"i_long":106.977657,"transit":false,"time":4},{"station_name":"Cakung","time":3,"distance":3097,"is_transit":false,"i_long":106.951283,"station_id":"CUK","i_lat":-6.219053,"line":1,"transit":false},{"distance":1385,"station_id":"KLDB","is_transit":false,"transit":false,"i_lat":-6.217455,"i_long":106.939679,"line":1,"time":8,"station_name":"Klenderbaru"},{"time":1,"line":1,"distance":1305,"station_name":"Buaran","is_transit":false,"i_long":106.922662,"i_lat":-6.215568,"station_id":"BUA","transit":false},{"transit":false,"line":1,"station_name":"Klender","i_long":106.899548,"station_id":"KLD","i_lat":-6.2135,"time":2,"distance":3100,"is_transit":false},{"station_name":"Jatinegara","transit":true,"station_id":"JNG","distance":3395,"time":3,"i_long":106.86807400000001,"i_lat":-6.215091,"is_transit":true,"line":1},{"distance":1236,"is_transit":false,"time":2,"station_id":"POK","i_long":106.861737,"line":11,"transit":false,"i_lat":-6.209188,"station_name":"Pondok Jati"},{"i_lat":-6.193792,"station_name":"Kramat","i_long":106.855437,"line":11,"time":2,"station_id":"KMT","distance":1829,"transit":false,"is_transit":false},{"is_transit":false,"distance":973,"time":1,"i_long":106.850107,"station_id":"GST","station_name":"Gang Sentiong","transit":false,"line":11,"i_lat":-6.185975},{"station_id":"PSE","is_transit":false,"time":8,"i_long":106.84368,"line":11,"transit":false,"i_lat":-6.174784,"station_name":"Pasar Senen","distance":1567},{"distance":1436,"station_id":"KMO","i_lat":-6.161728,"i_long":106.839204,"is_transit":false,"time":4,"transit":false,"line":11,"station_name":"Kemayoran"},{"i_long":106.836569,"i_lat":-6.14505,"distance":1901,"line":11,"transit":false,"station_name":"Rajawali","time":5,"station_id":"RJW","is_transit":false},{"i_lat":-6.132549,"station_name":"Kampung Bandan","station_id":"KPB","transit":true,"i_long":106.826365,"line":4,"is_transit":true,"distance":1444,"time":3},{"is_transit":true,"station_name":"Jakarta Kota","distance":1364,"time":3,"transit":true,"i_lat":-6.137569,"i_long":106.812439,"line":2,"station_id":"JAKK"},{"is_transit":false,"distance":1264,"i_lat":-6.141205,"transit":false,"time":4,"i_long":106.820901,"line":2,"station_name":"Jayakarta","station_id":"JAY"},{"transit":false,"station_name":"Manggabesar","time":2,"i_long":106.82482,"i_lat":-6.149769,"is_transit":false,"line":2,"distance":1080,"station_id":"MGB"},{"distance":906,"is_transit":false,"station_name":"Sawah Besar","transit":false,"i_lat":-6.160725,"time":2,"i_long":106.827103,"line":2,"station_id":"SW"},{"line":2,"transit":false,"station_name":"Juanda","station_id":"JUA","is_transit":false,"distance":1149,"time":2,"i_long":106.828284,"i_lat":-6.166716},{"line":2,"is_transit":false,"transit":false,"distance":2015,"station_name":"Gondangdia","station_id":"GDD","i_lat":-6.186295,"i_long":106.832183,"time":4},{"i_lat":-6.198556,"station_id":"CKI","transit":false,"is_transit":false,"time":3,"station_name":"Cikini","i_long":106.840169,"line":2,"distance":1750},{"is_transit":true,"line":2,"station_name":"Manggarai","distance":1590,"transit":true,"i_lat":-6.209883,"time":4,"i_long":106.84912,"station_id":"MRI"},{"i_lat":-6.202263,"line":1,"i_long":106.822649,"station_name":"Sudirman","distance":3186,"station_id":"SUD","transit":false,"time":4,"is_transit":false},{"line":1,"i_lat":-6.201433,"is_transit":false,"distance":280,"time":1,"i_long":106.819881,"station_name":"Sudirman Baru","station_id":"SUDB","transit":false},{"line":1,"station_id":"KAT","distance":471,"time":1,"is_transit":false,"station_name":"Karet","i_lat":-6.20132,"transit":false,"i_long":106.816351},{"line":1,"transit":false,"time":5,"distance":2029,"station_name":"Tanah Abang","i_long":106.811091,"is_transit":false,"station_id":"THB","i_lat":-6.185545},{"station_id":"DU","i_long":106.800832,"line":1,"is_transit":true,"time":8,"station_name":"Duri","i_lat":-6.155215,"distance":3632,"transit":true},{"station_name":"Grogol","station_id":"GGL","time":3,"i_long":106.788277,"line":5,"i_lat":-6.162021,"is_transit":false,"transit":false,"distance":1700}]]}