{"data":[[{"transit":false,"is_transit":false,"distance":0,"i_lat":-6.2553149999999995,"station_id":"CKR","i_long":107.144613,"line":0,"time":0,"station_name":"Cikarang"},{"is_transit":false,"i_long":107.093313,"line":1,"station_id":"TLM","station_name":"Metland Telaga Murni","distance":3689,"transit":false,"time":4,"i_lat":-6.262938},{"distance":2800,"i_long":107.083084,"line":0,"is_transit":false,"transit":false,"station_id":"CIT","time":2,"i_lat":-6.261877,"station_name":"Cibitung"},{"distance":3420,"transit":false,"is_transit":false,"i_long":107.055722,"station_name":"Tambun","station_id":"TB","time":3,"i_lat":-6.258864,"line":1},{"i_lat":-6.248029,"i_long":107.016735,"line":0,"station_id":"BKST","station_name":"Bekasi Timur","time":7,"is_transit":false,"distance":4460,"transit":false},{"station_id":"BKS","is_transit":false,"time":2,"transit":false,"i_lat":-6.236616,"station_name":"Bekasi","distance":2368,"i_long":106.997013,"line":0},{"is_transit":false,"i_long":106.977657,"i_lat":-6.224515,"time":4,"station_id":"KRI","line":1,"distance":2520,"transit":false,"station_name":"Kranji"},{"line":0,"i_lat":-6.219053,"i_long":106.951283,"transit":false,"time":3,"station_name":"Cakung","distance":3097,"is_transit":false,"station_id":"CUK"},{"is_transit":false,"time":8,"distance":1385,"i_lat":-6.217455,"station_id":"KLDB","station_name":"Klenderbaru","line":1,"i_long":106.939679,"transit":false},{"i_long":106.922662,"time":1,"station_name":"Buaran","station_id":"BUA","transit":false,"i_lat":-6.215568,"is_transit":false,"line":0,"distance":1305},{"station_id":"KLD","station_name":"Klender","transit":false,"is_transit":false,"i_lat":-6.2135,"time":2,"i_long":106.899548,"distance":3100,"line":1},{"is_transit":true,"distance":3395,"station_name":"Jatinegara","station_id":"JNG","line":0,"i_lat":-6.215091,"transit":false,"i_long":106.86807400000001,"time":3},{"time":2,"transit":false,"station_id":"MTR","distance":1377,"i_lat":-6.212485,"i_long":106.858896,"line":1,"is_transit":false,"station_name":"Matraman"},{"station_id":"MRI","is_transit":true,"time":2,"i_long":106.84912,"station_name":"Manggarai","transit":false,"line":0,"i_lat":-6.209883,"distance":1275},{"distance":3186,"is_transit":false,"i_long":106.822649,"station_name":"Sudirman","line":1,"i_lat":-6.202263,"transit":false,"time":4,"station_id":"SUD"},{"line":1,"time":1,"station_id":"SUDB","station_name":"Sudirman Baru","is_transit":false,"transit":false,"i_long":106.819881,"distance":280,"i_lat":-6.201433},{"distance":471,"i_lat":-6.20132,"time":1,"transit":false,"station_name":"Karet","is_transit":false,"i_long":106.816351,"line":1,"station_id":"KAT"},{"distance":2029,"station_id":"THB","i_long":106.811091,"time":5,"station_name":"Tanah Abang","transit":false,"i_lat":-6.185545,"is_transit":true,"line":1},{"station_id":"DU","distance":3632,"transit":true,"i_lat":-6.155215,"station_name":"Duri","i_long":106.800832,"is_transit":true,"time":8,"line":1},{"station_id":"GGL","is_transit":false,"distance":1700,"time":3,"station_name":"Grogol","transit":false,"i_long":106.788277,"line":5,"i_lat":-6.162021},{"transit":false,"time":2,"i_lat":-6.161433,"station_id":"PSG","station_name":"Pesing","line":5,"is_transit":false,"distance":2036,"i_long":106.771379},{"is_transit":false,"i_lat":-6.1587309999999995,"station_name":"Taman Kota","transit":false,"line":5,"station_id":"TKO","distance":1614,"i_long":106.756522,"time":2},{"i_long":106.737035,"station_name":"Bojongindah","transit":false,"line":0,"station_id":"BOI","is_transit":false,"time":2,"i_lat":-6.159876,"distance":2334}],[{"station_id":"CKR","station_name":"Cikarang","is_transit":false,"time":0,"distance":0,"i_lat":-6.2553149999999995,"line":0,"i_long":107.144613,"transit":false},{"transit":false,"is_transit":false,"i_lat":-6.262938,"line":1,"station_id":"TLM","i_long":107.093313,"distance":3689,"station_name":"Metland Telaga Murni","time":4},{"i_lat":-6.261877,"line":0,"i_long":107.083084,"is_transit":false,"station_name":"Cibitung","transit":false,"time":2,"distance":2800,"station_id":"CIT"},{"station_id":"TB","line":1,"is_transit":false,"i_lat":-6.258864,"station_name":"Tambun","transit":false,"i_long":107.055722,"distance":3420,"time":3},{"i_long":107.016735,"i_lat":-6.248029,"time":7,"is_transit":false,"station_id":"BKST","transit":false,"line":0,"distance":4460,"station_name":"Bekasi Timur"},{"i_long":106.997013,"station_id":"BKS","time":2,"station_name":"Bekasi","transit":false,"is_transit":false,"distance":2368,"i_lat":-6.236616,"line":0},{"i_lat":-6.224515,"station_name":"Kranji","transit":false,"is_transit":false,"i_long":106.977657,"line":1,"station_id":"KRI","time":4,"distance":2520},{"station_name":"Cakung","is_transit":false,"station_id":"CUK","time":3,"distance":3097,"line":0,"transit":false,"i_long":106.951283,"i_lat":-6.219053},{"i_lat":-6.217455,"is_transit":false,"distance":1385,"station_id":"KLDB","transit":false,"line":1,"station_name":"Klenderbaru","i_long":106.939679,"time":8},{"station_id":"BUA","is_transit":false,"time":1,"i_lat":-6.215568,"line":0,"station_name":"Buaran","distance":1305,"i_long":106.922662,"transit":false},{"distance":3100,"i_long":106.899548,"transit":false,"time":2,"line":1,"i_lat":-6.2135,"station_id":"KLD","station_name":"Klender","is_transit":false},{"i_long":106.86807400000001,"station_id":"JNG","is_transit":true,"distance":3395,"i_lat":-6.215091,"transit":true,"time":3,"station_name":"Jatinegara","line":0},{"distance":1236,"is_transit":false,"line":11,"station_name":"Pondok Jati","transit":false,"time":2,"station_id":"POK","i_lat":-6.209188,"i_long":106.861737},{"transit":false,"is_transit":false,"time":2,"i_lat":-6.193792,"i_long":106.855437,"line":11,"station_id":"KMT","station_name":"Kramat","distance":1829},{"line":11,"time":1,"station_id":"GST","i_long":106.850107,"i_lat":-6.185975,"station_name":"Gang Sentiong","distance":973,"is_transit":false,"transit":false},{"is_transit":false,"distance":1567,"i_lat":-6.174784,"i_long":106.84368,"line":11,"transit":false,"time":8,"station_name":"Pasar Senen","station_id":"PSE"},{"station_id":"KMO","time":4,"distance":1436,"transit":false,"is_transit":false,"i_lat":-6.161728,"line":11,"station_name":"Kemayoran","i_long":106.839204},{"is_transit":false,"transit":false,"i_long":106.836569,"i_lat":-6.14505,"station_name":"Rajawali","time":5,"line":11,"station_id":"RJW","distance":1901},{"time":3,"distance":1444,"i_lat":-6.132549,"line":0,"is_transit":true,"station_id":"KPB","transit":true,"i_long":106.826365,"station_name":"Kampung Bandan"},{"time":9,"distance":4102,"line":0,"i_long":106.79867,"station_name":"Angke","is_transit":false,"station_id":"AK","transit":false,"i_lat":-6.144674},{"distance":1230,"transit":true,"station_id":"DU","i_long":106.800832,"is_transit":true,"time":4,"station_name":"Duri","i_lat":-6.155215,"line":1},{"station_id":"GGL","is_transit":false,"distance":1700,"station_name":"Grogol","i_lat":-6.162021,"line":5,"i_long":106.788277,"time":3,"transit":false},{"time":2,"is_transit":false,"i_lat":-6.161433,"i_long":106.771379,"line":5,"distance":2036,"transit":false,"station_id":"PSG","station_name":"Pesing"},{"i_long":106.756522,"line":5,"distance":1614,"time":2,"is_transit":false,"transit":false,"station_id":"TKO","i_lat":-6.1587309999999995,"station_name":"Taman Kota"},{"station_id":"BOI","station_name":"Bojongindah","i_lat":-6.159876,"i_long":106.737035,"is_transit":false,"distance":2334,"transit":false,"line":0,"time":2}],[{"station_name":"Cikarang","is_transit":false,"i_long":107.144613,"line":0,"station_id":"CKR","time":0,"distance":0,"i_lat":-6.2553149999999995,"transit":false},{"time":4,"is_transit":false,"distance":3689,"transit":false,"station_name":"Metland Telaga Murni","line":1,"i_long":107.093313,"station_id":"TLM","i_lat":-6.262938},{"station_id":"CIT","i_long":107.083084,"station_name":"Cibitung","distance":2800,"line":0,"i_lat":-6.261877,"transit":false,"is_transit":false,"time":2},{"i_long":107.055722,"station_name":"Tambun","time":3,"station_id":"TB","distance":3420,"i_lat":-6.258864,"line":1,"is_transit":false,"transit":false},{"station_id":"BKST","i_lat":-6.248029,"station_name":"Bekasi Timur","line":0,"distance":4460,"is_transit":false,"time":7,"transit":false,"i_long":107.016735},{"time":2,"is_transit":false,"station_name":"Bekasi","transit":false,"i_lat":-6.236616,"distance":2368,"station_id":"BKS","i_long":106.997013,"line":0},{"station_id":"KRI","transit":false,"time":4,"station_name":"Kranji","i_lat":-6.224515,"line":1,"is_transit":false,"distance":2520,"i_long":106.977657},{"distance":3097,"line":0,"time":3,"i_lat":-6.219053,"station_id":"CUK","station_name":"Cakung","is_transit":false,"transit":false,"i_long":106.951283},{"line":1,"is_transit":false,"time":8,"i_lat":-6.217455,"distance":1385,"station_id":"KLDB","transit":false,"i_long":106.939679,"station_name":"Klenderbaru"},{"line":0,"transit":false,"i_long":106.922662,"is_transit":false,"station_name":"Buaran","distance":1305,"i_lat":-6.215568,"station_id":"BUA","time":1},{"transit":false,"i_long":106.899548,"time":2,"line":1,"is_transit":false,"station_id":"KLD","distance":3100,"i_lat":-6.2135,"station_name":"Klender"},{"i_lat":-6.215091,"station_name":"Jatinegara","is_transit":true,"distance":3395,"transit":false,"line":0,"station_id":"JNG","time":3,"i_long":106.86807400000001},{"i_long":106.858896,"line":1,"is_transit":false,"time":2,"station_id":"MTR","station_name":"Matraman","distance":1377,"i_lat":-6.212485,"transit":false},{"line":0,"station_id":"MRI","i_long":106.84912,"is_transit":true,"station_name":"Manggarai","distance":1275,"time":2,"transit":true,"i_lat":-6.209883},{"is_transit":false,"time":4,"i_long":106.840169,"station_name":"Cikini","transit":false,"station_id":"CKI","distance":1590,"line":0,"i_lat":-6.198556},{"station_name":"Gondangdia","station_id":"GDD","transit":false,"is_transit":false,"i_lat":-6.186295,"distance":1750,"i_long":106.832183,"time":3,"line":2},{"station_name":"Juanda","line":2,"is_transit":false,"time":4,"distance":2015,"i_long":106.828284,"transit":false,"i_lat":-6.166716,"station_id":"JUA"},{"line":2,"is_transit":false,"time":2,"i_long":106.827103,"transit":false,"i_lat":-6.160725,"station_id":"SW","distance":1149,"station_name":"Sawah Besar"},{"time":2,"i_long":106.82482,"line":2,"distance":906,"transit":false,"station_name":"Manggabesar","i_lat":-6.149769,"station_id":"MGB","is_transit":false},{"i_long":106.820901,"time":2,"is_transit":false,"station_name":"Jayakarta","distance":1080,"transit":false,"line":7,"station_id":"JAY","i_lat":-6.141205},{"station_id":"JAKK","i_lat":-6.137569,"is_transit":true,"transit":true,"i_long":106.812439,"station_name":"Jakarta Kota","distance":1264,"line":0,"time":4},{"distance":1364,"transit":false,"time":3,"station_name":"Kampung Bandan","i_lat":-6.132549,"is_transit":true,"i_long":106.826365,"station_id":"KPB","line":0},{"station_id":"AK","station_name":"Angke","i_lat":-6.144674,"i_long":106.79867,"transit":false,"is_transit":false,"time":9,"distance":4102,"line":0},{"is_transit":true,"station_id":"DU","distance":1230,"line":1,"i_lat":-6.155215,"transit":true,"station_name":"Duri","time":4,"i_long":106.800832},{"i_lat":-6.162021,"time":3,"station_id":"GGL","station_name":"Grogol","is_transit":false,"distance":1700,"transit":false,"i_long":106.788277,"line":5},{"is_transit":false,"station_id":"PSG","time":2,"i_long":106.771379,"distance":2036,"station_name":"Pesing","line":5,"transit":false,"i_lat":-6.161433},{"station_name":"Taman Kota","station_id":"TKO","is_transit":false,"i_long":106.756522,"line":5,"distance":1614,"transit":false,"i_lat":-6.1587309999999995,"time":2},{"station_id":"BOI","i_lat":-6.159876,"station_name":"Bojongindah","distance":2334,"i_long":106.737035,"time":2,"is_transit":false,"transit":false,"line":0}],[{"station_id":"CKR","transit":false,"station_name":"Cikarang","distance":0,"is_transit":false,"i_lat":-6.2553149999999995,"i_long":107.144613,"time":0,"line":0},{"station_name":"Metland Telaga Murni","i_long":107.093313,"time":4,"i_lat":-6.262938,"line":1,"distance":3689,"transit":false,"is_transit":false,"station_id":"TLM"},{"station_id":"CIT","station_name":"Cibitung","is_transit":false,"transit":false,"line":0,"distance":2800,"time":2,"i_long":107.083084,"i_lat":-6.261877},{"station_name":"Tambun","station_id":"TB","i_long":107.055722,"is_transit":false,"time":3,"i_lat":-6.258864,"transit":false,"line":1,"distance":3420},{"line":0,"i_lat":-6.248029,"time":7,"station_name":"Bekasi Timur","transit":false,"is_transit":false,"station_id":"BKST","i_long":107.016735,"distance":4460},{"time":2,"i_lat":-6.236616,"line":0,"station_name":"Bekasi","station_id":"BKS","i_long":106.997013,"distance":2368,"is_transit":false,"transit":false},{"i_long":106.977657,"time":4,"is_transit":false,"line":1,"i_lat":-6.224515,"distance":2520,"station_name":"Kranji","transit":false,"station_id":"KRI"},{"transit":false,"is_transit":false,"line":0,"station_id":"CUK","station_name":"Cakung","time":3,"i_long":106.951283,"i_lat":-6.219053,"distance":3097},{"i_long":106.939679,"station_name":"Klenderbaru","distance":1385,"line":1,"is_transit":false,"transit":false,"time":8,"i_lat":-6.217455,"station_id":"KLDB"},{"i_lat":-6.215568,"is_transit":false,"transit":false,"station_name":"Buaran","time":1,"distance":1305,"i_long":106.922662,"station_id":"BUA","line":0},{"time":2,"is_transit":false,"transit":false,"station_name":"Klender","line":1,"distance":3100,"i_long":106.899548,"station_id":"KLD","i_lat":-6.2135},{"station_id":"JNG","is_transit":true,"time":3,"i_long":106.86807400000001,"station_name":"Jatinegara","distance":3395,"i_lat":-6.215091,"transit":true,"line":0},{"i_long":106.861737,"line":11,"transit":false,"time":2,"distance":1236,"station_id":"POK","is_transit":false,"station_name":"Pondok Jati","i_lat":-6.209188},{"i_lat":-6.193792,"line":11,"time":2,"station_id":"KMT","station_name":"Kramat","is_transit":false,"distance":1829,"i_long":106.855437,"transit":false},{"i_lat":-6.185975,"time":1,"is_transit":false,"transit":false,"station_name":"Gang Sentiong","station_id":"GST","i_long":106.850107,"line":11,"distance":973},{"i_long":106.84368,"station_name":"Pasar Senen","transit":false,"station_id":"PSE","i_lat":-6.174784,"line":11,"time":8,"distance":1567,"is_transit":false},{"line":11,"distance":1436,"is_transit":false,"station_id":"KMO","time":4,"station_name":"Kemayoran","i_lat":-6.161728,"transit":false,"i_long":106.839204},{"distance":1901,"is_transit":false,"station_id":"RJW","station_name":"Rajawali","transit":false,"time":5,"i_lat":-6.14505,"line":11,"i_long":106.836569},{"is_transit":true,"distance":1444,"station_id":"KPB","station_name":"Kampung Bandan","time":3,"i_long":106.826365,"i_lat":-6.132549,"line":0,"transit":true},{"line":0,"station_name":"Jakarta Kota","time":3,"i_lat":-6.137569,"distance":1364,"station_id":"JAKK","is_transit":true,"transit":true,"i_long":106.812439},{"transit":false,"i_long":106.820901,"i_lat":-6.141205,"line":7,"time":4,"station_id":"JAY","station_name":"Jayakarta","is_transit":false,"distance":1264},{"time":2,"station_name":"Manggabesar","transit":false,"i_lat":-6.149769,"distance":1080,"is_transit":false,"i_long":106.82482,"line":2,"station_id":"MGB"},{"line":2,"station_id":"SW","transit":false,"station_name":"Sawah Besar","i_lat":-6.160725,"i_long":106.827103,"is_transit":false,"distance":906,"time":2},{"station_id":"JUA","line":2,"distance":1149,"i_long":106.828284,"station_name":"Juanda","transit":false,"time":2,"is_transit":false,"i_lat":-6.166716},{"i_long":106.832183,"distance":2015,"line":2,"is_transit":false,"transit":false,"station_name":"Gondangdia","time":4,"station_id":"GDD","i_lat":-6.186295},{"station_name":"Cikini","i_lat":-6.198556,"i_long":106.840169,"station_id":"CKI","is_transit":false,"time":3,"transit":false,"line":0,"distance":1750},{"is_transit":true,"time":4,"station_name":"Manggarai","i_lat":-6.209883,"line":0,"transit":true,"distance":1590,"i_long":106.84912,"station_id":"MRI"},{"station_id":"SUD","i_long":106.822649,"time":4,"is_transit":false,"transit":false,"distance":3186,"line":1,"station_name":"Sudirman","i_lat":-6.202263},{"transit":false,"is_transit":false,"distance":280,"i_lat":-6.201433,"line":1,"i_long":106.819881,"station_id":"SUDB","time":1,"station_name":"Sudirman Baru"},{"transit":false,"station_id":"KAT","time":1,"line":1,"distance":471,"i_lat":-6.20132,"station_name":"Karet","is_transit":false,"i_long":106.816351},{"station_id":"THB","transit":false,"i_long":106.811091,"i_lat":-6.185545,"line":1,"distance":2029,"station_name":"Tanah Abang","is_transit":true,"time":5},{"line":1,"i_long":106.800832,"station_id":"DU","transit":true,"distance":3632,"time":8,"i_lat":-6.155215,"station_name":"Duri","is_transit":true},{"time":3,"distance":1700,"transit":false,"i_long":106.788277,"station_name":"Grogol","line":5,"station_id":"GGL","is_transit":false,"i_lat":-6.162021},{"station_id":"PSG","transit":false,"i_long":106.771379,"line":5,"station_name":"Pesing","distance":2036,"i_lat":-6.161433,"is_transit":false,"time":2},{"time":2,"is_transit":false,"transit":false,"i_lat":-6.1587309999999995,"line":5,"station_id":"TKO","distance":1614,"station_name":"Taman Kota","i_long":106.756522},{"is_transit":false,"station_name":"Bojongindah","transit":false,"time":2,"i_long":106.737035,"station_id":"BOI","i_lat":-6.159876,"line":0,"distance":2334}]]}