{"data":[[{"line":0,"time":0,"station_id":"CKR","station_name":"Cikarang","distance":0,"transit":false,"i_lat":-6.2553149999999995,"is_transit":false,"i_long":107.144613},{"transit":false,"is_transit":false,"distance":3689,"i_lat":-6.262938,"station_name":"Metland Telaga Murni","station_id":"TLM","time":4,"i_long":107.093313,"line":1},{"time":2,"transit":false,"distance":2800,"i_long":107.083084,"station_name":"Cibitung","station_id":"CIT","is_transit":false,"i_lat":-6.261877,"line":0},{"line":1,"station_name":"Tambun","i_lat":-6.258864,"distance":3420,"is_transit":false,"station_id":"TB","time":3,"i_long":107.055722,"transit":false},{"station_id":"BKST","i_lat":-6.248029,"line":0,"i_long":107.016735,"station_name":"Bekasi Timur","distance":4460,"time":7,"is_transit":false,"transit":false},{"station_id":"BKS","is_transit":false,"transit":false,"i_long":106.997013,"line":0,"station_name":"Bekasi","i_lat":-6.236616,"distance":2368,"time":2},{"distance":2520,"i_long":106.977657,"is_transit":false,"transit":false,"time":4,"station_id":"KRI","i_lat":-6.224515,"line":1,"station_name":"Kranji"},{"line":0,"is_transit":false,"time":3,"station_id":"CUK","distance":3097,"station_name":"Cakung","i_lat":-6.219053,"i_long":106.951283,"transit":false},{"time":8,"station_id":"KLDB","distance":1385,"line":1,"station_name":"Klenderbaru","i_long":106.939679,"is_transit":false,"i_lat":-6.217455,"transit":false},{"is_transit":false,"time":1,"i_lat":-6.215568,"i_long":106.922662,"station_id":"BUA","transit":false,"line":0,"distance":1305,"station_name":"Buaran"},{"i_long":106.899548,"line":1,"station_name":"Klender","transit":false,"is_transit":false,"station_id":"KLD","i_lat":-6.2135,"time":2,"distance":3100},{"station_name":"Jatinegara","is_transit":true,"transit":false,"time":3,"line":0,"i_long":106.86807400000001,"station_id":"JNG","distance":3395,"i_lat":-6.215091},{"is_transit":false,"i_lat":-6.212485,"i_long":106.858896,"time":2,"line":1,"distance":1377,"transit":false,"station_name":"Matraman","station_id":"MTR"},{"distance":1275,"transit":false,"is_transit":true,"station_id":"MRI","time":2,"i_lat":-6.209883,"i_long":106.84912,"line":0,"station_name":"Manggarai"},{"transit":false,"time":4,"station_id":"SUD","i_lat":-6.202263,"i_long":106.822649,"station_name":"Sudirman","is_transit":false,"line":1,"distance":3186},{"distance":280,"transit":false,"station_id":"SUDB","station_name":"Sudirman Baru","i_long":106.819881,"line":1,"i_lat":-6.201433,"time":1,"is_transit":false},{"time":1,"is_transit":false,"transit":false,"line":1,"station_name":"Karet","station_id":"KAT","distance":471,"i_lat":-6.20132,"i_long":106.816351},{"station_id":"THB","i_long":106.811091,"is_transit":true,"transit":false,"i_lat":-6.185545,"station_name":"Tanah Abang","distance":2029,"line":1,"time":5},{"i_lat":-6.155215,"i_long":106.800832,"station_id":"DU","distance":3632,"station_name":"Duri","time":8,"is_transit":true,"line":1,"transit":true},{"i_long":106.788277,"station_name":"Grogol","distance":1700,"transit":false,"time":3,"is_transit":false,"station_id":"GGL","i_lat":-6.162021,"line":5},{"station_name":"Pesing","i_lat":-6.161433,"distance":2036,"i_long":106.771379,"time":2,"station_id":"PSG","is_transit":false,"transit":false,"line":5},{"line":5,"is_transit":false,"time":2,"station_name":"Taman Kota","transit":false,"station_id":"TKO","distance":1614,"i_lat":-6.1587309999999995,"i_long":106.756522},{"station_name":"Bojongindah","distance":2334,"is_transit":false,"i_long":106.737035,"transit":false,"i_lat":-6.159876,"line":0,"station_id":"BOI","time":2},{"time":4,"is_transit":false,"transit":false,"station_id":"RW","i_long":106.723064,"line":5,"distance":1152,"i_lat":-6.162758,"station_name":"Rawa Buaya"}],[{"is_transit":false,"station_id":"CKR","time":0,"i_lat":-6.2553149999999995,"line":0,"station_name":"Cikarang","transit":false,"distance":0,"i_long":107.144613},{"station_name":"Metland Telaga Murni","distance":3689,"i_lat":-6.262938,"line":1,"i_long":107.093313,"transit":false,"time":4,"station_id":"TLM","is_transit":false},{"transit":false,"station_id":"CIT","i_lat":-6.261877,"i_long":107.083084,"line":0,"is_transit":false,"station_name":"Cibitung","distance":2800,"time":2},{"i_lat":-6.258864,"station_name":"Tambun","i_long":107.055722,"distance":3420,"line":1,"time":3,"station_id":"TB","is_transit":false,"transit":false},{"i_long":107.016735,"is_transit":false,"distance":4460,"station_name":"Bekasi Timur","i_lat":-6.248029,"transit":false,"time":7,"station_id":"BKST","line":0},{"station_name":"Bekasi","station_id":"BKS","time":2,"line":0,"is_transit":false,"transit":false,"distance":2368,"i_lat":-6.236616,"i_long":106.997013},{"distance":2520,"time":4,"station_id":"KRI","is_transit":false,"i_long":106.977657,"station_name":"Kranji","line":1,"transit":false,"i_lat":-6.224515},{"line":0,"distance":3097,"i_long":106.951283,"is_transit":false,"station_name":"Cakung","time":3,"transit":false,"station_id":"CUK","i_lat":-6.219053},{"station_name":"Klenderbaru","station_id":"KLDB","transit":false,"distance":1385,"i_long":106.939679,"line":1,"time":8,"is_transit":false,"i_lat":-6.217455},{"station_id":"BUA","i_long":106.922662,"time":1,"distance":1305,"line":0,"transit":false,"i_lat":-6.215568,"is_transit":false,"station_name":"Buaran"},{"is_transit":false,"time":2,"station_id":"KLD","station_name":"Klender","distance":3100,"i_lat":-6.2135,"i_long":106.899548,"transit":false,"line":1},{"station_id":"JNG","i_long":106.86807400000001,"distance":3395,"line":0,"time":3,"station_name":"Jatinegara","transit":true,"i_lat":-6.215091,"is_transit":true},{"line":11,"is_transit":false,"transit":false,"i_long":106.861737,"time":2,"i_lat":-6.209188,"station_id":"POK","distance":1236,"station_name":"Pondok Jati"},{"i_long":106.855437,"station_id":"KMT","station_name":"Kramat","is_transit":false,"distance":1829,"transit":false,"i_lat":-6.193792,"line":11,"time":2},{"i_lat":-6.185975,"line":11,"distance":973,"time":1,"is_transit":false,"transit":false,"i_long":106.850107,"station_id":"GST","station_name":"Gang Sentiong"},{"is_transit":false,"line":11,"distance":1567,"station_name":"Pasar Senen","i_lat":-6.174784,"i_long":106.84368,"station_id":"PSE","transit":false,"time":8},{"station_id":"KMO","line":11,"i_long":106.839204,"distance":1436,"i_lat":-6.161728,"time":4,"station_name":"Kemayoran","transit":false,"is_transit":false},{"i_lat":-6.14505,"station_name":"Rajawali","time":5,"is_transit":false,"i_long":106.836569,"station_id":"RJW","line":11,"distance":1901,"transit":false},{"station_id":"KPB","is_transit":true,"i_lat":-6.132549,"transit":true,"distance":1444,"station_name":"Kampung Bandan","time":3,"i_long":106.826365,"line":0},{"time":9,"station_id":"AK","distance":4102,"i_long":106.79867,"is_transit":false,"i_lat":-6.144674,"transit":false,"line":0,"station_name":"Angke"},{"i_long":106.800832,"transit":true,"i_lat":-6.155215,"station_name":"Duri","distance":1230,"is_transit":true,"station_id":"DU","line":1,"time":4},{"station_name":"Grogol","time":3,"is_transit":false,"distance":1700,"line":5,"transit":false,"i_long":106.788277,"station_id":"GGL","i_lat":-6.162021},{"time":2,"station_id":"PSG","is_transit":false,"distance":2036,"i_long":106.771379,"transit":false,"line":5,"i_lat":-6.161433,"station_name":"Pesing"},{"distance":1614,"i_long":106.756522,"station_id":"TKO","transit":false,"line":5,"time":2,"station_name":"Taman Kota","i_lat":-6.1587309999999995,"is_transit":false},{"time":2,"is_transit":false,"station_id":"BOI","distance":2334,"i_long":106.737035,"line":0,"i_lat":-6.159876,"station_name":"Bojongindah","transit":false},{"is_transit":false,"station_name":"Rawa Buaya","transit":false,"time":4,"line":5,"i_long":106.723064,"i_lat":-6.162758,"station_id":"RW","distance":1152}],[{"line":0,"station_id":"CKR","station_name":"Cikarang","is_transit":false,"distance":0,"transit":false,"i_long":107.144613,"i_lat":-6.2553149999999995,"time":0},{"line":1,"is_transit":false,"station_name":"Metland Telaga Murni","distance":3689,"i_lat":-6.262938,"time":4,"transit":false,"i_long":107.093313,"station_id":"TLM"},{"i_lat":-6.261877,"station_name":"Cibitung","is_transit":false,"time":2,"distance":2800,"station_id":"CIT","i_long":107.083084,"line":0,"transit":false},{"is_transit":false,"line":1,"station_name":"Tambun","time":3,"i_long":107.055722,"station_id":"TB","transit":false,"distance":3420,"i_lat":-6.258864},{"transit":false,"i_lat":-6.248029,"distance":4460,"station_id":"BKST","i_long":107.016735,"station_name":"Bekasi Timur","time":7,"line":0,"is_transit":false},{"station_id":"BKS","transit":false,"i_lat":-6.236616,"i_long":106.997013,"time":2,"is_transit":false,"station_name":"Bekasi","distance":2368,"line":0},{"i_lat":-6.224515,"i_long":106.977657,"time":4,"transit":false,"station_id":"KRI","line":1,"is_transit":false,"distance":2520,"station_name":"Kranji"},{"line":0,"i_long":106.951283,"station_id":"CUK","station_name":"Cakung","transit":false,"is_transit":false,"time":3,"distance":3097,"i_lat":-6.219053},{"transit":false,"station_id":"KLDB","i_lat":-6.217455,"i_long":106.939679,"line":1,"station_name":"Klenderbaru","time":8,"is_transit":false,"distance":1385},{"line":0,"distance":1305,"station_id":"BUA","i_lat":-6.215568,"time":1,"transit":false,"i_long":106.922662,"is_transit":false,"station_name":"Buaran"},{"i_lat":-6.2135,"distance":3100,"is_transit":false,"station_name":"Klender","i_long":106.899548,"station_id":"KLD","line":1,"time":2,"transit":false},{"i_lat":-6.215091,"is_transit":true,"i_long":106.86807400000001,"distance":3395,"line":0,"station_id":"JNG","time":3,"transit":false,"station_name":"Jatinegara"},{"time":2,"is_transit":false,"transit":false,"i_lat":-6.212485,"i_long":106.858896,"line":1,"station_id":"MTR","station_name":"Matraman","distance":1377},{"station_name":"Manggarai","is_transit":true,"station_id":"MRI","transit":true,"time":2,"distance":1275,"i_lat":-6.209883,"i_long":106.84912,"line":0},{"i_long":106.840169,"line":0,"station_id":"CKI","transit":false,"is_transit":false,"distance":1590,"time":4,"i_lat":-6.198556,"station_name":"Cikini"},{"is_transit":false,"i_long":106.832183,"i_lat":-6.186295,"station_id":"GDD","time":3,"distance":1750,"station_name":"Gondangdia","line":2,"transit":false},{"i_lat":-6.166716,"is_transit":false,"distance":2015,"transit":false,"i_long":106.828284,"time":4,"station_id":"JUA","station_name":"Juanda","line":2},{"time":2,"station_id":"SW","is_transit":false,"i_long":106.827103,"i_lat":-6.160725,"transit":false,"line":2,"station_name":"Sawah Besar","distance":1149},{"distance":906,"is_transit":false,"i_lat":-6.149769,"station_id":"MGB","i_long":106.82482,"station_name":"Manggabesar","line":2,"transit":false,"time":2},{"distance":1080,"i_lat":-6.141205,"line":7,"i_long":106.820901,"is_transit":false,"transit":false,"time":2,"station_id":"JAY","station_name":"Jayakarta"},{"i_long":106.812439,"is_transit":true,"station_id":"JAKK","distance":1264,"transit":true,"i_lat":-6.137569,"line":0,"station_name":"Jakarta Kota","time":4},{"time":3,"distance":1364,"i_lat":-6.132549,"i_long":106.826365,"is_transit":true,"station_id":"KPB","transit":false,"station_name":"Kampung Bandan","line":0},{"station_name":"Angke","i_long":106.79867,"line":0,"transit":false,"distance":4102,"i_lat":-6.144674,"time":9,"is_transit":false,"station_id":"AK"},{"line":1,"is_transit":true,"station_id":"DU","station_name":"Duri","distance":1230,"i_long":106.800832,"transit":true,"i_lat":-6.155215,"time":4},{"station_id":"GGL","station_name":"Grogol","time":3,"distance":1700,"i_long":106.788277,"line":5,"transit":false,"i_lat":-6.162021,"is_transit":false},{"i_lat":-6.161433,"i_long":106.771379,"distance":2036,"is_transit":false,"transit":false,"line":5,"station_id":"PSG","time":2,"station_name":"Pesing"},{"transit":false,"time":2,"station_name":"Taman Kota","distance":1614,"i_long":106.756522,"i_lat":-6.1587309999999995,"line":5,"station_id":"TKO","is_transit":false},{"i_lat":-6.159876,"is_transit":false,"station_name":"Bojongindah","i_long":106.737035,"station_id":"BOI","time":2,"distance":2334,"transit":false,"line":0},{"transit":false,"i_long":106.723064,"distance":1152,"station_id":"RW","i_lat":-6.162758,"line":5,"is_transit":false,"station_name":"Rawa Buaya","time":4}],[{"station_name":"Cikarang","i_lat":-6.2553149999999995,"i_long":107.144613,"station_id":"CKR","time":0,"is_transit":false,"line":0,"transit":false,"distance":0},{"line":1,"transit":false,"station_name":"Metland Telaga Murni","is_transit":false,"distance":3689,"time":4,"station_id":"TLM","i_long":107.093313,"i_lat":-6.262938},{"station_name":"Cibitung","line":0,"station_id":"CIT","is_transit":false,"distance":2800,"transit":false,"i_lat":-6.261877,"i_long":107.083084,"time":2},{"transit":false,"i_long":107.055722,"is_transit":false,"station_id":"TB","distance":3420,"i_lat":-6.258864,"station_name":"Tambun","time":3,"line":1},{"station_name":"Bekasi Timur","distance":4460,"i_lat":-6.248029,"station_id":"BKST","time":7,"transit":false,"i_long":107.016735,"is_transit":false,"line":0},{"station_id":"BKS","is_transit":false,"transit":false,"line":0,"distance":2368,"i_long":106.997013,"time":2,"station_name":"Bekasi","i_lat":-6.236616},{"i_long":106.977657,"station_id":"KRI","distance":2520,"transit":false,"line":1,"station_name":"Kranji","time":4,"is_transit":false,"i_lat":-6.224515},{"station_id":"CUK","i_lat":-6.219053,"i_long":106.951283,"line":0,"station_name":"Cakung","is_transit":false,"time":3,"transit":false,"distance":3097},{"station_name":"Klenderbaru","station_id":"KLDB","is_transit":false,"transit":false,"line":1,"distance":1385,"time":8,"i_lat":-6.217455,"i_long":106.939679},{"transit":false,"i_long":106.922662,"station_id":"BUA","station_name":"Buaran","is_transit":false,"line":0,"distance":1305,"i_lat":-6.215568,"time":1},{"i_lat":-6.2135,"i_long":106.899548,"line":1,"distance":3100,"station_id":"KLD","transit":false,"station_name":"Klender","time":2,"is_transit":false},{"station_name":"Jatinegara","transit":true,"line":0,"i_lat":-6.215091,"i_long":106.86807400000001,"time":3,"station_id":"JNG","is_transit":true,"distance":3395},{"time":2,"station_id":"POK","distance":1236,"i_lat":-6.209188,"line":11,"station_name":"Pondok Jati","i_long":106.861737,"transit":false,"is_transit":false},{"station_name":"Kramat","distance":1829,"line":11,"transit":false,"i_lat":-6.193792,"station_id":"KMT","is_transit":false,"time":2,"i_long":106.855437},{"time":1,"distance":973,"i_long":106.850107,"station_id":"GST","i_lat":-6.185975,"line":11,"is_transit":false,"transit":false,"station_name":"Gang Sentiong"},{"i_long":106.84368,"transit":false,"time":8,"i_lat":-6.174784,"line":11,"is_transit":false,"station_id":"PSE","station_name":"Pasar Senen","distance":1567},{"distance":1436,"station_id":"KMO","i_lat":-6.161728,"station_name":"Kemayoran","transit":false,"time":4,"line":11,"i_long":106.839204,"is_transit":false},{"station_id":"RJW","is_transit":false,"i_lat":-6.14505,"transit":false,"station_name":"Rajawali","line":11,"distance":1901,"time":5,"i_long":106.836569},{"i_lat":-6.132549,"i_long":106.826365,"transit":true,"distance":1444,"line":0,"time":3,"station_name":"Kampung Bandan","station_id":"KPB","is_transit":true},{"station_id":"JAKK","distance":1364,"transit":true,"i_lat":-6.137569,"is_transit":true,"station_name":"Jakarta Kota","time":3,"line":0,"i_long":106.812439},{"is_transit":false,"transit":false,"line":7,"distance":1264,"station_id":"JAY","i_long":106.820901,"station_name":"Jayakarta","time":4,"i_lat":-6.141205},{"station_name":"Manggabesar","i_long":106.82482,"distance":1080,"transit":false,"time":2,"i_lat":-6.149769,"line":2,"station_id":"MGB","is_transit":false},{"is_transit":false,"time":2,"distance":906,"station_name":"Sawah Besar","transit":false,"i_lat":-6.160725,"station_id":"SW","i_long":106.827103,"line":2},{"i_lat":-6.166716,"station_id":"JUA","time":2,"line":2,"transit":false,"i_long":106.828284,"distance":1149,"station_name":"Juanda","is_transit":false},{"i_lat":-6.186295,"time":4,"transit":false,"is_transit":false,"i_long":106.832183,"distance":2015,"station_id":"GDD","line":2,"station_name":"Gondangdia"},{"i_long":106.840169,"distance":1750,"is_transit":false,"line":0,"time":3,"transit":false,"i_lat":-6.198556,"station_name":"Cikini","station_id":"CKI"},{"i_long":106.84912,"is_transit":true,"station_name":"Manggarai","line":0,"distance":1590,"station_id":"MRI","transit":true,"time":4,"i_lat":-6.209883},{"transit":false,"station_name":"Sudirman","time":4,"station_id":"SUD","distance":3186,"line":1,"i_lat":-6.202263,"i_long":106.822649,"is_transit":false},{"is_transit":false,"station_name":"Sudirman Baru","distance":280,"line":1,"i_lat":-6.201433,"station_id":"SUDB","i_long":106.819881,"transit":false,"time":1},{"i_long":106.816351,"line":1,"distance":471,"station_id":"KAT","time":1,"transit":false,"i_lat":-6.20132,"station_name":"Karet","is_transit":false},{"station_name":"Tanah Abang","transit":false,"station_id":"THB","time":5,"line":1,"is_transit":true,"i_long":106.811091,"i_lat":-6.185545,"distance":2029},{"line":1,"station_name":"Duri","i_long":106.800832,"station_id":"DU","transit":true,"time":8,"distance":3632,"is_transit":true,"i_lat":-6.155215},{"line":5,"time":3,"i_long":106.788277,"station_name":"Grogol","is_transit":false,"distance":1700,"transit":false,"station_id":"GGL","i_lat":-6.162021},{"transit":false,"distance":2036,"station_id":"PSG","i_lat":-6.161433,"is_transit":false,"station_name":"Pesing","i_long":106.771379,"time":2,"line":5},{"i_lat":-6.1587309999999995,"time":2,"distance":1614,"i_long":106.756522,"station_id":"TKO","line":5,"transit":false,"station_name":"Taman Kota","is_transit":false},{"line":0,"time":2,"station_name":"Bojongindah","is_transit":false,"station_id":"BOI","distance":2334,"i_lat":-6.159876,"i_long":106.737035,"transit":false},{"time":4,"line":5,"station_name":"Rawa Buaya","i_lat":-6.162758,"station_id":"RW","transit":false,"i_long":106.723064,"distance":1152,"is_transit":false}]]}