{"data":[[{"station_name":"Cikarang","i_long":107.144613,"i_lat":-6.2553149999999995,"time":0,"distance":0,"station_id":"CKR","is_transit":false,"transit":false,"line":1},{"i_long":107.093313,"line":1,"station_name":"Metland Telaga Murni","transit":false,"station_id":"TLM","i_lat":-6.262938,"time":4,"distance":3689,"is_transit":false},{"i_lat":-6.261877,"station_id":"CIT","distance":2800,"station_name":"Cibitung","time":2,"transit":false,"i_long":107.083084,"is_transit":false,"line":1},{"distance":3420,"transit":false,"i_long":107.055722,"station_id":"TB","time":3,"i_lat":-6.258864,"line":1,"is_transit":false,"station_name":"Tambun"},{"line":1,"time":7,"is_transit":false,"transit":false,"station_id":"BKST","i_long":107.016735,"i_lat":-6.248029,"distance":4460,"station_name":"Bekasi Timur"},{"distance":2368,"station_id":"BKS","time":2,"station_name":"Bekasi","transit":false,"i_lat":-6.236616,"i_long":106.997013,"is_transit":false,"line":1},{"is_transit":false,"transit":false,"line":1,"station_id":"KRI","i_lat":-6.224515,"station_name":"Kranji","distance":2520,"i_long":106.977657,"time":4},{"time":3,"distance":3097,"station_id":"CUK","station_name":"Cakung","i_lat":-6.219053,"line":1,"transit":false,"is_transit":false,"i_long":106.951283},{"line":1,"transit":false,"station_name":"Klenderbaru","time":8,"station_id":"KLDB","i_long":106.939679,"is_transit":false,"i_lat":-6.217455,"distance":1385},{"station_name":"Buaran","distance":1305,"i_long":106.922662,"time":1,"i_lat":-6.215568,"station_id":"BUA","is_transit":false,"line":1,"transit":false},{"i_long":106.899548,"line":1,"transit":false,"station_id":"KLD","station_name":"Klender","is_transit":false,"i_lat":-6.2135,"time":2,"distance":3100},{"time":3,"distance":3395,"station_id":"JNG","station_name":"Jatinegara","is_transit":false,"transit":false,"i_lat":-6.215091,"i_long":106.86807400000001,"line":1},{"station_id":"MTR","i_long":106.858896,"i_lat":-6.212485,"is_transit":false,"transit":false,"line":1,"station_name":"Matraman","time":2,"distance":1377},{"is_transit":false,"time":2,"distance":1275,"station_id":"MRI","transit":false,"i_lat":-6.209883,"i_long":106.84912,"line":2,"station_name":"Manggarai"},{"station_id":"SUD","is_transit":false,"line":1,"time":4,"i_lat":-6.202263,"distance":3186,"i_long":106.822649,"station_name":"Sudirman","transit":false},{"station_name":"Sudirman Baru","transit":false,"time":1,"station_id":"SUDB","is_transit":false,"i_lat":-6.201433,"i_long":106.819881,"line":1,"distance":280},{"transit":false,"i_lat":-6.20132,"i_long":106.816351,"is_transit":false,"line":1,"station_name":"Karet","time":1,"distance":471,"station_id":"KAT"},{"i_lat":-6.185545,"time":5,"transit":true,"distance":2029,"line":1,"station_id":"THB","is_transit":true,"i_long":106.811091,"station_name":"Tanah Abang"},{"station_name":"Palmerah","distance":3191,"transit":false,"time":6,"station_id":"PLM","i_lat":-6.207404,"i_long":106.79689,"line":6,"is_transit":false},{"is_transit":false,"time":7,"station_id":"KBY","i_long":106.780334,"distance":3737,"line":6,"i_lat":-6.237242,"transit":false,"station_name":"Kebayoran"},{"station_name":"Pondokranji","i_long":106.74273,"is_transit":false,"time":8,"station_id":"PDJ","transit":false,"i_lat":-6.276362,"distance":6218,"line":6},{"station_id":"JMU","time":3,"line":6,"is_transit":false,"i_lat":-6.288927,"i_long":106.728916,"transit":false,"station_name":"Jurangmangu","distance":2179},{"station_name":"Sudimara","is_transit":false,"i_long":106.712277,"line":6,"transit":false,"i_lat":-6.296963,"time":4,"station_id":"SDM","distance":1994},{"time":6,"station_id":"RU","line":6,"i_long":106.675475,"is_transit":false,"distance":4566,"transit":false,"station_name":"Rawa Buntu","i_lat":-6.314823},{"line":6,"i_lat":-6.319871,"i_long":106.66566,"station_id":"SRP","transit":false,"is_transit":false,"station_name":"Serpong","time":4,"distance":2413},{"is_transit":false,"line":3,"distance":1784,"i_long":106.640411,"time":4,"transit":false,"station_id":"CSK","i_lat":-6.32484,"station_name":"Cisauk"}],[{"i_long":107.144613,"line":1,"station_name":"Cikarang","station_id":"CKR","time":0,"transit":false,"distance":0,"is_transit":false,"i_lat":-6.2553149999999995},{"is_transit":false,"transit":false,"distance":3689,"time":4,"station_id":"TLM","i_long":107.093313,"i_lat":-6.262938,"line":1,"station_name":"Metland Telaga Murni"},{"is_transit":false,"time":2,"i_lat":-6.261877,"line":1,"transit":false,"station_name":"Cibitung","i_long":107.083084,"station_id":"CIT","distance":2800},{"distance":3420,"i_lat":-6.258864,"transit":false,"station_name":"Tambun","is_transit":false,"time":3,"station_id":"TB","i_long":107.055722,"line":1},{"i_long":107.016735,"station_name":"Bekasi Timur","station_id":"BKST","line":1,"is_transit":false,"distance":4460,"time":7,"transit":false,"i_lat":-6.248029},{"time":2,"i_lat":-6.236616,"is_transit":false,"line":1,"transit":false,"i_long":106.997013,"station_id":"BKS","distance":2368,"station_name":"Bekasi"},{"line":1,"i_lat":-6.224515,"time":4,"is_transit":false,"transit":false,"station_name":"Kranji","distance":2520,"station_id":"KRI","i_long":106.977657},{"station_id":"CUK","time":3,"distance":3097,"i_lat":-6.219053,"line":1,"i_long":106.951283,"is_transit":false,"station_name":"Cakung","transit":false},{"distance":1385,"time":8,"transit":false,"station_name":"Klenderbaru","station_id":"KLDB","is_transit":false,"i_lat":-6.217455,"line":1,"i_long":106.939679},{"line":1,"i_long":106.922662,"is_transit":false,"time":1,"station_id":"BUA","station_name":"Buaran","i_lat":-6.215568,"transit":false,"distance":1305},{"transit":false,"distance":3100,"i_long":106.899548,"station_id":"KLD","time":2,"line":1,"i_lat":-6.2135,"is_transit":false,"station_name":"Klender"},{"station_id":"JNG","time":3,"distance":3395,"i_lat":-6.215091,"is_transit":true,"i_long":106.86807400000001,"station_name":"Jatinegara","line":1,"transit":true},{"station_name":"Pondok Jati","station_id":"POK","transit":false,"i_lat":-6.209188,"time":2,"i_long":106.861737,"distance":1236,"line":11,"is_transit":false},{"distance":1829,"i_lat":-6.193792,"station_name":"Kramat","line":11,"transit":false,"station_id":"KMT","time":2,"i_long":106.855437,"is_transit":false},{"line":11,"station_id":"GST","transit":false,"distance":973,"i_long":106.850107,"station_name":"Gang Sentiong","is_transit":false,"time":1,"i_lat":-6.185975},{"station_id":"PSE","transit":false,"is_transit":false,"distance":1567,"i_long":106.84368,"station_name":"Pasar Senen","time":8,"line":11,"i_lat":-6.174784},{"station_name":"Kemayoran","line":11,"transit":false,"is_transit":false,"time":4,"distance":1436,"i_lat":-6.161728,"station_id":"KMO","i_long":106.839204},{"is_transit":false,"time":5,"i_long":106.836569,"station_id":"RJW","i_lat":-6.14505,"distance":1901,"line":11,"transit":false,"station_name":"Rajawali"},{"station_name":"Kampung Bandan","station_id":"KPB","i_lat":-6.132549,"time":3,"i_long":106.826365,"line":4,"is_transit":true,"distance":1444,"transit":true},{"line":1,"is_transit":false,"station_id":"AK","time":9,"i_long":106.79867,"i_lat":-6.144674,"transit":false,"distance":4102,"station_name":"Angke"},{"station_id":"DU","distance":1230,"time":4,"station_name":"Duri","line":1,"is_transit":false,"i_lat":-6.155215,"i_long":106.800832,"transit":false},{"station_name":"Tanah Abang","transit":true,"station_id":"THB","i_long":106.811091,"line":1,"is_transit":true,"time":8,"i_lat":-6.185545,"distance":3632},{"i_long":106.79689,"i_lat":-6.207404,"is_transit":false,"station_name":"Palmerah","time":6,"station_id":"PLM","distance":3191,"line":6,"transit":false},{"i_long":106.780334,"station_name":"Kebayoran","station_id":"KBY","distance":3737,"i_lat":-6.237242,"line":6,"transit":false,"is_transit":false,"time":7},{"i_lat":-6.276362,"transit":false,"distance":6218,"is_transit":false,"i_long":106.74273,"line":6,"station_name":"Pondokranji","time":8,"station_id":"PDJ"},{"i_long":106.728916,"line":6,"station_id":"JMU","is_transit":false,"transit":false,"time":3,"i_lat":-6.288927,"station_name":"Jurangmangu","distance":2179},{"station_name":"Sudimara","distance":1994,"i_long":106.712277,"line":6,"is_transit":false,"transit":false,"i_lat":-6.296963,"time":4,"station_id":"SDM"},{"transit":false,"distance":4566,"station_name":"Rawa Buntu","station_id":"RU","i_long":106.675475,"time":6,"line":6,"i_lat":-6.314823,"is_transit":false},{"station_id":"SRP","i_lat":-6.319871,"distance":2413,"i_long":106.66566,"time":4,"transit":false,"line":6,"station_name":"Serpong","is_transit":false},{"station_id":"CSK","transit":false,"is_transit":false,"time":4,"i_lat":-6.32484,"i_long":106.640411,"distance":1784,"line":3,"station_name":"Cisauk"}],[{"station_name":"Cikarang","i_long":107.144613,"time":0,"distance":0,"line":1,"transit":false,"station_id":"CKR","is_transit":false,"i_lat":-6.2553149999999995},{"transit":false,"distance":3689,"station_name":"Metland Telaga Murni","is_transit":false,"i_long":107.093313,"line":1,"i_lat":-6.262938,"time":4,"station_id":"TLM"},{"is_transit":false,"station_name":"Cibitung","distance":2800,"time":2,"line":1,"transit":false,"i_lat":-6.261877,"station_id":"CIT","i_long":107.083084},{"is_transit":false,"station_name":"Tambun","distance":3420,"time":3,"i_lat":-6.258864,"transit":false,"station_id":"TB","line":1,"i_long":107.055722},{"i_long":107.016735,"station_id":"BKST","is_transit":false,"line":1,"time":7,"i_lat":-6.248029,"transit":false,"station_name":"Bekasi Timur","distance":4460},{"transit":false,"time":2,"i_lat":-6.236616,"i_long":106.997013,"station_id":"BKS","is_transit":false,"station_name":"Bekasi","distance":2368,"line":1},{"i_lat":-6.224515,"transit":false,"line":1,"is_transit":false,"distance":2520,"time":4,"station_name":"Kranji","i_long":106.977657,"station_id":"KRI"},{"i_lat":-6.219053,"i_long":106.951283,"line":1,"station_id":"CUK","is_transit":false,"distance":3097,"transit":false,"station_name":"Cakung","time":3},{"station_id":"KLDB","is_transit":false,"time":8,"transit":false,"distance":1385,"i_lat":-6.217455,"i_long":106.939679,"line":1,"station_name":"Klenderbaru"},{"is_transit":false,"transit":false,"i_lat":-6.215568,"i_long":106.922662,"station_name":"Buaran","distance":1305,"time":1,"station_id":"BUA","line":1},{"is_transit":false,"i_long":106.899548,"station_id":"KLD","i_lat":-6.2135,"time":2,"line":1,"distance":3100,"transit":false,"station_name":"Klender"},{"transit":false,"station_id":"JNG","distance":3395,"i_lat":-6.215091,"i_long":106.86807400000001,"station_name":"Jatinegara","is_transit":false,"line":1,"time":3},{"distance":1377,"i_long":106.858896,"line":1,"time":2,"transit":false,"is_transit":false,"station_name":"Matraman","station_id":"MTR","i_lat":-6.212485},{"is_transit":true,"time":2,"i_long":106.84912,"station_id":"MRI","line":2,"station_name":"Manggarai","distance":1275,"i_lat":-6.209883,"transit":true},{"transit":false,"station_id":"CKI","station_name":"Cikini","is_transit":false,"i_long":106.840169,"time":4,"distance":1590,"line":2,"i_lat":-6.198556},{"station_id":"GDD","distance":1750,"time":3,"transit":false,"line":2,"i_lat":-6.186295,"is_transit":false,"station_name":"Gondangdia","i_long":106.832183},{"station_id":"JUA","transit":false,"is_transit":false,"time":4,"i_lat":-6.166716,"i_long":106.828284,"distance":2015,"line":2,"station_name":"Juanda"},{"station_name":"Sawah Besar","is_transit":false,"transit":false,"i_long":106.827103,"station_id":"SW","time":2,"distance":1149,"i_lat":-6.160725,"line":2},{"station_name":"Manggabesar","transit":false,"distance":906,"time":2,"i_long":106.82482,"is_transit":false,"i_lat":-6.149769,"station_id":"MGB","line":2},{"line":2,"time":2,"station_id":"JAY","is_transit":false,"station_name":"Jayakarta","transit":false,"distance":1080,"i_lat":-6.141205,"i_long":106.820901},{"station_id":"JAKK","time":4,"distance":1264,"i_lat":-6.137569,"is_transit":true,"i_long":106.812439,"line":2,"transit":true,"station_name":"Jakarta Kota"},{"i_long":106.826365,"i_lat":-6.132549,"line":4,"is_transit":true,"time":3,"station_id":"KPB","distance":1364,"transit":true,"station_name":"Kampung Bandan"},{"time":9,"i_lat":-6.144674,"distance":4102,"station_id":"AK","i_long":106.79867,"line":1,"station_name":"Angke","is_transit":false,"transit":false},{"station_id":"DU","transit":false,"time":4,"i_long":106.800832,"line":1,"station_name":"Duri","i_lat":-6.155215,"is_transit":false,"distance":1230},{"station_id":"THB","i_long":106.811091,"distance":3632,"i_lat":-6.185545,"is_transit":true,"time":8,"station_name":"Tanah Abang","transit":true,"line":1},{"is_transit":false,"line":6,"i_lat":-6.207404,"i_long":106.79689,"transit":false,"time":6,"station_name":"Palmerah","distance":3191,"station_id":"PLM"},{"station_name":"Kebayoran","transit":false,"i_lat":-6.237242,"line":6,"distance":3737,"i_long":106.780334,"station_id":"KBY","time":7,"is_transit":false},{"transit":false,"distance":6218,"time":8,"station_name":"Pondokranji","line":6,"is_transit":false,"i_lat":-6.276362,"station_id":"PDJ","i_long":106.74273},{"distance":2179,"is_transit":false,"time":3,"i_long":106.728916,"i_lat":-6.288927,"transit":false,"line":6,"station_id":"JMU","station_name":"Jurangmangu"},{"is_transit":false,"station_name":"Sudimara","distance":1994,"transit":false,"time":4,"station_id":"SDM","i_long":106.712277,"line":6,"i_lat":-6.296963},{"station_id":"RU","station_name":"Rawa Buntu","i_long":106.675475,"is_transit":false,"distance":4566,"time":6,"line":6,"i_lat":-6.314823,"transit":false},{"line":6,"distance":2413,"i_long":106.66566,"station_id":"SRP","time":4,"transit":false,"is_transit":false,"i_lat":-6.319871,"station_name":"Serpong"},{"line":3,"station_name":"Cisauk","time":4,"is_transit":false,"station_id":"CSK","transit":false,"i_lat":-6.32484,"i_long":106.640411,"distance":1784}],[{"line":1,"i_lat":-6.2553149999999995,"time":0,"distance":0,"station_name":"Cikarang","transit":false,"i_long":107.144613,"station_id":"CKR","is_transit":false},{"transit":false,"i_long":107.093313,"line":1,"station_name":"Metland Telaga Murni","time":4,"distance":3689,"is_transit":false,"station_id":"TLM","i_lat":-6.262938},{"line":1,"i_long":107.083084,"station_name":"Cibitung","station_id":"CIT","transit":false,"distance":2800,"time":2,"is_transit":false,"i_lat":-6.261877},{"i_long":107.055722,"transit":false,"distance":3420,"i_lat":-6.258864,"line":1,"station_name":"Tambun","is_transit":false,"station_id":"TB","time":3},{"distance":4460,"time":7,"transit":false,"is_transit":false,"station_name":"Bekasi Timur","station_id":"BKST","i_lat":-6.248029,"i_long":107.016735,"line":1},{"time":2,"transit":false,"i_lat":-6.236616,"station_name":"Bekasi","line":1,"is_transit":false,"station_id":"BKS","distance":2368,"i_long":106.997013},{"i_lat":-6.224515,"distance":2520,"i_long":106.977657,"station_name":"Kranji","transit":false,"time":4,"line":1,"is_transit":false,"station_id":"KRI"},{"time":3,"i_lat":-6.219053,"i_long":106.951283,"station_id":"CUK","is_transit":false,"line":1,"transit":false,"station_name":"Cakung","distance":3097},{"transit":false,"time":8,"i_long":106.939679,"line":1,"distance":1385,"i_lat":-6.217455,"station_name":"Klenderbaru","station_id":"KLDB","is_transit":false},{"line":1,"time":1,"station_name":"Buaran","is_transit":false,"distance":1305,"i_long":106.922662,"i_lat":-6.215568,"transit":false,"station_id":"BUA"},{"station_id":"KLD","i_lat":-6.2135,"i_long":106.899548,"is_transit":false,"transit":false,"station_name":"Klender","line":1,"distance":3100,"time":2},{"station_id":"JNG","transit":true,"station_name":"Jatinegara","line":1,"i_long":106.86807400000001,"is_transit":true,"time":3,"distance":3395,"i_lat":-6.215091},{"is_transit":false,"station_id":"POK","distance":1236,"time":2,"i_lat":-6.209188,"line":11,"station_name":"Pondok Jati","i_long":106.861737,"transit":false},{"i_lat":-6.193792,"line":11,"transit":false,"station_id":"KMT","time":2,"station_name":"Kramat","distance":1829,"i_long":106.855437,"is_transit":false},{"station_id":"GST","time":1,"line":11,"is_transit":false,"distance":973,"i_lat":-6.185975,"i_long":106.850107,"station_name":"Gang Sentiong","transit":false},{"station_name":"Pasar Senen","time":8,"i_long":106.84368,"station_id":"PSE","i_lat":-6.174784,"transit":false,"line":11,"is_transit":false,"distance":1567},{"is_transit":false,"station_name":"Kemayoran","i_lat":-6.161728,"time":4,"line":11,"distance":1436,"station_id":"KMO","i_long":106.839204,"transit":false},{"transit":false,"time":5,"is_transit":false,"distance":1901,"i_long":106.836569,"station_name":"Rajawali","i_lat":-6.14505,"station_id":"RJW","line":11},{"time":3,"i_long":106.826365,"is_transit":true,"station_name":"Kampung Bandan","station_id":"KPB","i_lat":-6.132549,"transit":true,"distance":1444,"line":4},{"transit":true,"station_name":"Jakarta Kota","station_id":"JAKK","i_lat":-6.137569,"is_transit":true,"i_long":106.812439,"line":2,"time":3,"distance":1364},{"i_lat":-6.141205,"station_name":"Jayakarta","is_transit":false,"distance":1264,"i_long":106.820901,"time":4,"station_id":"JAY","transit":false,"line":2},{"is_transit":false,"distance":1080,"time":2,"i_lat":-6.149769,"station_name":"Manggabesar","station_id":"MGB","i_long":106.82482,"transit":false,"line":2},{"time":2,"transit":false,"distance":906,"station_name":"Sawah Besar","is_transit":false,"line":2,"station_id":"SW","i_lat":-6.160725,"i_long":106.827103},{"time":2,"station_id":"JUA","distance":1149,"transit":false,"station_name":"Juanda","i_long":106.828284,"line":2,"i_lat":-6.166716,"is_transit":false},{"i_long":106.832183,"station_name":"Gondangdia","i_lat":-6.186295,"is_transit":false,"transit":false,"time":4,"distance":2015,"line":2,"station_id":"GDD"},{"station_id":"CKI","line":2,"distance":1750,"station_name":"Cikini","i_long":106.840169,"transit":false,"is_transit":false,"i_lat":-6.198556,"time":3},{"transit":true,"station_name":"Manggarai","is_transit":true,"line":2,"i_long":106.84912,"distance":1590,"station_id":"MRI","time":4,"i_lat":-6.209883},{"transit":false,"i_lat":-6.202263,"is_transit":false,"station_name":"Sudirman","line":1,"distance":3186,"i_long":106.822649,"station_id":"SUD","time":4},{"line":1,"i_lat":-6.201433,"station_id":"SUDB","station_name":"Sudirman Baru","time":1,"transit":false,"distance":280,"i_long":106.819881,"is_transit":false},{"station_id":"KAT","station_name":"Karet","distance":471,"i_lat":-6.20132,"time":1,"is_transit":false,"i_long":106.816351,"line":1,"transit":false},{"is_transit":true,"line":1,"station_id":"THB","time":5,"i_long":106.811091,"i_lat":-6.185545,"station_name":"Tanah Abang","transit":true,"distance":2029},{"time":6,"i_long":106.79689,"is_transit":false,"station_id":"PLM","distance":3191,"transit":false,"i_lat":-6.207404,"station_name":"Palmerah","line":6},{"transit":false,"station_name":"Kebayoran","station_id":"KBY","time":7,"i_lat":-6.237242,"is_transit":false,"line":6,"distance":3737,"i_long":106.780334},{"time":8,"station_name":"Pondokranji","distance":6218,"transit":false,"line":6,"station_id":"PDJ","i_lat":-6.276362,"i_long":106.74273,"is_transit":false},{"station_name":"Jurangmangu","is_transit":false,"station_id":"JMU","line":6,"distance":2179,"i_lat":-6.288927,"i_long":106.728916,"time":3,"transit":false},{"station_id":"SDM","is_transit":false,"time":4,"i_long":106.712277,"line":6,"i_lat":-6.296963,"station_name":"Sudimara","distance":1994,"transit":false},{"line":6,"station_name":"Rawa Buntu","distance":4566,"station_id":"RU","time":6,"i_long":106.675475,"transit":false,"is_transit":false,"i_lat":-6.314823},{"station_name":"Serpong","line":6,"station_id":"SRP","distance":2413,"i_long":106.66566,"is_transit":false,"transit":false,"i_lat":-6.319871,"time":4},{"transit":false,"station_name":"Cisauk","time":4,"is_transit":false,"line":3,"i_lat":-6.32484,"station_id":"CSK","distance":1784,"i_long":106.640411}]]}