{"data":[[{"distance":0,"line":1,"i_lat":-6.2553149999999995,"time":0,"station_name":"Cikarang","i_long":107.144613,"is_transit":false,"transit":false,"station_id":"CKR"},{"transit":false,"i_long":107.093313,"i_lat":-6.262938,"station_name":"Metland Telaga Murni","station_id":"TLM","distance":3689,"time":4,"line":1,"is_transit":false},{"transit":false,"time":2,"i_lat":-6.261877,"station_id":"CIT","distance":2800,"station_name":"Cibitung","i_long":107.083084,"line":1,"is_transit":false},{"station_id":"TB","i_lat":-6.258864,"line":1,"i_long":107.055722,"is_transit":false,"station_name":"Tambun","transit":false,"distance":3420,"time":3},{"is_transit":false,"i_lat":-6.248029,"transit":false,"line":1,"time":7,"station_id":"BKST","station_name":"Bekasi Timur","distance":4460,"i_long":107.016735},{"transit":false,"is_transit":false,"line":1,"station_name":"Bekasi","time":2,"distance":2368,"station_id":"BKS","i_lat":-6.236616,"i_long":106.997013},{"i_lat":-6.224515,"i_long":106.977657,"line":1,"station_id":"KRI","station_name":"Kranji","is_transit":false,"time":4,"distance":2520,"transit":false},{"is_transit":false,"time":3,"i_lat":-6.219053,"line":1,"distance":3097,"i_long":106.951283,"station_name":"Cakung","transit":false,"station_id":"CUK"},{"station_id":"KLDB","transit":false,"i_long":106.939679,"line":1,"time":8,"is_transit":false,"distance":1385,"i_lat":-6.217455,"station_name":"Klenderbaru"},{"time":1,"line":1,"station_id":"BUA","i_lat":-6.215568,"i_long":106.922662,"distance":1305,"station_name":"Buaran","transit":false,"is_transit":false},{"i_lat":-6.2135,"station_id":"KLD","transit":false,"i_long":106.899548,"line":1,"station_name":"Klender","time":2,"is_transit":false,"distance":3100},{"distance":3395,"i_lat":-6.215091,"time":3,"transit":false,"station_id":"JNG","station_name":"Jatinegara","is_transit":false,"line":1,"i_long":106.86807400000001},{"is_transit":false,"transit":false,"station_id":"MTR","i_long":106.858896,"i_lat":-6.212485,"line":1,"time":2,"station_name":"Matraman","distance":1377},{"is_transit":false,"i_lat":-6.209883,"station_id":"MRI","distance":1275,"transit":false,"time":2,"station_name":"Manggarai","line":2,"i_long":106.84912},{"line":1,"i_long":106.822649,"transit":false,"i_lat":-6.202263,"distance":3186,"time":4,"station_id":"SUD","station_name":"Sudirman","is_transit":false},{"i_long":106.819881,"station_id":"SUDB","transit":false,"time":1,"is_transit":false,"i_lat":-6.201433,"line":1,"distance":280,"station_name":"Sudirman Baru"},{"transit":false,"station_id":"KAT","i_lat":-6.20132,"line":1,"station_name":"Karet","is_transit":false,"time":1,"distance":471,"i_long":106.816351},{"is_transit":false,"station_id":"THB","line":1,"time":5,"station_name":"Tanah Abang","transit":false,"distance":2029,"i_long":106.811091,"i_lat":-6.185545},{"station_name":"Duri","time":8,"transit":true,"i_long":106.800832,"distance":3632,"i_lat":-6.155215,"station_id":"DU","is_transit":true,"line":1},{"time":3,"station_id":"GGL","transit":false,"line":5,"is_transit":false,"distance":1700,"station_name":"Grogol","i_lat":-6.162021,"i_long":106.788277},{"transit":false,"line":5,"station_id":"PSG","i_long":106.771379,"i_lat":-6.161433,"station_name":"Pesing","distance":2036,"is_transit":false,"time":2},{"station_name":"Taman Kota","transit":false,"station_id":"TKO","is_transit":false,"time":2,"distance":1614,"i_lat":-6.1587309999999995,"i_long":106.756522,"line":5},{"station_id":"BOI","transit":false,"i_long":106.737035,"distance":2334,"is_transit":false,"time":2,"i_lat":-6.159876,"station_name":"Bojongindah","line":5},{"i_lat":-6.162758,"i_long":106.723064,"station_id":"RW","station_name":"Rawa Buaya","line":5,"distance":1152,"transit":false,"is_transit":false,"time":4}],[{"station_id":"CKR","i_lat":-6.2553149999999995,"line":1,"is_transit":false,"time":0,"i_long":107.144613,"distance":0,"station_name":"Cikarang","transit":false},{"transit":false,"station_id":"TLM","station_name":"Metland Telaga Murni","is_transit":false,"i_lat":-6.262938,"time":4,"distance":3689,"i_long":107.093313,"line":1},{"is_transit":false,"station_id":"CIT","i_lat":-6.261877,"i_long":107.083084,"distance":2800,"station_name":"Cibitung","line":1,"transit":false,"time":2},{"is_transit":false,"distance":3420,"line":1,"transit":false,"time":3,"i_long":107.055722,"station_name":"Tambun","i_lat":-6.258864,"station_id":"TB"},{"station_name":"Bekasi Timur","distance":4460,"time":7,"i_long":107.016735,"line":1,"i_lat":-6.248029,"station_id":"BKST","transit":false,"is_transit":false},{"is_transit":false,"i_long":106.997013,"line":1,"station_name":"Bekasi","time":2,"station_id":"BKS","distance":2368,"transit":false,"i_lat":-6.236616},{"transit":false,"station_name":"Kranji","distance":2520,"i_long":106.977657,"station_id":"KRI","is_transit":false,"time":4,"i_lat":-6.224515,"line":1},{"time":3,"i_lat":-6.219053,"station_id":"CUK","i_long":106.951283,"line":1,"transit":false,"station_name":"Cakung","is_transit":false,"distance":3097},{"i_lat":-6.217455,"line":1,"is_transit":false,"time":8,"station_id":"KLDB","station_name":"Klenderbaru","i_long":106.939679,"transit":false,"distance":1385},{"distance":1305,"line":1,"i_long":106.922662,"station_name":"Buaran","is_transit":false,"transit":false,"time":1,"station_id":"BUA","i_lat":-6.215568},{"station_name":"Klender","i_lat":-6.2135,"transit":false,"is_transit":false,"distance":3100,"station_id":"KLD","time":2,"line":1,"i_long":106.899548},{"station_name":"Jatinegara","time":3,"i_long":106.86807400000001,"i_lat":-6.215091,"transit":true,"station_id":"JNG","is_transit":true,"distance":3395,"line":1},{"i_long":106.861737,"line":11,"station_id":"POK","time":2,"i_lat":-6.209188,"transit":false,"is_transit":false,"station_name":"Pondok Jati","distance":1236},{"transit":false,"time":2,"distance":1829,"i_long":106.855437,"i_lat":-6.193792,"station_name":"Kramat","line":11,"station_id":"KMT","is_transit":false},{"station_name":"Gang Sentiong","is_transit":false,"time":1,"line":11,"station_id":"GST","distance":973,"i_long":106.850107,"i_lat":-6.185975,"transit":false},{"distance":1567,"is_transit":false,"station_name":"Pasar Senen","station_id":"PSE","i_lat":-6.174784,"line":11,"transit":false,"i_long":106.84368,"time":8},{"line":11,"i_long":106.839204,"is_transit":false,"station_id":"KMO","station_name":"Kemayoran","time":4,"transit":false,"distance":1436,"i_lat":-6.161728},{"transit":false,"is_transit":false,"line":11,"distance":1901,"i_long":106.836569,"station_id":"RJW","time":5,"i_lat":-6.14505,"station_name":"Rajawali"},{"is_transit":true,"transit":true,"i_long":106.826365,"distance":1444,"line":4,"station_id":"KPB","time":3,"station_name":"Kampung Bandan","i_lat":-6.132549},{"i_lat":-6.144674,"time":9,"line":1,"transit":false,"is_transit":false,"station_id":"AK","station_name":"Angke","i_long":106.79867,"distance":4102},{"time":4,"station_id":"DU","is_transit":true,"line":1,"station_name":"Duri","i_lat":-6.155215,"transit":true,"i_long":106.800832,"distance":1230},{"time":3,"i_long":106.788277,"station_name":"Grogol","line":5,"station_id":"GGL","i_lat":-6.162021,"distance":1700,"transit":false,"is_transit":false},{"distance":2036,"i_lat":-6.161433,"transit":false,"station_name":"Pesing","is_transit":false,"station_id":"PSG","time":2,"i_long":106.771379,"line":5},{"line":5,"station_name":"Taman Kota","i_lat":-6.1587309999999995,"transit":false,"station_id":"TKO","is_transit":false,"time":2,"distance":1614,"i_long":106.756522},{"line":5,"station_name":"Bojongindah","distance":2334,"station_id":"BOI","time":2,"i_lat":-6.159876,"i_long":106.737035,"transit":false,"is_transit":false},{"i_long":106.723064,"is_transit":false,"distance":1152,"time":4,"station_name":"Rawa Buaya","line":5,"transit":false,"station_id":"RW","i_lat":-6.162758}],[{"i_long":107.144613,"is_transit":false,"station_name":"Cikarang","distance":0,"i_lat":-6.2553149999999995,"line":1,"transit":false,"time":0,"station_id":"CKR"},{"time":4,"line":1,"i_long":107.093313,"i_lat":-6.262938,"transit":false,"station_name":"Metland Telaga Murni","station_id":"TLM","is_transit":false,"distance":3689},{"distance":2800,"i_lat":-6.261877,"is_transit":false,"transit":false,"time":2,"station_name":"Cibitung","line":1,"i_long":107.083084,"station_id":"CIT"},{"time":3,"i_lat":-6.258864,"station_name":"Tambun","line":1,"is_transit":false,"transit":false,"station_id":"TB","distance":3420,"i_long":107.055722},{"i_long":107.016735,"transit":false,"is_transit":false,"station_id":"BKST","station_name":"Bekasi Timur","i_lat":-6.248029,"time":7,"distance":4460,"line":1},{"time":2,"i_lat":-6.236616,"i_long":106.997013,"line":1,"station_id":"BKS","station_name":"Bekasi","distance":2368,"transit":false,"is_transit":false},{"i_long":106.977657,"distance":2520,"time":4,"line":1,"transit":false,"station_name":"Kranji","is_transit":false,"i_lat":-6.224515,"station_id":"KRI"},{"is_transit":false,"station_id":"CUK","time":3,"distance":3097,"i_lat":-6.219053,"i_long":106.951283,"station_name":"Cakung","transit":false,"line":1},{"i_long":106.939679,"station_id":"KLDB","station_name":"Klenderbaru","transit":false,"is_transit":false,"line":1,"time":8,"distance":1385,"i_lat":-6.217455},{"station_name":"Buaran","i_lat":-6.215568,"transit":false,"distance":1305,"is_transit":false,"i_long":106.922662,"time":1,"station_id":"BUA","line":1},{"i_lat":-6.2135,"i_long":106.899548,"line":1,"transit":false,"is_transit":false,"station_name":"Klender","time":2,"station_id":"KLD","distance":3100},{"i_long":106.86807400000001,"distance":3395,"time":3,"i_lat":-6.215091,"line":1,"transit":false,"station_id":"JNG","is_transit":false,"station_name":"Jatinegara"},{"i_lat":-6.212485,"is_transit":false,"i_long":106.858896,"time":2,"station_name":"Matraman","line":1,"station_id":"MTR","distance":1377,"transit":false},{"is_transit":true,"distance":1275,"station_id":"MRI","i_lat":-6.209883,"i_long":106.84912,"line":2,"transit":true,"station_name":"Manggarai","time":2},{"i_lat":-6.198556,"transit":false,"is_transit":false,"distance":1590,"station_id":"CKI","line":2,"station_name":"Cikini","i_long":106.840169,"time":4},{"station_id":"GDD","distance":1750,"transit":false,"station_name":"Gondangdia","time":3,"i_lat":-6.186295,"i_long":106.832183,"line":2,"is_transit":false},{"line":2,"transit":false,"station_name":"Juanda","station_id":"JUA","is_transit":false,"time":4,"i_long":106.828284,"i_lat":-6.166716,"distance":2015},{"distance":1149,"station_name":"Sawah Besar","transit":false,"station_id":"SW","is_transit":false,"i_lat":-6.160725,"line":2,"time":2,"i_long":106.827103},{"station_name":"Manggabesar","i_long":106.82482,"station_id":"MGB","i_lat":-6.149769,"line":2,"distance":906,"transit":false,"time":2,"is_transit":false},{"i_lat":-6.141205,"line":2,"station_name":"Jayakarta","time":2,"i_long":106.820901,"is_transit":false,"distance":1080,"transit":false,"station_id":"JAY"},{"station_name":"Jakarta Kota","i_lat":-6.137569,"is_transit":true,"transit":true,"time":4,"distance":1264,"station_id":"JAKK","i_long":106.812439,"line":2},{"time":3,"i_lat":-6.132549,"station_name":"Kampung Bandan","station_id":"KPB","i_long":106.826365,"line":4,"distance":1364,"transit":true,"is_transit":true},{"time":9,"is_transit":false,"station_name":"Angke","transit":false,"station_id":"AK","i_lat":-6.144674,"i_long":106.79867,"distance":4102,"line":1},{"transit":true,"i_long":106.800832,"i_lat":-6.155215,"is_transit":true,"distance":1230,"line":1,"station_name":"Duri","time":4,"station_id":"DU"},{"station_name":"Grogol","i_long":106.788277,"line":5,"transit":false,"i_lat":-6.162021,"time":3,"station_id":"GGL","distance":1700,"is_transit":false},{"i_lat":-6.161433,"line":5,"station_id":"PSG","distance":2036,"time":2,"station_name":"Pesing","i_long":106.771379,"transit":false,"is_transit":false},{"is_transit":false,"i_lat":-6.1587309999999995,"i_long":106.756522,"distance":1614,"line":5,"station_id":"TKO","time":2,"station_name":"Taman Kota","transit":false},{"station_id":"BOI","i_long":106.737035,"i_lat":-6.159876,"is_transit":false,"distance":2334,"line":5,"station_name":"Bojongindah","transit":false,"time":2},{"i_lat":-6.162758,"is_transit":false,"station_name":"Rawa Buaya","transit":false,"i_long":106.723064,"station_id":"RW","time":4,"distance":1152,"line":5}],[{"i_lat":-6.2553149999999995,"line":1,"transit":false,"i_long":107.144613,"station_id":"CKR","station_name":"Cikarang","is_transit":false,"distance":0,"time":0},{"station_id":"TLM","i_lat":-6.262938,"line":1,"time":4,"distance":3689,"is_transit":false,"station_name":"Metland Telaga Murni","transit":false,"i_long":107.093313},{"is_transit":false,"distance":2800,"transit":false,"station_name":"Cibitung","time":2,"i_lat":-6.261877,"station_id":"CIT","line":1,"i_long":107.083084},{"distance":3420,"station_name":"Tambun","time":3,"station_id":"TB","is_transit":false,"i_lat":-6.258864,"i_long":107.055722,"line":1,"transit":false},{"time":7,"i_lat":-6.248029,"is_transit":false,"i_long":107.016735,"transit":false,"distance":4460,"station_name":"Bekasi Timur","station_id":"BKST","line":1},{"distance":2368,"is_transit":false,"line":1,"i_lat":-6.236616,"i_long":106.997013,"time":2,"transit":false,"station_id":"BKS","station_name":"Bekasi"},{"transit":false,"station_name":"Kranji","station_id":"KRI","is_transit":false,"time":4,"i_lat":-6.224515,"line":1,"distance":2520,"i_long":106.977657},{"i_lat":-6.219053,"is_transit":false,"station_id":"CUK","station_name":"Cakung","i_long":106.951283,"time":3,"line":1,"distance":3097,"transit":false},{"i_long":106.939679,"station_id":"KLDB","transit":false,"distance":1385,"is_transit":false,"i_lat":-6.217455,"time":8,"station_name":"Klenderbaru","line":1},{"i_lat":-6.215568,"time":1,"station_id":"BUA","is_transit":false,"i_long":106.922662,"station_name":"Buaran","distance":1305,"transit":false,"line":1},{"i_lat":-6.2135,"is_transit":false,"station_name":"Klender","station_id":"KLD","time":2,"i_long":106.899548,"line":1,"distance":3100,"transit":false},{"station_name":"Jatinegara","station_id":"JNG","transit":true,"time":3,"distance":3395,"i_long":106.86807400000001,"line":1,"i_lat":-6.215091,"is_transit":true},{"distance":1236,"station_name":"Pondok Jati","transit":false,"station_id":"POK","time":2,"i_lat":-6.209188,"i_long":106.861737,"line":11,"is_transit":false},{"station_name":"Kramat","is_transit":false,"time":2,"distance":1829,"station_id":"KMT","i_lat":-6.193792,"i_long":106.855437,"transit":false,"line":11},{"station_id":"GST","distance":973,"station_name":"Gang Sentiong","i_long":106.850107,"i_lat":-6.185975,"is_transit":false,"transit":false,"time":1,"line":11},{"time":8,"station_id":"PSE","i_lat":-6.174784,"i_long":106.84368,"transit":false,"line":11,"station_name":"Pasar Senen","distance":1567,"is_transit":false},{"transit":false,"i_lat":-6.161728,"i_long":106.839204,"is_transit":false,"station_id":"KMO","station_name":"Kemayoran","distance":1436,"line":11,"time":4},{"i_long":106.836569,"line":11,"transit":false,"distance":1901,"station_name":"Rajawali","time":5,"i_lat":-6.14505,"is_transit":false,"station_id":"RJW"},{"station_name":"Kampung Bandan","station_id":"KPB","time":3,"distance":1444,"line":4,"transit":true,"i_long":106.826365,"is_transit":true,"i_lat":-6.132549},{"line":2,"i_lat":-6.137569,"is_transit":true,"transit":true,"i_long":106.812439,"station_name":"Jakarta Kota","station_id":"JAKK","distance":1364,"time":3},{"station_id":"JAY","i_lat":-6.141205,"i_long":106.820901,"time":4,"station_name":"Jayakarta","line":2,"is_transit":false,"distance":1264,"transit":false},{"station_id":"MGB","time":2,"is_transit":false,"i_long":106.82482,"i_lat":-6.149769,"distance":1080,"transit":false,"line":2,"station_name":"Manggabesar"},{"is_transit":false,"transit":false,"time":2,"distance":906,"station_name":"Sawah Besar","station_id":"SW","i_lat":-6.160725,"i_long":106.827103,"line":2},{"station_name":"Juanda","distance":1149,"is_transit":false,"i_lat":-6.166716,"line":2,"transit":false,"station_id":"JUA","time":2,"i_long":106.828284},{"station_name":"Gondangdia","distance":2015,"i_lat":-6.186295,"line":2,"time":4,"transit":false,"station_id":"GDD","i_long":106.832183,"is_transit":false},{"transit":false,"is_transit":false,"line":2,"time":3,"distance":1750,"i_lat":-6.198556,"i_long":106.840169,"station_name":"Cikini","station_id":"CKI"},{"is_transit":true,"transit":true,"distance":1590,"station_id":"MRI","i_lat":-6.209883,"time":4,"line":2,"station_name":"Manggarai","i_long":106.84912},{"time":4,"distance":3186,"station_name":"Sudirman","i_long":106.822649,"line":1,"i_lat":-6.202263,"is_transit":false,"transit":false,"station_id":"SUD"},{"station_name":"Sudirman Baru","time":1,"distance":280,"is_transit":false,"i_lat":-6.201433,"station_id":"SUDB","line":1,"transit":false,"i_long":106.819881},{"time":1,"i_long":106.816351,"station_name":"Karet","i_lat":-6.20132,"line":1,"station_id":"KAT","transit":false,"distance":471,"is_transit":false},{"line":1,"distance":2029,"is_transit":false,"transit":false,"station_name":"Tanah Abang","station_id":"THB","time":5,"i_lat":-6.185545,"i_long":106.811091},{"time":8,"transit":true,"i_lat":-6.155215,"station_id":"DU","is_transit":true,"i_long":106.800832,"line":1,"distance":3632,"station_name":"Duri"},{"distance":1700,"is_transit":false,"transit":false,"station_name":"Grogol","time":3,"i_lat":-6.162021,"station_id":"GGL","line":5,"i_long":106.788277},{"station_name":"Pesing","station_id":"PSG","i_lat":-6.161433,"transit":false,"i_long":106.771379,"is_transit":false,"line":5,"distance":2036,"time":2},{"i_lat":-6.1587309999999995,"line":5,"time":2,"distance":1614,"i_long":106.756522,"station_name":"Taman Kota","station_id":"TKO","transit":false,"is_transit":false},{"transit":false,"station_id":"BOI","time":2,"distance":2334,"station_name":"Bojongindah","is_transit":false,"i_lat":-6.159876,"i_long":106.737035,"line":5},{"station_name":"Rawa Buaya","is_transit":false,"station_id":"RW","line":5,"distance":1152,"transit":false,"time":4,"i_lat":-6.162758,"i_long":106.723064}]]}