{"data":[[{"line":1,"transit":false,"station_name":"Cikarang","time":0,"is_transit":false,"i_lat":-6.2553149999999995,"distance":0,"i_long":107.144613,"station_id":"CKR"},{"station_name":"Metland Telaga Murni","is_transit":false,"distance":3689,"i_lat":-6.262938,"time":4,"transit":false,"i_long":107.093313,"station_id":"TLM","line":1},{"is_transit":false,"distance":2800,"i_long":107.083084,"line":1,"transit":false,"i_lat":-6.261877,"station_name":"Cibitung","station_id":"CIT","time":2},{"transit":false,"is_transit":false,"time":3,"station_id":"TB","station_name":"Tambun","distance":3420,"i_long":107.055722,"i_lat":-6.258864,"line":1},{"is_transit":false,"time":7,"distance":4460,"i_lat":-6.248029,"i_long":107.016735,"station_name":"Bekasi Timur","line":1,"transit":false,"station_id":"BKST"},{"distance":2368,"is_transit":false,"transit":false,"i_lat":-6.236616,"line":1,"time":2,"i_long":106.997013,"station_name":"Bekasi","station_id":"BKS"},{"time":4,"is_transit":false,"station_name":"Kranji","station_id":"KRI","distance":2520,"i_lat":-6.224515,"line":1,"transit":false,"i_long":106.977657},{"distance":3097,"i_long":106.951283,"is_transit":false,"time":3,"transit":false,"station_name":"Cakung","line":1,"i_lat":-6.219053,"station_id":"CUK"},{"transit":false,"i_lat":-6.217455,"i_long":106.939679,"is_transit":false,"line":1,"station_name":"Klenderbaru","station_id":"KLDB","time":8,"distance":1385},{"distance":1305,"transit":false,"station_id":"BUA","station_name":"Buaran","i_lat":-6.215568,"line":1,"is_transit":false,"i_long":106.922662,"time":1},{"time":2,"i_long":106.899548,"station_name":"Klender","is_transit":false,"distance":3100,"i_lat":-6.2135,"station_id":"KLD","transit":false,"line":1},{"line":1,"transit":true,"time":3,"i_long":106.86807400000001,"distance":3395,"is_transit":true,"station_id":"JNG","station_name":"Jatinegara","i_lat":-6.215091},{"station_name":"Pondok Jati","line":11,"distance":1236,"i_lat":-6.209188,"transit":false,"time":2,"i_long":106.861737,"station_id":"POK","is_transit":false},{"i_long":106.855437,"station_id":"KMT","line":11,"transit":false,"time":2,"distance":1829,"i_lat":-6.193792,"station_name":"Kramat","is_transit":false},{"i_long":106.850107,"line":11,"station_name":"Gang Sentiong","transit":false,"i_lat":-6.185975,"is_transit":false,"distance":973,"station_id":"GST","time":1},{"station_id":"PSE","station_name":"Pasar Senen","time":8,"i_lat":-6.174784,"is_transit":false,"transit":false,"distance":1567,"line":11,"i_long":106.84368},{"distance":1436,"station_id":"KMO","time":4,"transit":false,"i_lat":-6.161728,"line":11,"is_transit":false,"i_long":106.839204,"station_name":"Kemayoran"}],[{"transit":false,"station_name":"Cikarang","i_long":107.144613,"station_id":"CKR","time":0,"i_lat":-6.2553149999999995,"line":1,"is_transit":false,"distance":0},{"is_transit":false,"station_id":"TLM","time":4,"i_lat":-6.262938,"line":1,"station_name":"Metland Telaga Murni","transit":false,"i_long":107.093313,"distance":3689},{"i_long":107.083084,"line":1,"station_name":"Cibitung","station_id":"CIT","time":2,"distance":2800,"i_lat":-6.261877,"transit":false,"is_transit":false},{"line":1,"transit":false,"i_long":107.055722,"distance":3420,"time":3,"station_name":"Tambun","i_lat":-6.258864,"station_id":"TB","is_transit":false},{"i_long":107.016735,"i_lat":-6.248029,"station_id":"BKST","transit":false,"station_name":"Bekasi Timur","is_transit":false,"time":7,"distance":4460,"line":1},{"time":2,"i_lat":-6.236616,"i_long":106.997013,"is_transit":false,"distance":2368,"line":1,"transit":false,"station_name":"Bekasi","station_id":"BKS"},{"is_transit":false,"line":1,"transit":false,"distance":2520,"station_id":"KRI","i_lat":-6.224515,"i_long":106.977657,"time":4,"station_name":"Kranji"},{"transit":false,"station_id":"CUK","station_name":"Cakung","time":3,"i_lat":-6.219053,"is_transit":false,"distance":3097,"i_long":106.951283,"line":1},{"is_transit":false,"transit":false,"station_id":"KLDB","line":1,"i_lat":-6.217455,"distance":1385,"i_long":106.939679,"time":8,"station_name":"Klenderbaru"},{"is_transit":false,"station_name":"Buaran","station_id":"BUA","i_lat":-6.215568,"transit":false,"time":1,"i_long":106.922662,"line":1,"distance":1305},{"i_lat":-6.2135,"is_transit":false,"transit":false,"station_id":"KLD","i_long":106.899548,"station_name":"Klender","line":1,"time":2,"distance":3100},{"is_transit":false,"i_long":106.86807400000001,"i_lat":-6.215091,"line":1,"station_name":"Jatinegara","transit":false,"station_id":"JNG","distance":3395,"time":3},{"i_long":106.858896,"station_name":"Matraman","station_id":"MTR","transit":false,"time":2,"i_lat":-6.212485,"distance":1377,"is_transit":false,"line":1},{"line":2,"station_name":"Manggarai","time":2,"distance":1275,"station_id":"MRI","is_transit":false,"i_lat":-6.209883,"i_long":106.84912,"transit":false},{"is_transit":false,"station_name":"Sudirman","transit":false,"time":4,"station_id":"SUD","line":1,"distance":3186,"i_lat":-6.202263,"i_long":106.822649},{"line":1,"distance":280,"station_name":"Sudirman Baru","is_transit":false,"station_id":"SUDB","i_long":106.819881,"time":1,"i_lat":-6.201433,"transit":false},{"transit":false,"station_name":"Karet","station_id":"KAT","i_long":106.816351,"i_lat":-6.20132,"line":1,"time":1,"distance":471,"is_transit":false},{"time":5,"i_lat":-6.185545,"station_id":"THB","i_long":106.811091,"line":1,"transit":false,"station_name":"Tanah Abang","distance":2029,"is_transit":false},{"i_long":106.800832,"distance":3632,"time":8,"line":1,"station_id":"DU","transit":false,"station_name":"Duri","is_transit":false,"i_lat":-6.155215},{"station_id":"AK","i_lat":-6.144674,"time":4,"i_long":106.79867,"is_transit":false,"distance":1230,"transit":false,"station_name":"Angke","line":1},{"station_id":"KPB","i_lat":-6.132549,"i_long":106.826365,"line":4,"distance":4102,"time":9,"station_name":"Kampung Bandan","transit":true,"is_transit":true},{"station_name":"Rajawali","is_transit":false,"transit":false,"distance":1444,"i_long":106.836569,"line":11,"i_lat":-6.14505,"station_id":"RJW","time":3},{"i_long":106.839204,"line":11,"i_lat":-6.161728,"time":5,"transit":false,"station_id":"KMO","distance":1901,"station_name":"Kemayoran","is_transit":false}],[{"i_long":107.144613,"is_transit":false,"transit":false,"i_lat":-6.2553149999999995,"distance":0,"line":1,"station_id":"CKR","time":0,"station_name":"Cikarang"},{"distance":3689,"is_transit":false,"transit":false,"station_name":"Metland Telaga Murni","i_long":107.093313,"time":4,"line":1,"station_id":"TLM","i_lat":-6.262938},{"distance":2800,"time":2,"i_lat":-6.261877,"i_long":107.083084,"line":1,"station_name":"Cibitung","station_id":"CIT","transit":false,"is_transit":false},{"is_transit":false,"station_id":"TB","transit":false,"line":1,"i_long":107.055722,"i_lat":-6.258864,"distance":3420,"time":3,"station_name":"Tambun"},{"distance":4460,"transit":false,"time":7,"is_transit":false,"station_id":"BKST","i_lat":-6.248029,"i_long":107.016735,"station_name":"Bekasi Timur","line":1},{"time":2,"i_long":106.997013,"i_lat":-6.236616,"transit":false,"distance":2368,"is_transit":false,"station_name":"Bekasi","station_id":"BKS","line":1},{"is_transit":false,"i_long":106.977657,"time":4,"station_id":"KRI","distance":2520,"line":1,"i_lat":-6.224515,"station_name":"Kranji","transit":false},{"is_transit":false,"distance":3097,"i_lat":-6.219053,"line":1,"i_long":106.951283,"time":3,"station_id":"CUK","station_name":"Cakung","transit":false},{"station_id":"KLDB","line":1,"i_lat":-6.217455,"i_long":106.939679,"time":8,"transit":false,"station_name":"Klenderbaru","is_transit":false,"distance":1385},{"transit":false,"station_name":"Buaran","i_lat":-6.215568,"distance":1305,"line":1,"time":1,"is_transit":false,"station_id":"BUA","i_long":106.922662},{"time":2,"station_id":"KLD","station_name":"Klender","distance":3100,"transit":false,"i_long":106.899548,"i_lat":-6.2135,"is_transit":false,"line":1},{"is_transit":false,"i_long":106.86807400000001,"i_lat":-6.215091,"line":1,"transit":false,"time":3,"distance":3395,"station_id":"JNG","station_name":"Jatinegara"},{"station_name":"Matraman","time":2,"distance":1377,"station_id":"MTR","i_lat":-6.212485,"transit":false,"is_transit":false,"line":1,"i_long":106.858896},{"line":2,"distance":1275,"time":2,"is_transit":true,"station_name":"Manggarai","transit":true,"i_lat":-6.209883,"station_id":"MRI","i_long":106.84912},{"distance":1590,"station_id":"CKI","i_long":106.840169,"line":2,"station_name":"Cikini","time":4,"i_lat":-6.198556,"transit":false,"is_transit":false},{"i_long":106.832183,"distance":1750,"time":3,"station_name":"Gondangdia","station_id":"GDD","line":2,"is_transit":false,"transit":false,"i_lat":-6.186295},{"is_transit":false,"distance":2015,"i_long":106.828284,"station_name":"Juanda","station_id":"JUA","i_lat":-6.166716,"line":2,"transit":false,"time":4},{"distance":1149,"station_name":"Sawah Besar","i_long":106.827103,"time":2,"is_transit":false,"line":2,"i_lat":-6.160725,"station_id":"SW","transit":false},{"i_lat":-6.149769,"transit":false,"station_id":"MGB","is_transit":false,"station_name":"Manggabesar","distance":906,"i_long":106.82482,"time":2,"line":2},{"distance":1080,"transit":false,"station_name":"Jayakarta","is_transit":false,"time":2,"station_id":"JAY","i_lat":-6.141205,"i_long":106.820901,"line":2},{"station_name":"Jakarta Kota","i_lat":-6.137569,"is_transit":true,"transit":true,"distance":1264,"station_id":"JAKK","time":4,"line":2,"i_long":106.812439},{"is_transit":true,"transit":true,"line":4,"i_lat":-6.132549,"time":3,"i_long":106.826365,"station_id":"KPB","distance":1364,"station_name":"Kampung Bandan"},{"station_name":"Rajawali","line":11,"station_id":"RJW","time":3,"is_transit":false,"i_long":106.836569,"i_lat":-6.14505,"transit":false,"distance":1444},{"station_name":"Kemayoran","distance":1901,"station_id":"KMO","time":5,"is_transit":false,"i_lat":-6.161728,"line":11,"transit":false,"i_long":106.839204}]]}