{"data":[[{"line":1,"transit":false,"station_name":"Cikarang","i_long":107.144613,"station_id":"CKR","time":0,"i_lat":-6.2553149999999995,"is_transit":false,"distance":0},{"station_id":"TLM","line":1,"i_lat":-6.262938,"is_transit":false,"i_long":107.093313,"station_name":"Metland Telaga Murni","distance":3689,"transit":false,"time":4},{"line":1,"station_name":"Cibitung","i_long":107.083084,"time":2,"distance":2800,"station_id":"CIT","transit":false,"is_transit":false,"i_lat":-6.261877},{"time":3,"station_name":"Tambun","transit":false,"distance":3420,"is_transit":false,"i_lat":-6.258864,"i_long":107.055722,"station_id":"TB","line":1},{"transit":false,"i_long":107.016735,"line":1,"station_name":"Bekasi Timur","station_id":"BKST","is_transit":false,"time":7,"i_lat":-6.248029,"distance":4460},{"time":2,"is_transit":false,"i_long":106.997013,"station_name":"Bekasi","station_id":"BKS","transit":false,"line":1,"i_lat":-6.236616,"distance":2368},{"is_transit":false,"time":4,"distance":2520,"i_lat":-6.224515,"station_name":"Kranji","i_long":106.977657,"line":1,"transit":false,"station_id":"KRI"},{"distance":3097,"station_name":"Cakung","i_long":106.951283,"is_transit":false,"station_id":"CUK","transit":false,"time":3,"i_lat":-6.219053,"line":1},{"station_id":"KLDB","line":1,"distance":1385,"is_transit":false,"time":8,"transit":false,"station_name":"Klenderbaru","i_long":106.939679,"i_lat":-6.217455},{"time":1,"station_id":"BUA","i_lat":-6.215568,"line":1,"i_long":106.922662,"distance":1305,"station_name":"Buaran","is_transit":false,"transit":false},{"i_long":106.899548,"distance":3100,"line":1,"transit":false,"station_name":"Klender","is_transit":false,"time":2,"i_lat":-6.2135,"station_id":"KLD"},{"station_id":"JNG","distance":3395,"time":3,"i_long":106.86807400000001,"transit":false,"i_lat":-6.215091,"is_transit":false,"line":1,"station_name":"Jatinegara"},{"distance":1377,"station_name":"Matraman","transit":false,"i_lat":-6.212485,"time":2,"i_long":106.858896,"is_transit":false,"station_id":"MTR","line":1},{"station_name":"Manggarai","distance":1275,"i_lat":-6.209883,"i_long":106.84912,"line":2,"station_id":"MRI","is_transit":false,"transit":false,"time":2},{"station_id":"SUD","line":1,"i_lat":-6.202263,"i_long":106.822649,"is_transit":false,"station_name":"Sudirman","time":4,"distance":3186,"transit":false},{"is_transit":false,"station_id":"SUDB","distance":280,"i_long":106.819881,"i_lat":-6.201433,"time":1,"transit":false,"station_name":"Sudirman Baru","line":1},{"time":1,"i_lat":-6.20132,"station_name":"Karet","distance":471,"line":1,"i_long":106.816351,"is_transit":false,"station_id":"KAT","transit":false},{"station_name":"Tanah Abang","distance":2029,"time":5,"line":1,"i_lat":-6.185545,"transit":false,"i_long":106.811091,"is_transit":false,"station_id":"THB"},{"transit":true,"i_lat":-6.155215,"line":1,"station_name":"Duri","distance":3632,"time":8,"is_transit":true,"station_id":"DU","i_long":106.800832},{"station_name":"Grogol","is_transit":false,"transit":false,"i_long":106.788277,"distance":1700,"time":3,"i_lat":-6.162021,"line":5,"station_id":"GGL"}],[{"is_transit":false,"i_long":107.144613,"station_id":"CKR","distance":0,"i_lat":-6.2553149999999995,"time":0,"transit":false,"station_name":"Cikarang","line":1},{"transit":false,"station_name":"Metland Telaga Murni","is_transit":false,"i_lat":-6.262938,"line":1,"station_id":"TLM","time":4,"i_long":107.093313,"distance":3689},{"line":1,"time":2,"transit":false,"i_lat":-6.261877,"station_id":"CIT","distance":2800,"is_transit":false,"station_name":"Cibitung","i_long":107.083084},{"time":3,"distance":3420,"transit":false,"i_long":107.055722,"station_name":"Tambun","station_id":"TB","i_lat":-6.258864,"line":1,"is_transit":false},{"station_name":"Bekasi Timur","is_transit":false,"i_long":107.016735,"line":1,"time":7,"i_lat":-6.248029,"distance":4460,"transit":false,"station_id":"BKST"},{"distance":2368,"transit":false,"station_id":"BKS","is_transit":false,"i_lat":-6.236616,"i_long":106.997013,"line":1,"station_name":"Bekasi","time":2},{"line":1,"station_name":"Kranji","time":4,"i_lat":-6.224515,"is_transit":false,"distance":2520,"transit":false,"station_id":"KRI","i_long":106.977657},{"is_transit":false,"distance":3097,"line":1,"transit":false,"station_name":"Cakung","time":3,"i_long":106.951283,"station_id":"CUK","i_lat":-6.219053},{"transit":false,"line":1,"time":8,"station_name":"Klenderbaru","distance":1385,"station_id":"KLDB","is_transit":false,"i_lat":-6.217455,"i_long":106.939679},{"line":1,"transit":false,"time":1,"station_name":"Buaran","is_transit":false,"station_id":"BUA","i_lat":-6.215568,"i_long":106.922662,"distance":1305},{"time":2,"transit":false,"is_transit":false,"i_lat":-6.2135,"station_name":"Klender","station_id":"KLD","distance":3100,"i_long":106.899548,"line":1},{"time":3,"i_lat":-6.215091,"station_id":"JNG","transit":true,"is_transit":true,"distance":3395,"station_name":"Jatinegara","i_long":106.86807400000001,"line":1},{"transit":false,"station_name":"Pondok Jati","is_transit":false,"distance":1236,"station_id":"POK","time":2,"i_lat":-6.209188,"line":11,"i_long":106.861737},{"station_id":"KMT","time":2,"i_long":106.855437,"line":11,"station_name":"Kramat","distance":1829,"is_transit":false,"i_lat":-6.193792,"transit":false},{"station_name":"Gang Sentiong","i_long":106.850107,"line":11,"is_transit":false,"station_id":"GST","time":1,"i_lat":-6.185975,"transit":false,"distance":973},{"transit":false,"i_long":106.84368,"station_name":"Pasar Senen","i_lat":-6.174784,"time":8,"distance":1567,"line":11,"station_id":"PSE","is_transit":false},{"i_lat":-6.161728,"i_long":106.839204,"distance":1436,"line":11,"time":4,"transit":false,"station_name":"Kemayoran","station_id":"KMO","is_transit":false},{"i_long":106.836569,"transit":false,"station_name":"Rajawali","station_id":"RJW","i_lat":-6.14505,"line":11,"time":5,"is_transit":false,"distance":1901},{"line":4,"station_id":"KPB","i_lat":-6.132549,"is_transit":true,"time":3,"station_name":"Kampung Bandan","distance":1444,"i_long":106.826365,"transit":true},{"distance":4102,"station_name":"Angke","station_id":"AK","transit":false,"i_lat":-6.144674,"is_transit":false,"line":1,"i_long":106.79867,"time":9},{"distance":1230,"is_transit":true,"i_lat":-6.155215,"i_long":106.800832,"station_id":"DU","transit":true,"station_name":"Duri","time":4,"line":1},{"transit":false,"distance":1700,"station_id":"GGL","time":3,"i_lat":-6.162021,"line":5,"is_transit":false,"i_long":106.788277,"station_name":"Grogol"}],[{"time":0,"line":1,"i_lat":-6.2553149999999995,"i_long":107.144613,"station_id":"CKR","station_name":"Cikarang","transit":false,"is_transit":false,"distance":0},{"i_lat":-6.262938,"time":4,"is_transit":false,"distance":3689,"station_name":"Metland Telaga Murni","line":1,"i_long":107.093313,"transit":false,"station_id":"TLM"},{"transit":false,"is_transit":false,"i_long":107.083084,"time":2,"line":1,"station_name":"Cibitung","station_id":"CIT","i_lat":-6.261877,"distance":2800},{"transit":false,"line":1,"distance":3420,"is_transit":false,"station_name":"Tambun","i_long":107.055722,"i_lat":-6.258864,"station_id":"TB","time":3},{"i_long":107.016735,"transit":false,"time":7,"distance":4460,"station_name":"Bekasi Timur","station_id":"BKST","i_lat":-6.248029,"line":1,"is_transit":false},{"transit":false,"i_long":106.997013,"station_id":"BKS","time":2,"station_name":"Bekasi","is_transit":false,"distance":2368,"i_lat":-6.236616,"line":1},{"distance":2520,"transit":false,"is_transit":false,"line":1,"i_long":106.977657,"station_id":"KRI","station_name":"Kranji","i_lat":-6.224515,"time":4},{"distance":3097,"i_lat":-6.219053,"line":1,"station_name":"Cakung","i_long":106.951283,"transit":false,"station_id":"CUK","time":3,"is_transit":false},{"is_transit":false,"station_name":"Klenderbaru","time":8,"i_lat":-6.217455,"station_id":"KLDB","transit":false,"distance":1385,"i_long":106.939679,"line":1},{"is_transit":false,"i_lat":-6.215568,"station_name":"Buaran","transit":false,"i_long":106.922662,"line":1,"station_id":"BUA","time":1,"distance":1305},{"transit":false,"i_long":106.899548,"time":2,"station_name":"Klender","i_lat":-6.2135,"is_transit":false,"station_id":"KLD","distance":3100,"line":1},{"station_id":"JNG","distance":3395,"time":3,"transit":false,"is_transit":false,"station_name":"Jatinegara","i_lat":-6.215091,"i_long":106.86807400000001,"line":1},{"station_name":"Matraman","i_long":106.858896,"station_id":"MTR","i_lat":-6.212485,"line":1,"transit":false,"is_transit":false,"distance":1377,"time":2},{"i_lat":-6.209883,"station_id":"MRI","line":2,"is_transit":true,"time":2,"station_name":"Manggarai","distance":1275,"transit":true,"i_long":106.84912},{"i_long":106.840169,"time":4,"line":2,"is_transit":false,"i_lat":-6.198556,"transit":false,"distance":1590,"station_name":"Cikini","station_id":"CKI"},{"i_lat":-6.186295,"time":3,"i_long":106.832183,"station_name":"Gondangdia","transit":false,"distance":1750,"is_transit":false,"station_id":"GDD","line":2},{"distance":2015,"time":4,"transit":false,"is_transit":false,"i_long":106.828284,"i_lat":-6.166716,"station_name":"Juanda","station_id":"JUA","line":2},{"line":2,"time":2,"station_id":"SW","is_transit":false,"distance":1149,"transit":false,"i_long":106.827103,"station_name":"Sawah Besar","i_lat":-6.160725},{"transit":false,"station_id":"MGB","i_long":106.82482,"line":2,"time":2,"distance":906,"station_name":"Manggabesar","i_lat":-6.149769,"is_transit":false},{"i_lat":-6.141205,"station_name":"Jayakarta","is_transit":false,"i_long":106.820901,"station_id":"JAY","line":2,"transit":false,"distance":1080,"time":2},{"station_name":"Jakarta Kota","station_id":"JAKK","line":2,"time":4,"transit":true,"distance":1264,"i_lat":-6.137569,"is_transit":true,"i_long":106.812439},{"station_name":"Kampung Bandan","transit":true,"station_id":"KPB","is_transit":true,"i_lat":-6.132549,"line":4,"i_long":106.826365,"distance":1364,"time":3},{"time":9,"i_long":106.79867,"station_name":"Angke","transit":false,"station_id":"AK","distance":4102,"i_lat":-6.144674,"is_transit":false,"line":1},{"is_transit":true,"line":1,"time":4,"distance":1230,"i_lat":-6.155215,"station_name":"Duri","i_long":106.800832,"station_id":"DU","transit":true},{"station_id":"GGL","time":3,"transit":false,"is_transit":false,"station_name":"Grogol","i_long":106.788277,"line":5,"i_lat":-6.162021,"distance":1700}],[{"time":0,"transit":false,"station_name":"Cikarang","i_long":107.144613,"distance":0,"station_id":"CKR","is_transit":false,"line":1,"i_lat":-6.2553149999999995},{"station_name":"Metland Telaga Murni","i_lat":-6.262938,"is_transit":false,"time":4,"i_long":107.093313,"line":1,"transit":false,"distance":3689,"station_id":"TLM"},{"is_transit":false,"station_id":"CIT","time":2,"transit":false,"i_long":107.083084,"station_name":"Cibitung","distance":2800,"line":1,"i_lat":-6.261877},{"distance":3420,"time":3,"is_transit":false,"i_long":107.055722,"station_id":"TB","transit":false,"station_name":"Tambun","i_lat":-6.258864,"line":1},{"is_transit":false,"distance":4460,"i_lat":-6.248029,"transit":false,"line":1,"i_long":107.016735,"time":7,"station_id":"BKST","station_name":"Bekasi Timur"},{"station_name":"Bekasi","distance":2368,"i_lat":-6.236616,"station_id":"BKS","time":2,"is_transit":false,"transit":false,"line":1,"i_long":106.997013},{"distance":2520,"i_lat":-6.224515,"line":1,"time":4,"is_transit":false,"station_id":"KRI","transit":false,"station_name":"Kranji","i_long":106.977657},{"transit":false,"is_transit":false,"station_id":"CUK","i_long":106.951283,"time":3,"distance":3097,"i_lat":-6.219053,"line":1,"station_name":"Cakung"},{"transit":false,"i_long":106.939679,"distance":1385,"is_transit":false,"station_id":"KLDB","line":1,"station_name":"Klenderbaru","time":8,"i_lat":-6.217455},{"i_lat":-6.215568,"line":1,"time":1,"station_name":"Buaran","transit":false,"distance":1305,"is_transit":false,"station_id":"BUA","i_long":106.922662},{"distance":3100,"transit":false,"station_id":"KLD","i_long":106.899548,"line":1,"time":2,"station_name":"Klender","is_transit":false,"i_lat":-6.2135},{"i_long":106.86807400000001,"time":3,"distance":3395,"i_lat":-6.215091,"is_transit":true,"station_id":"JNG","line":1,"transit":true,"station_name":"Jatinegara"},{"i_lat":-6.209188,"station_id":"POK","distance":1236,"station_name":"Pondok Jati","line":11,"i_long":106.861737,"is_transit":false,"time":2,"transit":false},{"i_long":106.855437,"transit":false,"distance":1829,"line":11,"station_id":"KMT","station_name":"Kramat","time":2,"is_transit":false,"i_lat":-6.193792},{"station_name":"Gang Sentiong","line":11,"is_transit":false,"time":1,"i_long":106.850107,"distance":973,"station_id":"GST","transit":false,"i_lat":-6.185975},{"line":11,"station_name":"Pasar Senen","i_long":106.84368,"station_id":"PSE","is_transit":false,"time":8,"transit":false,"i_lat":-6.174784,"distance":1567},{"i_long":106.839204,"time":4,"distance":1436,"is_transit":false,"station_id":"KMO","transit":false,"station_name":"Kemayoran","i_lat":-6.161728,"line":11},{"is_transit":false,"i_lat":-6.14505,"line":11,"distance":1901,"time":5,"transit":false,"station_id":"RJW","station_name":"Rajawali","i_long":106.836569},{"station_id":"KPB","is_transit":true,"i_long":106.826365,"time":3,"distance":1444,"station_name":"Kampung Bandan","transit":true,"i_lat":-6.132549,"line":4},{"i_lat":-6.137569,"distance":1364,"i_long":106.812439,"line":2,"station_id":"JAKK","transit":true,"is_transit":true,"time":3,"station_name":"Jakarta Kota"},{"i_lat":-6.141205,"i_long":106.820901,"line":2,"distance":1264,"station_name":"Jayakarta","station_id":"JAY","is_transit":false,"transit":false,"time":4},{"i_lat":-6.149769,"distance":1080,"transit":false,"i_long":106.82482,"time":2,"station_name":"Manggabesar","line":2,"is_transit":false,"station_id":"MGB"},{"i_long":106.827103,"time":2,"transit":false,"distance":906,"station_name":"Sawah Besar","is_transit":false,"i_lat":-6.160725,"line":2,"station_id":"SW"},{"distance":1149,"i_lat":-6.166716,"transit":false,"is_transit":false,"line":2,"i_long":106.828284,"station_id":"JUA","station_name":"Juanda","time":2},{"is_transit":false,"i_lat":-6.186295,"line":2,"i_long":106.832183,"station_id":"GDD","transit":false,"distance":2015,"station_name":"Gondangdia","time":4},{"transit":false,"station_name":"Cikini","line":2,"i_lat":-6.198556,"time":3,"distance":1750,"station_id":"CKI","i_long":106.840169,"is_transit":false},{"line":2,"is_transit":true,"station_name":"Manggarai","station_id":"MRI","time":4,"i_long":106.84912,"distance":1590,"transit":true,"i_lat":-6.209883},{"line":1,"distance":3186,"i_lat":-6.202263,"station_name":"Sudirman","is_transit":false,"time":4,"transit":false,"i_long":106.822649,"station_id":"SUD"},{"time":1,"distance":280,"station_name":"Sudirman Baru","i_lat":-6.201433,"i_long":106.819881,"transit":false,"line":1,"is_transit":false,"station_id":"SUDB"},{"i_long":106.816351,"distance":471,"station_id":"KAT","is_transit":false,"time":1,"line":1,"i_lat":-6.20132,"transit":false,"station_name":"Karet"},{"time":5,"i_long":106.811091,"is_transit":false,"station_id":"THB","station_name":"Tanah Abang","line":1,"transit":false,"distance":2029,"i_lat":-6.185545},{"i_lat":-6.155215,"is_transit":true,"time":8,"transit":true,"station_id":"DU","distance":3632,"station_name":"Duri","line":1,"i_long":106.800832},{"transit":false,"station_name":"Grogol","i_lat":-6.162021,"station_id":"GGL","distance":1700,"i_long":106.788277,"is_transit":false,"line":5,"time":3}]]}