{"data":[[{"station_name":"Cikarang","i_lat":-6.2553149999999995,"is_transit":false,"line":1,"station_id":"CKR","transit":false,"time":0,"distance":0,"i_long":107.144613},{"i_long":107.093313,"i_lat":-6.262938,"distance":3689,"time":4,"station_id":"TLM","is_transit":false,"transit":false,"station_name":"Metland Telaga Murni","line":1},{"station_id":"CIT","distance":2800,"i_lat":-6.261877,"i_long":107.083084,"line":1,"is_transit":false,"transit":false,"time":2,"station_name":"Cibitung"},{"station_id":"TB","is_transit":false,"time":3,"i_lat":-6.258864,"distance":3420,"i_long":107.055722,"station_name":"Tambun","transit":false,"line":1},{"is_transit":false,"i_lat":-6.248029,"line":1,"time":7,"transit":false,"station_name":"Bekasi Timur","station_id":"BKST","distance":4460,"i_long":107.016735},{"time":2,"station_name":"Bekasi","i_lat":-6.236616,"transit":false,"distance":2368,"is_transit":false,"line":1,"station_id":"BKS","i_long":106.997013},{"time":4,"line":1,"station_name":"Kranji","transit":false,"station_id":"KRI","distance":2520,"i_lat":-6.224515,"i_long":106.977657,"is_transit":false},{"is_transit":false,"i_lat":-6.219053,"station_name":"Cakung","time":3,"distance":3097,"transit":false,"i_long":106.951283,"line":1,"station_id":"CUK"},{"transit":false,"i_lat":-6.217455,"i_long":106.939679,"line":1,"time":8,"station_id":"KLDB","station_name":"Klenderbaru","is_transit":false,"distance":1385},{"station_id":"BUA","i_long":106.922662,"transit":false,"line":1,"time":1,"distance":1305,"is_transit":false,"i_lat":-6.215568,"station_name":"Buaran"},{"distance":3100,"i_lat":-6.2135,"station_name":"Klender","i_long":106.899548,"transit":false,"is_transit":false,"station_id":"KLD","line":1,"time":2},{"i_lat":-6.215091,"line":1,"transit":false,"distance":3395,"is_transit":false,"time":3,"station_name":"Jatinegara","station_id":"JNG","i_long":106.86807400000001},{"time":2,"i_lat":-6.212485,"distance":1377,"is_transit":false,"i_long":106.858896,"line":1,"transit":false,"station_id":"MTR","station_name":"Matraman"},{"transit":false,"station_name":"Manggarai","is_transit":false,"time":2,"station_id":"MRI","i_lat":-6.209883,"i_long":106.84912,"line":2,"distance":1275},{"station_id":"SUD","i_long":106.822649,"time":4,"is_transit":false,"line":1,"transit":false,"distance":3186,"i_lat":-6.202263,"station_name":"Sudirman"},{"distance":280,"transit":false,"station_id":"SUDB","is_transit":false,"i_long":106.819881,"line":1,"i_lat":-6.201433,"station_name":"Sudirman Baru","time":1},{"distance":471,"time":1,"transit":false,"i_lat":-6.20132,"station_id":"KAT","line":1,"station_name":"Karet","i_long":106.816351,"is_transit":false},{"i_lat":-6.185545,"is_transit":true,"time":5,"line":1,"station_name":"Tanah Abang","transit":true,"i_long":106.811091,"distance":2029,"station_id":"THB"},{"i_long":106.79689,"i_lat":-6.207404,"line":6,"station_id":"PLM","time":6,"distance":3191,"transit":false,"station_name":"Palmerah","is_transit":false},{"is_transit":false,"i_long":106.780334,"time":7,"distance":3737,"i_lat":-6.237242,"transit":false,"station_name":"Kebayoran","line":6,"station_id":"KBY"},{"station_name":"Pondokranji","i_lat":-6.276362,"line":6,"i_long":106.74273,"station_id":"PDJ","transit":false,"time":8,"is_transit":false,"distance":6218},{"station_name":"Jurangmangu","distance":2179,"is_transit":false,"time":3,"line":6,"i_lat":-6.288927,"i_long":106.728916,"station_id":"JMU","transit":false},{"line":6,"i_lat":-6.296963,"time":4,"distance":1994,"i_long":106.712277,"transit":false,"station_name":"Sudimara","station_id":"SDM","is_transit":false}],[{"distance":0,"transit":false,"is_transit":false,"line":1,"station_id":"CKR","i_lat":-6.2553149999999995,"station_name":"Cikarang","i_long":107.144613,"time":0},{"station_name":"Metland Telaga Murni","station_id":"TLM","time":4,"transit":false,"i_lat":-6.262938,"is_transit":false,"line":1,"i_long":107.093313,"distance":3689},{"station_name":"Cibitung","line":1,"station_id":"CIT","is_transit":false,"transit":false,"i_lat":-6.261877,"time":2,"distance":2800,"i_long":107.083084},{"station_id":"TB","i_lat":-6.258864,"is_transit":false,"station_name":"Tambun","distance":3420,"time":3,"line":1,"i_long":107.055722,"transit":false},{"distance":4460,"transit":false,"time":7,"station_id":"BKST","i_lat":-6.248029,"i_long":107.016735,"line":1,"station_name":"Bekasi Timur","is_transit":false},{"distance":2368,"line":1,"station_name":"Bekasi","i_lat":-6.236616,"transit":false,"station_id":"BKS","i_long":106.997013,"is_transit":false,"time":2},{"time":4,"station_id":"KRI","station_name":"Kranji","i_lat":-6.224515,"i_long":106.977657,"line":1,"is_transit":false,"distance":2520,"transit":false},{"transit":false,"station_id":"CUK","line":1,"station_name":"Cakung","i_long":106.951283,"i_lat":-6.219053,"time":3,"is_transit":false,"distance":3097},{"station_id":"KLDB","distance":1385,"line":1,"i_lat":-6.217455,"transit":false,"i_long":106.939679,"station_name":"Klenderbaru","time":8,"is_transit":false},{"i_long":106.922662,"line":1,"transit":false,"time":1,"station_name":"Buaran","i_lat":-6.215568,"distance":1305,"station_id":"BUA","is_transit":false},{"i_long":106.899548,"line":1,"transit":false,"station_name":"Klender","i_lat":-6.2135,"is_transit":false,"station_id":"KLD","time":2,"distance":3100},{"station_name":"Jatinegara","line":1,"transit":true,"station_id":"JNG","distance":3395,"is_transit":true,"i_long":106.86807400000001,"time":3,"i_lat":-6.215091},{"transit":false,"time":2,"i_long":106.861737,"i_lat":-6.209188,"station_id":"POK","is_transit":false,"distance":1236,"station_name":"Pondok Jati","line":11},{"i_long":106.855437,"distance":1829,"station_name":"Kramat","is_transit":false,"i_lat":-6.193792,"time":2,"station_id":"KMT","transit":false,"line":11},{"station_id":"GST","i_long":106.850107,"station_name":"Gang Sentiong","line":11,"is_transit":false,"transit":false,"i_lat":-6.185975,"time":1,"distance":973},{"i_long":106.84368,"transit":false,"station_name":"Pasar Senen","time":8,"line":11,"station_id":"PSE","is_transit":false,"distance":1567,"i_lat":-6.174784},{"i_lat":-6.161728,"station_id":"KMO","transit":false,"line":11,"time":4,"distance":1436,"station_name":"Kemayoran","is_transit":false,"i_long":106.839204},{"transit":false,"station_name":"Rajawali","i_lat":-6.14505,"distance":1901,"is_transit":false,"i_long":106.836569,"station_id":"RJW","line":11,"time":5},{"i_long":106.826365,"line":4,"station_id":"KPB","is_transit":true,"station_name":"Kampung Bandan","i_lat":-6.132549,"time":3,"transit":true,"distance":1444},{"i_long":106.79867,"distance":4102,"time":9,"station_id":"AK","i_lat":-6.144674,"line":1,"is_transit":false,"station_name":"Angke","transit":false},{"i_lat":-6.155215,"station_name":"Duri","distance":1230,"station_id":"DU","transit":false,"is_transit":false,"line":1,"time":4,"i_long":106.800832},{"i_lat":-6.185545,"station_name":"Tanah Abang","station_id":"THB","time":8,"line":1,"distance":3632,"transit":true,"is_transit":true,"i_long":106.811091},{"station_name":"Palmerah","i_long":106.79689,"line":6,"distance":3191,"transit":false,"station_id":"PLM","time":6,"i_lat":-6.207404,"is_transit":false},{"station_id":"KBY","station_name":"Kebayoran","line":6,"transit":false,"is_transit":false,"time":7,"i_lat":-6.237242,"distance":3737,"i_long":106.780334},{"distance":6218,"i_long":106.74273,"station_id":"PDJ","time":8,"i_lat":-6.276362,"transit":false,"line":6,"station_name":"Pondokranji","is_transit":false},{"distance":2179,"station_name":"Jurangmangu","station_id":"JMU","line":6,"time":3,"i_long":106.728916,"is_transit":false,"transit":false,"i_lat":-6.288927},{"station_id":"SDM","i_long":106.712277,"station_name":"Sudimara","is_transit":false,"transit":false,"distance":1994,"i_lat":-6.296963,"line":6,"time":4}],[{"station_id":"CKR","time":0,"i_long":107.144613,"is_transit":false,"station_name":"Cikarang","transit":false,"distance":0,"line":1,"i_lat":-6.2553149999999995},{"time":4,"transit":false,"distance":3689,"i_long":107.093313,"station_name":"Metland Telaga Murni","line":1,"station_id":"TLM","i_lat":-6.262938,"is_transit":false},{"station_id":"CIT","transit":false,"i_lat":-6.261877,"time":2,"i_long":107.083084,"line":1,"station_name":"Cibitung","distance":2800,"is_transit":false},{"transit":false,"station_id":"TB","time":3,"is_transit":false,"distance":3420,"i_long":107.055722,"i_lat":-6.258864,"station_name":"Tambun","line":1},{"station_name":"Bekasi Timur","line":1,"i_lat":-6.248029,"time":7,"i_long":107.016735,"is_transit":false,"station_id":"BKST","transit":false,"distance":4460},{"is_transit":false,"line":1,"time":2,"distance":2368,"i_lat":-6.236616,"station_name":"Bekasi","transit":false,"station_id":"BKS","i_long":106.997013},{"distance":2520,"time":4,"i_lat":-6.224515,"transit":false,"is_transit":false,"station_id":"KRI","line":1,"station_name":"Kranji","i_long":106.977657},{"line":1,"station_id":"CUK","is_transit":false,"transit":false,"i_long":106.951283,"time":3,"station_name":"Cakung","distance":3097,"i_lat":-6.219053},{"distance":1385,"i_lat":-6.217455,"is_transit":false,"station_name":"Klenderbaru","transit":false,"station_id":"KLDB","time":8,"line":1,"i_long":106.939679},{"station_name":"Buaran","distance":1305,"transit":false,"i_lat":-6.215568,"i_long":106.922662,"station_id":"BUA","is_transit":false,"line":1,"time":1},{"distance":3100,"line":1,"time":2,"i_lat":-6.2135,"station_name":"Klender","i_long":106.899548,"station_id":"KLD","transit":false,"is_transit":false},{"i_lat":-6.215091,"transit":false,"station_id":"JNG","is_transit":false,"i_long":106.86807400000001,"time":3,"line":1,"station_name":"Jatinegara","distance":3395},{"time":2,"i_lat":-6.212485,"line":1,"station_id":"MTR","station_name":"Matraman","distance":1377,"is_transit":false,"transit":false,"i_long":106.858896},{"station_id":"MRI","line":2,"station_name":"Manggarai","transit":true,"is_transit":true,"i_long":106.84912,"distance":1275,"time":2,"i_lat":-6.209883},{"distance":1590,"time":4,"i_lat":-6.198556,"line":2,"i_long":106.840169,"is_transit":false,"transit":false,"station_id":"CKI","station_name":"Cikini"},{"transit":false,"i_long":106.832183,"line":2,"time":3,"station_id":"GDD","i_lat":-6.186295,"is_transit":false,"distance":1750,"station_name":"Gondangdia"},{"station_name":"Juanda","i_long":106.828284,"station_id":"JUA","line":2,"is_transit":false,"time":4,"distance":2015,"transit":false,"i_lat":-6.166716},{"station_id":"SW","i_long":106.827103,"line":2,"time":2,"transit":false,"i_lat":-6.160725,"distance":1149,"is_transit":false,"station_name":"Sawah Besar"},{"line":2,"time":2,"station_id":"MGB","transit":false,"station_name":"Manggabesar","i_long":106.82482,"is_transit":false,"distance":906,"i_lat":-6.149769},{"distance":1080,"station_id":"JAY","i_lat":-6.141205,"line":2,"is_transit":false,"transit":false,"station_name":"Jayakarta","time":2,"i_long":106.820901},{"is_transit":true,"distance":1264,"time":4,"transit":true,"station_name":"Jakarta Kota","station_id":"JAKK","i_lat":-6.137569,"i_long":106.812439,"line":2},{"i_long":106.826365,"station_name":"Kampung Bandan","distance":1364,"i_lat":-6.132549,"time":3,"transit":true,"station_id":"KPB","is_transit":true,"line":4},{"line":1,"station_id":"AK","station_name":"Angke","transit":false,"i_lat":-6.144674,"is_transit":false,"time":9,"distance":4102,"i_long":106.79867},{"station_id":"DU","line":1,"is_transit":false,"time":4,"transit":false,"station_name":"Duri","i_lat":-6.155215,"i_long":106.800832,"distance":1230},{"transit":true,"time":8,"station_name":"Tanah Abang","i_lat":-6.185545,"i_long":106.811091,"is_transit":true,"line":1,"station_id":"THB","distance":3632},{"transit":false,"station_id":"PLM","is_transit":false,"i_long":106.79689,"line":6,"distance":3191,"time":6,"station_name":"Palmerah","i_lat":-6.207404},{"line":6,"transit":false,"is_transit":false,"time":7,"station_name":"Kebayoran","station_id":"KBY","i_long":106.780334,"i_lat":-6.237242,"distance":3737},{"i_long":106.74273,"i_lat":-6.276362,"time":8,"line":6,"station_id":"PDJ","distance":6218,"transit":false,"station_name":"Pondokranji","is_transit":false},{"distance":2179,"i_long":106.728916,"transit":false,"station_id":"JMU","station_name":"Jurangmangu","is_transit":false,"i_lat":-6.288927,"time":3,"line":6},{"distance":1994,"i_lat":-6.296963,"is_transit":false,"i_long":106.712277,"time":4,"station_name":"Sudimara","transit":false,"line":6,"station_id":"SDM"}],[{"time":0,"i_lat":-6.2553149999999995,"i_long":107.144613,"line":1,"station_id":"CKR","is_transit":false,"distance":0,"station_name":"Cikarang","transit":false},{"i_long":107.093313,"station_id":"TLM","is_transit":false,"distance":3689,"i_lat":-6.262938,"line":1,"time":4,"station_name":"Metland Telaga Murni","transit":false},{"station_name":"Cibitung","transit":false,"distance":2800,"is_transit":false,"i_long":107.083084,"line":1,"time":2,"station_id":"CIT","i_lat":-6.261877},{"i_lat":-6.258864,"line":1,"distance":3420,"i_long":107.055722,"transit":false,"is_transit":false,"time":3,"station_id":"TB","station_name":"Tambun"},{"is_transit":false,"i_lat":-6.248029,"distance":4460,"line":1,"station_name":"Bekasi Timur","station_id":"BKST","i_long":107.016735,"time":7,"transit":false},{"transit":false,"time":2,"i_lat":-6.236616,"line":1,"station_name":"Bekasi","distance":2368,"station_id":"BKS","is_transit":false,"i_long":106.997013},{"i_long":106.977657,"time":4,"transit":false,"distance":2520,"i_lat":-6.224515,"station_name":"Kranji","is_transit":false,"line":1,"station_id":"KRI"},{"i_long":106.951283,"distance":3097,"line":1,"is_transit":false,"station_id":"CUK","transit":false,"station_name":"Cakung","time":3,"i_lat":-6.219053},{"time":8,"i_lat":-6.217455,"i_long":106.939679,"transit":false,"station_name":"Klenderbaru","distance":1385,"is_transit":false,"line":1,"station_id":"KLDB"},{"station_name":"Buaran","station_id":"BUA","i_lat":-6.215568,"time":1,"i_long":106.922662,"is_transit":false,"line":1,"distance":1305,"transit":false},{"distance":3100,"time":2,"line":1,"station_name":"Klender","is_transit":false,"i_lat":-6.2135,"transit":false,"i_long":106.899548,"station_id":"KLD"},{"transit":true,"is_transit":true,"time":3,"i_lat":-6.215091,"i_long":106.86807400000001,"station_name":"Jatinegara","line":1,"station_id":"JNG","distance":3395},{"transit":false,"station_name":"Pondok Jati","distance":1236,"is_transit":false,"i_lat":-6.209188,"time":2,"i_long":106.861737,"station_id":"POK","line":11},{"transit":false,"line":11,"station_id":"KMT","i_long":106.855437,"i_lat":-6.193792,"time":2,"distance":1829,"station_name":"Kramat","is_transit":false},{"is_transit":false,"distance":973,"transit":false,"station_name":"Gang Sentiong","i_lat":-6.185975,"i_long":106.850107,"time":1,"line":11,"station_id":"GST"},{"transit":false,"i_long":106.84368,"station_name":"Pasar Senen","distance":1567,"time":8,"line":11,"is_transit":false,"i_lat":-6.174784,"station_id":"PSE"},{"is_transit":false,"station_name":"Kemayoran","distance":1436,"i_long":106.839204,"line":11,"transit":false,"station_id":"KMO","i_lat":-6.161728,"time":4},{"transit":false,"station_name":"Rajawali","i_lat":-6.14505,"time":5,"station_id":"RJW","line":11,"distance":1901,"i_long":106.836569,"is_transit":false},{"transit":true,"distance":1444,"station_name":"Kampung Bandan","is_transit":true,"time":3,"i_lat":-6.132549,"station_id":"KPB","i_long":106.826365,"line":4},{"is_transit":true,"line":2,"station_name":"Jakarta Kota","station_id":"JAKK","distance":1364,"time":3,"i_lat":-6.137569,"i_long":106.812439,"transit":true},{"distance":1264,"i_lat":-6.141205,"time":4,"line":2,"is_transit":false,"station_name":"Jayakarta","i_long":106.820901,"station_id":"JAY","transit":false},{"distance":1080,"i_lat":-6.149769,"station_id":"MGB","transit":false,"time":2,"i_long":106.82482,"is_transit":false,"station_name":"Manggabesar","line":2},{"time":2,"i_long":106.827103,"transit":false,"station_name":"Sawah Besar","line":2,"is_transit":false,"distance":906,"i_lat":-6.160725,"station_id":"SW"},{"time":2,"station_id":"JUA","distance":1149,"i_lat":-6.166716,"i_long":106.828284,"transit":false,"line":2,"is_transit":false,"station_name":"Juanda"},{"station_name":"Gondangdia","time":4,"distance":2015,"i_lat":-6.186295,"transit":false,"station_id":"GDD","i_long":106.832183,"is_transit":false,"line":2},{"transit":false,"station_name":"Cikini","time":3,"i_long":106.840169,"line":2,"station_id":"CKI","i_lat":-6.198556,"distance":1750,"is_transit":false},{"transit":true,"station_name":"Manggarai","line":2,"station_id":"MRI","i_lat":-6.209883,"distance":1590,"time":4,"i_long":106.84912,"is_transit":true},{"transit":false,"i_lat":-6.202263,"i_long":106.822649,"station_name":"Sudirman","distance":3186,"is_transit":false,"time":4,"line":1,"station_id":"SUD"},{"distance":280,"time":1,"i_long":106.819881,"station_name":"Sudirman Baru","is_transit":false,"i_lat":-6.201433,"transit":false,"station_id":"SUDB","line":1},{"time":1,"i_lat":-6.20132,"i_long":106.816351,"is_transit":false,"transit":false,"distance":471,"station_id":"KAT","station_name":"Karet","line":1},{"line":1,"transit":true,"time":5,"is_transit":true,"i_long":106.811091,"distance":2029,"station_id":"THB","station_name":"Tanah Abang","i_lat":-6.185545},{"station_id":"PLM","time":6,"station_name":"Palmerah","transit":false,"line":6,"i_lat":-6.207404,"is_transit":false,"distance":3191,"i_long":106.79689},{"i_long":106.780334,"time":7,"station_name":"Kebayoran","station_id":"KBY","i_lat":-6.237242,"transit":false,"is_transit":false,"line":6,"distance":3737},{"i_long":106.74273,"is_transit":false,"transit":false,"time":8,"i_lat":-6.276362,"station_id":"PDJ","line":6,"distance":6218,"station_name":"Pondokranji"},{"time":3,"station_name":"Jurangmangu","i_long":106.728916,"line":6,"is_transit":false,"distance":2179,"i_lat":-6.288927,"transit":false,"station_id":"JMU"},{"i_lat":-6.296963,"i_long":106.712277,"distance":1994,"time":4,"line":6,"station_id":"SDM","is_transit":false,"transit":false,"station_name":"Sudimara"}]]}