{"data":[[{"transit":false,"distance":0,"i_lat":-6.2553149999999995,"line":1,"station_name":"Cikarang","time":0,"is_transit":false,"i_long":107.144613,"station_id":"CKR"},{"i_long":107.093313,"station_name":"Metland Telaga Murni","is_transit":false,"transit":false,"time":4,"station_id":"TLM","line":1,"distance":3689,"i_lat":-6.262938},{"i_long":107.083084,"transit":false,"distance":2800,"station_id":"CIT","is_transit":false,"i_lat":-6.261877,"time":2,"line":1,"station_name":"Cibitung"},{"station_id":"TB","time":3,"distance":3420,"line":1,"transit":false,"station_name":"Tambun","is_transit":false,"i_long":107.055722,"i_lat":-6.258864},{"station_name":"Bekasi Timur","time":7,"line":1,"is_transit":false,"transit":false,"station_id":"BKST","distance":4460,"i_long":107.016735,"i_lat":-6.248029},{"time":2,"line":1,"station_name":"Bekasi","is_transit":false,"i_lat":-6.236616,"i_long":106.997013,"station_id":"BKS","distance":2368,"transit":false},{"i_long":106.977657,"distance":2520,"line":1,"time":4,"station_name":"Kranji","transit":false,"i_lat":-6.224515,"station_id":"KRI","is_transit":false},{"i_lat":-6.219053,"i_long":106.951283,"station_id":"CUK","time":3,"distance":3097,"is_transit":false,"transit":false,"station_name":"Cakung","line":1},{"station_id":"KLDB","distance":1385,"time":8,"transit":false,"i_long":106.939679,"is_transit":false,"line":1,"station_name":"Klenderbaru","i_lat":-6.217455},{"i_long":106.922662,"is_transit":false,"time":1,"i_lat":-6.215568,"line":1,"station_id":"BUA","transit":false,"distance":1305,"station_name":"Buaran"},{"is_transit":false,"transit":false,"i_lat":-6.2135,"distance":3100,"station_name":"Klender","time":2,"station_id":"KLD","i_long":106.899548,"line":1},{"station_id":"JNG","transit":false,"distance":3395,"line":1,"i_lat":-6.215091,"station_name":"Jatinegara","is_transit":false,"i_long":106.86807400000001,"time":3},{"time":2,"i_lat":-6.212485,"transit":false,"station_id":"MTR","is_transit":false,"distance":1377,"i_long":106.858896,"line":1,"station_name":"Matraman"},{"station_name":"Manggarai","time":2,"distance":1275,"is_transit":true,"station_id":"MRI","i_long":106.84912,"line":2,"transit":true,"i_lat":-6.209883},{"time":4,"station_id":"TEB","distance":2610,"transit":false,"station_name":"Tebet","i_lat":-6.226659,"line":2,"is_transit":false,"i_long":106.857948},{"station_id":"CW","line":2,"time":2,"i_long":106.856607,"station_name":"Cawang","distance":1230,"i_lat":-6.242512,"is_transit":false,"transit":false},{"is_transit":false,"transit":false,"line":2,"time":3,"station_id":"DRN","i_lat":-6.255332,"i_long":106.85449,"station_name":"Duren Kalibata","distance":1546},{"station_id":"PSMB","time":2,"is_transit":false,"transit":false,"distance":824,"line":2,"i_long":106.851577,"i_lat":-6.263214,"station_name":"Pasar Minggu Baru"},{"i_lat":-6.2842400000000005,"is_transit":false,"distance":2380,"i_long":106.843999,"time":2,"station_name":"Pasar Minggu","station_id":"PSM","transit":false,"line":2},{"is_transit":false,"i_long":106.838896,"i_lat":-6.3080680000000005,"time":4,"station_name":"Tanjung Barat","station_id":"TNT","transit":false,"line":2,"distance":2820},{"station_name":"Lenteng Agung","line":2,"station_id":"LNA","i_long":106.832616,"i_lat":-6.330363,"is_transit":false,"time":3,"distance":2671,"transit":false},{"station_id":"UP","distance":1029,"station_name":"Univ. Pancasila","i_lat":-6.339291,"i_long":106.834175,"transit":false,"is_transit":false,"line":2,"time":2},{"transit":false,"distance":2264,"i_lat":-6.360749,"station_name":"Univ. Indonesia","time":3,"i_long":106.831474,"station_id":"UI","line":2,"is_transit":false},{"station_name":"Pondok Cina","line":2,"station_id":"POC","time":2,"distance":1109,"transit":false,"i_lat":-6.369073,"i_long":106.831114,"is_transit":false},{"is_transit":false,"transit":false,"time":4,"i_long":106.819451,"i_lat":-6.391065,"distance":2727,"station_id":"DPB","line":2,"station_name":"Depokbaru"},{"i_lat":-6.405256,"i_long":106.816926,"station_id":"DP","line":2,"time":3,"distance":1584,"transit":false,"is_transit":false,"station_name":"Depok"},{"station_name":"Citayam","i_lat":-6.448811,"distance":5084,"station_id":"CTA","line":2,"is_transit":false,"transit":false,"time":6,"i_long":106.800298},{"transit":false,"i_lat":-6.493243,"i_long":106.792719,"is_transit":false,"station_name":"Bojonggede","station_id":"BJD","line":2,"time":5,"distance":5197},{"distance":4331,"i_long":106.800016,"line":2,"station_name":"Cilebut","i_lat":-6.530544,"station_id":"CLT","time":5,"transit":false,"is_transit":false}],[{"transit":false,"i_lat":-6.2553149999999995,"distance":0,"is_transit":false,"station_name":"Cikarang","station_id":"CKR","time":0,"i_long":107.144613,"line":1},{"line":1,"station_id":"TLM","is_transit":false,"time":4,"distance":3689,"station_name":"Metland Telaga Murni","i_long":107.093313,"transit":false,"i_lat":-6.262938},{"is_transit":false,"time":2,"line":1,"station_name":"Cibitung","i_lat":-6.261877,"distance":2800,"station_id":"CIT","transit":false,"i_long":107.083084},{"station_id":"TB","distance":3420,"i_lat":-6.258864,"line":1,"station_name":"Tambun","i_long":107.055722,"transit":false,"time":3,"is_transit":false},{"line":1,"station_id":"BKST","i_long":107.016735,"time":7,"is_transit":false,"station_name":"Bekasi Timur","distance":4460,"i_lat":-6.248029,"transit":false},{"time":2,"station_id":"BKS","transit":false,"i_lat":-6.236616,"station_name":"Bekasi","line":1,"distance":2368,"is_transit":false,"i_long":106.997013},{"station_name":"Kranji","is_transit":false,"distance":2520,"i_lat":-6.224515,"line":1,"time":4,"transit":false,"i_long":106.977657,"station_id":"KRI"},{"station_name":"Cakung","transit":false,"i_lat":-6.219053,"is_transit":false,"line":1,"distance":3097,"i_long":106.951283,"time":3,"station_id":"CUK"},{"i_lat":-6.217455,"transit":false,"station_id":"KLDB","i_long":106.939679,"time":8,"line":1,"station_name":"Klenderbaru","distance":1385,"is_transit":false},{"is_transit":false,"time":1,"transit":false,"i_long":106.922662,"distance":1305,"i_lat":-6.215568,"station_name":"Buaran","station_id":"BUA","line":1},{"i_lat":-6.2135,"i_long":106.899548,"time":2,"station_name":"Klender","station_id":"KLD","distance":3100,"transit":false,"line":1,"is_transit":false},{"i_lat":-6.215091,"distance":3395,"transit":true,"line":1,"station_id":"JNG","time":3,"station_name":"Jatinegara","is_transit":true,"i_long":106.86807400000001},{"station_name":"Pondok Jati","line":11,"i_long":106.861737,"distance":1236,"station_id":"POK","is_transit":false,"time":2,"i_lat":-6.209188,"transit":false},{"station_name":"Kramat","distance":1829,"i_long":106.855437,"station_id":"KMT","line":11,"i_lat":-6.193792,"time":2,"is_transit":false,"transit":false},{"station_id":"GST","is_transit":false,"transit":false,"i_long":106.850107,"station_name":"Gang Sentiong","time":1,"line":11,"i_lat":-6.185975,"distance":973},{"line":11,"station_name":"Pasar Senen","time":8,"station_id":"PSE","distance":1567,"i_lat":-6.174784,"transit":false,"is_transit":false,"i_long":106.84368},{"i_lat":-6.161728,"distance":1436,"transit":false,"i_long":106.839204,"line":11,"station_id":"KMO","is_transit":false,"time":4,"station_name":"Kemayoran"},{"is_transit":false,"time":5,"line":11,"station_id":"RJW","transit":false,"i_long":106.836569,"distance":1901,"station_name":"Rajawali","i_lat":-6.14505},{"line":4,"distance":1444,"i_long":106.826365,"is_transit":true,"i_lat":-6.132549,"time":3,"transit":true,"station_id":"KPB","station_name":"Kampung Bandan"},{"station_name":"Angke","is_transit":false,"station_id":"AK","i_long":106.79867,"i_lat":-6.144674,"line":1,"transit":false,"distance":4102,"time":9},{"i_long":106.800832,"i_lat":-6.155215,"distance":1230,"station_name":"Duri","station_id":"DU","time":4,"transit":false,"is_transit":false,"line":1},{"station_name":"Tanah Abang","distance":3632,"line":1,"time":8,"i_lat":-6.185545,"transit":false,"station_id":"THB","is_transit":false,"i_long":106.811091},{"station_id":"KAT","is_transit":false,"transit":false,"station_name":"Karet","distance":2029,"time":5,"line":1,"i_long":106.816351,"i_lat":-6.20132},{"distance":471,"line":1,"i_lat":-6.201433,"transit":false,"i_long":106.819881,"station_id":"SUDB","time":1,"station_name":"Sudirman Baru","is_transit":false},{"station_name":"Sudirman","transit":false,"i_lat":-6.202263,"i_long":106.822649,"is_transit":false,"distance":280,"line":1,"time":1,"station_id":"SUD"},{"is_transit":true,"i_lat":-6.209883,"transit":true,"distance":3186,"i_long":106.84912,"station_name":"Manggarai","station_id":"MRI","line":2,"time":4},{"time":4,"station_id":"TEB","transit":false,"line":2,"is_transit":false,"station_name":"Tebet","i_long":106.857948,"distance":2610,"i_lat":-6.226659},{"transit":false,"time":2,"line":2,"i_long":106.856607,"is_transit":false,"distance":1230,"i_lat":-6.242512,"station_name":"Cawang","station_id":"CW"},{"i_long":106.85449,"station_name":"Duren Kalibata","is_transit":false,"station_id":"DRN","transit":false,"distance":1546,"i_lat":-6.255332,"time":3,"line":2},{"transit":false,"line":2,"station_id":"PSMB","i_long":106.851577,"i_lat":-6.263214,"time":2,"distance":824,"is_transit":false,"station_name":"Pasar Minggu Baru"},{"time":2,"line":2,"is_transit":false,"transit":false,"i_long":106.843999,"station_name":"Pasar Minggu","distance":2380,"i_lat":-6.2842400000000005,"station_id":"PSM"},{"is_transit":false,"i_lat":-6.3080680000000005,"station_id":"TNT","time":4,"station_name":"Tanjung Barat","transit":false,"distance":2820,"line":2,"i_long":106.838896},{"i_long":106.832616,"time":3,"distance":2671,"is_transit":false,"station_name":"Lenteng Agung","station_id":"LNA","transit":false,"i_lat":-6.330363,"line":2},{"is_transit":false,"i_lat":-6.339291,"transit":false,"distance":1029,"time":2,"line":2,"i_long":106.834175,"station_name":"Univ. Pancasila","station_id":"UP"},{"distance":2264,"station_name":"Univ. Indonesia","line":2,"station_id":"UI","time":3,"is_transit":false,"transit":false,"i_lat":-6.360749,"i_long":106.831474},{"i_long":106.831114,"station_id":"POC","time":2,"station_name":"Pondok Cina","distance":1109,"transit":false,"i_lat":-6.369073,"is_transit":false,"line":2},{"is_transit":false,"time":4,"transit":false,"i_lat":-6.391065,"distance":2727,"line":2,"station_id":"DPB","station_name":"Depokbaru","i_long":106.819451},{"i_long":106.816926,"station_name":"Depok","line":2,"transit":false,"time":3,"is_transit":false,"i_lat":-6.405256,"station_id":"DP","distance":1584},{"i_long":106.800298,"transit":false,"distance":5084,"line":2,"time":6,"is_transit":false,"station_id":"CTA","station_name":"Citayam","i_lat":-6.448811},{"transit":false,"is_transit":false,"line":2,"station_id":"BJD","time":5,"station_name":"Bojonggede","i_lat":-6.493243,"distance":5197,"i_long":106.792719},{"station_id":"CLT","line":2,"is_transit":false,"i_long":106.800016,"transit":false,"time":5,"i_lat":-6.530544,"distance":4331,"station_name":"Cilebut"}],[{"station_id":"CKR","transit":false,"time":0,"distance":0,"i_lat":-6.2553149999999995,"line":1,"station_name":"Cikarang","is_transit":false,"i_long":107.144613},{"transit":false,"station_name":"Metland Telaga Murni","is_transit":false,"line":1,"time":4,"station_id":"TLM","distance":3689,"i_lat":-6.262938,"i_long":107.093313},{"i_long":107.083084,"is_transit":false,"line":1,"station_id":"CIT","distance":2800,"station_name":"Cibitung","transit":false,"time":2,"i_lat":-6.261877},{"distance":3420,"i_lat":-6.258864,"i_long":107.055722,"time":3,"station_id":"TB","transit":false,"station_name":"Tambun","line":1,"is_transit":false},{"line":1,"i_lat":-6.248029,"distance":4460,"transit":false,"i_long":107.016735,"time":7,"station_name":"Bekasi Timur","station_id":"BKST","is_transit":false},{"station_id":"BKS","i_lat":-6.236616,"transit":false,"station_name":"Bekasi","time":2,"i_long":106.997013,"distance":2368,"line":1,"is_transit":false},{"time":4,"transit":false,"i_long":106.977657,"is_transit":false,"i_lat":-6.224515,"station_id":"KRI","line":1,"distance":2520,"station_name":"Kranji"},{"i_lat":-6.219053,"station_id":"CUK","is_transit":false,"i_long":106.951283,"line":1,"transit":false,"station_name":"Cakung","distance":3097,"time":3},{"time":8,"i_lat":-6.217455,"i_long":106.939679,"line":1,"distance":1385,"station_id":"KLDB","is_transit":false,"station_name":"Klenderbaru","transit":false},{"station_id":"BUA","station_name":"Buaran","is_transit":false,"time":1,"distance":1305,"transit":false,"i_long":106.922662,"i_lat":-6.215568,"line":1},{"time":2,"station_name":"Klender","station_id":"KLD","i_lat":-6.2135,"distance":3100,"line":1,"transit":false,"i_long":106.899548,"is_transit":false},{"line":1,"distance":3395,"station_name":"Jatinegara","transit":true,"time":3,"i_lat":-6.215091,"station_id":"JNG","i_long":106.86807400000001,"is_transit":true},{"transit":false,"time":2,"is_transit":false,"distance":1236,"i_long":106.861737,"station_id":"POK","i_lat":-6.209188,"station_name":"Pondok Jati","line":11},{"is_transit":false,"time":2,"distance":1829,"i_long":106.855437,"station_name":"Kramat","station_id":"KMT","transit":false,"i_lat":-6.193792,"line":11},{"station_name":"Gang Sentiong","transit":false,"time":1,"is_transit":false,"distance":973,"line":11,"i_lat":-6.185975,"i_long":106.850107,"station_id":"GST"},{"time":8,"transit":false,"distance":1567,"i_long":106.84368,"i_lat":-6.174784,"is_transit":false,"line":11,"station_id":"PSE","station_name":"Pasar Senen"},{"station_name":"Kemayoran","transit":false,"station_id":"KMO","is_transit":false,"distance":1436,"i_long":106.839204,"i_lat":-6.161728,"time":4,"line":11},{"i_long":106.836569,"i_lat":-6.14505,"time":5,"station_name":"Rajawali","is_transit":false,"station_id":"RJW","distance":1901,"transit":false,"line":11},{"time":3,"distance":1444,"i_lat":-6.132549,"line":4,"i_long":106.826365,"transit":true,"station_id":"KPB","is_transit":true,"station_name":"Kampung Bandan"},{"distance":1364,"station_id":"JAKK","time":3,"transit":true,"i_long":106.812439,"station_name":"Jakarta Kota","is_transit":true,"line":2,"i_lat":-6.137569},{"is_transit":false,"transit":false,"station_id":"JAY","time":4,"station_name":"Jayakarta","i_lat":-6.141205,"i_long":106.820901,"line":2,"distance":1264},{"is_transit":false,"transit":false,"i_lat":-6.149769,"station_id":"MGB","station_name":"Manggabesar","line":2,"distance":1080,"time":2,"i_long":106.82482},{"station_id":"SW","time":2,"i_long":106.827103,"station_name":"Sawah Besar","transit":false,"line":2,"is_transit":false,"distance":906,"i_lat":-6.160725},{"time":2,"i_long":106.828284,"line":2,"station_id":"JUA","is_transit":false,"distance":1149,"transit":false,"i_lat":-6.166716,"station_name":"Juanda"},{"line":2,"station_id":"GDD","i_long":106.832183,"time":4,"distance":2015,"station_name":"Gondangdia","transit":false,"i_lat":-6.186295,"is_transit":false},{"transit":false,"time":3,"distance":1750,"i_long":106.840169,"is_transit":false,"station_name":"Cikini","station_id":"CKI","i_lat":-6.198556,"line":2},{"line":2,"time":4,"transit":false,"station_id":"MRI","is_transit":false,"i_lat":-6.209883,"station_name":"Manggarai","distance":1590,"i_long":106.84912},{"is_transit":false,"i_lat":-6.226659,"i_long":106.857948,"station_id":"TEB","line":2,"transit":false,"distance":2610,"station_name":"Tebet","time":4},{"i_long":106.856607,"station_id":"CW","is_transit":false,"time":2,"distance":1230,"station_name":"Cawang","transit":false,"i_lat":-6.242512,"line":2},{"is_transit":false,"i_long":106.85449,"station_name":"Duren Kalibata","line":2,"time":3,"station_id":"DRN","distance":1546,"transit":false,"i_lat":-6.255332},{"distance":824,"transit":false,"i_lat":-6.263214,"i_long":106.851577,"station_name":"Pasar Minggu Baru","line":2,"time":2,"station_id":"PSMB","is_transit":false},{"time":2,"station_id":"PSM","line":2,"distance":2380,"i_long":106.843999,"i_lat":-6.2842400000000005,"transit":false,"station_name":"Pasar Minggu","is_transit":false},{"is_transit":false,"station_id":"TNT","i_lat":-6.3080680000000005,"station_name":"Tanjung Barat","time":4,"transit":false,"distance":2820,"i_long":106.838896,"line":2},{"is_transit":false,"station_id":"LNA","time":3,"line":2,"i_long":106.832616,"station_name":"Lenteng Agung","transit":false,"distance":2671,"i_lat":-6.330363},{"station_id":"UP","station_name":"Univ. Pancasila","transit":false,"line":2,"is_transit":false,"i_lat":-6.339291,"distance":1029,"i_long":106.834175,"time":2},{"i_long":106.831474,"station_id":"UI","distance":2264,"station_name":"Univ. Indonesia","line":2,"is_transit":false,"time":3,"i_lat":-6.360749,"transit":false},{"transit":false,"i_long":106.831114,"time":2,"distance":1109,"station_id":"POC","station_name":"Pondok Cina","is_transit":false,"i_lat":-6.369073,"line":2},{"station_name":"Depokbaru","is_transit":false,"time":4,"line":2,"transit":false,"i_lat":-6.391065,"station_id":"DPB","i_long":106.819451,"distance":2727},{"station_name":"Depok","is_transit":false,"i_long":106.816926,"station_id":"DP","distance":1584,"i_lat":-6.405256,"transit":false,"line":2,"time":3},{"time":6,"transit":false,"line":2,"station_id":"CTA","i_lat":-6.448811,"distance":5084,"station_name":"Citayam","is_transit":false,"i_long":106.800298},{"station_id":"BJD","i_long":106.792719,"line":2,"is_transit":false,"distance":5197,"station_name":"Bojonggede","time":5,"i_lat":-6.493243,"transit":false},{"transit":false,"station_id":"CLT","station_name":"Cilebut","i_long":106.800016,"time":5,"distance":4331,"i_lat":-6.530544,"line":2,"is_transit":false}]]}