{"data":[[{"station_name":"Cikarang","distance":0,"i_lat":-6.2553149999999995,"time":0,"i_long":107.144613,"station_id":"CKR","is_transit":false,"transit":false,"line":1},{"station_id":"TLM","line":1,"transit":false,"station_name":"Metland Telaga Murni","is_transit":false,"i_lat":-6.262938,"i_long":107.093313,"time":4,"distance":3689},{"distance":2800,"transit":false,"station_id":"CIT","time":2,"i_long":107.083084,"station_name":"Cibitung","line":1,"is_transit":false,"i_lat":-6.261877},{"station_id":"TB","i_long":107.055722,"is_transit":false,"station_name":"Tambun","transit":false,"time":3,"distance":3420,"i_lat":-6.258864,"line":1},{"transit":false,"station_name":"Bekasi Timur","station_id":"BKST","is_transit":false,"time":7,"i_lat":-6.248029,"i_long":107.016735,"line":1,"distance":4460},{"station_id":"BKS","i_long":106.997013,"i_lat":-6.236616,"transit":false,"station_name":"Bekasi","is_transit":false,"time":2,"line":1,"distance":2368},{"line":1,"distance":2520,"is_transit":false,"i_long":106.977657,"transit":false,"station_id":"KRI","i_lat":-6.224515,"time":4,"station_name":"Kranji"},{"i_long":106.951283,"transit":false,"station_id":"CUK","line":1,"time":3,"distance":3097,"i_lat":-6.219053,"station_name":"Cakung","is_transit":false},{"line":1,"distance":1385,"time":8,"i_lat":-6.217455,"station_name":"Klenderbaru","station_id":"KLDB","is_transit":false,"transit":false,"i_long":106.939679},{"station_id":"BUA","i_long":106.922662,"i_lat":-6.215568,"transit":false,"is_transit":false,"time":1,"station_name":"Buaran","distance":1305,"line":1},{"i_long":106.899548,"station_name":"Klender","line":1,"time":2,"distance":3100,"transit":false,"station_id":"KLD","is_transit":false,"i_lat":-6.2135},{"time":3,"i_long":106.86807400000001,"is_transit":true,"distance":3395,"station_id":"JNG","i_lat":-6.215091,"line":1,"station_name":"Jatinegara","transit":true},{"i_long":106.861737,"line":11,"time":2,"station_name":"Pondok Jati","i_lat":-6.209188,"is_transit":false,"distance":1236,"station_id":"POK","transit":false}],[{"transit":false,"distance":0,"line":1,"is_transit":false,"time":0,"i_long":107.144613,"station_id":"CKR","i_lat":-6.2553149999999995,"station_name":"Cikarang"},{"i_lat":-6.262938,"i_long":107.093313,"station_name":"Metland Telaga Murni","line":1,"transit":false,"distance":3689,"station_id":"TLM","is_transit":false,"time":4},{"station_name":"Cibitung","time":2,"station_id":"CIT","transit":false,"distance":2800,"i_lat":-6.261877,"i_long":107.083084,"line":1,"is_transit":false},{"time":3,"i_long":107.055722,"i_lat":-6.258864,"station_name":"Tambun","distance":3420,"line":1,"station_id":"TB","is_transit":false,"transit":false},{"i_long":107.016735,"distance":4460,"line":1,"station_id":"BKST","i_lat":-6.248029,"is_transit":false,"transit":false,"station_name":"Bekasi Timur","time":7},{"i_lat":-6.236616,"i_long":106.997013,"is_transit":false,"line":1,"station_name":"Bekasi","transit":false,"distance":2368,"time":2,"station_id":"BKS"},{"line":1,"i_long":106.977657,"i_lat":-6.224515,"station_name":"Kranji","time":4,"transit":false,"is_transit":false,"distance":2520,"station_id":"KRI"},{"station_id":"CUK","time":3,"transit":false,"line":1,"is_transit":false,"station_name":"Cakung","distance":3097,"i_lat":-6.219053,"i_long":106.951283},{"line":1,"time":8,"i_lat":-6.217455,"station_id":"KLDB","distance":1385,"is_transit":false,"transit":false,"station_name":"Klenderbaru","i_long":106.939679},{"transit":false,"time":1,"line":1,"station_id":"BUA","i_long":106.922662,"station_name":"Buaran","distance":1305,"i_lat":-6.215568,"is_transit":false},{"distance":3100,"transit":false,"station_name":"Klender","station_id":"KLD","is_transit":false,"line":1,"time":2,"i_lat":-6.2135,"i_long":106.899548},{"line":1,"distance":3395,"time":3,"i_lat":-6.215091,"transit":false,"i_long":106.86807400000001,"station_id":"JNG","station_name":"Jatinegara","is_transit":false},{"i_long":106.858896,"line":1,"transit":false,"is_transit":false,"station_name":"Matraman","distance":1377,"i_lat":-6.212485,"time":2,"station_id":"MTR"},{"station_name":"Manggarai","is_transit":false,"distance":1275,"line":2,"i_lat":-6.209883,"transit":false,"station_id":"MRI","time":2,"i_long":106.84912},{"distance":3186,"station_name":"Sudirman","i_lat":-6.202263,"i_long":106.822649,"station_id":"SUD","line":1,"transit":false,"is_transit":false,"time":4},{"time":1,"distance":280,"line":1,"i_lat":-6.201433,"transit":false,"station_name":"Sudirman Baru","station_id":"SUDB","i_long":106.819881,"is_transit":false},{"transit":false,"time":1,"station_id":"KAT","distance":471,"line":1,"is_transit":false,"i_lat":-6.20132,"i_long":106.816351,"station_name":"Karet"},{"station_name":"Tanah Abang","i_lat":-6.185545,"distance":2029,"station_id":"THB","is_transit":false,"line":1,"transit":false,"i_long":106.811091,"time":5},{"line":1,"time":8,"distance":3632,"station_id":"DU","i_lat":-6.155215,"is_transit":false,"transit":false,"station_name":"Duri","i_long":106.800832},{"is_transit":false,"transit":false,"time":4,"station_id":"AK","distance":1230,"i_long":106.79867,"station_name":"Angke","line":1,"i_lat":-6.144674},{"i_long":106.826365,"line":4,"time":9,"station_id":"KPB","transit":true,"distance":4102,"is_transit":true,"station_name":"Kampung Bandan","i_lat":-6.132549},{"i_long":106.836569,"transit":false,"station_name":"Rajawali","is_transit":false,"line":11,"i_lat":-6.14505,"time":3,"station_id":"RJW","distance":1444},{"station_id":"KMO","time":5,"line":11,"transit":false,"i_long":106.839204,"station_name":"Kemayoran","is_transit":false,"i_lat":-6.161728,"distance":1901},{"is_transit":false,"station_name":"Pasar Senen","i_lat":-6.174784,"distance":1436,"time":4,"i_long":106.84368,"station_id":"PSE","transit":false,"line":11},{"station_id":"GST","distance":1567,"station_name":"Gang Sentiong","time":8,"i_lat":-6.185975,"transit":false,"is_transit":false,"line":11,"i_long":106.850107},{"is_transit":false,"i_long":106.855437,"station_id":"KMT","distance":973,"i_lat":-6.193792,"transit":false,"time":1,"line":11,"station_name":"Kramat"},{"is_transit":false,"i_long":106.861737,"station_id":"POK","time":2,"transit":false,"i_lat":-6.209188,"line":11,"distance":1829,"station_name":"Pondok Jati"}],[{"i_long":107.144613,"time":0,"transit":false,"i_lat":-6.2553149999999995,"distance":0,"line":1,"is_transit":false,"station_name":"Cikarang","station_id":"CKR"},{"is_transit":false,"i_lat":-6.262938,"station_name":"Metland Telaga Murni","time":4,"i_long":107.093313,"station_id":"TLM","transit":false,"line":1,"distance":3689},{"i_long":107.083084,"station_id":"CIT","line":1,"distance":2800,"transit":false,"is_transit":false,"station_name":"Cibitung","time":2,"i_lat":-6.261877},{"distance":3420,"is_transit":false,"line":1,"i_long":107.055722,"station_name":"Tambun","time":3,"station_id":"TB","i_lat":-6.258864,"transit":false},{"i_lat":-6.248029,"i_long":107.016735,"line":1,"station_id":"BKST","transit":false,"time":7,"is_transit":false,"distance":4460,"station_name":"Bekasi Timur"},{"i_long":106.997013,"i_lat":-6.236616,"station_id":"BKS","distance":2368,"is_transit":false,"transit":false,"time":2,"line":1,"station_name":"Bekasi"},{"station_name":"Kranji","is_transit":false,"i_lat":-6.224515,"i_long":106.977657,"station_id":"KRI","transit":false,"distance":2520,"line":1,"time":4},{"i_long":106.951283,"station_name":"Cakung","distance":3097,"time":3,"station_id":"CUK","i_lat":-6.219053,"transit":false,"is_transit":false,"line":1},{"station_name":"Klenderbaru","transit":false,"distance":1385,"i_lat":-6.217455,"i_long":106.939679,"line":1,"time":8,"is_transit":false,"station_id":"KLDB"},{"line":1,"station_name":"Buaran","distance":1305,"transit":false,"time":1,"i_long":106.922662,"is_transit":false,"station_id":"BUA","i_lat":-6.215568},{"time":2,"distance":3100,"station_id":"KLD","station_name":"Klender","i_lat":-6.2135,"line":1,"is_transit":false,"i_long":106.899548,"transit":false},{"line":1,"transit":false,"is_transit":false,"i_lat":-6.215091,"station_id":"JNG","station_name":"Jatinegara","time":3,"distance":3395,"i_long":106.86807400000001},{"i_long":106.858896,"time":2,"line":1,"station_id":"MTR","is_transit":false,"transit":false,"station_name":"Matraman","distance":1377,"i_lat":-6.212485},{"station_name":"Manggarai","line":2,"station_id":"MRI","distance":1275,"is_transit":true,"time":2,"transit":true,"i_lat":-6.209883,"i_long":106.84912},{"transit":false,"is_transit":false,"i_long":106.840169,"line":2,"time":4,"station_name":"Cikini","station_id":"CKI","distance":1590,"i_lat":-6.198556},{"transit":false,"i_long":106.832183,"distance":1750,"time":3,"i_lat":-6.186295,"station_id":"GDD","is_transit":false,"station_name":"Gondangdia","line":2},{"is_transit":false,"station_name":"Juanda","transit":false,"i_lat":-6.166716,"station_id":"JUA","time":4,"distance":2015,"i_long":106.828284,"line":2},{"is_transit":false,"station_name":"Sawah Besar","distance":1149,"i_lat":-6.160725,"i_long":106.827103,"station_id":"SW","time":2,"line":2,"transit":false},{"is_transit":false,"distance":906,"station_name":"Manggabesar","transit":false,"line":2,"i_long":106.82482,"station_id":"MGB","i_lat":-6.149769,"time":2},{"is_transit":false,"transit":false,"station_id":"JAY","time":2,"station_name":"Jayakarta","i_lat":-6.141205,"i_long":106.820901,"line":2,"distance":1080},{"line":2,"distance":1264,"transit":true,"i_lat":-6.137569,"is_transit":true,"station_id":"JAKK","station_name":"Jakarta Kota","i_long":106.812439,"time":4},{"i_long":106.826365,"i_lat":-6.132549,"line":4,"distance":1364,"station_name":"Kampung Bandan","station_id":"KPB","transit":true,"is_transit":true,"time":3},{"transit":false,"station_id":"RJW","i_long":106.836569,"line":11,"time":3,"distance":1444,"is_transit":false,"station_name":"Rajawali","i_lat":-6.14505},{"line":11,"is_transit":false,"i_lat":-6.161728,"station_name":"Kemayoran","transit":false,"time":5,"distance":1901,"station_id":"KMO","i_long":106.839204},{"transit":false,"station_name":"Pasar Senen","station_id":"PSE","time":4,"i_lat":-6.174784,"line":11,"i_long":106.84368,"is_transit":false,"distance":1436},{"station_id":"GST","line":11,"is_transit":false,"station_name":"Gang Sentiong","i_lat":-6.185975,"time":8,"distance":1567,"transit":false,"i_long":106.850107},{"i_long":106.855437,"distance":973,"i_lat":-6.193792,"transit":false,"time":1,"is_transit":false,"station_id":"KMT","station_name":"Kramat","line":11},{"station_name":"Pondok Jati","i_long":106.861737,"is_transit":false,"distance":1829,"time":2,"station_id":"POK","i_lat":-6.209188,"transit":false,"line":11}]]}