{"data":[[{"transit":false,"station_id":"CKR","is_transit":false,"time":0,"distance":0,"station_name":"Cikarang","i_lat":-6.2553149999999995,"i_long":107.144613,"line":1},{"is_transit":false,"transit":false,"time":4,"station_id":"TLM","i_lat":-6.262938,"line":1,"i_long":107.093313,"distance":3689,"station_name":"Metland Telaga Murni"},{"station_name":"Cibitung","is_transit":false,"station_id":"CIT","distance":2800,"time":2,"transit":false,"line":1,"i_lat":-6.261877,"i_long":107.083084},{"station_name":"Tambun","distance":3420,"station_id":"TB","is_transit":false,"i_long":107.055722,"line":1,"i_lat":-6.258864,"transit":false,"time":3},{"i_long":107.016735,"station_id":"BKST","station_name":"Bekasi Timur","is_transit":false,"i_lat":-6.248029,"line":1,"time":7,"distance":4460,"transit":false},{"i_long":106.997013,"transit":false,"distance":2368,"station_name":"Bekasi","is_transit":false,"time":2,"station_id":"BKS","i_lat":-6.236616,"line":1},{"station_name":"Kranji","transit":false,"time":4,"line":1,"is_transit":false,"station_id":"KRI","distance":2520,"i_lat":-6.224515,"i_long":106.977657},{"time":3,"station_id":"CUK","i_long":106.951283,"i_lat":-6.219053,"is_transit":false,"line":1,"transit":false,"station_name":"Cakung","distance":3097},{"distance":1385,"station_name":"Klenderbaru","transit":false,"i_long":106.939679,"line":1,"station_id":"KLDB","is_transit":false,"time":8,"i_lat":-6.217455},{"station_id":"BUA","station_name":"Buaran","i_long":106.922662,"distance":1305,"line":1,"transit":false,"is_transit":false,"i_lat":-6.215568,"time":1},{"distance":3100,"i_lat":-6.2135,"line":1,"transit":false,"station_id":"KLD","is_transit":false,"time":2,"station_name":"Klender","i_long":106.899548},{"is_transit":false,"time":3,"distance":3395,"line":1,"station_id":"JNG","transit":false,"station_name":"Jatinegara","i_long":106.86807400000001,"i_lat":-6.215091},{"time":2,"i_long":106.858896,"i_lat":-6.212485,"is_transit":false,"line":1,"station_id":"MTR","distance":1377,"station_name":"Matraman","transit":false},{"station_name":"Manggarai","transit":false,"i_long":106.84912,"line":2,"i_lat":-6.209883,"time":2,"distance":1275,"is_transit":false,"station_id":"MRI"},{"distance":3186,"is_transit":false,"line":1,"transit":false,"time":4,"i_lat":-6.202263,"station_name":"Sudirman","i_long":106.822649,"station_id":"SUD"},{"line":1,"distance":280,"transit":false,"i_lat":-6.201433,"is_transit":false,"i_long":106.819881,"station_name":"Sudirman Baru","station_id":"SUDB","time":1},{"station_name":"Karet","i_lat":-6.20132,"i_long":106.816351,"line":1,"transit":false,"station_id":"KAT","is_transit":false,"time":1,"distance":471},{"transit":false,"station_id":"THB","i_long":106.811091,"is_transit":false,"time":5,"i_lat":-6.185545,"distance":2029,"station_name":"Tanah Abang","line":1},{"station_name":"Duri","distance":3632,"time":8,"station_id":"DU","transit":true,"i_lat":-6.155215,"is_transit":true,"line":1,"i_long":106.800832},{"is_transit":false,"transit":false,"station_name":"Grogol","distance":1700,"line":5,"i_lat":-6.162021,"i_long":106.788277,"station_id":"GGL","time":3},{"i_lat":-6.161433,"station_name":"Pesing","is_transit":false,"station_id":"PSG","distance":2036,"time":2,"transit":false,"i_long":106.771379,"line":5}],[{"station_id":"CKR","time":0,"transit":false,"station_name":"Cikarang","distance":0,"i_lat":-6.2553149999999995,"is_transit":false,"i_long":107.144613,"line":1},{"transit":false,"station_name":"Metland Telaga Murni","station_id":"TLM","is_transit":false,"i_lat":-6.262938,"i_long":107.093313,"line":1,"distance":3689,"time":4},{"i_long":107.083084,"transit":false,"station_name":"Cibitung","line":1,"is_transit":false,"distance":2800,"station_id":"CIT","time":2,"i_lat":-6.261877},{"station_name":"Tambun","transit":false,"station_id":"TB","time":3,"line":1,"is_transit":false,"i_lat":-6.258864,"i_long":107.055722,"distance":3420},{"distance":4460,"i_lat":-6.248029,"transit":false,"is_transit":false,"time":7,"line":1,"station_id":"BKST","i_long":107.016735,"station_name":"Bekasi Timur"},{"distance":2368,"transit":false,"time":2,"i_long":106.997013,"is_transit":false,"station_name":"Bekasi","station_id":"BKS","i_lat":-6.236616,"line":1},{"is_transit":false,"time":4,"i_lat":-6.224515,"station_id":"KRI","i_long":106.977657,"transit":false,"station_name":"Kranji","distance":2520,"line":1},{"station_id":"CUK","time":3,"transit":false,"line":1,"station_name":"Cakung","is_transit":false,"i_long":106.951283,"i_lat":-6.219053,"distance":3097},{"transit":false,"distance":1385,"i_lat":-6.217455,"i_long":106.939679,"station_id":"KLDB","is_transit":false,"time":8,"station_name":"Klenderbaru","line":1},{"transit":false,"distance":1305,"station_name":"Buaran","station_id":"BUA","i_lat":-6.215568,"is_transit":false,"line":1,"time":1,"i_long":106.922662},{"station_id":"KLD","is_transit":false,"line":1,"transit":false,"i_lat":-6.2135,"distance":3100,"time":2,"station_name":"Klender","i_long":106.899548},{"station_id":"JNG","i_long":106.86807400000001,"is_transit":true,"i_lat":-6.215091,"transit":true,"line":1,"time":3,"distance":3395,"station_name":"Jatinegara"},{"station_id":"POK","transit":false,"i_lat":-6.209188,"i_long":106.861737,"is_transit":false,"line":11,"time":2,"distance":1236,"station_name":"Pondok Jati"},{"station_id":"KMT","i_lat":-6.193792,"distance":1829,"line":11,"station_name":"Kramat","is_transit":false,"i_long":106.855437,"transit":false,"time":2},{"i_lat":-6.185975,"i_long":106.850107,"is_transit":false,"line":11,"station_id":"GST","transit":false,"station_name":"Gang Sentiong","time":1,"distance":973},{"line":11,"station_name":"Pasar Senen","is_transit":false,"distance":1567,"station_id":"PSE","i_lat":-6.174784,"transit":false,"i_long":106.84368,"time":8},{"station_id":"KMO","is_transit":false,"i_long":106.839204,"line":11,"transit":false,"distance":1436,"i_lat":-6.161728,"station_name":"Kemayoran","time":4},{"distance":1901,"i_lat":-6.14505,"i_long":106.836569,"line":11,"station_id":"RJW","transit":false,"time":5,"is_transit":false,"station_name":"Rajawali"},{"line":4,"transit":true,"is_transit":true,"distance":1444,"station_id":"KPB","time":3,"i_lat":-6.132549,"i_long":106.826365,"station_name":"Kampung Bandan"},{"is_transit":false,"station_id":"AK","station_name":"Angke","distance":4102,"line":1,"i_long":106.79867,"time":9,"transit":false,"i_lat":-6.144674},{"distance":1230,"i_long":106.800832,"transit":true,"line":1,"i_lat":-6.155215,"is_transit":true,"station_id":"DU","time":4,"station_name":"Duri"},{"time":3,"station_id":"GGL","i_lat":-6.162021,"station_name":"Grogol","is_transit":false,"i_long":106.788277,"line":5,"transit":false,"distance":1700},{"distance":2036,"station_name":"Pesing","line":5,"is_transit":false,"time":2,"transit":false,"i_lat":-6.161433,"station_id":"PSG","i_long":106.771379}],[{"transit":false,"i_lat":-6.2553149999999995,"station_id":"CKR","i_long":107.144613,"line":1,"distance":0,"station_name":"Cikarang","is_transit":false,"time":0},{"transit":false,"line":1,"i_lat":-6.262938,"station_name":"Metland Telaga Murni","station_id":"TLM","time":4,"distance":3689,"is_transit":false,"i_long":107.093313},{"station_id":"CIT","transit":false,"station_name":"Cibitung","is_transit":false,"i_long":107.083084,"line":1,"distance":2800,"i_lat":-6.261877,"time":2},{"station_name":"Tambun","transit":false,"time":3,"station_id":"TB","i_long":107.055722,"line":1,"distance":3420,"i_lat":-6.258864,"is_transit":false},{"time":7,"i_long":107.016735,"distance":4460,"i_lat":-6.248029,"is_transit":false,"station_id":"BKST","station_name":"Bekasi Timur","transit":false,"line":1},{"station_id":"BKS","time":2,"transit":false,"i_lat":-6.236616,"line":1,"i_long":106.997013,"station_name":"Bekasi","distance":2368,"is_transit":false},{"distance":2520,"line":1,"station_name":"Kranji","i_lat":-6.224515,"is_transit":false,"transit":false,"i_long":106.977657,"station_id":"KRI","time":4},{"line":1,"transit":false,"station_name":"Cakung","station_id":"CUK","is_transit":false,"i_long":106.951283,"i_lat":-6.219053,"time":3,"distance":3097},{"distance":1385,"transit":false,"is_transit":false,"i_lat":-6.217455,"time":8,"i_long":106.939679,"station_name":"Klenderbaru","station_id":"KLDB","line":1},{"distance":1305,"station_id":"BUA","station_name":"Buaran","i_long":106.922662,"is_transit":false,"time":1,"line":1,"transit":false,"i_lat":-6.215568},{"station_name":"Klender","station_id":"KLD","distance":3100,"time":2,"line":1,"transit":false,"i_lat":-6.2135,"i_long":106.899548,"is_transit":false},{"i_lat":-6.215091,"distance":3395,"i_long":106.86807400000001,"is_transit":false,"station_id":"JNG","time":3,"line":1,"station_name":"Jatinegara","transit":false},{"station_id":"MTR","distance":1377,"time":2,"i_long":106.858896,"transit":false,"line":1,"is_transit":false,"station_name":"Matraman","i_lat":-6.212485},{"is_transit":true,"station_id":"MRI","i_long":106.84912,"line":2,"transit":true,"station_name":"Manggarai","i_lat":-6.209883,"time":2,"distance":1275},{"station_id":"CKI","line":2,"distance":1590,"is_transit":false,"i_long":106.840169,"station_name":"Cikini","i_lat":-6.198556,"time":4,"transit":false},{"i_lat":-6.186295,"station_id":"GDD","i_long":106.832183,"line":2,"time":3,"station_name":"Gondangdia","distance":1750,"transit":false,"is_transit":false},{"distance":2015,"i_long":106.828284,"station_id":"JUA","time":4,"i_lat":-6.166716,"is_transit":false,"station_name":"Juanda","transit":false,"line":2},{"station_id":"SW","time":2,"i_lat":-6.160725,"i_long":106.827103,"station_name":"Sawah Besar","is_transit":false,"distance":1149,"transit":false,"line":2},{"i_lat":-6.149769,"distance":906,"station_name":"Manggabesar","station_id":"MGB","line":2,"time":2,"transit":false,"is_transit":false,"i_long":106.82482},{"station_id":"JAY","i_long":106.820901,"line":2,"station_name":"Jayakarta","time":2,"is_transit":false,"distance":1080,"i_lat":-6.141205,"transit":false},{"station_name":"Jakarta Kota","line":2,"i_lat":-6.137569,"transit":true,"i_long":106.812439,"distance":1264,"time":4,"station_id":"JAKK","is_transit":true},{"station_name":"Kampung Bandan","time":3,"is_transit":true,"i_lat":-6.132549,"i_long":106.826365,"line":4,"station_id":"KPB","transit":true,"distance":1364},{"distance":4102,"transit":false,"station_id":"AK","is_transit":false,"time":9,"i_long":106.79867,"line":1,"station_name":"Angke","i_lat":-6.144674},{"transit":true,"station_id":"DU","station_name":"Duri","is_transit":true,"distance":1230,"i_lat":-6.155215,"time":4,"i_long":106.800832,"line":1},{"station_id":"GGL","line":5,"i_lat":-6.162021,"time":3,"transit":false,"station_name":"Grogol","i_long":106.788277,"is_transit":false,"distance":1700},{"is_transit":false,"distance":2036,"transit":false,"i_lat":-6.161433,"line":5,"station_name":"Pesing","station_id":"PSG","time":2,"i_long":106.771379}],[{"station_name":"Cikarang","is_transit":false,"station_id":"CKR","time":0,"line":1,"distance":0,"i_long":107.144613,"i_lat":-6.2553149999999995,"transit":false},{"line":1,"station_name":"Metland Telaga Murni","distance":3689,"i_long":107.093313,"is_transit":false,"transit":false,"station_id":"TLM","time":4,"i_lat":-6.262938},{"is_transit":false,"station_id":"CIT","i_long":107.083084,"transit":false,"distance":2800,"i_lat":-6.261877,"time":2,"station_name":"Cibitung","line":1},{"i_lat":-6.258864,"line":1,"time":3,"station_name":"Tambun","is_transit":false,"distance":3420,"transit":false,"i_long":107.055722,"station_id":"TB"},{"time":7,"i_long":107.016735,"station_name":"Bekasi Timur","distance":4460,"line":1,"is_transit":false,"station_id":"BKST","i_lat":-6.248029,"transit":false},{"i_long":106.997013,"is_transit":false,"i_lat":-6.236616,"station_name":"Bekasi","transit":false,"line":1,"time":2,"station_id":"BKS","distance":2368},{"station_id":"KRI","is_transit":false,"time":4,"transit":false,"station_name":"Kranji","distance":2520,"i_lat":-6.224515,"i_long":106.977657,"line":1},{"station_name":"Cakung","i_long":106.951283,"i_lat":-6.219053,"station_id":"CUK","distance":3097,"is_transit":false,"time":3,"line":1,"transit":false},{"distance":1385,"i_lat":-6.217455,"transit":false,"line":1,"station_name":"Klenderbaru","is_transit":false,"station_id":"KLDB","i_long":106.939679,"time":8},{"station_id":"BUA","time":1,"transit":false,"is_transit":false,"line":1,"i_long":106.922662,"distance":1305,"station_name":"Buaran","i_lat":-6.215568},{"i_lat":-6.2135,"station_name":"Klender","station_id":"KLD","line":1,"time":2,"i_long":106.899548,"transit":false,"is_transit":false,"distance":3100},{"distance":3395,"i_long":106.86807400000001,"i_lat":-6.215091,"transit":true,"line":1,"station_id":"JNG","is_transit":true,"station_name":"Jatinegara","time":3},{"transit":false,"time":2,"station_id":"POK","is_transit":false,"distance":1236,"i_lat":-6.209188,"line":11,"station_name":"Pondok Jati","i_long":106.861737},{"line":11,"time":2,"i_long":106.855437,"distance":1829,"station_name":"Kramat","i_lat":-6.193792,"is_transit":false,"station_id":"KMT","transit":false},{"transit":false,"is_transit":false,"i_lat":-6.185975,"station_name":"Gang Sentiong","distance":973,"i_long":106.850107,"line":11,"time":1,"station_id":"GST"},{"is_transit":false,"distance":1567,"station_name":"Pasar Senen","time":8,"i_lat":-6.174784,"transit":false,"line":11,"station_id":"PSE","i_long":106.84368},{"station_name":"Kemayoran","time":4,"transit":false,"line":11,"distance":1436,"i_long":106.839204,"is_transit":false,"i_lat":-6.161728,"station_id":"KMO"},{"line":11,"distance":1901,"station_name":"Rajawali","is_transit":false,"station_id":"RJW","i_lat":-6.14505,"transit":false,"time":5,"i_long":106.836569},{"line":4,"station_name":"Kampung Bandan","is_transit":true,"transit":true,"station_id":"KPB","distance":1444,"i_lat":-6.132549,"i_long":106.826365,"time":3},{"i_long":106.812439,"line":2,"transit":true,"time":3,"station_name":"Jakarta Kota","station_id":"JAKK","i_lat":-6.137569,"is_transit":true,"distance":1364},{"time":4,"transit":false,"is_transit":false,"station_id":"JAY","line":2,"i_long":106.820901,"i_lat":-6.141205,"distance":1264,"station_name":"Jayakarta"},{"distance":1080,"i_lat":-6.149769,"i_long":106.82482,"station_name":"Manggabesar","line":2,"time":2,"transit":false,"station_id":"MGB","is_transit":false},{"i_long":106.827103,"distance":906,"i_lat":-6.160725,"line":2,"is_transit":false,"station_name":"Sawah Besar","station_id":"SW","transit":false,"time":2},{"time":2,"is_transit":false,"station_id":"JUA","line":2,"i_long":106.828284,"station_name":"Juanda","transit":false,"distance":1149,"i_lat":-6.166716},{"i_lat":-6.186295,"station_id":"GDD","time":4,"distance":2015,"transit":false,"station_name":"Gondangdia","is_transit":false,"i_long":106.832183,"line":2},{"line":2,"distance":1750,"station_name":"Cikini","transit":false,"station_id":"CKI","time":3,"i_long":106.840169,"i_lat":-6.198556,"is_transit":false},{"time":4,"i_long":106.84912,"line":2,"station_name":"Manggarai","distance":1590,"is_transit":true,"i_lat":-6.209883,"station_id":"MRI","transit":true},{"line":1,"station_name":"Sudirman","i_long":106.822649,"i_lat":-6.202263,"station_id":"SUD","time":4,"transit":false,"distance":3186,"is_transit":false},{"distance":280,"i_long":106.819881,"i_lat":-6.201433,"is_transit":false,"transit":false,"time":1,"station_name":"Sudirman Baru","line":1,"station_id":"SUDB"},{"time":1,"i_lat":-6.20132,"transit":false,"line":1,"station_id":"KAT","i_long":106.816351,"station_name":"Karet","is_transit":false,"distance":471},{"time":5,"transit":false,"station_name":"Tanah Abang","i_lat":-6.185545,"station_id":"THB","is_transit":false,"i_long":106.811091,"distance":2029,"line":1},{"station_name":"Duri","time":8,"line":1,"i_lat":-6.155215,"i_long":106.800832,"distance":3632,"transit":true,"station_id":"DU","is_transit":true},{"is_transit":false,"i_long":106.788277,"time":3,"distance":1700,"transit":false,"station_id":"GGL","station_name":"Grogol","i_lat":-6.162021,"line":5},{"station_name":"Pesing","is_transit":false,"line":5,"station_id":"PSG","transit":false,"distance":2036,"time":2,"i_lat":-6.161433,"i_long":106.771379}]]}