{"data":[[{"time":0,"distance":0,"is_transit":false,"station_id":"CKR","i_long":107.144613,"transit":false,"station_name":"Cikarang","i_lat":-6.2553149999999995,"line":1},{"distance":3689,"transit":false,"time":4,"i_lat":-6.262938,"station_id":"TLM","station_name":"Metland Telaga Murni","is_transit":false,"line":1,"i_long":107.093313},{"i_lat":-6.261877,"line":1,"distance":2800,"i_long":107.083084,"time":2,"transit":false,"station_name":"Cibitung","station_id":"CIT","is_transit":false},{"station_name":"Tambun","is_transit":false,"station_id":"TB","time":3,"i_long":107.055722,"distance":3420,"i_lat":-6.258864,"line":1,"transit":false},{"is_transit":false,"distance":4460,"line":1,"i_lat":-6.248029,"station_name":"Bekasi Timur","i_long":107.016735,"station_id":"BKST","transit":false,"time":7},{"distance":2368,"is_transit":false,"line":1,"transit":false,"station_name":"Bekasi","i_long":106.997013,"time":2,"station_id":"BKS","i_lat":-6.236616},{"station_name":"Kranji","i_lat":-6.224515,"i_long":106.977657,"transit":false,"station_id":"KRI","is_transit":false,"line":1,"distance":2520,"time":4},{"i_long":106.951283,"i_lat":-6.219053,"station_name":"Cakung","time":3,"line":1,"distance":3097,"station_id":"CUK","is_transit":false,"transit":false},{"station_name":"Klenderbaru","i_long":106.939679,"station_id":"KLDB","is_transit":false,"distance":1385,"transit":false,"time":8,"i_lat":-6.217455,"line":1},{"station_name":"Buaran","station_id":"BUA","i_lat":-6.215568,"distance":1305,"is_transit":false,"i_long":106.922662,"time":1,"transit":false,"line":1},{"time":2,"distance":3100,"i_long":106.899548,"station_id":"KLD","is_transit":false,"line":1,"transit":false,"station_name":"Klender","i_lat":-6.2135},{"distance":3395,"station_id":"JNG","transit":false,"station_name":"Jatinegara","line":1,"i_lat":-6.215091,"i_long":106.86807400000001,"time":3,"is_transit":false},{"is_transit":false,"i_long":106.858896,"station_name":"Matraman","distance":1377,"line":1,"i_lat":-6.212485,"time":2,"station_id":"MTR","transit":false},{"station_name":"Manggarai","i_lat":-6.209883,"time":2,"distance":1275,"transit":false,"i_long":106.84912,"station_id":"MRI","is_transit":false,"line":2},{"station_id":"SUD","time":4,"station_name":"Sudirman","i_long":106.822649,"distance":3186,"line":1,"is_transit":false,"transit":false,"i_lat":-6.202263},{"distance":280,"station_id":"SUDB","i_lat":-6.201433,"line":1,"time":1,"i_long":106.819881,"is_transit":false,"transit":false,"station_name":"Sudirman Baru"},{"station_id":"KAT","time":1,"station_name":"Karet","i_lat":-6.20132,"i_long":106.816351,"line":1,"transit":false,"is_transit":false,"distance":471},{"station_id":"THB","line":1,"is_transit":true,"station_name":"Tanah Abang","distance":2029,"i_long":106.811091,"i_lat":-6.185545,"transit":true,"time":5},{"distance":3191,"line":6,"time":6,"station_id":"PLM","transit":false,"is_transit":false,"i_lat":-6.207404,"i_long":106.79689,"station_name":"Palmerah"},{"i_long":106.780334,"transit":false,"station_name":"Kebayoran","station_id":"KBY","i_lat":-6.237242,"is_transit":false,"distance":3737,"time":7,"line":6},{"station_name":"Pondokranji","time":8,"i_long":106.74273,"line":6,"transit":false,"i_lat":-6.276362,"station_id":"PDJ","distance":6218,"is_transit":false},{"line":6,"station_id":"JMU","station_name":"Jurangmangu","time":3,"is_transit":false,"i_lat":-6.288927,"transit":false,"distance":2179,"i_long":106.728916},{"line":6,"time":4,"station_id":"SDM","transit":false,"i_lat":-6.296963,"station_name":"Sudimara","distance":1994,"is_transit":false,"i_long":106.712277},{"is_transit":false,"transit":false,"time":6,"i_long":106.675475,"distance":4566,"station_name":"Rawa Buntu","station_id":"RU","i_lat":-6.314823,"line":6},{"i_long":106.66566,"station_id":"SRP","distance":2413,"time":4,"station_name":"Serpong","is_transit":false,"i_lat":-6.319871,"line":6,"transit":false},{"is_transit":false,"i_long":106.640411,"distance":1784,"station_id":"CSK","time":4,"line":3,"transit":false,"i_lat":-6.32484,"station_name":"Cisauk"},{"distance":2519,"transit":false,"i_long":106.617853,"time":4,"station_name":"Cicayur","i_lat":-6.329547,"station_id":"CC","is_transit":false,"line":3},{"transit":false,"distance":5968,"is_transit":false,"i_lat":-6.3441410000000005,"station_name":"Parung Panjang","line":6,"time":8,"station_id":"PRP","i_long":106.568863},{"distance":7025,"transit":false,"time":9,"is_transit":false,"i_lat":-6.354349,"i_long":106.508482,"line":3,"station_name":"Cilejit","station_id":"CJT"},{"distance":2675,"is_transit":false,"station_name":"Daru","line":0,"i_lat":-6.338021,"transit":false,"station_id":"DAR","i_long":106.491338,"time":6},{"time":5,"i_lat":-6.327251,"transit":false,"station_id":"TEJ","distance":3902,"station_name":"Tenjo","line":6,"i_long":106.460812,"is_transit":false},{"time":5,"distance":2974,"station_id":"TGS","line":6,"station_name":"Tigaraksa","i_long":106.425991,"i_lat":-6.328533,"transit":false,"is_transit":false},{"transit":false,"station_name":"Cikoya","is_transit":false,"distance":2651,"station_id":"CKY","i_long":106.411216,"time":3,"i_lat":-6.33561,"line":3}],[{"time":0,"transit":false,"i_long":107.144613,"distance":0,"i_lat":-6.2553149999999995,"is_transit":false,"line":1,"station_name":"Cikarang","station_id":"CKR"},{"station_id":"TLM","transit":false,"time":4,"line":1,"distance":3689,"station_name":"Metland Telaga Murni","i_lat":-6.262938,"is_transit":false,"i_long":107.093313},{"i_long":107.083084,"line":1,"is_transit":false,"distance":2800,"station_id":"CIT","time":2,"station_name":"Cibitung","i_lat":-6.261877,"transit":false},{"is_transit":false,"time":3,"distance":3420,"i_lat":-6.258864,"i_long":107.055722,"transit":false,"station_id":"TB","station_name":"Tambun","line":1},{"distance":4460,"transit":false,"station_name":"Bekasi Timur","station_id":"BKST","i_long":107.016735,"time":7,"i_lat":-6.248029,"line":1,"is_transit":false},{"station_name":"Bekasi","is_transit":false,"station_id":"BKS","time":2,"i_lat":-6.236616,"line":1,"distance":2368,"transit":false,"i_long":106.997013},{"station_name":"Kranji","is_transit":false,"distance":2520,"time":4,"i_lat":-6.224515,"station_id":"KRI","line":1,"i_long":106.977657,"transit":false},{"i_long":106.951283,"transit":false,"distance":3097,"is_transit":false,"station_id":"CUK","i_lat":-6.219053,"line":1,"station_name":"Cakung","time":3},{"transit":false,"i_long":106.939679,"distance":1385,"is_transit":false,"line":1,"time":8,"station_id":"KLDB","i_lat":-6.217455,"station_name":"Klenderbaru"},{"i_long":106.922662,"distance":1305,"time":1,"line":1,"station_id":"BUA","station_name":"Buaran","i_lat":-6.215568,"is_transit":false,"transit":false},{"i_lat":-6.2135,"line":1,"station_id":"KLD","distance":3100,"time":2,"is_transit":false,"station_name":"Klender","i_long":106.899548,"transit":false},{"transit":true,"i_long":106.86807400000001,"station_id":"JNG","time":3,"station_name":"Jatinegara","distance":3395,"is_transit":true,"i_lat":-6.215091,"line":1},{"time":2,"station_name":"Pondok Jati","station_id":"POK","i_long":106.861737,"transit":false,"distance":1236,"line":11,"i_lat":-6.209188,"is_transit":false},{"station_name":"Kramat","is_transit":false,"station_id":"KMT","i_long":106.855437,"i_lat":-6.193792,"time":2,"line":11,"distance":1829,"transit":false},{"station_id":"GST","i_long":106.850107,"transit":false,"line":11,"station_name":"Gang Sentiong","distance":973,"time":1,"is_transit":false,"i_lat":-6.185975},{"station_name":"Pasar Senen","i_lat":-6.174784,"is_transit":false,"distance":1567,"station_id":"PSE","time":8,"i_long":106.84368,"line":11,"transit":false},{"is_transit":false,"station_name":"Kemayoran","i_lat":-6.161728,"time":4,"i_long":106.839204,"line":11,"distance":1436,"transit":false,"station_id":"KMO"},{"i_lat":-6.14505,"transit":false,"is_transit":false,"station_name":"Rajawali","line":11,"distance":1901,"time":5,"i_long":106.836569,"station_id":"RJW"},{"station_name":"Kampung Bandan","station_id":"KPB","i_long":106.826365,"distance":1444,"is_transit":true,"i_lat":-6.132549,"transit":true,"line":4,"time":3},{"is_transit":false,"station_id":"AK","line":1,"i_long":106.79867,"transit":false,"station_name":"Angke","distance":4102,"i_lat":-6.144674,"time":9},{"time":4,"i_long":106.800832,"station_name":"Duri","station_id":"DU","i_lat":-6.155215,"line":1,"distance":1230,"is_transit":false,"transit":false},{"station_id":"THB","distance":3632,"i_long":106.811091,"transit":true,"i_lat":-6.185545,"time":8,"station_name":"Tanah Abang","is_transit":true,"line":1},{"station_name":"Palmerah","distance":3191,"station_id":"PLM","is_transit":false,"transit":false,"i_lat":-6.207404,"line":6,"time":6,"i_long":106.79689},{"distance":3737,"station_name":"Kebayoran","is_transit":false,"transit":false,"time":7,"i_long":106.780334,"line":6,"i_lat":-6.237242,"station_id":"KBY"},{"station_name":"Pondokranji","line":6,"transit":false,"time":8,"station_id":"PDJ","distance":6218,"is_transit":false,"i_long":106.74273,"i_lat":-6.276362},{"i_long":106.728916,"is_transit":false,"distance":2179,"station_id":"JMU","transit":false,"station_name":"Jurangmangu","line":6,"time":3,"i_lat":-6.288927},{"transit":false,"time":4,"station_id":"SDM","is_transit":false,"i_lat":-6.296963,"i_long":106.712277,"line":6,"station_name":"Sudimara","distance":1994},{"distance":4566,"station_name":"Rawa Buntu","transit":false,"line":6,"is_transit":false,"station_id":"RU","i_lat":-6.314823,"time":6,"i_long":106.675475},{"i_long":106.66566,"station_name":"Serpong","is_transit":false,"time":4,"transit":false,"distance":2413,"i_lat":-6.319871,"line":6,"station_id":"SRP"},{"transit":false,"line":3,"station_name":"Cisauk","is_transit":false,"distance":1784,"station_id":"CSK","time":4,"i_long":106.640411,"i_lat":-6.32484},{"line":3,"distance":2519,"i_long":106.617853,"i_lat":-6.329547,"transit":false,"station_id":"CC","is_transit":false,"time":4,"station_name":"Cicayur"},{"time":8,"i_long":106.568863,"station_name":"Parung Panjang","is_transit":false,"line":6,"transit":false,"station_id":"PRP","distance":5968,"i_lat":-6.3441410000000005},{"i_long":106.508482,"station_name":"Cilejit","time":9,"distance":7025,"station_id":"CJT","line":3,"is_transit":false,"transit":false,"i_lat":-6.354349},{"distance":2675,"time":6,"is_transit":false,"station_id":"DAR","station_name":"Daru","line":0,"i_lat":-6.338021,"transit":false,"i_long":106.491338},{"line":6,"i_long":106.460812,"is_transit":false,"transit":false,"time":5,"station_name":"Tenjo","i_lat":-6.327251,"station_id":"TEJ","distance":3902},{"transit":false,"i_long":106.425991,"line":6,"distance":2974,"station_name":"Tigaraksa","i_lat":-6.328533,"station_id":"TGS","time":5,"is_transit":false},{"i_lat":-6.33561,"transit":false,"station_name":"Cikoya","line":3,"is_transit":false,"i_long":106.411216,"distance":2651,"station_id":"CKY","time":3}],[{"is_transit":false,"line":1,"distance":0,"time":0,"i_lat":-6.2553149999999995,"station_name":"Cikarang","transit":false,"i_long":107.144613,"station_id":"CKR"},{"transit":false,"time":4,"distance":3689,"line":1,"i_lat":-6.262938,"i_long":107.093313,"station_name":"Metland Telaga Murni","is_transit":false,"station_id":"TLM"},{"distance":2800,"time":2,"station_id":"CIT","i_long":107.083084,"is_transit":false,"station_name":"Cibitung","i_lat":-6.261877,"line":1,"transit":false},{"line":1,"station_id":"TB","i_lat":-6.258864,"transit":false,"distance":3420,"time":3,"is_transit":false,"station_name":"Tambun","i_long":107.055722},{"time":7,"i_lat":-6.248029,"is_transit":false,"line":1,"station_id":"BKST","station_name":"Bekasi Timur","i_long":107.016735,"distance":4460,"transit":false},{"station_name":"Bekasi","line":1,"transit":false,"time":2,"i_lat":-6.236616,"station_id":"BKS","is_transit":false,"i_long":106.997013,"distance":2368},{"is_transit":false,"transit":false,"station_id":"KRI","i_long":106.977657,"distance":2520,"station_name":"Kranji","i_lat":-6.224515,"time":4,"line":1},{"time":3,"transit":false,"is_transit":false,"i_long":106.951283,"distance":3097,"station_id":"CUK","station_name":"Cakung","i_lat":-6.219053,"line":1},{"time":8,"i_long":106.939679,"station_id":"KLDB","line":1,"i_lat":-6.217455,"distance":1385,"transit":false,"is_transit":false,"station_name":"Klenderbaru"},{"is_transit":false,"time":1,"distance":1305,"i_long":106.922662,"transit":false,"station_id":"BUA","line":1,"station_name":"Buaran","i_lat":-6.215568},{"line":1,"station_id":"KLD","time":2,"station_name":"Klender","i_long":106.899548,"i_lat":-6.2135,"distance":3100,"is_transit":false,"transit":false},{"i_lat":-6.215091,"is_transit":false,"line":1,"station_id":"JNG","transit":false,"i_long":106.86807400000001,"distance":3395,"time":3,"station_name":"Jatinegara"},{"line":1,"i_lat":-6.212485,"is_transit":false,"station_id":"MTR","i_long":106.858896,"transit":false,"distance":1377,"time":2,"station_name":"Matraman"},{"i_long":106.84912,"line":2,"time":2,"distance":1275,"station_name":"Manggarai","transit":true,"i_lat":-6.209883,"station_id":"MRI","is_transit":true},{"station_id":"CKI","time":4,"transit":false,"is_transit":false,"station_name":"Cikini","line":2,"i_lat":-6.198556,"i_long":106.840169,"distance":1590},{"station_id":"GDD","distance":1750,"transit":false,"time":3,"i_long":106.832183,"station_name":"Gondangdia","i_lat":-6.186295,"is_transit":false,"line":2},{"is_transit":false,"transit":false,"distance":2015,"i_lat":-6.166716,"i_long":106.828284,"line":2,"station_id":"JUA","time":4,"station_name":"Juanda"},{"transit":false,"station_name":"Sawah Besar","is_transit":false,"distance":1149,"station_id":"SW","i_lat":-6.160725,"i_long":106.827103,"time":2,"line":2},{"i_long":106.82482,"line":2,"station_id":"MGB","distance":906,"time":2,"transit":false,"station_name":"Manggabesar","is_transit":false,"i_lat":-6.149769},{"i_long":106.820901,"station_name":"Jayakarta","station_id":"JAY","i_lat":-6.141205,"distance":1080,"transit":false,"line":2,"is_transit":false,"time":2},{"line":2,"i_lat":-6.137569,"station_id":"JAKK","time":4,"station_name":"Jakarta Kota","transit":true,"i_long":106.812439,"distance":1264,"is_transit":true},{"is_transit":true,"i_lat":-6.132549,"transit":true,"i_long":106.826365,"station_name":"Kampung Bandan","station_id":"KPB","line":4,"distance":1364,"time":3},{"is_transit":false,"station_id":"AK","station_name":"Angke","distance":4102,"i_lat":-6.144674,"transit":false,"time":9,"i_long":106.79867,"line":1},{"is_transit":false,"distance":1230,"transit":false,"line":1,"i_long":106.800832,"time":4,"station_name":"Duri","i_lat":-6.155215,"station_id":"DU"},{"i_long":106.811091,"line":1,"time":8,"i_lat":-6.185545,"station_name":"Tanah Abang","station_id":"THB","is_transit":true,"distance":3632,"transit":true},{"line":6,"transit":false,"i_lat":-6.207404,"is_transit":false,"station_name":"Palmerah","time":6,"station_id":"PLM","i_long":106.79689,"distance":3191},{"distance":3737,"transit":false,"i_long":106.780334,"station_name":"Kebayoran","time":7,"is_transit":false,"station_id":"KBY","i_lat":-6.237242,"line":6},{"i_long":106.74273,"is_transit":false,"line":6,"distance":6218,"i_lat":-6.276362,"time":8,"transit":false,"station_name":"Pondokranji","station_id":"PDJ"},{"line":6,"station_name":"Jurangmangu","is_transit":false,"distance":2179,"transit":false,"i_lat":-6.288927,"station_id":"JMU","i_long":106.728916,"time":3},{"i_long":106.712277,"line":6,"station_id":"SDM","distance":1994,"transit":false,"station_name":"Sudimara","time":4,"is_transit":false,"i_lat":-6.296963},{"station_name":"Rawa Buntu","is_transit":false,"distance":4566,"transit":false,"station_id":"RU","time":6,"i_lat":-6.314823,"i_long":106.675475,"line":6},{"station_id":"SRP","time":4,"is_transit":false,"station_name":"Serpong","line":6,"distance":2413,"i_long":106.66566,"i_lat":-6.319871,"transit":false},{"is_transit":false,"distance":1784,"station_id":"CSK","i_long":106.640411,"line":3,"time":4,"transit":false,"i_lat":-6.32484,"station_name":"Cisauk"},{"i_long":106.617853,"time":4,"distance":2519,"station_id":"CC","is_transit":false,"line":3,"transit":false,"station_name":"Cicayur","i_lat":-6.329547},{"time":8,"transit":false,"line":6,"distance":5968,"i_lat":-6.3441410000000005,"i_long":106.568863,"is_transit":false,"station_name":"Parung Panjang","station_id":"PRP"},{"distance":7025,"station_name":"Cilejit","transit":false,"time":9,"is_transit":false,"i_long":106.508482,"i_lat":-6.354349,"station_id":"CJT","line":3},{"distance":2675,"station_id":"DAR","transit":false,"station_name":"Daru","is_transit":false,"i_lat":-6.338021,"line":0,"time":6,"i_long":106.491338},{"line":6,"station_name":"Tenjo","time":5,"station_id":"TEJ","i_lat":-6.327251,"distance":3902,"transit":false,"is_transit":false,"i_long":106.460812},{"time":5,"distance":2974,"i_long":106.425991,"line":6,"station_id":"TGS","i_lat":-6.328533,"is_transit":false,"transit":false,"station_name":"Tigaraksa"},{"station_id":"CKY","line":3,"is_transit":false,"time":3,"transit":false,"station_name":"Cikoya","i_lat":-6.33561,"distance":2651,"i_long":106.411216}],[{"i_long":107.144613,"line":1,"distance":0,"station_id":"CKR","is_transit":false,"i_lat":-6.2553149999999995,"time":0,"station_name":"Cikarang","transit":false},{"line":1,"i_long":107.093313,"time":4,"station_name":"Metland Telaga Murni","is_transit":false,"i_lat":-6.262938,"transit":false,"distance":3689,"station_id":"TLM"},{"station_id":"CIT","time":2,"is_transit":false,"transit":false,"station_name":"Cibitung","distance":2800,"i_lat":-6.261877,"i_long":107.083084,"line":1},{"i_long":107.055722,"is_transit":false,"line":1,"distance":3420,"station_id":"TB","time":3,"transit":false,"station_name":"Tambun","i_lat":-6.258864},{"time":7,"i_long":107.016735,"station_name":"Bekasi Timur","is_transit":false,"transit":false,"i_lat":-6.248029,"distance":4460,"line":1,"station_id":"BKST"},{"distance":2368,"is_transit":false,"station_id":"BKS","time":2,"i_long":106.997013,"transit":false,"station_name":"Bekasi","line":1,"i_lat":-6.236616},{"is_transit":false,"transit":false,"station_id":"KRI","i_lat":-6.224515,"distance":2520,"line":1,"station_name":"Kranji","i_long":106.977657,"time":4},{"station_id":"CUK","transit":false,"station_name":"Cakung","line":1,"is_transit":false,"i_long":106.951283,"distance":3097,"i_lat":-6.219053,"time":3},{"station_name":"Klenderbaru","distance":1385,"i_lat":-6.217455,"i_long":106.939679,"time":8,"line":1,"is_transit":false,"station_id":"KLDB","transit":false},{"time":1,"distance":1305,"station_name":"Buaran","station_id":"BUA","is_transit":false,"line":1,"i_lat":-6.215568,"transit":false,"i_long":106.922662},{"time":2,"i_lat":-6.2135,"line":1,"distance":3100,"is_transit":false,"station_id":"KLD","i_long":106.899548,"station_name":"Klender","transit":false},{"i_long":106.86807400000001,"i_lat":-6.215091,"distance":3395,"station_id":"JNG","time":3,"transit":true,"line":1,"station_name":"Jatinegara","is_transit":true},{"time":2,"i_lat":-6.209188,"station_name":"Pondok Jati","distance":1236,"line":11,"i_long":106.861737,"transit":false,"station_id":"POK","is_transit":false},{"i_long":106.855437,"distance":1829,"station_name":"Kramat","transit":false,"is_transit":false,"station_id":"KMT","time":2,"line":11,"i_lat":-6.193792},{"i_lat":-6.185975,"transit":false,"is_transit":false,"line":11,"time":1,"station_id":"GST","distance":973,"station_name":"Gang Sentiong","i_long":106.850107},{"i_long":106.84368,"line":11,"is_transit":false,"station_id":"PSE","distance":1567,"transit":false,"time":8,"station_name":"Pasar Senen","i_lat":-6.174784},{"distance":1436,"i_long":106.839204,"is_transit":false,"time":4,"i_lat":-6.161728,"station_name":"Kemayoran","station_id":"KMO","transit":false,"line":11},{"station_name":"Rajawali","i_lat":-6.14505,"i_long":106.836569,"distance":1901,"line":11,"station_id":"RJW","transit":false,"time":5,"is_transit":false},{"i_long":106.826365,"station_name":"Kampung Bandan","time":3,"station_id":"KPB","line":4,"transit":true,"is_transit":true,"i_lat":-6.132549,"distance":1444},{"station_id":"JAKK","i_long":106.812439,"time":3,"line":2,"is_transit":true,"station_name":"Jakarta Kota","distance":1364,"i_lat":-6.137569,"transit":true},{"station_id":"JAY","transit":false,"is_transit":false,"line":2,"station_name":"Jayakarta","i_lat":-6.141205,"distance":1264,"i_long":106.820901,"time":4},{"line":2,"is_transit":false,"station_name":"Manggabesar","i_lat":-6.149769,"i_long":106.82482,"time":2,"transit":false,"distance":1080,"station_id":"MGB"},{"station_id":"SW","is_transit":false,"distance":906,"time":2,"transit":false,"i_lat":-6.160725,"line":2,"station_name":"Sawah Besar","i_long":106.827103},{"transit":false,"station_id":"JUA","station_name":"Juanda","i_long":106.828284,"is_transit":false,"distance":1149,"i_lat":-6.166716,"line":2,"time":2},{"line":2,"time":4,"station_id":"GDD","distance":2015,"transit":false,"is_transit":false,"station_name":"Gondangdia","i_long":106.832183,"i_lat":-6.186295},{"distance":1750,"line":2,"is_transit":false,"i_lat":-6.198556,"i_long":106.840169,"time":3,"station_id":"CKI","station_name":"Cikini","transit":false},{"time":4,"station_name":"Manggarai","is_transit":true,"i_lat":-6.209883,"i_long":106.84912,"line":2,"distance":1590,"station_id":"MRI","transit":true},{"line":1,"station_id":"SUD","time":4,"station_name":"Sudirman","distance":3186,"i_long":106.822649,"i_lat":-6.202263,"transit":false,"is_transit":false},{"i_lat":-6.201433,"station_name":"Sudirman Baru","station_id":"SUDB","distance":280,"is_transit":false,"time":1,"transit":false,"i_long":106.819881,"line":1},{"i_lat":-6.20132,"line":1,"time":1,"station_id":"KAT","is_transit":false,"transit":false,"station_name":"Karet","i_long":106.816351,"distance":471},{"is_transit":true,"station_name":"Tanah Abang","time":5,"station_id":"THB","line":1,"transit":true,"i_lat":-6.185545,"distance":2029,"i_long":106.811091},{"line":6,"station_id":"PLM","transit":false,"time":6,"station_name":"Palmerah","distance":3191,"i_long":106.79689,"i_lat":-6.207404,"is_transit":false},{"is_transit":false,"transit":false,"line":6,"i_long":106.780334,"distance":3737,"station_id":"KBY","station_name":"Kebayoran","i_lat":-6.237242,"time":7},{"i_long":106.74273,"station_id":"PDJ","distance":6218,"line":6,"transit":false,"station_name":"Pondokranji","is_transit":false,"time":8,"i_lat":-6.276362},{"transit":false,"station_id":"JMU","time":3,"station_name":"Jurangmangu","distance":2179,"i_long":106.728916,"i_lat":-6.288927,"line":6,"is_transit":false},{"is_transit":false,"i_long":106.712277,"line":6,"station_name":"Sudimara","distance":1994,"transit":false,"time":4,"i_lat":-6.296963,"station_id":"SDM"},{"line":6,"transit":false,"is_transit":false,"station_name":"Rawa Buntu","i_lat":-6.314823,"distance":4566,"station_id":"RU","i_long":106.675475,"time":6},{"i_long":106.66566,"line":6,"station_name":"Serpong","station_id":"SRP","transit":false,"distance":2413,"i_lat":-6.319871,"time":4,"is_transit":false},{"distance":1784,"i_long":106.640411,"station_id":"CSK","transit":false,"line":3,"i_lat":-6.32484,"is_transit":false,"time":4,"station_name":"Cisauk"},{"distance":2519,"line":3,"station_name":"Cicayur","i_long":106.617853,"time":4,"transit":false,"station_id":"CC","is_transit":false,"i_lat":-6.329547},{"is_transit":false,"time":8,"station_id":"PRP","line":6,"distance":5968,"transit":false,"station_name":"Parung Panjang","i_long":106.568863,"i_lat":-6.3441410000000005},{"is_transit":false,"station_name":"Cilejit","time":9,"i_long":106.508482,"line":3,"station_id":"CJT","transit":false,"i_lat":-6.354349,"distance":7025},{"station_name":"Daru","time":6,"i_long":106.491338,"is_transit":false,"transit":false,"line":0,"station_id":"DAR","i_lat":-6.338021,"distance":2675},{"is_transit":false,"i_lat":-6.327251,"station_name":"Tenjo","distance":3902,"time":5,"i_long":106.460812,"line":6,"transit":false,"station_id":"TEJ"},{"i_long":106.425991,"station_name":"Tigaraksa","distance":2974,"station_id":"TGS","i_lat":-6.328533,"line":6,"transit":false,"is_transit":false,"time":5},{"is_transit":false,"station_name":"Cikoya","i_lat":-6.33561,"distance":2651,"station_id":"CKY","transit":false,"time":3,"line":3,"i_long":106.411216}]]}