{"data":[[{"line":1,"time":0,"i_long":107.144613,"is_transit":false,"transit":false,"station_name":"Cikarang","i_lat":-6.2553149999999995,"distance":0,"station_id":"CKR"},{"line":1,"i_long":107.093313,"time":4,"station_id":"TLM","is_transit":false,"transit":false,"station_name":"Metland Telaga Murni","distance":3689,"i_lat":-6.262938},{"time":2,"line":1,"is_transit":false,"station_name":"Cibitung","station_id":"CIT","transit":false,"i_lat":-6.261877,"distance":2800,"i_long":107.083084},{"station_name":"Tambun","is_transit":false,"line":1,"station_id":"TB","transit":false,"distance":3420,"i_long":107.055722,"time":3,"i_lat":-6.258864},{"i_lat":-6.248029,"time":7,"distance":4460,"station_name":"Bekasi Timur","station_id":"BKST","transit":false,"is_transit":false,"i_long":107.016735,"line":1},{"is_transit":false,"line":1,"i_lat":-6.236616,"transit":false,"time":2,"distance":2368,"i_long":106.997013,"station_name":"Bekasi","station_id":"BKS"},{"is_transit":false,"i_long":106.977657,"station_id":"KRI","station_name":"Kranji","time":4,"i_lat":-6.224515,"line":1,"distance":2520,"transit":false},{"station_name":"Cakung","i_lat":-6.219053,"station_id":"CUK","is_transit":false,"i_long":106.951283,"time":3,"line":1,"distance":3097,"transit":false},{"time":8,"transit":false,"i_lat":-6.217455,"line":1,"i_long":106.939679,"station_id":"KLDB","station_name":"Klenderbaru","distance":1385,"is_transit":false},{"distance":1305,"is_transit":false,"time":1,"i_lat":-6.215568,"line":1,"station_name":"Buaran","station_id":"BUA","transit":false,"i_long":106.922662},{"station_id":"KLD","is_transit":false,"station_name":"Klender","transit":false,"i_long":106.899548,"line":1,"time":2,"distance":3100,"i_lat":-6.2135},{"station_name":"Jatinegara","line":1,"distance":3395,"is_transit":false,"time":3,"station_id":"JNG","transit":false,"i_lat":-6.215091,"i_long":106.86807400000001},{"time":2,"line":1,"is_transit":false,"distance":1377,"i_long":106.858896,"station_id":"MTR","transit":false,"station_name":"Matraman","i_lat":-6.212485},{"distance":1275,"time":2,"is_transit":true,"i_long":106.84912,"station_id":"MRI","i_lat":-6.209883,"transit":true,"station_name":"Manggarai","line":2},{"i_long":106.857948,"transit":false,"station_id":"TEB","distance":2610,"line":2,"station_name":"Tebet","is_transit":false,"i_lat":-6.226659,"time":4},{"line":2,"time":2,"distance":1230,"transit":false,"is_transit":false,"station_id":"CW","station_name":"Cawang","i_lat":-6.242512,"i_long":106.856607},{"station_id":"DRN","is_transit":false,"line":2,"station_name":"Duren Kalibata","distance":1546,"i_lat":-6.255332,"time":3,"i_long":106.85449,"transit":false},{"i_long":106.851577,"time":2,"is_transit":false,"transit":false,"distance":824,"i_lat":-6.263214,"station_id":"PSMB","line":2,"station_name":"Pasar Minggu Baru"},{"i_long":106.843999,"is_transit":false,"station_id":"PSM","station_name":"Pasar Minggu","distance":2380,"line":2,"time":2,"transit":false,"i_lat":-6.2842400000000005},{"time":4,"transit":false,"station_id":"TNT","line":2,"station_name":"Tanjung Barat","i_lat":-6.3080680000000005,"distance":2820,"is_transit":false,"i_long":106.838896},{"station_id":"LNA","time":3,"station_name":"Lenteng Agung","i_lat":-6.330363,"i_long":106.832616,"line":2,"is_transit":false,"distance":2671,"transit":false},{"time":2,"distance":1029,"station_id":"UP","i_lat":-6.339291,"i_long":106.834175,"station_name":"Univ. Pancasila","line":2,"transit":false,"is_transit":false},{"line":2,"distance":2264,"station_name":"Univ. Indonesia","i_long":106.831474,"time":3,"i_lat":-6.360749,"is_transit":false,"station_id":"UI","transit":false},{"i_long":106.831114,"distance":1109,"transit":false,"station_id":"POC","station_name":"Pondok Cina","line":2,"time":2,"is_transit":false,"i_lat":-6.369073},{"station_id":"DPB","time":4,"transit":false,"station_name":"Depokbaru","distance":2727,"i_lat":-6.391065,"is_transit":false,"i_long":106.819451,"line":2},{"line":2,"distance":1584,"transit":false,"i_lat":-6.405256,"time":3,"station_name":"Depok","i_long":106.816926,"is_transit":false,"station_id":"DP"}],[{"station_name":"Cikarang","time":0,"line":1,"distance":0,"transit":false,"i_lat":-6.2553149999999995,"station_id":"CKR","is_transit":false,"i_long":107.144613},{"station_id":"TLM","line":1,"time":4,"distance":3689,"i_lat":-6.262938,"i_long":107.093313,"is_transit":false,"transit":false,"station_name":"Metland Telaga Murni"},{"station_name":"Cibitung","line":1,"station_id":"CIT","is_transit":false,"time":2,"i_lat":-6.261877,"distance":2800,"transit":false,"i_long":107.083084},{"station_name":"Tambun","station_id":"TB","is_transit":false,"line":1,"distance":3420,"i_long":107.055722,"transit":false,"i_lat":-6.258864,"time":3},{"time":7,"i_lat":-6.248029,"line":1,"station_id":"BKST","i_long":107.016735,"station_name":"Bekasi Timur","distance":4460,"is_transit":false,"transit":false},{"i_long":106.997013,"is_transit":false,"time":2,"station_name":"Bekasi","transit":false,"distance":2368,"station_id":"BKS","line":1,"i_lat":-6.236616},{"line":1,"station_id":"KRI","distance":2520,"station_name":"Kranji","is_transit":false,"i_long":106.977657,"transit":false,"i_lat":-6.224515,"time":4},{"station_id":"CUK","is_transit":false,"station_name":"Cakung","i_long":106.951283,"distance":3097,"transit":false,"time":3,"i_lat":-6.219053,"line":1},{"distance":1385,"line":1,"is_transit":false,"i_long":106.939679,"i_lat":-6.217455,"transit":false,"station_id":"KLDB","time":8,"station_name":"Klenderbaru"},{"i_lat":-6.215568,"station_name":"Buaran","i_long":106.922662,"line":1,"transit":false,"distance":1305,"time":1,"is_transit":false,"station_id":"BUA"},{"i_long":106.899548,"station_name":"Klender","distance":3100,"is_transit":false,"station_id":"KLD","transit":false,"i_lat":-6.2135,"line":1,"time":2},{"transit":true,"i_lat":-6.215091,"time":3,"station_name":"Jatinegara","station_id":"JNG","line":1,"is_transit":true,"distance":3395,"i_long":106.86807400000001},{"i_lat":-6.209188,"i_long":106.861737,"line":11,"transit":false,"distance":1236,"is_transit":false,"time":2,"station_id":"POK","station_name":"Pondok Jati"},{"i_long":106.855437,"is_transit":false,"distance":1829,"station_name":"Kramat","line":11,"time":2,"transit":false,"i_lat":-6.193792,"station_id":"KMT"},{"line":11,"time":1,"station_id":"GST","station_name":"Gang Sentiong","i_lat":-6.185975,"distance":973,"transit":false,"is_transit":false,"i_long":106.850107},{"station_name":"Pasar Senen","transit":false,"distance":1567,"i_lat":-6.174784,"line":11,"time":8,"station_id":"PSE","i_long":106.84368,"is_transit":false},{"i_lat":-6.161728,"is_transit":false,"distance":1436,"station_name":"Kemayoran","station_id":"KMO","transit":false,"i_long":106.839204,"line":11,"time":4},{"i_long":106.836569,"distance":1901,"is_transit":false,"i_lat":-6.14505,"station_name":"Rajawali","station_id":"RJW","time":5,"line":11,"transit":false},{"station_name":"Kampung Bandan","time":3,"is_transit":true,"transit":true,"station_id":"KPB","distance":1444,"i_long":106.826365,"i_lat":-6.132549,"line":4},{"is_transit":false,"distance":4102,"station_id":"AK","station_name":"Angke","line":1,"i_lat":-6.144674,"transit":false,"i_long":106.79867,"time":9},{"transit":false,"is_transit":false,"station_id":"DU","i_long":106.800832,"time":4,"station_name":"Duri","distance":1230,"i_lat":-6.155215,"line":1},{"time":8,"station_id":"THB","i_long":106.811091,"station_name":"Tanah Abang","line":1,"transit":false,"distance":3632,"is_transit":false,"i_lat":-6.185545},{"is_transit":false,"i_lat":-6.20132,"transit":false,"i_long":106.816351,"station_name":"Karet","station_id":"KAT","time":5,"distance":2029,"line":1},{"i_long":106.819881,"transit":false,"is_transit":false,"station_id":"SUDB","distance":471,"line":1,"time":1,"station_name":"Sudirman Baru","i_lat":-6.201433},{"distance":280,"station_name":"Sudirman","transit":false,"i_long":106.822649,"station_id":"SUD","line":1,"time":1,"is_transit":false,"i_lat":-6.202263},{"i_lat":-6.209883,"distance":3186,"station_id":"MRI","station_name":"Manggarai","time":4,"i_long":106.84912,"line":2,"is_transit":true,"transit":true},{"station_id":"TEB","station_name":"Tebet","transit":false,"i_lat":-6.226659,"i_long":106.857948,"time":4,"distance":2610,"line":2,"is_transit":false},{"distance":1230,"time":2,"station_id":"CW","i_long":106.856607,"station_name":"Cawang","is_transit":false,"i_lat":-6.242512,"line":2,"transit":false},{"i_long":106.85449,"station_id":"DRN","station_name":"Duren Kalibata","distance":1546,"is_transit":false,"time":3,"transit":false,"i_lat":-6.255332,"line":2},{"time":2,"i_lat":-6.263214,"is_transit":false,"station_name":"Pasar Minggu Baru","i_long":106.851577,"line":2,"transit":false,"station_id":"PSMB","distance":824},{"is_transit":false,"i_long":106.843999,"time":2,"line":2,"transit":false,"distance":2380,"i_lat":-6.2842400000000005,"station_id":"PSM","station_name":"Pasar Minggu"},{"i_lat":-6.3080680000000005,"i_long":106.838896,"line":2,"station_name":"Tanjung Barat","time":4,"distance":2820,"station_id":"TNT","transit":false,"is_transit":false},{"station_id":"LNA","is_transit":false,"time":3,"station_name":"Lenteng Agung","i_lat":-6.330363,"distance":2671,"i_long":106.832616,"transit":false,"line":2},{"station_name":"Univ. Pancasila","line":2,"transit":false,"station_id":"UP","distance":1029,"i_long":106.834175,"is_transit":false,"i_lat":-6.339291,"time":2},{"line":2,"time":3,"station_name":"Univ. Indonesia","station_id":"UI","is_transit":false,"i_lat":-6.360749,"transit":false,"distance":2264,"i_long":106.831474},{"is_transit":false,"transit":false,"i_long":106.831114,"time":2,"i_lat":-6.369073,"distance":1109,"station_id":"POC","line":2,"station_name":"Pondok Cina"},{"line":2,"station_id":"DPB","i_lat":-6.391065,"time":4,"is_transit":false,"i_long":106.819451,"station_name":"Depokbaru","transit":false,"distance":2727},{"line":2,"transit":false,"distance":1584,"i_lat":-6.405256,"time":3,"is_transit":false,"station_name":"Depok","station_id":"DP","i_long":106.816926}],[{"i_long":107.144613,"distance":0,"i_lat":-6.2553149999999995,"is_transit":false,"line":1,"time":0,"station_id":"CKR","transit":false,"station_name":"Cikarang"},{"station_name":"Metland Telaga Murni","i_lat":-6.262938,"station_id":"TLM","i_long":107.093313,"distance":3689,"is_transit":false,"time":4,"line":1,"transit":false},{"i_long":107.083084,"transit":false,"distance":2800,"is_transit":false,"time":2,"i_lat":-6.261877,"station_name":"Cibitung","line":1,"station_id":"CIT"},{"time":3,"transit":false,"station_id":"TB","i_long":107.055722,"i_lat":-6.258864,"is_transit":false,"line":1,"station_name":"Tambun","distance":3420},{"distance":4460,"line":1,"transit":false,"station_name":"Bekasi Timur","is_transit":false,"time":7,"i_lat":-6.248029,"station_id":"BKST","i_long":107.016735},{"line":1,"station_id":"BKS","i_lat":-6.236616,"transit":false,"i_long":106.997013,"is_transit":false,"station_name":"Bekasi","distance":2368,"time":2},{"distance":2520,"i_lat":-6.224515,"station_name":"Kranji","is_transit":false,"station_id":"KRI","i_long":106.977657,"time":4,"line":1,"transit":false},{"station_id":"CUK","i_lat":-6.219053,"time":3,"station_name":"Cakung","i_long":106.951283,"is_transit":false,"distance":3097,"line":1,"transit":false},{"transit":false,"i_long":106.939679,"station_name":"Klenderbaru","is_transit":false,"i_lat":-6.217455,"time":8,"distance":1385,"line":1,"station_id":"KLDB"},{"distance":1305,"time":1,"i_long":106.922662,"station_name":"Buaran","is_transit":false,"station_id":"BUA","transit":false,"i_lat":-6.215568,"line":1},{"distance":3100,"station_id":"KLD","time":2,"transit":false,"i_long":106.899548,"station_name":"Klender","line":1,"is_transit":false,"i_lat":-6.2135},{"station_id":"JNG","is_transit":true,"i_lat":-6.215091,"i_long":106.86807400000001,"transit":true,"time":3,"line":1,"distance":3395,"station_name":"Jatinegara"},{"time":2,"station_id":"POK","i_lat":-6.209188,"is_transit":false,"transit":false,"i_long":106.861737,"distance":1236,"line":11,"station_name":"Pondok Jati"},{"station_name":"Kramat","transit":false,"i_long":106.855437,"line":11,"time":2,"i_lat":-6.193792,"is_transit":false,"distance":1829,"station_id":"KMT"},{"time":1,"i_long":106.850107,"station_id":"GST","line":11,"is_transit":false,"i_lat":-6.185975,"distance":973,"station_name":"Gang Sentiong","transit":false},{"transit":false,"time":8,"station_id":"PSE","line":11,"i_long":106.84368,"is_transit":false,"station_name":"Pasar Senen","distance":1567,"i_lat":-6.174784},{"time":4,"i_long":106.839204,"station_id":"KMO","is_transit":false,"transit":false,"line":11,"i_lat":-6.161728,"distance":1436,"station_name":"Kemayoran"},{"is_transit":false,"time":5,"station_name":"Rajawali","station_id":"RJW","i_long":106.836569,"line":11,"transit":false,"distance":1901,"i_lat":-6.14505},{"station_id":"KPB","i_long":106.826365,"distance":1444,"time":3,"i_lat":-6.132549,"is_transit":true,"transit":true,"station_name":"Kampung Bandan","line":4},{"i_long":106.812439,"line":2,"i_lat":-6.137569,"station_id":"JAKK","time":3,"transit":true,"is_transit":true,"distance":1364,"station_name":"Jakarta Kota"},{"time":4,"i_long":106.820901,"transit":false,"i_lat":-6.141205,"station_name":"Jayakarta","station_id":"JAY","distance":1264,"is_transit":false,"line":2},{"station_name":"Manggabesar","distance":1080,"transit":false,"i_lat":-6.149769,"is_transit":false,"i_long":106.82482,"time":2,"line":2,"station_id":"MGB"},{"line":2,"station_id":"SW","distance":906,"i_lat":-6.160725,"time":2,"station_name":"Sawah Besar","is_transit":false,"i_long":106.827103,"transit":false},{"station_name":"Juanda","i_long":106.828284,"station_id":"JUA","distance":1149,"is_transit":false,"i_lat":-6.166716,"transit":false,"line":2,"time":2},{"station_id":"GDD","transit":false,"time":4,"i_long":106.832183,"distance":2015,"station_name":"Gondangdia","is_transit":false,"line":2,"i_lat":-6.186295},{"distance":1750,"is_transit":false,"i_long":106.840169,"transit":false,"station_id":"CKI","i_lat":-6.198556,"time":3,"station_name":"Cikini","line":2},{"is_transit":false,"station_id":"MRI","i_long":106.84912,"line":2,"station_name":"Manggarai","distance":1590,"transit":false,"time":4,"i_lat":-6.209883},{"time":4,"distance":2610,"line":2,"is_transit":false,"station_name":"Tebet","i_long":106.857948,"station_id":"TEB","i_lat":-6.226659,"transit":false},{"time":2,"station_id":"CW","i_long":106.856607,"line":2,"distance":1230,"station_name":"Cawang","is_transit":false,"i_lat":-6.242512,"transit":false},{"time":3,"is_transit":false,"i_lat":-6.255332,"i_long":106.85449,"line":2,"distance":1546,"station_id":"DRN","transit":false,"station_name":"Duren Kalibata"},{"station_id":"PSMB","time":2,"distance":824,"station_name":"Pasar Minggu Baru","line":2,"is_transit":false,"i_lat":-6.263214,"transit":false,"i_long":106.851577},{"time":2,"i_lat":-6.2842400000000005,"line":2,"i_long":106.843999,"distance":2380,"transit":false,"station_id":"PSM","station_name":"Pasar Minggu","is_transit":false},{"station_name":"Tanjung Barat","distance":2820,"transit":false,"is_transit":false,"time":4,"line":2,"station_id":"TNT","i_lat":-6.3080680000000005,"i_long":106.838896},{"station_name":"Lenteng Agung","line":2,"i_lat":-6.330363,"is_transit":false,"station_id":"LNA","i_long":106.832616,"transit":false,"time":3,"distance":2671},{"distance":1029,"i_lat":-6.339291,"is_transit":false,"time":2,"station_id":"UP","transit":false,"station_name":"Univ. Pancasila","i_long":106.834175,"line":2},{"distance":2264,"is_transit":false,"time":3,"transit":false,"station_id":"UI","i_lat":-6.360749,"station_name":"Univ. Indonesia","line":2,"i_long":106.831474},{"station_id":"POC","transit":false,"i_lat":-6.369073,"line":2,"station_name":"Pondok Cina","is_transit":false,"i_long":106.831114,"distance":1109,"time":2},{"i_lat":-6.391065,"i_long":106.819451,"is_transit":false,"time":4,"distance":2727,"station_name":"Depokbaru","line":2,"station_id":"DPB","transit":false},{"time":3,"transit":false,"is_transit":false,"station_name":"Depok","i_lat":-6.405256,"station_id":"DP","i_long":106.816926,"line":2,"distance":1584}]]}