{"data":[[{"transit":false,"i_lat":-6.2553149999999995,"line":1,"distance":0,"i_long":107.144613,"time":0,"is_transit":false,"station_name":"Cikarang","station_id":"CKR"},{"time":4,"is_transit":false,"station_name":"Metland Telaga Murni","distance":3689,"station_id":"TLM","line":1,"transit":false,"i_lat":-6.262938,"i_long":107.093313},{"is_transit":false,"transit":false,"i_long":107.083084,"line":1,"station_id":"CIT","time":2,"distance":2800,"station_name":"Cibitung","i_lat":-6.261877},{"is_transit":false,"transit":false,"station_id":"TB","time":3,"distance":3420,"i_lat":-6.258864,"line":1,"station_name":"Tambun","i_long":107.055722},{"distance":4460,"transit":false,"is_transit":false,"time":7,"i_long":107.016735,"line":1,"i_lat":-6.248029,"station_name":"Bekasi Timur","station_id":"BKST"},{"time":2,"station_id":"BKS","i_long":106.997013,"line":1,"is_transit":false,"i_lat":-6.236616,"station_name":"Bekasi","distance":2368,"transit":false},{"station_name":"Kranji","i_lat":-6.224515,"line":1,"station_id":"KRI","transit":false,"time":4,"i_long":106.977657,"is_transit":false,"distance":2520},{"transit":false,"time":3,"i_long":106.951283,"distance":3097,"line":1,"is_transit":false,"i_lat":-6.219053,"station_id":"CUK","station_name":"Cakung"},{"is_transit":false,"station_id":"KLDB","transit":false,"time":8,"i_lat":-6.217455,"i_long":106.939679,"distance":1385,"station_name":"Klenderbaru","line":1},{"i_lat":-6.215568,"time":1,"i_long":106.922662,"station_name":"Buaran","distance":1305,"station_id":"BUA","line":1,"is_transit":false,"transit":false},{"station_name":"Klender","i_long":106.899548,"time":2,"transit":false,"distance":3100,"line":1,"i_lat":-6.2135,"is_transit":false,"station_id":"KLD"},{"line":1,"station_name":"Jatinegara","i_lat":-6.215091,"station_id":"JNG","distance":3395,"time":3,"is_transit":false,"transit":false,"i_long":106.86807400000001},{"time":2,"is_transit":false,"station_id":"MTR","distance":1377,"transit":false,"i_lat":-6.212485,"i_long":106.858896,"line":1,"station_name":"Matraman"},{"is_transit":false,"transit":false,"line":2,"i_long":106.84912,"time":2,"station_id":"MRI","station_name":"Manggarai","distance":1275,"i_lat":-6.209883},{"station_name":"Sudirman","i_lat":-6.202263,"is_transit":false,"transit":false,"i_long":106.822649,"station_id":"SUD","line":1,"time":4,"distance":3186},{"station_name":"Sudirman Baru","distance":280,"is_transit":false,"i_long":106.819881,"i_lat":-6.201433,"station_id":"SUDB","transit":false,"time":1,"line":1},{"i_lat":-6.20132,"time":1,"station_name":"Karet","station_id":"KAT","distance":471,"i_long":106.816351,"transit":false,"is_transit":false,"line":1},{"time":5,"station_id":"THB","distance":2029,"transit":false,"is_transit":false,"i_lat":-6.185545,"i_long":106.811091,"line":1,"station_name":"Tanah Abang"},{"i_lat":-6.155215,"distance":3632,"station_name":"Duri","time":8,"line":1,"is_transit":false,"station_id":"DU","i_long":106.800832,"transit":false}],[{"line":1,"distance":0,"station_id":"CKR","station_name":"Cikarang","time":0,"is_transit":false,"i_lat":-6.2553149999999995,"transit":false,"i_long":107.144613},{"station_id":"TLM","time":4,"is_transit":false,"i_long":107.093313,"transit":false,"station_name":"Metland Telaga Murni","distance":3689,"i_lat":-6.262938,"line":1},{"station_id":"CIT","time":2,"station_name":"Cibitung","transit":false,"is_transit":false,"distance":2800,"i_lat":-6.261877,"line":1,"i_long":107.083084},{"line":1,"station_id":"TB","i_lat":-6.258864,"station_name":"Tambun","transit":false,"i_long":107.055722,"distance":3420,"is_transit":false,"time":3},{"i_lat":-6.248029,"is_transit":false,"transit":false,"station_name":"Bekasi Timur","i_long":107.016735,"distance":4460,"station_id":"BKST","time":7,"line":1},{"transit":false,"i_long":106.997013,"station_id":"BKS","i_lat":-6.236616,"station_name":"Bekasi","distance":2368,"line":1,"time":2,"is_transit":false},{"time":4,"station_id":"KRI","distance":2520,"transit":false,"i_lat":-6.224515,"station_name":"Kranji","is_transit":false,"i_long":106.977657,"line":1},{"is_transit":false,"i_lat":-6.219053,"time":3,"i_long":106.951283,"station_name":"Cakung","station_id":"CUK","transit":false,"line":1,"distance":3097},{"station_name":"Klenderbaru","line":1,"transit":false,"i_lat":-6.217455,"time":8,"i_long":106.939679,"is_transit":false,"station_id":"KLDB","distance":1385},{"time":1,"i_long":106.922662,"i_lat":-6.215568,"station_id":"BUA","distance":1305,"line":1,"is_transit":false,"station_name":"Buaran","transit":false},{"station_id":"KLD","transit":false,"distance":3100,"i_long":106.899548,"is_transit":false,"i_lat":-6.2135,"station_name":"Klender","line":1,"time":2},{"line":1,"distance":3395,"i_lat":-6.215091,"is_transit":true,"time":3,"transit":true,"station_id":"JNG","station_name":"Jatinegara","i_long":106.86807400000001},{"distance":1236,"is_transit":false,"line":11,"station_id":"POK","transit":false,"time":2,"i_long":106.861737,"i_lat":-6.209188,"station_name":"Pondok Jati"},{"i_long":106.855437,"station_id":"KMT","time":2,"i_lat":-6.193792,"transit":false,"is_transit":false,"station_name":"Kramat","line":11,"distance":1829},{"transit":false,"time":1,"station_name":"Gang Sentiong","station_id":"GST","i_lat":-6.185975,"is_transit":false,"i_long":106.850107,"line":11,"distance":973},{"station_id":"PSE","is_transit":false,"distance":1567,"i_lat":-6.174784,"transit":false,"time":8,"station_name":"Pasar Senen","i_long":106.84368,"line":11},{"is_transit":false,"time":4,"station_name":"Kemayoran","i_long":106.839204,"transit":false,"i_lat":-6.161728,"distance":1436,"station_id":"KMO","line":11},{"station_name":"Rajawali","is_transit":false,"i_lat":-6.14505,"i_long":106.836569,"line":11,"transit":false,"time":5,"station_id":"RJW","distance":1901},{"is_transit":true,"station_id":"KPB","transit":true,"station_name":"Kampung Bandan","i_lat":-6.132549,"distance":1444,"line":4,"time":3,"i_long":106.826365},{"line":1,"distance":4102,"transit":false,"is_transit":false,"station_name":"Angke","station_id":"AK","time":9,"i_lat":-6.144674,"i_long":106.79867},{"time":4,"station_name":"Duri","i_lat":-6.155215,"distance":1230,"station_id":"DU","line":1,"i_long":106.800832,"is_transit":false,"transit":false}],[{"time":0,"station_id":"CKR","is_transit":false,"transit":false,"distance":0,"station_name":"Cikarang","i_lat":-6.2553149999999995,"line":1,"i_long":107.144613},{"i_lat":-6.262938,"station_name":"Metland Telaga Murni","time":4,"is_transit":false,"transit":false,"line":1,"i_long":107.093313,"station_id":"TLM","distance":3689},{"station_name":"Cibitung","i_lat":-6.261877,"line":1,"i_long":107.083084,"transit":false,"station_id":"CIT","is_transit":false,"time":2,"distance":2800},{"time":3,"station_id":"TB","is_transit":false,"distance":3420,"i_long":107.055722,"transit":false,"station_name":"Tambun","i_lat":-6.258864,"line":1},{"station_id":"BKST","i_lat":-6.248029,"i_long":107.016735,"is_transit":false,"distance":4460,"transit":false,"time":7,"station_name":"Bekasi Timur","line":1},{"station_id":"BKS","i_long":106.997013,"line":1,"time":2,"i_lat":-6.236616,"distance":2368,"transit":false,"is_transit":false,"station_name":"Bekasi"},{"station_name":"Kranji","i_lat":-6.224515,"time":4,"distance":2520,"transit":false,"station_id":"KRI","i_long":106.977657,"is_transit":false,"line":1},{"i_long":106.951283,"i_lat":-6.219053,"line":1,"station_id":"CUK","station_name":"Cakung","transit":false,"time":3,"is_transit":false,"distance":3097},{"is_transit":false,"station_id":"KLDB","transit":false,"i_lat":-6.217455,"time":8,"distance":1385,"i_long":106.939679,"line":1,"station_name":"Klenderbaru"},{"line":1,"station_id":"BUA","distance":1305,"transit":false,"i_lat":-6.215568,"i_long":106.922662,"is_transit":false,"time":1,"station_name":"Buaran"},{"time":2,"line":1,"distance":3100,"is_transit":false,"transit":false,"i_lat":-6.2135,"i_long":106.899548,"station_name":"Klender","station_id":"KLD"},{"time":3,"is_transit":false,"distance":3395,"line":1,"transit":false,"i_long":106.86807400000001,"i_lat":-6.215091,"station_name":"Jatinegara","station_id":"JNG"},{"station_id":"MTR","station_name":"Matraman","distance":1377,"i_long":106.858896,"is_transit":false,"transit":false,"i_lat":-6.212485,"time":2,"line":1},{"station_name":"Manggarai","line":2,"is_transit":true,"time":2,"distance":1275,"transit":true,"station_id":"MRI","i_lat":-6.209883,"i_long":106.84912},{"time":4,"i_lat":-6.198556,"station_id":"CKI","distance":1590,"is_transit":false,"station_name":"Cikini","i_long":106.840169,"transit":false,"line":2},{"time":3,"transit":false,"i_lat":-6.186295,"station_name":"Gondangdia","station_id":"GDD","line":2,"distance":1750,"i_long":106.832183,"is_transit":false},{"transit":false,"is_transit":false,"distance":2015,"i_lat":-6.166716,"station_id":"JUA","time":4,"i_long":106.828284,"station_name":"Juanda","line":2},{"is_transit":false,"station_id":"SW","station_name":"Sawah Besar","distance":1149,"transit":false,"i_lat":-6.160725,"i_long":106.827103,"time":2,"line":2},{"line":2,"transit":false,"i_long":106.82482,"station_id":"MGB","time":2,"is_transit":false,"distance":906,"station_name":"Manggabesar","i_lat":-6.149769},{"transit":false,"distance":1080,"line":2,"is_transit":false,"i_lat":-6.141205,"station_id":"JAY","time":2,"station_name":"Jayakarta","i_long":106.820901},{"line":2,"i_lat":-6.137569,"i_long":106.812439,"station_id":"JAKK","time":4,"transit":true,"station_name":"Jakarta Kota","is_transit":true,"distance":1264},{"station_name":"Kampung Bandan","i_long":106.826365,"i_lat":-6.132549,"line":4,"station_id":"KPB","transit":true,"distance":1364,"time":3,"is_transit":true},{"line":1,"i_long":106.79867,"station_id":"AK","time":9,"i_lat":-6.144674,"transit":false,"station_name":"Angke","is_transit":false,"distance":4102},{"is_transit":false,"transit":false,"line":1,"time":4,"station_id":"DU","i_lat":-6.155215,"station_name":"Duri","i_long":106.800832,"distance":1230}],[{"station_name":"Cikarang","i_long":107.144613,"transit":false,"is_transit":false,"time":0,"station_id":"CKR","distance":0,"line":1,"i_lat":-6.2553149999999995},{"time":4,"is_transit":false,"station_id":"TLM","station_name":"Metland Telaga Murni","i_lat":-6.262938,"line":1,"distance":3689,"transit":false,"i_long":107.093313},{"station_name":"Cibitung","station_id":"CIT","transit":false,"i_lat":-6.261877,"i_long":107.083084,"time":2,"is_transit":false,"distance":2800,"line":1},{"distance":3420,"time":3,"station_id":"TB","transit":false,"line":1,"station_name":"Tambun","i_lat":-6.258864,"is_transit":false,"i_long":107.055722},{"i_long":107.016735,"line":1,"is_transit":false,"distance":4460,"transit":false,"time":7,"i_lat":-6.248029,"station_name":"Bekasi Timur","station_id":"BKST"},{"is_transit":false,"distance":2368,"transit":false,"station_name":"Bekasi","i_lat":-6.236616,"line":1,"time":2,"i_long":106.997013,"station_id":"BKS"},{"station_name":"Kranji","time":4,"line":1,"i_long":106.977657,"distance":2520,"transit":false,"i_lat":-6.224515,"station_id":"KRI","is_transit":false},{"time":3,"is_transit":false,"station_id":"CUK","distance":3097,"i_long":106.951283,"line":1,"station_name":"Cakung","transit":false,"i_lat":-6.219053},{"line":1,"time":8,"station_name":"Klenderbaru","i_long":106.939679,"distance":1385,"i_lat":-6.217455,"is_transit":false,"transit":false,"station_id":"KLDB"},{"time":1,"i_lat":-6.215568,"line":1,"transit":false,"is_transit":false,"station_name":"Buaran","i_long":106.922662,"station_id":"BUA","distance":1305},{"is_transit":false,"station_name":"Klender","i_long":106.899548,"line":1,"transit":false,"distance":3100,"i_lat":-6.2135,"time":2,"station_id":"KLD"},{"i_long":106.86807400000001,"transit":true,"station_id":"JNG","distance":3395,"line":1,"station_name":"Jatinegara","time":3,"is_transit":true,"i_lat":-6.215091},{"station_id":"POK","is_transit":false,"time":2,"distance":1236,"station_name":"Pondok Jati","i_lat":-6.209188,"i_long":106.861737,"line":11,"transit":false},{"line":11,"station_id":"KMT","i_long":106.855437,"is_transit":false,"distance":1829,"station_name":"Kramat","time":2,"transit":false,"i_lat":-6.193792},{"time":1,"line":11,"transit":false,"i_long":106.850107,"station_name":"Gang Sentiong","is_transit":false,"station_id":"GST","distance":973,"i_lat":-6.185975},{"line":11,"time":8,"is_transit":false,"i_long":106.84368,"station_id":"PSE","transit":false,"distance":1567,"station_name":"Pasar Senen","i_lat":-6.174784},{"is_transit":false,"line":11,"i_lat":-6.161728,"distance":1436,"station_name":"Kemayoran","station_id":"KMO","transit":false,"time":4,"i_long":106.839204},{"time":5,"station_name":"Rajawali","i_long":106.836569,"distance":1901,"is_transit":false,"station_id":"RJW","i_lat":-6.14505,"line":11,"transit":false},{"i_lat":-6.132549,"i_long":106.826365,"is_transit":true,"station_name":"Kampung Bandan","distance":1444,"transit":true,"time":3,"line":4,"station_id":"KPB"},{"line":2,"distance":1364,"time":3,"i_long":106.812439,"is_transit":true,"station_name":"Jakarta Kota","transit":true,"station_id":"JAKK","i_lat":-6.137569},{"is_transit":false,"i_lat":-6.141205,"transit":false,"i_long":106.820901,"station_id":"JAY","distance":1264,"line":2,"time":4,"station_name":"Jayakarta"},{"distance":1080,"station_name":"Manggabesar","is_transit":false,"time":2,"i_lat":-6.149769,"line":2,"transit":false,"station_id":"MGB","i_long":106.82482},{"distance":906,"time":2,"transit":false,"line":2,"station_id":"SW","i_lat":-6.160725,"i_long":106.827103,"is_transit":false,"station_name":"Sawah Besar"},{"i_lat":-6.166716,"line":2,"distance":1149,"transit":false,"station_id":"JUA","time":2,"station_name":"Juanda","is_transit":false,"i_long":106.828284},{"station_id":"GDD","distance":2015,"is_transit":false,"line":2,"i_lat":-6.186295,"transit":false,"i_long":106.832183,"time":4,"station_name":"Gondangdia"},{"i_long":106.840169,"transit":false,"station_id":"CKI","line":2,"station_name":"Cikini","time":3,"distance":1750,"is_transit":false,"i_lat":-6.198556},{"transit":true,"station_name":"Manggarai","time":4,"station_id":"MRI","is_transit":true,"i_lat":-6.209883,"i_long":106.84912,"line":2,"distance":1590},{"time":4,"station_id":"SUD","station_name":"Sudirman","i_long":106.822649,"line":1,"distance":3186,"transit":false,"i_lat":-6.202263,"is_transit":false},{"transit":false,"i_long":106.819881,"is_transit":false,"i_lat":-6.201433,"time":1,"station_name":"Sudirman Baru","station_id":"SUDB","distance":280,"line":1},{"time":1,"i_long":106.816351,"station_id":"KAT","distance":471,"i_lat":-6.20132,"is_transit":false,"station_name":"Karet","transit":false,"line":1},{"station_id":"THB","line":1,"time":5,"transit":false,"distance":2029,"station_name":"Tanah Abang","i_lat":-6.185545,"i_long":106.811091,"is_transit":false},{"distance":3632,"i_long":106.800832,"line":1,"is_transit":false,"station_id":"DU","station_name":"Duri","i_lat":-6.155215,"transit":false,"time":8}]]}