{"data":[[{"is_transit":false,"transit":false,"station_name":"Cikarang","i_lat":-6.2553149999999995,"i_long":107.144613,"line":0,"station_id":"CKR","time":0,"distance":0},{"i_long":107.093313,"transit":false,"is_transit":false,"time":4,"distance":3689,"station_name":"Metland Telaga Murni","station_id":"TLM","line":1,"i_lat":-6.262938},{"station_id":"CIT","distance":2800,"line":0,"station_name":"Cibitung","i_long":107.083084,"i_lat":-6.261877,"transit":false,"time":2,"is_transit":false},{"is_transit":false,"station_name":"Tambun","line":1,"time":3,"transit":false,"distance":3420,"i_lat":-6.258864,"station_id":"TB","i_long":107.055722},{"i_lat":-6.248029,"distance":4460,"i_long":107.016735,"is_transit":false,"line":0,"time":7,"station_name":"Bekasi Timur","station_id":"BKST","transit":false},{"i_long":106.997013,"distance":2368,"i_lat":-6.236616,"station_name":"Bekasi","station_id":"BKS","transit":false,"line":0,"is_transit":false,"time":2},{"line":1,"station_name":"Kranji","i_long":106.977657,"distance":2520,"station_id":"KRI","time":4,"transit":false,"is_transit":false,"i_lat":-6.224515},{"line":0,"distance":3097,"time":3,"i_long":106.951283,"transit":false,"i_lat":-6.219053,"station_id":"CUK","station_name":"Cakung","is_transit":false},{"is_transit":false,"station_id":"KLDB","time":8,"station_name":"Klenderbaru","i_lat":-6.217455,"distance":1385,"i_long":106.939679,"line":1,"transit":false},{"line":0,"transit":false,"distance":1305,"station_name":"Buaran","time":1,"i_long":106.922662,"i_lat":-6.215568,"station_id":"BUA","is_transit":false},{"is_transit":false,"i_lat":-6.2135,"time":2,"transit":false,"distance":3100,"station_name":"Klender","i_long":106.899548,"line":1,"station_id":"KLD"},{"distance":3395,"is_transit":true,"i_lat":-6.215091,"station_name":"Jatinegara","line":0,"time":3,"i_long":106.86807400000001,"station_id":"JNG","transit":false},{"i_lat":-6.212485,"distance":1377,"line":1,"station_id":"MTR","transit":false,"is_transit":false,"i_long":106.858896,"time":2,"station_name":"Matraman"},{"i_long":106.84912,"is_transit":true,"distance":1275,"line":0,"station_name":"Manggarai","station_id":"MRI","i_lat":-6.209883,"time":2,"transit":false},{"station_id":"SUD","distance":3186,"i_long":106.822649,"is_transit":false,"line":1,"transit":false,"time":4,"i_lat":-6.202263,"station_name":"Sudirman"},{"time":1,"distance":280,"transit":false,"line":1,"station_id":"SUDB","is_transit":false,"i_lat":-6.201433,"i_long":106.819881,"station_name":"Sudirman Baru"},{"time":1,"i_long":106.816351,"is_transit":false,"station_id":"KAT","station_name":"Karet","line":1,"i_lat":-6.20132,"distance":471,"transit":false},{"distance":2029,"station_id":"THB","i_long":106.811091,"time":5,"is_transit":true,"i_lat":-6.185545,"transit":true,"line":1,"station_name":"Tanah Abang"},{"is_transit":false,"time":6,"transit":false,"line":6,"station_id":"PLM","distance":3191,"i_lat":-6.207404,"i_long":106.79689,"station_name":"Palmerah"},{"is_transit":false,"line":6,"station_id":"KBY","station_name":"Kebayoran","distance":3737,"time":7,"transit":false,"i_lat":-6.237242,"i_long":106.780334},{"is_transit":false,"distance":6218,"i_long":106.74273,"i_lat":-6.276362,"station_name":"Pondokranji","transit":false,"line":6,"station_id":"PDJ","time":8},{"i_lat":-6.288927,"distance":2179,"station_name":"Jurangmangu","time":3,"i_long":106.728916,"station_id":"JMU","is_transit":false,"transit":false,"line":6},{"station_name":"Sudimara","station_id":"SDM","line":6,"transit":false,"i_long":106.712277,"is_transit":false,"distance":1994,"time":4,"i_lat":-6.296963},{"i_long":106.675475,"station_name":"Rawa Buntu","distance":4566,"line":6,"transit":false,"is_transit":false,"station_id":"RU","time":6,"i_lat":-6.314823},{"time":4,"is_transit":false,"station_name":"Serpong","transit":false,"distance":2413,"i_lat":-6.319871,"line":6,"station_id":"SRP","i_long":106.66566},{"station_name":"Cisauk","station_id":"CSK","distance":1784,"i_lat":-6.32484,"i_long":106.640411,"time":4,"line":0,"is_transit":false,"transit":false},{"i_lat":-6.329547,"transit":false,"is_transit":false,"distance":2519,"i_long":106.617853,"station_id":"CC","time":4,"station_name":"Cicayur","line":0},{"is_transit":false,"transit":false,"i_long":106.568863,"distance":5968,"i_lat":-6.3441410000000005,"time":8,"station_name":"Parung Panjang","line":6,"station_id":"PRP"},{"i_lat":-6.354349,"time":9,"station_id":"CJT","transit":false,"distance":7025,"station_name":"Cilejit","i_long":106.508482,"is_transit":false,"line":0},{"station_id":"DAR","transit":false,"is_transit":false,"station_name":"Daru","time":6,"line":0,"distance":2675,"i_lat":-6.338021,"i_long":106.491338},{"distance":3902,"is_transit":false,"i_long":106.460812,"station_id":"TEJ","station_name":"Tenjo","time":5,"transit":false,"i_lat":-6.327251,"line":6},{"time":5,"station_name":"Tigaraksa","is_transit":false,"transit":false,"distance":2974,"i_long":106.425991,"station_id":"TGS","line":6,"i_lat":-6.328533},{"line":0,"station_id":"CKY","time":3,"transit":false,"station_name":"Cikoya","i_lat":-6.33561,"i_long":106.411216,"distance":2651,"is_transit":false}],[{"station_name":"Cikarang","line":0,"is_transit":false,"distance":0,"station_id":"CKR","transit":false,"time":0,"i_long":107.144613,"i_lat":-6.2553149999999995},{"distance":3689,"is_transit":false,"station_name":"Metland Telaga Murni","i_lat":-6.262938,"i_long":107.093313,"transit":false,"line":1,"station_id":"TLM","time":4},{"time":2,"is_transit":false,"station_id":"CIT","station_name":"Cibitung","transit":false,"i_lat":-6.261877,"i_long":107.083084,"line":0,"distance":2800},{"i_long":107.055722,"station_id":"TB","i_lat":-6.258864,"time":3,"station_name":"Tambun","is_transit":false,"line":1,"transit":false,"distance":3420},{"line":0,"transit":false,"distance":4460,"i_lat":-6.248029,"station_id":"BKST","station_name":"Bekasi Timur","time":7,"i_long":107.016735,"is_transit":false},{"time":2,"station_id":"BKS","distance":2368,"i_long":106.997013,"transit":false,"is_transit":false,"i_lat":-6.236616,"station_name":"Bekasi","line":0},{"transit":false,"i_long":106.977657,"station_name":"Kranji","time":4,"station_id":"KRI","distance":2520,"line":1,"is_transit":false,"i_lat":-6.224515},{"is_transit":false,"i_lat":-6.219053,"i_long":106.951283,"line":0,"station_id":"CUK","station_name":"Cakung","time":3,"distance":3097,"transit":false},{"station_id":"KLDB","i_lat":-6.217455,"i_long":106.939679,"line":1,"transit":false,"is_transit":false,"distance":1385,"time":8,"station_name":"Klenderbaru"},{"distance":1305,"station_id":"BUA","station_name":"Buaran","transit":false,"line":0,"is_transit":false,"i_lat":-6.215568,"i_long":106.922662,"time":1},{"distance":3100,"i_long":106.899548,"is_transit":false,"station_id":"KLD","transit":false,"line":1,"time":2,"station_name":"Klender","i_lat":-6.2135},{"station_name":"Jatinegara","time":3,"line":0,"is_transit":true,"distance":3395,"transit":true,"station_id":"JNG","i_long":106.86807400000001,"i_lat":-6.215091},{"station_id":"POK","station_name":"Pondok Jati","is_transit":false,"time":2,"distance":1236,"i_long":106.861737,"i_lat":-6.209188,"line":11,"transit":false},{"is_transit":false,"i_lat":-6.193792,"time":2,"station_name":"Kramat","station_id":"KMT","transit":false,"i_long":106.855437,"line":11,"distance":1829},{"distance":973,"station_id":"GST","station_name":"Gang Sentiong","transit":false,"is_transit":false,"time":1,"i_lat":-6.185975,"line":11,"i_long":106.850107},{"i_lat":-6.174784,"line":11,"station_name":"Pasar Senen","station_id":"PSE","time":8,"is_transit":false,"distance":1567,"i_long":106.84368,"transit":false},{"time":4,"i_lat":-6.161728,"line":11,"station_name":"Kemayoran","is_transit":false,"station_id":"KMO","distance":1436,"transit":false,"i_long":106.839204},{"i_lat":-6.14505,"transit":false,"station_id":"RJW","line":11,"time":5,"station_name":"Rajawali","is_transit":false,"distance":1901,"i_long":106.836569},{"is_transit":true,"i_lat":-6.132549,"i_long":106.826365,"station_id":"KPB","time":3,"transit":true,"station_name":"Kampung Bandan","distance":1444,"line":0},{"station_name":"Angke","time":9,"station_id":"AK","transit":false,"i_lat":-6.144674,"line":0,"is_transit":false,"distance":4102,"i_long":106.79867},{"time":4,"station_name":"Duri","station_id":"DU","transit":true,"is_transit":true,"line":1,"distance":1230,"i_lat":-6.155215,"i_long":106.800832},{"transit":true,"station_name":"Tanah Abang","distance":3632,"i_lat":-6.185545,"is_transit":true,"station_id":"THB","i_long":106.811091,"line":1,"time":8},{"station_id":"PLM","time":6,"transit":false,"line":6,"station_name":"Palmerah","i_long":106.79689,"is_transit":false,"i_lat":-6.207404,"distance":3191},{"is_transit":false,"station_name":"Kebayoran","transit":false,"i_lat":-6.237242,"i_long":106.780334,"distance":3737,"station_id":"KBY","time":7,"line":6},{"station_id":"PDJ","transit":false,"distance":6218,"station_name":"Pondokranji","is_transit":false,"time":8,"i_lat":-6.276362,"line":6,"i_long":106.74273},{"station_id":"JMU","i_lat":-6.288927,"is_transit":false,"station_name":"Jurangmangu","transit":false,"line":6,"time":3,"distance":2179,"i_long":106.728916},{"time":4,"distance":1994,"i_lat":-6.296963,"station_id":"SDM","transit":false,"is_transit":false,"i_long":106.712277,"line":6,"station_name":"Sudimara"},{"station_name":"Rawa Buntu","station_id":"RU","i_lat":-6.314823,"is_transit":false,"time":6,"i_long":106.675475,"transit":false,"distance":4566,"line":6},{"i_long":106.66566,"time":4,"transit":false,"i_lat":-6.319871,"distance":2413,"station_id":"SRP","is_transit":false,"line":6,"station_name":"Serpong"},{"time":4,"station_name":"Cisauk","station_id":"CSK","transit":false,"is_transit":false,"i_lat":-6.32484,"i_long":106.640411,"distance":1784,"line":0},{"transit":false,"is_transit":false,"line":0,"station_id":"CC","time":4,"distance":2519,"i_lat":-6.329547,"i_long":106.617853,"station_name":"Cicayur"},{"transit":false,"i_lat":-6.3441410000000005,"distance":5968,"is_transit":false,"station_name":"Parung Panjang","i_long":106.568863,"station_id":"PRP","line":6,"time":8},{"is_transit":false,"i_long":106.508482,"station_id":"CJT","time":9,"i_lat":-6.354349,"distance":7025,"station_name":"Cilejit","line":0,"transit":false},{"time":6,"distance":2675,"i_long":106.491338,"transit":false,"is_transit":false,"station_name":"Daru","station_id":"DAR","i_lat":-6.338021,"line":0},{"is_transit":false,"i_long":106.460812,"line":6,"station_name":"Tenjo","distance":3902,"time":5,"i_lat":-6.327251,"transit":false,"station_id":"TEJ"},{"time":5,"station_name":"Tigaraksa","is_transit":false,"i_long":106.425991,"distance":2974,"line":6,"transit":false,"i_lat":-6.328533,"station_id":"TGS"},{"i_lat":-6.33561,"is_transit":false,"transit":false,"line":0,"station_id":"CKY","distance":2651,"station_name":"Cikoya","time":3,"i_long":106.411216}],[{"station_name":"Cikarang","station_id":"CKR","transit":false,"is_transit":false,"distance":0,"i_long":107.144613,"time":0,"i_lat":-6.2553149999999995,"line":0},{"time":4,"distance":3689,"line":1,"station_name":"Metland Telaga Murni","is_transit":false,"i_lat":-6.262938,"i_long":107.093313,"station_id":"TLM","transit":false},{"i_lat":-6.261877,"is_transit":false,"station_id":"CIT","distance":2800,"line":0,"station_name":"Cibitung","time":2,"transit":false,"i_long":107.083084},{"station_id":"TB","distance":3420,"i_lat":-6.258864,"station_name":"Tambun","i_long":107.055722,"is_transit":false,"transit":false,"line":1,"time":3},{"time":7,"station_id":"BKST","distance":4460,"i_long":107.016735,"is_transit":false,"transit":false,"line":0,"station_name":"Bekasi Timur","i_lat":-6.248029},{"i_lat":-6.236616,"station_name":"Bekasi","transit":false,"is_transit":false,"distance":2368,"i_long":106.997013,"station_id":"BKS","time":2,"line":0},{"is_transit":false,"i_lat":-6.224515,"distance":2520,"i_long":106.977657,"transit":false,"time":4,"station_name":"Kranji","line":1,"station_id":"KRI"},{"time":3,"is_transit":false,"station_name":"Cakung","transit":false,"i_long":106.951283,"distance":3097,"line":0,"station_id":"CUK","i_lat":-6.219053},{"distance":1385,"is_transit":false,"i_long":106.939679,"station_name":"Klenderbaru","time":8,"i_lat":-6.217455,"transit":false,"line":1,"station_id":"KLDB"},{"i_long":106.922662,"station_name":"Buaran","time":1,"station_id":"BUA","is_transit":false,"line":0,"distance":1305,"transit":false,"i_lat":-6.215568},{"line":1,"i_lat":-6.2135,"i_long":106.899548,"station_id":"KLD","time":2,"transit":false,"is_transit":false,"distance":3100,"station_name":"Klender"},{"station_id":"JNG","time":3,"station_name":"Jatinegara","transit":false,"line":0,"i_lat":-6.215091,"is_transit":true,"distance":3395,"i_long":106.86807400000001},{"line":1,"i_lat":-6.212485,"time":2,"station_id":"MTR","transit":false,"is_transit":false,"station_name":"Matraman","distance":1377,"i_long":106.858896},{"station_id":"MRI","distance":1275,"line":0,"i_lat":-6.209883,"station_name":"Manggarai","i_long":106.84912,"is_transit":true,"time":2,"transit":true},{"station_id":"CKI","is_transit":false,"time":4,"i_lat":-6.198556,"station_name":"Cikini","distance":1590,"i_long":106.840169,"line":0,"transit":false},{"distance":1750,"line":2,"station_name":"Gondangdia","station_id":"GDD","is_transit":false,"i_lat":-6.186295,"i_long":106.832183,"time":3,"transit":false},{"time":4,"is_transit":false,"i_lat":-6.166716,"distance":2015,"station_name":"Juanda","station_id":"JUA","transit":false,"line":2,"i_long":106.828284},{"i_lat":-6.160725,"i_long":106.827103,"station_id":"SW","time":2,"distance":1149,"station_name":"Sawah Besar","transit":false,"is_transit":false,"line":2},{"time":2,"transit":false,"line":2,"station_id":"MGB","distance":906,"is_transit":false,"station_name":"Manggabesar","i_lat":-6.149769,"i_long":106.82482},{"time":2,"transit":false,"station_name":"Jayakarta","is_transit":false,"station_id":"JAY","distance":1080,"i_long":106.820901,"i_lat":-6.141205,"line":7},{"i_lat":-6.137569,"station_name":"Jakarta Kota","time":4,"i_long":106.812439,"distance":1264,"station_id":"JAKK","transit":true,"line":0,"is_transit":true},{"i_long":106.826365,"is_transit":true,"line":0,"station_id":"KPB","i_lat":-6.132549,"station_name":"Kampung Bandan","time":3,"transit":false,"distance":1364},{"station_name":"Angke","transit":false,"distance":4102,"i_long":106.79867,"station_id":"AK","is_transit":false,"line":0,"time":9,"i_lat":-6.144674},{"line":1,"is_transit":true,"distance":1230,"station_name":"Duri","time":4,"station_id":"DU","i_lat":-6.155215,"transit":true,"i_long":106.800832},{"time":8,"station_id":"THB","i_lat":-6.185545,"is_transit":true,"distance":3632,"line":1,"i_long":106.811091,"station_name":"Tanah Abang","transit":true},{"is_transit":false,"station_name":"Palmerah","distance":3191,"i_long":106.79689,"time":6,"station_id":"PLM","transit":false,"i_lat":-6.207404,"line":6},{"i_lat":-6.237242,"station_id":"KBY","distance":3737,"time":7,"is_transit":false,"i_long":106.780334,"transit":false,"station_name":"Kebayoran","line":6},{"transit":false,"time":8,"line":6,"station_id":"PDJ","is_transit":false,"distance":6218,"i_lat":-6.276362,"i_long":106.74273,"station_name":"Pondokranji"},{"line":6,"station_id":"JMU","station_name":"Jurangmangu","i_long":106.728916,"i_lat":-6.288927,"distance":2179,"transit":false,"is_transit":false,"time":3},{"is_transit":false,"station_name":"Sudimara","time":4,"transit":false,"i_lat":-6.296963,"distance":1994,"line":6,"i_long":106.712277,"station_id":"SDM"},{"i_lat":-6.314823,"i_long":106.675475,"station_name":"Rawa Buntu","time":6,"distance":4566,"transit":false,"line":6,"is_transit":false,"station_id":"RU"},{"distance":2413,"i_long":106.66566,"station_name":"Serpong","is_transit":false,"line":6,"transit":false,"time":4,"i_lat":-6.319871,"station_id":"SRP"},{"station_name":"Cisauk","station_id":"CSK","i_lat":-6.32484,"transit":false,"distance":1784,"time":4,"line":0,"is_transit":false,"i_long":106.640411},{"is_transit":false,"transit":false,"line":0,"time":4,"station_name":"Cicayur","station_id":"CC","i_lat":-6.329547,"i_long":106.617853,"distance":2519},{"time":8,"transit":false,"station_id":"PRP","station_name":"Parung Panjang","is_transit":false,"i_lat":-6.3441410000000005,"distance":5968,"line":6,"i_long":106.568863},{"station_id":"CJT","distance":7025,"i_lat":-6.354349,"i_long":106.508482,"station_name":"Cilejit","transit":false,"is_transit":false,"line":0,"time":9},{"is_transit":false,"transit":false,"station_name":"Daru","station_id":"DAR","line":0,"time":6,"distance":2675,"i_lat":-6.338021,"i_long":106.491338},{"station_id":"TEJ","time":5,"i_lat":-6.327251,"line":6,"is_transit":false,"i_long":106.460812,"distance":3902,"station_name":"Tenjo","transit":false},{"transit":false,"distance":2974,"station_id":"TGS","time":5,"i_lat":-6.328533,"line":6,"station_name":"Tigaraksa","i_long":106.425991,"is_transit":false},{"time":3,"is_transit":false,"i_lat":-6.33561,"station_id":"CKY","line":0,"distance":2651,"station_name":"Cikoya","transit":false,"i_long":106.411216}],[{"i_long":107.144613,"station_name":"Cikarang","i_lat":-6.2553149999999995,"station_id":"CKR","line":0,"transit":false,"time":0,"distance":0,"is_transit":false},{"station_name":"Metland Telaga Murni","station_id":"TLM","i_long":107.093313,"i_lat":-6.262938,"distance":3689,"time":4,"transit":false,"is_transit":false,"line":1},{"i_lat":-6.261877,"transit":false,"i_long":107.083084,"is_transit":false,"line":0,"station_name":"Cibitung","station_id":"CIT","time":2,"distance":2800},{"distance":3420,"i_long":107.055722,"station_name":"Tambun","transit":false,"is_transit":false,"time":3,"i_lat":-6.258864,"line":1,"station_id":"TB"},{"is_transit":false,"distance":4460,"station_name":"Bekasi Timur","i_lat":-6.248029,"i_long":107.016735,"line":0,"transit":false,"station_id":"BKST","time":7},{"station_name":"Bekasi","i_long":106.997013,"station_id":"BKS","is_transit":false,"line":0,"transit":false,"distance":2368,"i_lat":-6.236616,"time":2},{"station_id":"KRI","i_long":106.977657,"line":1,"transit":false,"station_name":"Kranji","time":4,"distance":2520,"is_transit":false,"i_lat":-6.224515},{"station_name":"Cakung","is_transit":false,"i_long":106.951283,"distance":3097,"i_lat":-6.219053,"station_id":"CUK","transit":false,"line":0,"time":3},{"i_lat":-6.217455,"time":8,"line":1,"station_name":"Klenderbaru","station_id":"KLDB","transit":false,"is_transit":false,"distance":1385,"i_long":106.939679},{"station_name":"Buaran","station_id":"BUA","transit":false,"is_transit":false,"time":1,"distance":1305,"i_lat":-6.215568,"i_long":106.922662,"line":0},{"station_name":"Klender","i_lat":-6.2135,"station_id":"KLD","time":2,"distance":3100,"i_long":106.899548,"transit":false,"line":1,"is_transit":false},{"transit":true,"i_long":106.86807400000001,"station_id":"JNG","line":0,"is_transit":true,"distance":3395,"i_lat":-6.215091,"station_name":"Jatinegara","time":3},{"station_name":"Pondok Jati","station_id":"POK","time":2,"distance":1236,"i_lat":-6.209188,"is_transit":false,"line":11,"transit":false,"i_long":106.861737},{"station_id":"KMT","transit":false,"line":11,"i_long":106.855437,"is_transit":false,"station_name":"Kramat","time":2,"distance":1829,"i_lat":-6.193792},{"station_name":"Gang Sentiong","distance":973,"time":1,"i_long":106.850107,"station_id":"GST","line":11,"transit":false,"i_lat":-6.185975,"is_transit":false},{"station_id":"PSE","time":8,"distance":1567,"i_lat":-6.174784,"is_transit":false,"transit":false,"line":11,"i_long":106.84368,"station_name":"Pasar Senen"},{"station_id":"KMO","time":4,"distance":1436,"is_transit":false,"station_name":"Kemayoran","i_long":106.839204,"i_lat":-6.161728,"transit":false,"line":11},{"time":5,"is_transit":false,"station_id":"RJW","distance":1901,"i_lat":-6.14505,"line":11,"transit":false,"station_name":"Rajawali","i_long":106.836569},{"transit":true,"line":0,"i_lat":-6.132549,"distance":1444,"is_transit":true,"time":3,"i_long":106.826365,"station_id":"KPB","station_name":"Kampung Bandan"},{"distance":1364,"transit":true,"i_lat":-6.137569,"i_long":106.812439,"line":0,"station_name":"Jakarta Kota","station_id":"JAKK","time":3,"is_transit":true},{"time":4,"station_id":"JAY","i_lat":-6.141205,"i_long":106.820901,"transit":false,"station_name":"Jayakarta","line":7,"is_transit":false,"distance":1264},{"i_lat":-6.149769,"station_id":"MGB","transit":false,"i_long":106.82482,"station_name":"Manggabesar","is_transit":false,"time":2,"distance":1080,"line":2},{"line":2,"distance":906,"i_lat":-6.160725,"i_long":106.827103,"is_transit":false,"time":2,"transit":false,"station_name":"Sawah Besar","station_id":"SW"},{"i_long":106.828284,"time":2,"is_transit":false,"station_id":"JUA","station_name":"Juanda","transit":false,"i_lat":-6.166716,"distance":1149,"line":2},{"distance":2015,"is_transit":false,"i_long":106.832183,"line":2,"transit":false,"station_name":"Gondangdia","time":4,"i_lat":-6.186295,"station_id":"GDD"},{"line":0,"station_id":"CKI","transit":false,"time":3,"station_name":"Cikini","is_transit":false,"i_lat":-6.198556,"distance":1750,"i_long":106.840169},{"i_lat":-6.209883,"is_transit":true,"i_long":106.84912,"transit":true,"station_name":"Manggarai","station_id":"MRI","line":0,"distance":1590,"time":4},{"station_id":"SUD","is_transit":false,"transit":false,"i_lat":-6.202263,"time":4,"i_long":106.822649,"line":1,"station_name":"Sudirman","distance":3186},{"i_lat":-6.201433,"distance":280,"line":1,"transit":false,"i_long":106.819881,"station_name":"Sudirman Baru","station_id":"SUDB","time":1,"is_transit":false},{"station_name":"Karet","is_transit":false,"station_id":"KAT","transit":false,"i_long":106.816351,"line":1,"time":1,"distance":471,"i_lat":-6.20132},{"is_transit":true,"transit":true,"station_id":"THB","time":5,"i_lat":-6.185545,"station_name":"Tanah Abang","i_long":106.811091,"line":1,"distance":2029},{"i_long":106.79689,"time":6,"transit":false,"i_lat":-6.207404,"is_transit":false,"station_id":"PLM","station_name":"Palmerah","distance":3191,"line":6},{"transit":false,"station_id":"KBY","i_lat":-6.237242,"i_long":106.780334,"line":6,"station_name":"Kebayoran","time":7,"is_transit":false,"distance":3737},{"line":6,"time":8,"is_transit":false,"station_name":"Pondokranji","transit":false,"distance":6218,"i_lat":-6.276362,"i_long":106.74273,"station_id":"PDJ"},{"line":6,"is_transit":false,"distance":2179,"station_name":"Jurangmangu","transit":false,"i_long":106.728916,"i_lat":-6.288927,"station_id":"JMU","time":3},{"line":6,"station_name":"Sudimara","transit":false,"is_transit":false,"i_lat":-6.296963,"i_long":106.712277,"distance":1994,"station_id":"SDM","time":4},{"transit":false,"is_transit":false,"i_lat":-6.314823,"distance":4566,"station_name":"Rawa Buntu","station_id":"RU","time":6,"line":6,"i_long":106.675475},{"transit":false,"station_name":"Serpong","distance":2413,"i_long":106.66566,"station_id":"SRP","line":6,"is_transit":false,"time":4,"i_lat":-6.319871},{"station_name":"Cisauk","time":4,"line":0,"transit":false,"i_long":106.640411,"station_id":"CSK","distance":1784,"is_transit":false,"i_lat":-6.32484},{"time":4,"station_name":"Cicayur","transit":false,"i_long":106.617853,"station_id":"CC","distance":2519,"is_transit":false,"i_lat":-6.329547,"line":0},{"i_lat":-6.3441410000000005,"station_name":"Parung Panjang","is_transit":false,"transit":false,"i_long":106.568863,"line":6,"distance":5968,"station_id":"PRP","time":8},{"station_id":"CJT","i_long":106.508482,"station_name":"Cilejit","is_transit":false,"transit":false,"time":9,"distance":7025,"i_lat":-6.354349,"line":0},{"station_name":"Daru","i_long":106.491338,"distance":2675,"transit":false,"station_id":"DAR","line":0,"i_lat":-6.338021,"is_transit":false,"time":6},{"station_id":"TEJ","line":6,"is_transit":false,"time":5,"transit":false,"i_lat":-6.327251,"distance":3902,"i_long":106.460812,"station_name":"Tenjo"},{"transit":false,"distance":2974,"i_long":106.425991,"station_id":"TGS","station_name":"Tigaraksa","i_lat":-6.328533,"line":6,"is_transit":false,"time":5},{"time":3,"transit":false,"distance":2651,"is_transit":false,"i_lat":-6.33561,"station_name":"Cikoya","line":0,"i_long":106.411216,"station_id":"CKY"}]]}