{"data":[[{"is_transit":false,"transit":false,"i_lat":-6.2553149999999995,"distance":0,"i_long":107.144613,"station_id":"CKR","line":0,"station_name":"Cikarang","time":0},{"transit":false,"station_name":"Metland Telaga Murni","i_lat":-6.262938,"i_long":107.093313,"distance":3689,"line":1,"time":4,"station_id":"TLM","is_transit":false},{"i_long":107.083084,"time":2,"line":0,"station_name":"Cibitung","station_id":"CIT","distance":2800,"transit":false,"is_transit":false,"i_lat":-6.261877},{"is_transit":false,"station_name":"Tambun","time":3,"station_id":"TB","i_lat":-6.258864,"i_long":107.055722,"distance":3420,"line":1,"transit":false},{"distance":4460,"transit":false,"i_lat":-6.248029,"i_long":107.016735,"line":0,"is_transit":false,"station_name":"Bekasi Timur","station_id":"BKST","time":7},{"station_id":"BKS","distance":2368,"station_name":"Bekasi","i_lat":-6.236616,"line":0,"is_transit":false,"i_long":106.997013,"time":2,"transit":false},{"transit":false,"time":4,"distance":2520,"i_lat":-6.224515,"is_transit":false,"line":1,"i_long":106.977657,"station_name":"Kranji","station_id":"KRI"},{"time":3,"station_name":"Cakung","i_lat":-6.219053,"distance":3097,"i_long":106.951283,"line":0,"transit":false,"station_id":"CUK","is_transit":false},{"i_long":106.939679,"line":1,"is_transit":false,"station_name":"Klenderbaru","distance":1385,"transit":false,"i_lat":-6.217455,"time":8,"station_id":"KLDB"},{"transit":false,"i_long":106.922662,"station_name":"Buaran","distance":1305,"i_lat":-6.215568,"station_id":"BUA","time":1,"is_transit":false,"line":0},{"line":1,"time":2,"station_id":"KLD","is_transit":false,"transit":false,"distance":3100,"station_name":"Klender","i_lat":-6.2135,"i_long":106.899548},{"station_name":"Jatinegara","transit":false,"is_transit":true,"i_lat":-6.215091,"station_id":"JNG","line":0,"distance":3395,"time":3,"i_long":106.86807400000001},{"i_long":106.858896,"time":2,"i_lat":-6.212485,"station_name":"Matraman","station_id":"MTR","transit":false,"distance":1377,"line":1,"is_transit":false},{"i_lat":-6.209883,"transit":false,"i_long":106.84912,"distance":1275,"time":2,"is_transit":true,"station_name":"Manggarai","line":0,"station_id":"MRI"},{"distance":3186,"station_name":"Sudirman","transit":false,"i_long":106.822649,"station_id":"SUD","is_transit":false,"line":1,"i_lat":-6.202263,"time":4},{"i_lat":-6.201433,"is_transit":false,"transit":false,"station_name":"Sudirman Baru","i_long":106.819881,"time":1,"line":1,"distance":280,"station_id":"SUDB"},{"i_lat":-6.20132,"station_id":"KAT","distance":471,"line":1,"i_long":106.816351,"time":1,"station_name":"Karet","transit":false,"is_transit":false},{"transit":true,"distance":2029,"is_transit":true,"time":5,"i_lat":-6.185545,"line":1,"station_name":"Tanah Abang","station_id":"THB","i_long":106.811091},{"distance":3191,"station_id":"PLM","station_name":"Palmerah","transit":false,"is_transit":false,"line":6,"time":6,"i_lat":-6.207404,"i_long":106.79689},{"i_lat":-6.237242,"transit":false,"i_long":106.780334,"station_id":"KBY","time":7,"distance":3737,"line":6,"station_name":"Kebayoran","is_transit":false},{"station_name":"Pondokranji","distance":6218,"line":6,"i_lat":-6.276362,"station_id":"PDJ","i_long":106.74273,"is_transit":false,"time":8,"transit":false},{"i_lat":-6.288927,"time":3,"line":6,"station_id":"JMU","is_transit":false,"distance":2179,"station_name":"Jurangmangu","transit":false,"i_long":106.728916},{"line":6,"station_id":"SDM","i_lat":-6.296963,"is_transit":false,"time":4,"i_long":106.712277,"distance":1994,"station_name":"Sudimara","transit":false},{"station_name":"Rawa Buntu","distance":4566,"transit":false,"i_lat":-6.314823,"i_long":106.675475,"station_id":"RU","is_transit":false,"line":6,"time":6},{"transit":false,"station_id":"SRP","i_lat":-6.319871,"station_name":"Serpong","line":6,"distance":2413,"is_transit":false,"time":4,"i_long":106.66566},{"distance":1784,"i_long":106.640411,"transit":false,"line":0,"station_id":"CSK","time":4,"station_name":"Cisauk","i_lat":-6.32484,"is_transit":false},{"line":0,"is_transit":false,"i_lat":-6.329547,"distance":2519,"station_name":"Cicayur","station_id":"CC","time":4,"transit":false,"i_long":106.617853},{"distance":5968,"i_lat":-6.3441410000000005,"line":6,"station_name":"Parung Panjang","station_id":"PRP","time":8,"transit":false,"i_long":106.568863,"is_transit":false}],[{"time":0,"line":0,"distance":0,"station_name":"Cikarang","i_lat":-6.2553149999999995,"is_transit":false,"transit":false,"station_id":"CKR","i_long":107.144613},{"line":1,"is_transit":false,"time":4,"distance":3689,"transit":false,"i_lat":-6.262938,"i_long":107.093313,"station_id":"TLM","station_name":"Metland Telaga Murni"},{"station_name":"Cibitung","i_long":107.083084,"i_lat":-6.261877,"time":2,"is_transit":false,"distance":2800,"transit":false,"line":0,"station_id":"CIT"},{"station_id":"TB","line":1,"station_name":"Tambun","i_lat":-6.258864,"i_long":107.055722,"time":3,"distance":3420,"is_transit":false,"transit":false},{"line":0,"i_long":107.016735,"station_name":"Bekasi Timur","is_transit":false,"station_id":"BKST","distance":4460,"transit":false,"i_lat":-6.248029,"time":7},{"transit":false,"station_id":"BKS","i_long":106.997013,"station_name":"Bekasi","line":0,"i_lat":-6.236616,"is_transit":false,"time":2,"distance":2368},{"distance":2520,"transit":false,"line":1,"is_transit":false,"station_name":"Kranji","station_id":"KRI","time":4,"i_long":106.977657,"i_lat":-6.224515},{"time":3,"transit":false,"distance":3097,"i_long":106.951283,"line":0,"station_name":"Cakung","is_transit":false,"station_id":"CUK","i_lat":-6.219053},{"station_id":"KLDB","is_transit":false,"time":8,"transit":false,"i_long":106.939679,"i_lat":-6.217455,"station_name":"Klenderbaru","line":1,"distance":1385},{"transit":false,"station_id":"BUA","distance":1305,"is_transit":false,"i_lat":-6.215568,"station_name":"Buaran","time":1,"line":0,"i_long":106.922662},{"is_transit":false,"i_lat":-6.2135,"time":2,"i_long":106.899548,"station_id":"KLD","distance":3100,"transit":false,"line":1,"station_name":"Klender"},{"i_lat":-6.215091,"transit":true,"distance":3395,"i_long":106.86807400000001,"station_id":"JNG","station_name":"Jatinegara","line":0,"time":3,"is_transit":true},{"i_lat":-6.209188,"is_transit":false,"time":2,"transit":false,"distance":1236,"station_name":"Pondok Jati","i_long":106.861737,"station_id":"POK","line":11},{"distance":1829,"i_lat":-6.193792,"i_long":106.855437,"time":2,"is_transit":false,"station_name":"Kramat","transit":false,"line":11,"station_id":"KMT"},{"i_lat":-6.185975,"i_long":106.850107,"station_id":"GST","station_name":"Gang Sentiong","line":11,"is_transit":false,"distance":973,"time":1,"transit":false},{"station_id":"PSE","time":8,"line":11,"i_long":106.84368,"is_transit":false,"transit":false,"station_name":"Pasar Senen","i_lat":-6.174784,"distance":1567},{"i_lat":-6.161728,"time":4,"station_id":"KMO","station_name":"Kemayoran","i_long":106.839204,"line":11,"is_transit":false,"distance":1436,"transit":false},{"i_long":106.836569,"time":5,"i_lat":-6.14505,"transit":false,"distance":1901,"is_transit":false,"line":11,"station_name":"Rajawali","station_id":"RJW"},{"is_transit":true,"line":0,"station_id":"KPB","station_name":"Kampung Bandan","i_lat":-6.132549,"transit":true,"i_long":106.826365,"distance":1444,"time":3},{"distance":4102,"time":9,"is_transit":false,"transit":false,"i_lat":-6.144674,"i_long":106.79867,"line":0,"station_name":"Angke","station_id":"AK"},{"is_transit":true,"i_lat":-6.155215,"transit":true,"time":4,"station_name":"Duri","line":1,"station_id":"DU","distance":1230,"i_long":106.800832},{"line":1,"distance":3632,"station_name":"Tanah Abang","is_transit":true,"time":8,"i_long":106.811091,"station_id":"THB","i_lat":-6.185545,"transit":true},{"time":6,"i_lat":-6.207404,"station_id":"PLM","station_name":"Palmerah","transit":false,"distance":3191,"i_long":106.79689,"line":6,"is_transit":false},{"i_long":106.780334,"distance":3737,"i_lat":-6.237242,"line":6,"transit":false,"station_id":"KBY","station_name":"Kebayoran","is_transit":false,"time":7},{"is_transit":false,"station_name":"Pondokranji","distance":6218,"transit":false,"station_id":"PDJ","i_lat":-6.276362,"line":6,"i_long":106.74273,"time":8},{"i_long":106.728916,"transit":false,"line":6,"distance":2179,"station_id":"JMU","time":3,"i_lat":-6.288927,"is_transit":false,"station_name":"Jurangmangu"},{"transit":false,"time":4,"distance":1994,"station_name":"Sudimara","is_transit":false,"i_long":106.712277,"line":6,"station_id":"SDM","i_lat":-6.296963},{"is_transit":false,"distance":4566,"i_long":106.675475,"station_name":"Rawa Buntu","station_id":"RU","time":6,"line":6,"transit":false,"i_lat":-6.314823},{"transit":false,"distance":2413,"station_name":"Serpong","i_lat":-6.319871,"line":6,"station_id":"SRP","i_long":106.66566,"is_transit":false,"time":4},{"station_id":"CSK","time":4,"i_lat":-6.32484,"i_long":106.640411,"is_transit":false,"distance":1784,"line":0,"transit":false,"station_name":"Cisauk"},{"is_transit":false,"distance":2519,"station_name":"Cicayur","i_long":106.617853,"station_id":"CC","time":4,"i_lat":-6.329547,"transit":false,"line":0},{"time":8,"transit":false,"station_id":"PRP","is_transit":false,"i_lat":-6.3441410000000005,"line":6,"i_long":106.568863,"station_name":"Parung Panjang","distance":5968}],[{"time":0,"station_id":"CKR","station_name":"Cikarang","transit":false,"line":0,"i_long":107.144613,"is_transit":false,"distance":0,"i_lat":-6.2553149999999995},{"station_id":"TLM","distance":3689,"is_transit":false,"i_long":107.093313,"transit":false,"i_lat":-6.262938,"line":1,"station_name":"Metland Telaga Murni","time":4},{"is_transit":false,"station_name":"Cibitung","line":0,"time":2,"i_lat":-6.261877,"distance":2800,"i_long":107.083084,"station_id":"CIT","transit":false},{"time":3,"distance":3420,"i_lat":-6.258864,"station_id":"TB","i_long":107.055722,"transit":false,"station_name":"Tambun","line":1,"is_transit":false},{"transit":false,"time":7,"line":0,"distance":4460,"station_id":"BKST","station_name":"Bekasi Timur","i_long":107.016735,"i_lat":-6.248029,"is_transit":false},{"i_long":106.997013,"line":0,"station_name":"Bekasi","time":2,"i_lat":-6.236616,"station_id":"BKS","distance":2368,"transit":false,"is_transit":false},{"station_id":"KRI","i_lat":-6.224515,"line":1,"station_name":"Kranji","time":4,"is_transit":false,"distance":2520,"i_long":106.977657,"transit":false},{"time":3,"station_id":"CUK","is_transit":false,"distance":3097,"station_name":"Cakung","transit":false,"i_lat":-6.219053,"i_long":106.951283,"line":0},{"line":1,"time":8,"distance":1385,"transit":false,"station_name":"Klenderbaru","i_lat":-6.217455,"i_long":106.939679,"station_id":"KLDB","is_transit":false},{"distance":1305,"time":1,"line":0,"i_long":106.922662,"is_transit":false,"station_name":"Buaran","transit":false,"station_id":"BUA","i_lat":-6.215568},{"is_transit":false,"station_id":"KLD","station_name":"Klender","line":1,"i_lat":-6.2135,"transit":false,"i_long":106.899548,"distance":3100,"time":2},{"station_name":"Jatinegara","is_transit":true,"time":3,"i_lat":-6.215091,"distance":3395,"line":0,"transit":false,"i_long":106.86807400000001,"station_id":"JNG"},{"is_transit":false,"station_name":"Matraman","i_long":106.858896,"station_id":"MTR","transit":false,"time":2,"distance":1377,"i_lat":-6.212485,"line":1},{"i_lat":-6.209883,"line":0,"i_long":106.84912,"time":2,"is_transit":true,"station_name":"Manggarai","station_id":"MRI","distance":1275,"transit":true},{"time":4,"station_name":"Cikini","station_id":"CKI","distance":1590,"transit":false,"i_lat":-6.198556,"i_long":106.840169,"line":0,"is_transit":false},{"i_long":106.832183,"distance":1750,"is_transit":false,"station_id":"GDD","station_name":"Gondangdia","line":2,"time":3,"transit":false,"i_lat":-6.186295},{"station_name":"Juanda","time":4,"transit":false,"is_transit":false,"i_lat":-6.166716,"i_long":106.828284,"distance":2015,"line":2,"station_id":"JUA"},{"i_long":106.827103,"i_lat":-6.160725,"station_id":"SW","line":2,"is_transit":false,"distance":1149,"time":2,"station_name":"Sawah Besar","transit":false},{"i_lat":-6.149769,"time":2,"station_id":"MGB","is_transit":false,"transit":false,"i_long":106.82482,"station_name":"Manggabesar","distance":906,"line":2},{"station_name":"Jayakarta","i_lat":-6.141205,"i_long":106.820901,"is_transit":false,"time":2,"distance":1080,"station_id":"JAY","line":7,"transit":false},{"i_long":106.812439,"line":0,"station_id":"JAKK","is_transit":true,"distance":1264,"i_lat":-6.137569,"time":4,"station_name":"Jakarta Kota","transit":true},{"station_id":"KPB","is_transit":true,"distance":1364,"station_name":"Kampung Bandan","i_long":106.826365,"transit":false,"time":3,"line":0,"i_lat":-6.132549},{"i_long":106.79867,"is_transit":false,"distance":4102,"station_name":"Angke","time":9,"i_lat":-6.144674,"transit":false,"station_id":"AK","line":0},{"i_lat":-6.155215,"is_transit":true,"line":1,"distance":1230,"transit":true,"i_long":106.800832,"time":4,"station_id":"DU","station_name":"Duri"},{"line":1,"transit":true,"station_id":"THB","is_transit":true,"station_name":"Tanah Abang","time":8,"distance":3632,"i_lat":-6.185545,"i_long":106.811091},{"distance":3191,"station_name":"Palmerah","transit":false,"station_id":"PLM","is_transit":false,"i_lat":-6.207404,"i_long":106.79689,"line":6,"time":6},{"i_lat":-6.237242,"station_name":"Kebayoran","line":6,"is_transit":false,"time":7,"distance":3737,"i_long":106.780334,"transit":false,"station_id":"KBY"},{"time":8,"i_lat":-6.276362,"i_long":106.74273,"is_transit":false,"station_name":"Pondokranji","station_id":"PDJ","line":6,"distance":6218,"transit":false},{"distance":2179,"i_long":106.728916,"station_name":"Jurangmangu","is_transit":false,"transit":false,"time":3,"station_id":"JMU","i_lat":-6.288927,"line":6},{"transit":false,"i_long":106.712277,"time":4,"distance":1994,"station_id":"SDM","station_name":"Sudimara","is_transit":false,"i_lat":-6.296963,"line":6},{"station_id":"RU","station_name":"Rawa Buntu","distance":4566,"is_transit":false,"i_lat":-6.314823,"transit":false,"i_long":106.675475,"time":6,"line":6},{"line":6,"station_name":"Serpong","time":4,"i_lat":-6.319871,"station_id":"SRP","distance":2413,"transit":false,"is_transit":false,"i_long":106.66566},{"station_name":"Cisauk","time":4,"station_id":"CSK","i_lat":-6.32484,"distance":1784,"is_transit":false,"line":0,"i_long":106.640411,"transit":false},{"station_name":"Cicayur","station_id":"CC","distance":2519,"time":4,"is_transit":false,"transit":false,"i_lat":-6.329547,"i_long":106.617853,"line":0},{"distance":5968,"station_name":"Parung Panjang","transit":false,"i_long":106.568863,"line":6,"is_transit":false,"i_lat":-6.3441410000000005,"station_id":"PRP","time":8}],[{"distance":0,"station_id":"CKR","time":0,"station_name":"Cikarang","i_long":107.144613,"i_lat":-6.2553149999999995,"line":0,"transit":false,"is_transit":false},{"station_id":"TLM","station_name":"Metland Telaga Murni","is_transit":false,"transit":false,"time":4,"i_long":107.093313,"line":1,"distance":3689,"i_lat":-6.262938},{"i_long":107.083084,"station_name":"Cibitung","distance":2800,"is_transit":false,"line":0,"station_id":"CIT","time":2,"transit":false,"i_lat":-6.261877},{"i_lat":-6.258864,"line":1,"station_name":"Tambun","station_id":"TB","i_long":107.055722,"is_transit":false,"time":3,"distance":3420,"transit":false},{"is_transit":false,"i_long":107.016735,"station_id":"BKST","station_name":"Bekasi Timur","distance":4460,"line":0,"time":7,"i_lat":-6.248029,"transit":false},{"time":2,"i_long":106.997013,"is_transit":false,"distance":2368,"station_id":"BKS","i_lat":-6.236616,"station_name":"Bekasi","line":0,"transit":false},{"i_lat":-6.224515,"station_name":"Kranji","station_id":"KRI","is_transit":false,"transit":false,"i_long":106.977657,"time":4,"line":1,"distance":2520},{"line":0,"i_lat":-6.219053,"i_long":106.951283,"is_transit":false,"time":3,"distance":3097,"station_id":"CUK","station_name":"Cakung","transit":false},{"i_lat":-6.217455,"i_long":106.939679,"is_transit":false,"station_id":"KLDB","distance":1385,"station_name":"Klenderbaru","line":1,"time":8,"transit":false},{"time":1,"transit":false,"station_id":"BUA","distance":1305,"station_name":"Buaran","i_long":106.922662,"line":0,"i_lat":-6.215568,"is_transit":false},{"station_id":"KLD","time":2,"i_long":106.899548,"line":1,"station_name":"Klender","is_transit":false,"transit":false,"i_lat":-6.2135,"distance":3100},{"station_id":"JNG","i_long":106.86807400000001,"distance":3395,"i_lat":-6.215091,"time":3,"station_name":"Jatinegara","is_transit":true,"transit":true,"line":0},{"station_id":"POK","station_name":"Pondok Jati","transit":false,"i_lat":-6.209188,"distance":1236,"i_long":106.861737,"time":2,"is_transit":false,"line":11},{"is_transit":false,"i_lat":-6.193792,"transit":false,"time":2,"line":11,"i_long":106.855437,"station_id":"KMT","station_name":"Kramat","distance":1829},{"station_id":"GST","distance":973,"i_long":106.850107,"time":1,"is_transit":false,"i_lat":-6.185975,"station_name":"Gang Sentiong","transit":false,"line":11},{"transit":false,"station_id":"PSE","station_name":"Pasar Senen","i_long":106.84368,"is_transit":false,"time":8,"i_lat":-6.174784,"line":11,"distance":1567},{"i_long":106.839204,"i_lat":-6.161728,"line":11,"is_transit":false,"time":4,"station_id":"KMO","distance":1436,"transit":false,"station_name":"Kemayoran"},{"line":11,"station_id":"RJW","i_lat":-6.14505,"transit":false,"is_transit":false,"station_name":"Rajawali","i_long":106.836569,"time":5,"distance":1901},{"i_lat":-6.132549,"station_id":"KPB","line":0,"i_long":106.826365,"distance":1444,"station_name":"Kampung Bandan","transit":true,"is_transit":true,"time":3},{"time":3,"distance":1364,"line":0,"is_transit":true,"i_lat":-6.137569,"i_long":106.812439,"station_name":"Jakarta Kota","station_id":"JAKK","transit":true},{"distance":1264,"transit":false,"i_lat":-6.141205,"line":7,"station_name":"Jayakarta","station_id":"JAY","time":4,"i_long":106.820901,"is_transit":false},{"station_id":"MGB","time":2,"station_name":"Manggabesar","line":2,"is_transit":false,"transit":false,"i_long":106.82482,"i_lat":-6.149769,"distance":1080},{"i_lat":-6.160725,"is_transit":false,"transit":false,"station_id":"SW","station_name":"Sawah Besar","line":2,"i_long":106.827103,"time":2,"distance":906},{"is_transit":false,"i_lat":-6.166716,"time":2,"station_name":"Juanda","station_id":"JUA","distance":1149,"i_long":106.828284,"line":2,"transit":false},{"i_lat":-6.186295,"distance":2015,"transit":false,"is_transit":false,"i_long":106.832183,"station_name":"Gondangdia","time":4,"station_id":"GDD","line":2},{"line":0,"distance":1750,"i_long":106.840169,"station_name":"Cikini","transit":false,"i_lat":-6.198556,"time":3,"is_transit":false,"station_id":"CKI"},{"station_id":"MRI","i_long":106.84912,"distance":1590,"transit":true,"time":4,"i_lat":-6.209883,"line":0,"is_transit":true,"station_name":"Manggarai"},{"i_lat":-6.202263,"is_transit":false,"transit":false,"distance":3186,"station_id":"SUD","i_long":106.822649,"time":4,"station_name":"Sudirman","line":1},{"distance":280,"is_transit":false,"station_id":"SUDB","station_name":"Sudirman Baru","i_lat":-6.201433,"line":1,"i_long":106.819881,"transit":false,"time":1},{"transit":false,"station_name":"Karet","i_long":106.816351,"line":1,"station_id":"KAT","is_transit":false,"time":1,"distance":471,"i_lat":-6.20132},{"distance":2029,"is_transit":true,"station_name":"Tanah Abang","transit":true,"i_lat":-6.185545,"time":5,"i_long":106.811091,"station_id":"THB","line":1},{"i_long":106.79689,"line":6,"is_transit":false,"time":6,"transit":false,"station_id":"PLM","i_lat":-6.207404,"station_name":"Palmerah","distance":3191},{"distance":3737,"i_long":106.780334,"is_transit":false,"line":6,"transit":false,"station_name":"Kebayoran","time":7,"i_lat":-6.237242,"station_id":"KBY"},{"is_transit":false,"line":6,"distance":6218,"transit":false,"station_id":"PDJ","station_name":"Pondokranji","i_lat":-6.276362,"time":8,"i_long":106.74273},{"distance":2179,"i_long":106.728916,"line":6,"i_lat":-6.288927,"is_transit":false,"station_id":"JMU","time":3,"transit":false,"station_name":"Jurangmangu"},{"station_id":"SDM","distance":1994,"line":6,"is_transit":false,"station_name":"Sudimara","time":4,"transit":false,"i_lat":-6.296963,"i_long":106.712277},{"line":6,"station_name":"Rawa Buntu","i_long":106.675475,"i_lat":-6.314823,"station_id":"RU","time":6,"distance":4566,"transit":false,"is_transit":false},{"i_long":106.66566,"station_name":"Serpong","line":6,"transit":false,"distance":2413,"station_id":"SRP","is_transit":false,"time":4,"i_lat":-6.319871},{"line":0,"is_transit":false,"station_id":"CSK","time":4,"transit":false,"distance":1784,"i_lat":-6.32484,"station_name":"Cisauk","i_long":106.640411},{"i_lat":-6.329547,"is_transit":false,"transit":false,"time":4,"i_long":106.617853,"line":0,"distance":2519,"station_id":"CC","station_name":"Cicayur"},{"is_transit":false,"time":8,"station_id":"PRP","station_name":"Parung Panjang","transit":false,"i_lat":-6.3441410000000005,"line":6,"distance":5968,"i_long":106.568863}]]}