{"data":[[{"is_transit":false,"time":0,"i_long":107.144613,"distance":0,"i_lat":-6.2553149999999995,"station_name":"Cikarang","station_id":"CKR","line":1,"transit":false},{"transit":false,"distance":3689,"i_lat":-6.262938,"i_long":107.093313,"is_transit":false,"station_name":"Metland Telaga Murni","time":4,"station_id":"TLM","line":1},{"distance":2800,"line":1,"transit":false,"i_long":107.083084,"is_transit":false,"time":2,"station_name":"Cibitung","i_lat":-6.261877,"station_id":"CIT"},{"station_id":"TB","i_long":107.055722,"line":1,"station_name":"Tambun","i_lat":-6.258864,"time":3,"distance":3420,"is_transit":false,"transit":false},{"transit":false,"is_transit":false,"line":1,"station_id":"BKST","distance":4460,"station_name":"Bekasi Timur","i_lat":-6.248029,"i_long":107.016735,"time":7},{"station_id":"BKS","distance":2368,"i_lat":-6.236616,"time":2,"station_name":"Bekasi","i_long":106.997013,"line":1,"is_transit":false,"transit":false},{"station_id":"KRI","transit":false,"distance":2520,"station_name":"Kranji","i_long":106.977657,"is_transit":false,"time":4,"line":1,"i_lat":-6.224515},{"transit":false,"station_id":"CUK","i_lat":-6.219053,"distance":3097,"time":3,"is_transit":false,"i_long":106.951283,"line":1,"station_name":"Cakung"},{"station_id":"KLDB","transit":false,"i_lat":-6.217455,"time":8,"i_long":106.939679,"is_transit":false,"line":1,"station_name":"Klenderbaru","distance":1385},{"station_id":"BUA","transit":false,"i_long":106.922662,"line":1,"i_lat":-6.215568,"distance":1305,"station_name":"Buaran","is_transit":false,"time":1},{"station_id":"KLD","distance":3100,"i_lat":-6.2135,"transit":false,"i_long":106.899548,"time":2,"is_transit":false,"station_name":"Klender","line":1},{"line":1,"station_id":"JNG","i_lat":-6.215091,"i_long":106.86807400000001,"station_name":"Jatinegara","distance":3395,"transit":true,"is_transit":true,"time":3},{"station_name":"Pondok Jati","line":11,"distance":1236,"station_id":"POK","i_lat":-6.209188,"i_long":106.861737,"transit":false,"time":2,"is_transit":false},{"i_lat":-6.193792,"time":2,"distance":1829,"is_transit":false,"i_long":106.855437,"station_id":"KMT","station_name":"Kramat","line":11,"transit":false},{"station_id":"GST","station_name":"Gang Sentiong","distance":973,"transit":false,"i_lat":-6.185975,"line":11,"time":1,"is_transit":false,"i_long":106.850107},{"line":11,"distance":1567,"is_transit":false,"station_name":"Pasar Senen","transit":false,"i_long":106.84368,"i_lat":-6.174784,"station_id":"PSE","time":8},{"station_name":"Kemayoran","i_lat":-6.161728,"time":4,"station_id":"KMO","is_transit":false,"i_long":106.839204,"line":11,"distance":1436,"transit":false},{"is_transit":false,"distance":1901,"transit":false,"station_name":"Rajawali","i_long":106.836569,"time":5,"i_lat":-6.14505,"line":11,"station_id":"RJW"},{"i_long":106.826365,"line":4,"time":3,"is_transit":false,"i_lat":-6.132549,"station_name":"Kampung Bandan","transit":false,"distance":1444,"station_id":"KPB"}],[{"is_transit":false,"time":0,"station_name":"Cikarang","i_long":107.144613,"i_lat":-6.2553149999999995,"distance":0,"transit":false,"line":1,"station_id":"CKR"},{"station_id":"TLM","i_long":107.093313,"line":1,"distance":3689,"is_transit":false,"transit":false,"station_name":"Metland Telaga Murni","time":4,"i_lat":-6.262938},{"i_long":107.083084,"line":1,"station_name":"Cibitung","is_transit":false,"station_id":"CIT","distance":2800,"i_lat":-6.261877,"transit":false,"time":2},{"station_id":"TB","i_long":107.055722,"line":1,"time":3,"is_transit":false,"distance":3420,"station_name":"Tambun","i_lat":-6.258864,"transit":false},{"time":7,"transit":false,"i_long":107.016735,"station_id":"BKST","line":1,"distance":4460,"is_transit":false,"station_name":"Bekasi Timur","i_lat":-6.248029},{"station_id":"BKS","transit":false,"distance":2368,"line":1,"time":2,"is_transit":false,"station_name":"Bekasi","i_lat":-6.236616,"i_long":106.997013},{"station_name":"Kranji","line":1,"is_transit":false,"i_long":106.977657,"distance":2520,"station_id":"KRI","i_lat":-6.224515,"time":4,"transit":false},{"is_transit":false,"station_name":"Cakung","i_long":106.951283,"distance":3097,"time":3,"station_id":"CUK","line":1,"transit":false,"i_lat":-6.219053},{"is_transit":false,"time":8,"i_lat":-6.217455,"line":1,"distance":1385,"transit":false,"station_name":"Klenderbaru","station_id":"KLDB","i_long":106.939679},{"station_name":"Buaran","is_transit":false,"line":1,"i_long":106.922662,"station_id":"BUA","transit":false,"i_lat":-6.215568,"time":1,"distance":1305},{"transit":false,"is_transit":false,"station_id":"KLD","i_long":106.899548,"i_lat":-6.2135,"distance":3100,"time":2,"station_name":"Klender","line":1},{"is_transit":false,"distance":3395,"i_lat":-6.215091,"station_name":"Jatinegara","time":3,"line":1,"station_id":"JNG","transit":false,"i_long":106.86807400000001},{"time":2,"line":1,"station_id":"MTR","distance":1377,"i_lat":-6.212485,"is_transit":false,"station_name":"Matraman","i_long":106.858896,"transit":false},{"line":2,"station_id":"MRI","i_lat":-6.209883,"i_long":106.84912,"distance":1275,"time":2,"station_name":"Manggarai","transit":false,"is_transit":false},{"station_name":"Sudirman","i_long":106.822649,"transit":false,"distance":3186,"i_lat":-6.202263,"time":4,"line":1,"is_transit":false,"station_id":"SUD"},{"station_name":"Sudirman Baru","i_long":106.819881,"line":1,"distance":280,"time":1,"is_transit":false,"i_lat":-6.201433,"transit":false,"station_id":"SUDB"},{"station_id":"KAT","distance":471,"time":1,"i_long":106.816351,"line":1,"i_lat":-6.20132,"is_transit":false,"transit":false,"station_name":"Karet"},{"time":5,"distance":2029,"is_transit":false,"i_lat":-6.185545,"line":1,"station_name":"Tanah Abang","i_long":106.811091,"transit":false,"station_id":"THB"},{"transit":false,"station_id":"DU","distance":3632,"line":1,"i_lat":-6.155215,"time":8,"is_transit":false,"i_long":106.800832,"station_name":"Duri"},{"i_lat":-6.144674,"transit":false,"is_transit":false,"time":4,"distance":1230,"station_name":"Angke","i_long":106.79867,"line":1,"station_id":"AK"},{"i_long":106.826365,"station_id":"KPB","line":4,"i_lat":-6.132549,"is_transit":false,"time":9,"station_name":"Kampung Bandan","transit":false,"distance":4102}],[{"is_transit":false,"distance":0,"i_lat":-6.2553149999999995,"i_long":107.144613,"time":0,"station_name":"Cikarang","line":1,"station_id":"CKR","transit":false},{"station_name":"Metland Telaga Murni","i_lat":-6.262938,"line":1,"transit":false,"time":4,"distance":3689,"station_id":"TLM","i_long":107.093313,"is_transit":false},{"i_lat":-6.261877,"i_long":107.083084,"distance":2800,"station_id":"CIT","line":1,"is_transit":false,"station_name":"Cibitung","time":2,"transit":false},{"transit":false,"station_id":"TB","time":3,"distance":3420,"i_lat":-6.258864,"line":1,"station_name":"Tambun","i_long":107.055722,"is_transit":false},{"station_name":"Bekasi Timur","distance":4460,"line":1,"is_transit":false,"i_long":107.016735,"i_lat":-6.248029,"station_id":"BKST","time":7,"transit":false},{"i_long":106.997013,"i_lat":-6.236616,"distance":2368,"time":2,"is_transit":false,"station_name":"Bekasi","station_id":"BKS","transit":false,"line":1},{"station_id":"KRI","distance":2520,"line":1,"i_lat":-6.224515,"is_transit":false,"station_name":"Kranji","time":4,"i_long":106.977657,"transit":false},{"distance":3097,"i_long":106.951283,"time":3,"i_lat":-6.219053,"is_transit":false,"station_name":"Cakung","line":1,"station_id":"CUK","transit":false},{"time":8,"station_id":"KLDB","transit":false,"distance":1385,"i_long":106.939679,"is_transit":false,"line":1,"station_name":"Klenderbaru","i_lat":-6.217455},{"station_id":"BUA","is_transit":false,"station_name":"Buaran","i_long":106.922662,"time":1,"line":1,"transit":false,"i_lat":-6.215568,"distance":1305},{"time":2,"distance":3100,"transit":false,"i_lat":-6.2135,"station_id":"KLD","is_transit":false,"station_name":"Klender","i_long":106.899548,"line":1},{"line":1,"i_lat":-6.215091,"station_name":"Jatinegara","transit":false,"distance":3395,"station_id":"JNG","i_long":106.86807400000001,"time":3,"is_transit":false},{"station_name":"Matraman","i_lat":-6.212485,"line":1,"distance":1377,"transit":false,"i_long":106.858896,"is_transit":false,"time":2,"station_id":"MTR"},{"time":2,"is_transit":true,"transit":true,"line":2,"i_long":106.84912,"i_lat":-6.209883,"station_id":"MRI","distance":1275,"station_name":"Manggarai"},{"is_transit":false,"line":2,"station_id":"CKI","transit":false,"distance":1590,"time":4,"station_name":"Cikini","i_lat":-6.198556,"i_long":106.840169},{"station_id":"GDD","i_long":106.832183,"is_transit":false,"i_lat":-6.186295,"distance":1750,"station_name":"Gondangdia","transit":false,"time":3,"line":2},{"time":4,"i_lat":-6.166716,"line":2,"is_transit":false,"transit":false,"station_id":"JUA","station_name":"Juanda","i_long":106.828284,"distance":2015},{"i_long":106.827103,"time":2,"distance":1149,"station_id":"SW","is_transit":false,"station_name":"Sawah Besar","i_lat":-6.160725,"transit":false,"line":2},{"line":2,"distance":906,"i_lat":-6.149769,"station_id":"MGB","station_name":"Manggabesar","time":2,"is_transit":false,"transit":false,"i_long":106.82482},{"transit":false,"distance":1080,"station_name":"Jayakarta","line":2,"is_transit":false,"time":2,"station_id":"JAY","i_long":106.820901,"i_lat":-6.141205},{"i_long":106.812439,"time":4,"i_lat":-6.137569,"station_id":"JAKK","station_name":"Jakarta Kota","distance":1264,"transit":true,"is_transit":true,"line":2},{"distance":1364,"time":3,"transit":false,"station_id":"KPB","is_transit":false,"i_lat":-6.132549,"i_long":106.826365,"line":4,"station_name":"Kampung Bandan"}]]}