{"data":[[{"line":1,"transit":false,"station_name":"Cikarang","i_long":107.144613,"station_id":"CKR","time":0,"i_lat":-6.2553149999999995,"is_transit":false,"distance":0},{"station_id":"TLM","line":1,"i_lat":-6.262938,"is_transit":false,"i_long":107.093313,"station_name":"Metland Telaga Murni","distance":3689,"transit":false,"time":4},{"line":1,"station_name":"Cibitung","i_long":107.083084,"time":2,"distance":2800,"station_id":"CIT","transit":false,"is_transit":false,"i_lat":-6.261877},{"time":3,"station_name":"Tambun","transit":false,"distance":3420,"is_transit":false,"i_lat":-6.258864,"i_long":107.055722,"station_id":"TB","line":1},{"transit":false,"i_long":107.016735,"line":1,"station_name":"Bekasi Timur","station_id":"BKST","is_transit":false,"time":7,"i_lat":-6.248029,"distance":4460},{"time":2,"is_transit":false,"i_long":106.997013,"station_name":"Bekasi","station_id":"BKS","transit":false,"line":1,"i_lat":-6.236616,"distance":2368},{"is_transit":false,"time":4,"distance":2520,"i_lat":-6.224515,"station_name":"Kranji","i_long":106.977657,"line":1,"transit":false,"station_id":"KRI"},{"distance":3097,"station_name":"Cakung","i_long":106.951283,"is_transit":false,"station_id":"CUK","transit":false,"time":3,"i_lat":-6.219053,"line":1},{"station_id":"KLDB","line":1,"distance":1385,"is_transit":false,"time":8,"transit":false,"station_name":"Klenderbaru","i_long":106.939679,"i_lat":-6.217455},{"time":1,"station_id":"BUA","i_lat":-6.215568,"line":1,"i_long":106.922662,"distance":1305,"station_name":"Buaran","is_transit":false,"transit":false},{"i_long":106.899548,"distance":3100,"line":1,"transit":false,"station_name":"Klender","is_transit":false,"time":2,"i_lat":-6.2135,"station_id":"KLD"},{"station_id":"JNG","distance":3395,"time":3,"i_long":106.86807400000001,"transit":false,"i_lat":-6.215091,"is_transit":false,"line":1,"station_name":"Jatinegara"},{"distance":1377,"station_name":"Matraman","transit":false,"i_lat":-6.212485,"time":2,"i_long":106.858896,"is_transit":false,"station_id":"MTR","line":1},{"station_name":"Manggarai","distance":1275,"i_lat":-6.209883,"i_long":106.84912,"line":2,"station_id":"MRI","is_transit":true,"transit":true,"time":2},{"station_id":"TEB","line":2,"i_lat":-6.226659,"i_long":106.857948,"is_transit":false,"station_name":"Tebet","time":4,"distance":2610,"transit":false},{"is_transit":false,"station_id":"CW","distance":1230,"i_long":106.856607,"i_lat":-6.242512,"time":2,"transit":false,"station_name":"Cawang","line":2},{"time":3,"i_lat":-6.255332,"station_name":"Duren Kalibata","distance":1546,"line":2,"i_long":106.85449,"is_transit":false,"station_id":"DRN","transit":false},{"station_name":"Pasar Minggu Baru","distance":824,"time":2,"line":2,"i_lat":-6.263214,"transit":false,"i_long":106.851577,"is_transit":false,"station_id":"PSMB"},{"transit":false,"i_lat":-6.2842400000000005,"line":2,"station_name":"Pasar Minggu","distance":2380,"time":2,"is_transit":false,"station_id":"PSM","i_long":106.843999},{"station_name":"Tanjung Barat","is_transit":false,"transit":false,"i_long":106.838896,"distance":2820,"time":4,"i_lat":-6.3080680000000005,"line":2,"station_id":"TNT"},{"is_transit":false,"i_long":106.832616,"station_id":"LNA","distance":2671,"i_lat":-6.330363,"time":3,"transit":false,"station_name":"Lenteng Agung","line":2},{"transit":false,"station_name":"Univ. Pancasila","is_transit":false,"i_lat":-6.339291,"line":2,"station_id":"UP","time":2,"i_long":106.834175,"distance":1029},{"line":2,"time":3,"transit":false,"i_lat":-6.360749,"station_id":"UI","distance":2264,"is_transit":false,"station_name":"Univ. Indonesia","i_long":106.831474},{"time":2,"distance":1109,"transit":false,"i_long":106.831114,"station_name":"Pondok Cina","station_id":"POC","i_lat":-6.369073,"line":2,"is_transit":false},{"station_name":"Depokbaru","is_transit":false,"i_long":106.819451,"line":2,"time":4,"i_lat":-6.391065,"distance":2727,"transit":false,"station_id":"DPB"},{"distance":1584,"transit":false,"station_id":"DP","is_transit":false,"i_lat":-6.405256,"i_long":106.816926,"line":2,"station_name":"Depok","time":3}],[{"line":1,"station_name":"Cikarang","time":0,"i_lat":-6.2553149999999995,"is_transit":false,"distance":0,"transit":false,"station_id":"CKR","i_long":107.144613},{"is_transit":false,"distance":3689,"line":1,"transit":false,"station_name":"Metland Telaga Murni","time":4,"i_long":107.093313,"station_id":"TLM","i_lat":-6.262938},{"transit":false,"line":1,"time":2,"station_name":"Cibitung","distance":2800,"station_id":"CIT","is_transit":false,"i_lat":-6.261877,"i_long":107.083084},{"line":1,"transit":false,"time":3,"station_name":"Tambun","is_transit":false,"station_id":"TB","i_lat":-6.258864,"i_long":107.055722,"distance":3420},{"time":7,"transit":false,"is_transit":false,"i_lat":-6.248029,"station_name":"Bekasi Timur","station_id":"BKST","distance":4460,"i_long":107.016735,"line":1},{"time":2,"i_lat":-6.236616,"station_id":"BKS","transit":false,"is_transit":false,"distance":2368,"station_name":"Bekasi","i_long":106.997013,"line":1},{"transit":false,"station_name":"Kranji","is_transit":false,"distance":2520,"station_id":"KRI","time":4,"i_lat":-6.224515,"line":1,"i_long":106.977657},{"station_id":"CUK","time":3,"i_long":106.951283,"line":1,"station_name":"Cakung","distance":3097,"is_transit":false,"i_lat":-6.219053,"transit":false},{"station_name":"Klenderbaru","i_long":106.939679,"line":1,"is_transit":false,"station_id":"KLDB","time":8,"i_lat":-6.217455,"transit":false,"distance":1385},{"transit":false,"i_long":106.922662,"station_name":"Buaran","i_lat":-6.215568,"time":1,"distance":1305,"line":1,"station_id":"BUA","is_transit":false},{"i_lat":-6.2135,"i_long":106.899548,"distance":3100,"line":1,"time":2,"transit":false,"station_name":"Klender","station_id":"KLD","is_transit":false},{"station_name":"Jatinegara","time":3,"is_transit":true,"transit":true,"line":1,"distance":3395,"station_id":"JNG","i_long":106.86807400000001,"i_lat":-6.215091},{"distance":1236,"time":2,"station_id":"POK","station_name":"Pondok Jati","transit":false,"line":11,"is_transit":false,"i_lat":-6.209188,"i_long":106.861737},{"distance":1829,"station_name":"Kramat","station_id":"KMT","is_transit":false,"line":11,"transit":false,"i_long":106.855437,"i_lat":-6.193792,"time":2},{"transit":false,"is_transit":false,"time":1,"station_name":"Gang Sentiong","i_lat":-6.185975,"line":11,"distance":973,"station_id":"GST","i_long":106.850107},{"transit":false,"is_transit":false,"i_lat":-6.174784,"station_name":"Pasar Senen","line":11,"time":8,"distance":1567,"station_id":"PSE","i_long":106.84368},{"time":4,"is_transit":false,"i_long":106.839204,"station_id":"KMO","i_lat":-6.161728,"station_name":"Kemayoran","transit":false,"distance":1436,"line":11},{"i_lat":-6.14505,"time":5,"is_transit":false,"distance":1901,"station_name":"Rajawali","line":11,"i_long":106.836569,"transit":false,"station_id":"RJW"},{"transit":true,"is_transit":true,"i_long":106.826365,"time":3,"line":4,"station_name":"Kampung Bandan","station_id":"KPB","i_lat":-6.132549,"distance":1444},{"transit":false,"line":1,"distance":4102,"is_transit":false,"station_name":"Angke","i_long":106.79867,"i_lat":-6.144674,"station_id":"AK","time":9},{"i_long":106.800832,"transit":false,"time":4,"distance":1230,"station_name":"Duri","station_id":"DU","i_lat":-6.155215,"line":1,"is_transit":false},{"transit":false,"i_long":106.811091,"station_id":"THB","time":8,"station_name":"Tanah Abang","is_transit":false,"distance":3632,"i_lat":-6.185545,"line":1},{"distance":2029,"transit":false,"is_transit":false,"line":1,"i_long":106.816351,"station_id":"KAT","station_name":"Karet","i_lat":-6.20132,"time":5},{"distance":471,"i_lat":-6.201433,"line":1,"station_name":"Sudirman Baru","i_long":106.819881,"transit":false,"station_id":"SUDB","time":1,"is_transit":false},{"is_transit":false,"station_name":"Sudirman","time":1,"i_lat":-6.202263,"station_id":"SUD","transit":false,"distance":280,"i_long":106.822649,"line":1},{"is_transit":true,"i_lat":-6.209883,"station_name":"Manggarai","transit":true,"i_long":106.84912,"line":2,"station_id":"MRI","time":4,"distance":3186},{"transit":false,"i_long":106.857948,"time":4,"station_name":"Tebet","i_lat":-6.226659,"is_transit":false,"station_id":"TEB","distance":2610,"line":2},{"station_id":"CW","distance":1230,"time":2,"transit":false,"is_transit":false,"station_name":"Cawang","i_lat":-6.242512,"i_long":106.856607,"line":2},{"station_name":"Duren Kalibata","i_long":106.85449,"station_id":"DRN","i_lat":-6.255332,"line":2,"transit":false,"is_transit":false,"distance":1546,"time":3},{"i_lat":-6.263214,"station_id":"PSMB","line":2,"is_transit":false,"time":2,"station_name":"Pasar Minggu Baru","distance":824,"transit":false,"i_long":106.851577},{"i_long":106.843999,"time":2,"line":2,"is_transit":false,"i_lat":-6.2842400000000005,"transit":false,"distance":2380,"station_name":"Pasar Minggu","station_id":"PSM"},{"i_lat":-6.3080680000000005,"time":4,"i_long":106.838896,"station_name":"Tanjung Barat","transit":false,"distance":2820,"is_transit":false,"station_id":"TNT","line":2},{"distance":2671,"time":3,"transit":false,"is_transit":false,"i_long":106.832616,"i_lat":-6.330363,"station_name":"Lenteng Agung","station_id":"LNA","line":2},{"line":2,"station_id":"UP","time":2,"distance":1029,"i_lat":-6.339291,"i_long":106.834175,"is_transit":false,"station_name":"Univ. Pancasila","transit":false},{"line":2,"is_transit":false,"i_lat":-6.360749,"station_name":"Univ. Indonesia","time":3,"i_long":106.831474,"transit":false,"distance":2264,"station_id":"UI"},{"i_long":106.831114,"time":2,"line":2,"station_id":"POC","transit":false,"distance":1109,"station_name":"Pondok Cina","is_transit":false,"i_lat":-6.369073},{"transit":false,"is_transit":false,"i_lat":-6.391065,"time":4,"i_long":106.819451,"line":2,"station_id":"DPB","station_name":"Depokbaru","distance":2727},{"distance":1584,"transit":false,"station_id":"DP","i_lat":-6.405256,"time":3,"is_transit":false,"line":2,"station_name":"Depok","i_long":106.816926}],[{"time":0,"transit":false,"distance":0,"is_transit":false,"i_lat":-6.2553149999999995,"line":1,"station_id":"CKR","station_name":"Cikarang","i_long":107.144613},{"time":4,"i_lat":-6.262938,"i_long":107.093313,"station_id":"TLM","line":1,"transit":false,"station_name":"Metland Telaga Murni","is_transit":false,"distance":3689},{"station_name":"Cibitung","is_transit":false,"line":1,"transit":false,"distance":2800,"station_id":"CIT","i_lat":-6.261877,"time":2,"i_long":107.083084},{"i_long":107.055722,"distance":3420,"transit":false,"station_name":"Tambun","time":3,"line":1,"station_id":"TB","is_transit":false,"i_lat":-6.258864},{"station_name":"Bekasi Timur","time":7,"i_lat":-6.248029,"transit":false,"station_id":"BKST","i_long":107.016735,"is_transit":false,"distance":4460,"line":1},{"station_id":"BKS","i_lat":-6.236616,"i_long":106.997013,"transit":false,"distance":2368,"is_transit":false,"time":2,"station_name":"Bekasi","line":1},{"time":4,"transit":false,"line":1,"station_name":"Kranji","i_lat":-6.224515,"is_transit":false,"distance":2520,"i_long":106.977657,"station_id":"KRI"},{"time":3,"i_long":106.951283,"station_id":"CUK","i_lat":-6.219053,"transit":false,"station_name":"Cakung","line":1,"is_transit":false,"distance":3097},{"station_name":"Klenderbaru","line":1,"is_transit":false,"i_lat":-6.217455,"station_id":"KLDB","transit":false,"distance":1385,"time":8,"i_long":106.939679},{"transit":false,"is_transit":false,"i_long":106.922662,"time":1,"station_name":"Buaran","distance":1305,"i_lat":-6.215568,"station_id":"BUA","line":1},{"station_id":"KLD","i_lat":-6.2135,"transit":false,"is_transit":false,"time":2,"station_name":"Klender","i_long":106.899548,"distance":3100,"line":1},{"distance":3395,"i_lat":-6.215091,"time":3,"is_transit":true,"transit":true,"station_id":"JNG","station_name":"Jatinegara","i_long":106.86807400000001,"line":1},{"station_name":"Pondok Jati","line":11,"station_id":"POK","time":2,"i_long":106.861737,"is_transit":false,"i_lat":-6.209188,"transit":false,"distance":1236},{"station_id":"KMT","time":2,"transit":false,"is_transit":false,"station_name":"Kramat","distance":1829,"i_lat":-6.193792,"i_long":106.855437,"line":11},{"line":11,"distance":973,"time":1,"is_transit":false,"station_name":"Gang Sentiong","i_long":106.850107,"transit":false,"i_lat":-6.185975,"station_id":"GST"},{"line":11,"station_id":"PSE","i_lat":-6.174784,"distance":1567,"i_long":106.84368,"is_transit":false,"transit":false,"station_name":"Pasar Senen","time":8},{"i_long":106.839204,"line":11,"station_name":"Kemayoran","distance":1436,"transit":false,"i_lat":-6.161728,"station_id":"KMO","time":4,"is_transit":false},{"distance":1901,"time":5,"line":11,"station_id":"RJW","transit":false,"is_transit":false,"i_long":106.836569,"station_name":"Rajawali","i_lat":-6.14505},{"time":3,"is_transit":true,"i_lat":-6.132549,"i_long":106.826365,"distance":1444,"line":4,"transit":true,"station_name":"Kampung Bandan","station_id":"KPB"},{"i_lat":-6.137569,"distance":1364,"line":2,"time":3,"station_name":"Jakarta Kota","i_long":106.812439,"is_transit":true,"station_id":"JAKK","transit":true},{"is_transit":false,"station_id":"JAY","line":2,"i_lat":-6.141205,"i_long":106.820901,"time":4,"station_name":"Jayakarta","transit":false,"distance":1264},{"distance":1080,"transit":false,"station_name":"Manggabesar","station_id":"MGB","is_transit":false,"i_lat":-6.149769,"line":2,"time":2,"i_long":106.82482},{"i_lat":-6.160725,"distance":906,"time":2,"station_id":"SW","station_name":"Sawah Besar","line":2,"is_transit":false,"transit":false,"i_long":106.827103},{"station_name":"Juanda","i_long":106.828284,"line":2,"distance":1149,"is_transit":false,"i_lat":-6.166716,"station_id":"JUA","time":2,"transit":false},{"is_transit":false,"i_lat":-6.186295,"time":4,"transit":false,"station_id":"GDD","distance":2015,"i_long":106.832183,"line":2,"station_name":"Gondangdia"},{"station_id":"CKI","time":3,"station_name":"Cikini","i_long":106.840169,"i_lat":-6.198556,"is_transit":false,"distance":1750,"line":2,"transit":false},{"station_id":"MRI","i_long":106.84912,"distance":1590,"i_lat":-6.209883,"line":2,"time":4,"is_transit":false,"station_name":"Manggarai","transit":false},{"time":4,"station_name":"Tebet","station_id":"TEB","transit":false,"distance":2610,"is_transit":false,"i_lat":-6.226659,"i_long":106.857948,"line":2},{"time":2,"station_name":"Cawang","station_id":"CW","line":2,"transit":false,"distance":1230,"is_transit":false,"i_lat":-6.242512,"i_long":106.856607},{"is_transit":false,"transit":false,"time":3,"i_lat":-6.255332,"distance":1546,"i_long":106.85449,"station_name":"Duren Kalibata","line":2,"station_id":"DRN"},{"time":2,"station_name":"Pasar Minggu Baru","is_transit":false,"line":2,"i_long":106.851577,"distance":824,"i_lat":-6.263214,"transit":false,"station_id":"PSMB"},{"is_transit":false,"i_long":106.843999,"line":2,"station_id":"PSM","distance":2380,"station_name":"Pasar Minggu","i_lat":-6.2842400000000005,"time":2,"transit":false},{"line":2,"i_lat":-6.3080680000000005,"time":4,"i_long":106.838896,"station_name":"Tanjung Barat","is_transit":false,"transit":false,"distance":2820,"station_id":"TNT"},{"station_id":"LNA","is_transit":false,"time":3,"i_lat":-6.330363,"transit":false,"station_name":"Lenteng Agung","line":2,"i_long":106.832616,"distance":2671},{"is_transit":false,"line":2,"station_name":"Univ. Pancasila","time":2,"i_long":106.834175,"distance":1029,"i_lat":-6.339291,"station_id":"UP","transit":false},{"station_id":"UI","station_name":"Univ. Indonesia","i_lat":-6.360749,"distance":2264,"transit":false,"is_transit":false,"i_long":106.831474,"line":2,"time":3},{"line":2,"i_lat":-6.369073,"transit":false,"time":2,"station_id":"POC","station_name":"Pondok Cina","is_transit":false,"distance":1109,"i_long":106.831114},{"time":4,"distance":2727,"transit":false,"station_id":"DPB","station_name":"Depokbaru","is_transit":false,"line":2,"i_long":106.819451,"i_lat":-6.391065},{"transit":false,"is_transit":false,"i_long":106.816926,"station_name":"Depok","distance":1584,"time":3,"line":2,"i_lat":-6.405256,"station_id":"DP"}]]}