{"data":[[{"line":1,"station_name":"Cikarang","distance":0,"i_lat":-6.2553149999999995,"is_transit":false,"station_id":"CKR","time":0,"i_long":107.144613,"transit":false},{"line":1,"distance":3689,"station_name":"Metland Telaga Murni","i_long":107.093313,"transit":false,"station_id":"TLM","i_lat":-6.262938,"time":4,"is_transit":false},{"station_id":"CIT","time":2,"transit":false,"i_lat":-6.261877,"is_transit":false,"station_name":"Cibitung","distance":2800,"i_long":107.083084,"line":1},{"transit":false,"distance":3420,"i_lat":-6.258864,"i_long":107.055722,"is_transit":false,"time":3,"station_id":"TB","line":1,"station_name":"Tambun"},{"time":7,"i_long":107.016735,"is_transit":false,"line":1,"station_id":"BKST","distance":4460,"station_name":"Bekasi Timur","transit":false,"i_lat":-6.248029},{"line":1,"time":2,"i_lat":-6.236616,"station_name":"Bekasi","distance":2368,"is_transit":false,"station_id":"BKS","transit":false,"i_long":106.997013},{"time":4,"line":1,"i_long":106.977657,"station_name":"Kranji","is_transit":false,"distance":2520,"station_id":"KRI","i_lat":-6.224515,"transit":false},{"distance":3097,"i_lat":-6.219053,"line":1,"time":3,"station_id":"CUK","i_long":106.951283,"is_transit":false,"station_name":"Cakung","transit":false},{"is_transit":false,"station_name":"Klenderbaru","station_id":"KLDB","i_long":106.939679,"distance":1385,"transit":false,"i_lat":-6.217455,"time":8,"line":1},{"i_lat":-6.215568,"is_transit":false,"time":1,"line":1,"transit":false,"i_long":106.922662,"distance":1305,"station_name":"Buaran","station_id":"BUA"},{"i_long":106.899548,"distance":3100,"line":1,"is_transit":false,"station_name":"Klender","i_lat":-6.2135,"station_id":"KLD","transit":false,"time":2},{"station_name":"Jatinegara","is_transit":false,"transit":false,"distance":3395,"line":1,"time":3,"station_id":"JNG","i_long":106.86807400000001,"i_lat":-6.215091},{"station_name":"Matraman","time":2,"i_long":106.858896,"is_transit":false,"distance":1377,"transit":false,"i_lat":-6.212485,"station_id":"MTR","line":1},{"transit":false,"station_name":"Manggarai","station_id":"MRI","i_lat":-6.209883,"i_long":106.84912,"line":2,"is_transit":false,"time":2,"distance":1275},{"station_id":"SUD","is_transit":false,"i_lat":-6.202263,"line":1,"i_long":106.822649,"transit":false,"time":4,"station_name":"Sudirman","distance":3186},{"station_name":"Sudirman Baru","station_id":"SUDB","is_transit":false,"transit":false,"i_long":106.819881,"line":1,"time":1,"distance":280,"i_lat":-6.201433},{"i_lat":-6.20132,"i_long":106.816351,"line":1,"transit":false,"is_transit":false,"time":1,"station_name":"Karet","station_id":"KAT","distance":471},{"i_long":106.811091,"i_lat":-6.185545,"station_id":"THB","distance":2029,"time":5,"station_name":"Tanah Abang","transit":false,"is_transit":false,"line":1},{"i_long":106.800832,"transit":false,"line":1,"station_name":"Duri","is_transit":false,"time":8,"i_lat":-6.155215,"station_id":"DU","distance":3632}],[{"transit":false,"station_name":"Cikarang","station_id":"CKR","distance":0,"is_transit":false,"i_lat":-6.2553149999999995,"time":0,"i_long":107.144613,"line":1},{"i_long":107.093313,"time":4,"line":1,"i_lat":-6.262938,"transit":false,"station_name":"Metland Telaga Murni","station_id":"TLM","distance":3689,"is_transit":false},{"i_lat":-6.261877,"distance":2800,"i_long":107.083084,"station_name":"Cibitung","station_id":"CIT","transit":false,"line":1,"is_transit":false,"time":2},{"transit":false,"i_long":107.055722,"station_id":"TB","is_transit":false,"time":3,"line":1,"station_name":"Tambun","distance":3420,"i_lat":-6.258864},{"is_transit":false,"i_long":107.016735,"time":7,"station_id":"BKST","distance":4460,"transit":false,"i_lat":-6.248029,"line":1,"station_name":"Bekasi Timur"},{"is_transit":false,"i_lat":-6.236616,"station_id":"BKS","station_name":"Bekasi","distance":2368,"line":1,"transit":false,"time":2,"i_long":106.997013},{"i_lat":-6.224515,"i_long":106.977657,"transit":false,"distance":2520,"line":1,"station_name":"Kranji","is_transit":false,"time":4,"station_id":"KRI"},{"i_long":106.951283,"station_id":"CUK","distance":3097,"is_transit":false,"time":3,"transit":false,"line":1,"station_name":"Cakung","i_lat":-6.219053},{"distance":1385,"station_id":"KLDB","line":1,"station_name":"Klenderbaru","time":8,"transit":false,"is_transit":false,"i_lat":-6.217455,"i_long":106.939679},{"i_lat":-6.215568,"station_name":"Buaran","is_transit":false,"station_id":"BUA","transit":false,"distance":1305,"line":1,"time":1,"i_long":106.922662},{"line":1,"transit":false,"time":2,"i_lat":-6.2135,"station_name":"Klender","distance":3100,"is_transit":false,"station_id":"KLD","i_long":106.899548},{"transit":true,"is_transit":true,"i_long":106.86807400000001,"line":1,"i_lat":-6.215091,"time":3,"station_id":"JNG","station_name":"Jatinegara","distance":3395},{"i_long":106.861737,"transit":false,"is_transit":false,"time":2,"station_name":"Pondok Jati","i_lat":-6.209188,"station_id":"POK","distance":1236,"line":11},{"station_name":"Kramat","time":2,"i_lat":-6.193792,"i_long":106.855437,"distance":1829,"line":11,"is_transit":false,"transit":false,"station_id":"KMT"},{"is_transit":false,"distance":973,"station_name":"Gang Sentiong","station_id":"GST","i_long":106.850107,"transit":false,"time":1,"i_lat":-6.185975,"line":11},{"station_name":"Pasar Senen","i_lat":-6.174784,"transit":false,"is_transit":false,"time":8,"distance":1567,"i_long":106.84368,"station_id":"PSE","line":11},{"distance":1436,"i_lat":-6.161728,"station_name":"Kemayoran","station_id":"KMO","i_long":106.839204,"transit":false,"is_transit":false,"time":4,"line":11},{"station_id":"RJW","i_lat":-6.14505,"is_transit":false,"time":5,"line":11,"transit":false,"station_name":"Rajawali","distance":1901,"i_long":106.836569},{"transit":true,"distance":1444,"i_lat":-6.132549,"station_name":"Kampung Bandan","is_transit":true,"i_long":106.826365,"station_id":"KPB","line":4,"time":3},{"transit":false,"station_id":"AK","time":9,"distance":4102,"i_lat":-6.144674,"line":1,"station_name":"Angke","is_transit":false,"i_long":106.79867},{"station_id":"DU","distance":1230,"transit":false,"is_transit":false,"time":4,"i_lat":-6.155215,"line":1,"station_name":"Duri","i_long":106.800832}],[{"station_id":"CKR","station_name":"Cikarang","line":1,"i_long":107.144613,"i_lat":-6.2553149999999995,"is_transit":false,"transit":false,"distance":0,"time":0},{"time":4,"station_id":"TLM","i_long":107.093313,"i_lat":-6.262938,"is_transit":false,"line":1,"transit":false,"distance":3689,"station_name":"Metland Telaga Murni"},{"station_name":"Cibitung","transit":false,"distance":2800,"line":1,"time":2,"is_transit":false,"i_long":107.083084,"station_id":"CIT","i_lat":-6.261877},{"distance":3420,"time":3,"i_long":107.055722,"transit":false,"i_lat":-6.258864,"station_id":"TB","is_transit":false,"line":1,"station_name":"Tambun"},{"time":7,"i_long":107.016735,"is_transit":false,"distance":4460,"line":1,"transit":false,"station_name":"Bekasi Timur","i_lat":-6.248029,"station_id":"BKST"},{"station_id":"BKS","time":2,"distance":2368,"line":1,"i_lat":-6.236616,"transit":false,"i_long":106.997013,"station_name":"Bekasi","is_transit":false},{"i_lat":-6.224515,"time":4,"station_name":"Kranji","station_id":"KRI","distance":2520,"line":1,"is_transit":false,"transit":false,"i_long":106.977657},{"time":3,"is_transit":false,"station_name":"Cakung","transit":false,"distance":3097,"i_lat":-6.219053,"line":1,"i_long":106.951283,"station_id":"CUK"},{"i_long":106.939679,"line":1,"station_name":"Klenderbaru","distance":1385,"station_id":"KLDB","transit":false,"i_lat":-6.217455,"is_transit":false,"time":8},{"i_lat":-6.215568,"is_transit":false,"station_id":"BUA","transit":false,"i_long":106.922662,"station_name":"Buaran","line":1,"distance":1305,"time":1},{"i_long":106.899548,"line":1,"station_name":"Klender","is_transit":false,"time":2,"transit":false,"distance":3100,"station_id":"KLD","i_lat":-6.2135},{"distance":3395,"station_id":"JNG","i_long":106.86807400000001,"transit":false,"time":3,"i_lat":-6.215091,"line":1,"station_name":"Jatinegara","is_transit":false},{"transit":false,"station_name":"Matraman","time":2,"i_lat":-6.212485,"is_transit":false,"line":1,"station_id":"MTR","distance":1377,"i_long":106.858896},{"distance":1275,"i_long":106.84912,"station_id":"MRI","transit":true,"time":2,"i_lat":-6.209883,"line":2,"is_transit":true,"station_name":"Manggarai"},{"time":4,"i_long":106.840169,"transit":false,"station_name":"Cikini","distance":1590,"line":2,"is_transit":false,"station_id":"CKI","i_lat":-6.198556},{"i_lat":-6.186295,"distance":1750,"station_id":"GDD","station_name":"Gondangdia","i_long":106.832183,"is_transit":false,"transit":false,"time":3,"line":2},{"station_id":"JUA","transit":false,"station_name":"Juanda","line":2,"i_long":106.828284,"distance":2015,"is_transit":false,"i_lat":-6.166716,"time":4},{"line":2,"is_transit":false,"distance":1149,"i_lat":-6.160725,"transit":false,"i_long":106.827103,"station_id":"SW","station_name":"Sawah Besar","time":2},{"is_transit":false,"time":2,"i_lat":-6.149769,"station_id":"MGB","transit":false,"distance":906,"i_long":106.82482,"line":2,"station_name":"Manggabesar"},{"transit":false,"i_lat":-6.141205,"is_transit":false,"station_id":"JAY","line":2,"i_long":106.820901,"station_name":"Jayakarta","time":2,"distance":1080},{"transit":true,"i_long":106.812439,"line":2,"distance":1264,"i_lat":-6.137569,"station_name":"Jakarta Kota","is_transit":true,"station_id":"JAKK","time":4},{"i_lat":-6.132549,"station_id":"KPB","is_transit":true,"transit":true,"i_long":106.826365,"time":3,"line":4,"station_name":"Kampung Bandan","distance":1364},{"i_lat":-6.144674,"is_transit":false,"station_name":"Angke","time":9,"line":1,"i_long":106.79867,"transit":false,"station_id":"AK","distance":4102},{"time":4,"station_name":"Duri","transit":false,"distance":1230,"i_lat":-6.155215,"is_transit":false,"i_long":106.800832,"station_id":"DU","line":1}],[{"transit":false,"i_long":107.144613,"i_lat":-6.2553149999999995,"station_name":"Cikarang","is_transit":false,"station_id":"CKR","distance":0,"time":0,"line":1},{"time":4,"is_transit":false,"station_name":"Metland Telaga Murni","distance":3689,"i_lat":-6.262938,"i_long":107.093313,"line":1,"station_id":"TLM","transit":false},{"i_long":107.083084,"transit":false,"line":1,"time":2,"station_name":"Cibitung","is_transit":false,"station_id":"CIT","distance":2800,"i_lat":-6.261877},{"transit":false,"i_lat":-6.258864,"line":1,"i_long":107.055722,"distance":3420,"time":3,"is_transit":false,"station_id":"TB","station_name":"Tambun"},{"station_id":"BKST","distance":4460,"i_lat":-6.248029,"station_name":"Bekasi Timur","time":7,"is_transit":false,"transit":false,"i_long":107.016735,"line":1},{"i_long":106.997013,"station_id":"BKS","distance":2368,"is_transit":false,"line":1,"station_name":"Bekasi","transit":false,"i_lat":-6.236616,"time":2},{"is_transit":false,"i_lat":-6.224515,"i_long":106.977657,"line":1,"transit":false,"station_name":"Kranji","distance":2520,"station_id":"KRI","time":4},{"is_transit":false,"transit":false,"time":3,"station_id":"CUK","station_name":"Cakung","i_lat":-6.219053,"i_long":106.951283,"distance":3097,"line":1},{"time":8,"station_id":"KLDB","is_transit":false,"distance":1385,"station_name":"Klenderbaru","line":1,"i_lat":-6.217455,"i_long":106.939679,"transit":false},{"distance":1305,"is_transit":false,"i_long":106.922662,"time":1,"i_lat":-6.215568,"station_id":"BUA","station_name":"Buaran","transit":false,"line":1},{"station_id":"KLD","distance":3100,"i_long":106.899548,"transit":false,"line":1,"time":2,"station_name":"Klender","i_lat":-6.2135,"is_transit":false},{"is_transit":true,"distance":3395,"i_lat":-6.215091,"transit":true,"station_name":"Jatinegara","station_id":"JNG","i_long":106.86807400000001,"line":1,"time":3},{"distance":1236,"is_transit":false,"station_id":"POK","i_lat":-6.209188,"line":11,"station_name":"Pondok Jati","time":2,"transit":false,"i_long":106.861737},{"line":11,"time":2,"distance":1829,"i_long":106.855437,"is_transit":false,"station_id":"KMT","transit":false,"station_name":"Kramat","i_lat":-6.193792},{"i_lat":-6.185975,"station_id":"GST","station_name":"Gang Sentiong","distance":973,"i_long":106.850107,"time":1,"line":11,"transit":false,"is_transit":false},{"i_long":106.84368,"line":11,"i_lat":-6.174784,"transit":false,"station_name":"Pasar Senen","distance":1567,"station_id":"PSE","time":8,"is_transit":false},{"line":11,"transit":false,"station_id":"KMO","distance":1436,"i_long":106.839204,"station_name":"Kemayoran","i_lat":-6.161728,"is_transit":false,"time":4},{"is_transit":false,"station_name":"Rajawali","station_id":"RJW","time":5,"line":11,"distance":1901,"i_long":106.836569,"transit":false,"i_lat":-6.14505},{"time":3,"is_transit":true,"i_lat":-6.132549,"line":4,"distance":1444,"i_long":106.826365,"station_name":"Kampung Bandan","station_id":"KPB","transit":true},{"line":2,"is_transit":true,"i_lat":-6.137569,"station_name":"Jakarta Kota","station_id":"JAKK","distance":1364,"transit":true,"i_long":106.812439,"time":3},{"i_long":106.820901,"station_id":"JAY","is_transit":false,"i_lat":-6.141205,"time":4,"station_name":"Jayakarta","distance":1264,"line":2,"transit":false},{"distance":1080,"station_name":"Manggabesar","i_lat":-6.149769,"transit":false,"i_long":106.82482,"station_id":"MGB","line":2,"is_transit":false,"time":2},{"transit":false,"is_transit":false,"i_long":106.827103,"line":2,"station_id":"SW","distance":906,"i_lat":-6.160725,"station_name":"Sawah Besar","time":2},{"time":2,"line":2,"is_transit":false,"transit":false,"station_name":"Juanda","station_id":"JUA","distance":1149,"i_lat":-6.166716,"i_long":106.828284},{"station_id":"GDD","i_lat":-6.186295,"line":2,"station_name":"Gondangdia","distance":2015,"time":4,"transit":false,"is_transit":false,"i_long":106.832183},{"time":3,"line":2,"station_id":"CKI","distance":1750,"is_transit":false,"i_lat":-6.198556,"transit":false,"i_long":106.840169,"station_name":"Cikini"},{"time":4,"i_lat":-6.209883,"station_id":"MRI","line":2,"transit":true,"distance":1590,"station_name":"Manggarai","i_long":106.84912,"is_transit":true},{"time":4,"line":1,"station_id":"SUD","transit":false,"i_lat":-6.202263,"is_transit":false,"distance":3186,"station_name":"Sudirman","i_long":106.822649},{"transit":false,"distance":280,"i_long":106.819881,"station_name":"Sudirman Baru","line":1,"station_id":"SUDB","i_lat":-6.201433,"is_transit":false,"time":1},{"i_long":106.816351,"transit":false,"distance":471,"line":1,"station_name":"Karet","is_transit":false,"station_id":"KAT","i_lat":-6.20132,"time":1},{"distance":2029,"station_id":"THB","i_long":106.811091,"i_lat":-6.185545,"station_name":"Tanah Abang","time":5,"line":1,"transit":false,"is_transit":false},{"time":8,"station_name":"Duri","i_lat":-6.155215,"station_id":"DU","is_transit":false,"i_long":106.800832,"transit":false,"line":1,"distance":3632}]]}