{"data":[[{"line":1,"station_id":"CKR","i_long":107.144613,"time":0,"is_transit":false,"station_name":"Cikarang","distance":0,"i_lat":-6.2553149999999995,"transit":false},{"transit":false,"station_id":"TLM","time":4,"i_lat":-6.262938,"station_name":"Metland Telaga Murni","line":1,"distance":3689,"is_transit":false,"i_long":107.093313},{"station_name":"Cibitung","is_transit":false,"distance":2800,"i_lat":-6.261877,"line":1,"transit":false,"time":2,"i_long":107.083084,"station_id":"CIT"},{"transit":false,"station_name":"Tambun","i_lat":-6.258864,"is_transit":false,"line":1,"distance":3420,"i_long":107.055722,"time":3,"station_id":"TB"},{"i_lat":-6.248029,"transit":false,"station_id":"BKST","i_long":107.016735,"time":7,"line":1,"station_name":"Bekasi Timur","distance":4460,"is_transit":false},{"is_transit":false,"time":2,"transit":false,"i_long":106.997013,"distance":2368,"i_lat":-6.236616,"station_name":"Bekasi","station_id":"BKS","line":1},{"i_lat":-6.224515,"i_long":106.977657,"time":4,"transit":false,"station_id":"KRI","station_name":"Kranji","distance":2520,"line":1,"is_transit":false},{"i_lat":-6.219053,"transit":false,"distance":3097,"line":1,"station_id":"CUK","time":3,"station_name":"Cakung","is_transit":false,"i_long":106.951283},{"station_name":"Klenderbaru","line":1,"i_long":106.939679,"distance":1385,"station_id":"KLDB","is_transit":false,"time":8,"i_lat":-6.217455,"transit":false},{"station_name":"Buaran","distance":1305,"i_long":106.922662,"station_id":"BUA","line":1,"i_lat":-6.215568,"time":1,"is_transit":false,"transit":false},{"station_id":"KLD","transit":false,"is_transit":false,"i_long":106.899548,"station_name":"Klender","time":2,"line":1,"i_lat":-6.2135,"distance":3100},{"line":1,"station_name":"Jatinegara","time":3,"station_id":"JNG","distance":3395,"i_lat":-6.215091,"transit":false,"is_transit":false,"i_long":106.86807400000001},{"i_lat":-6.212485,"distance":1377,"transit":false,"i_long":106.858896,"line":1,"station_id":"MTR","is_transit":false,"time":2,"station_name":"Matraman"},{"station_name":"Manggarai","distance":1275,"time":2,"station_id":"MRI","is_transit":false,"line":2,"i_long":106.84912,"i_lat":-6.209883,"transit":false},{"line":1,"station_name":"Sudirman","station_id":"SUD","is_transit":false,"distance":3186,"transit":false,"i_lat":-6.202263,"i_long":106.822649,"time":4},{"i_lat":-6.201433,"distance":280,"i_long":106.819881,"station_id":"SUDB","transit":false,"station_name":"Sudirman Baru","line":1,"is_transit":false,"time":1},{"line":1,"station_id":"KAT","station_name":"Karet","is_transit":false,"time":1,"transit":false,"i_lat":-6.20132,"distance":471,"i_long":106.816351},{"station_name":"Tanah Abang","distance":2029,"line":1,"time":5,"i_lat":-6.185545,"transit":false,"station_id":"THB","is_transit":false,"i_long":106.811091},{"station_id":"DU","transit":true,"is_transit":true,"station_name":"Duri","distance":3632,"time":8,"line":1,"i_long":106.800832,"i_lat":-6.155215},{"distance":1700,"line":5,"i_lat":-6.162021,"transit":false,"i_long":106.788277,"station_id":"GGL","time":3,"station_name":"Grogol","is_transit":false},{"station_name":"Pesing","transit":false,"i_lat":-6.161433,"i_long":106.771379,"is_transit":false,"distance":2036,"line":5,"time":2,"station_id":"PSG"},{"is_transit":false,"i_lat":-6.1587309999999995,"transit":false,"distance":1614,"i_long":106.756522,"station_id":"TKO","station_name":"Taman Kota","line":5,"time":2},{"time":2,"station_id":"BOI","transit":false,"line":5,"is_transit":false,"station_name":"Bojongindah","i_long":106.737035,"distance":2334,"i_lat":-6.159876},{"transit":false,"time":4,"line":5,"i_long":106.723064,"is_transit":false,"distance":1152,"i_lat":-6.162758,"station_name":"Rawa Buaya","station_id":"RW"},{"i_long":106.701612,"station_name":"Kalideres","is_transit":false,"station_id":"KDS","transit":false,"distance":2504,"i_lat":-6.166068,"time":3,"line":5},{"transit":false,"line":5,"station_id":"PI","i_long":106.679458,"i_lat":-6.169933,"time":3,"distance":2548,"is_transit":false,"station_name":"Poris"},{"time":3,"line":5,"is_transit":false,"transit":false,"i_long":106.665036,"station_name":"Batuceper","distance":1834,"i_lat":-6.171811,"station_id":"BPR"},{"is_transit":false,"i_lat":-6.17331,"station_id":"TTI","time":3,"station_name":"Tanah Tinggi","transit":false,"distance":2028,"line":5,"i_long":106.64657},{"i_long":106.632761,"time":3,"distance":1547,"is_transit":false,"station_name":"Tangerang","station_id":"TNG","transit":false,"i_lat":-6.176583,"line":5}],[{"i_lat":-6.2553149999999995,"time":0,"line":1,"station_name":"Cikarang","transit":false,"i_long":107.144613,"station_id":"CKR","distance":0,"is_transit":false},{"transit":false,"i_lat":-6.262938,"i_long":107.093313,"time":4,"station_id":"TLM","is_transit":false,"station_name":"Metland Telaga Murni","distance":3689,"line":1},{"distance":2800,"transit":false,"is_transit":false,"station_id":"CIT","station_name":"Cibitung","line":1,"time":2,"i_long":107.083084,"i_lat":-6.261877},{"time":3,"distance":3420,"station_id":"TB","is_transit":false,"i_lat":-6.258864,"i_long":107.055722,"line":1,"station_name":"Tambun","transit":false},{"transit":false,"station_id":"BKST","line":1,"is_transit":false,"distance":4460,"i_lat":-6.248029,"time":7,"station_name":"Bekasi Timur","i_long":107.016735},{"i_lat":-6.236616,"i_long":106.997013,"station_id":"BKS","station_name":"Bekasi","is_transit":false,"distance":2368,"time":2,"transit":false,"line":1},{"transit":false,"line":1,"i_lat":-6.224515,"i_long":106.977657,"distance":2520,"station_id":"KRI","is_transit":false,"station_name":"Kranji","time":4},{"is_transit":false,"line":1,"station_id":"CUK","i_lat":-6.219053,"i_long":106.951283,"time":3,"transit":false,"station_name":"Cakung","distance":3097},{"i_lat":-6.217455,"i_long":106.939679,"line":1,"station_id":"KLDB","station_name":"Klenderbaru","time":8,"is_transit":false,"distance":1385,"transit":false},{"station_name":"Buaran","transit":false,"time":1,"i_long":106.922662,"is_transit":false,"line":1,"station_id":"BUA","distance":1305,"i_lat":-6.215568},{"station_id":"KLD","distance":3100,"i_lat":-6.2135,"station_name":"Klender","is_transit":false,"transit":false,"time":2,"line":1,"i_long":106.899548},{"i_long":106.86807400000001,"time":3,"station_name":"Jatinegara","station_id":"JNG","transit":true,"is_transit":true,"distance":3395,"i_lat":-6.215091,"line":1},{"i_lat":-6.209188,"transit":false,"distance":1236,"i_long":106.861737,"is_transit":false,"station_id":"POK","station_name":"Pondok Jati","time":2,"line":11},{"i_long":106.855437,"i_lat":-6.193792,"station_name":"Kramat","time":2,"line":11,"station_id":"KMT","transit":false,"is_transit":false,"distance":1829},{"is_transit":false,"station_name":"Gang Sentiong","transit":false,"i_long":106.850107,"line":11,"time":1,"station_id":"GST","i_lat":-6.185975,"distance":973},{"station_id":"PSE","station_name":"Pasar Senen","is_transit":false,"distance":1567,"i_long":106.84368,"i_lat":-6.174784,"time":8,"transit":false,"line":11},{"line":11,"station_id":"KMO","i_lat":-6.161728,"station_name":"Kemayoran","time":4,"i_long":106.839204,"distance":1436,"transit":false,"is_transit":false},{"transit":false,"line":11,"is_transit":false,"station_id":"RJW","station_name":"Rajawali","i_lat":-6.14505,"distance":1901,"time":5,"i_long":106.836569},{"i_long":106.826365,"line":4,"i_lat":-6.132549,"station_name":"Kampung Bandan","time":3,"is_transit":true,"distance":1444,"station_id":"KPB","transit":true},{"distance":4102,"station_name":"Angke","i_lat":-6.144674,"line":1,"time":9,"station_id":"AK","transit":false,"is_transit":false,"i_long":106.79867},{"transit":true,"is_transit":true,"station_id":"DU","station_name":"Duri","time":4,"i_lat":-6.155215,"line":1,"distance":1230,"i_long":106.800832},{"station_id":"GGL","i_long":106.788277,"transit":false,"station_name":"Grogol","i_lat":-6.162021,"is_transit":false,"distance":1700,"line":5,"time":3},{"i_lat":-6.161433,"transit":false,"distance":2036,"i_long":106.771379,"is_transit":false,"station_name":"Pesing","time":2,"line":5,"station_id":"PSG"},{"station_id":"TKO","is_transit":false,"distance":1614,"time":2,"transit":false,"station_name":"Taman Kota","i_long":106.756522,"line":5,"i_lat":-6.1587309999999995},{"transit":false,"is_transit":false,"time":2,"i_long":106.737035,"line":5,"distance":2334,"i_lat":-6.159876,"station_id":"BOI","station_name":"Bojongindah"},{"is_transit":false,"station_id":"RW","time":4,"line":5,"i_lat":-6.162758,"distance":1152,"transit":false,"station_name":"Rawa Buaya","i_long":106.723064},{"distance":2504,"i_lat":-6.166068,"station_id":"KDS","is_transit":false,"station_name":"Kalideres","time":3,"i_long":106.701612,"line":5,"transit":false},{"i_long":106.679458,"station_id":"PI","transit":false,"time":3,"is_transit":false,"distance":2548,"i_lat":-6.169933,"station_name":"Poris","line":5},{"station_id":"BPR","line":5,"time":3,"is_transit":false,"i_lat":-6.171811,"transit":false,"i_long":106.665036,"station_name":"Batuceper","distance":1834},{"station_id":"TTI","line":5,"i_long":106.64657,"is_transit":false,"station_name":"Tanah Tinggi","distance":2028,"time":3,"transit":false,"i_lat":-6.17331},{"station_id":"TNG","time":3,"i_long":106.632761,"line":5,"distance":1547,"station_name":"Tangerang","i_lat":-6.176583,"is_transit":false,"transit":false}],[{"i_long":107.144613,"line":1,"distance":0,"station_id":"CKR","station_name":"Cikarang","i_lat":-6.2553149999999995,"is_transit":false,"time":0,"transit":false},{"is_transit":false,"transit":false,"time":4,"i_long":107.093313,"line":1,"station_id":"TLM","i_lat":-6.262938,"distance":3689,"station_name":"Metland Telaga Murni"},{"i_lat":-6.261877,"transit":false,"line":1,"time":2,"is_transit":false,"station_id":"CIT","i_long":107.083084,"distance":2800,"station_name":"Cibitung"},{"transit":false,"station_id":"TB","is_transit":false,"station_name":"Tambun","i_lat":-6.258864,"line":1,"distance":3420,"time":3,"i_long":107.055722},{"is_transit":false,"station_name":"Bekasi Timur","i_long":107.016735,"i_lat":-6.248029,"line":1,"transit":false,"distance":4460,"station_id":"BKST","time":7},{"station_id":"BKS","station_name":"Bekasi","is_transit":false,"transit":false,"i_lat":-6.236616,"i_long":106.997013,"distance":2368,"line":1,"time":2},{"line":1,"transit":false,"i_lat":-6.224515,"station_id":"KRI","distance":2520,"time":4,"is_transit":false,"i_long":106.977657,"station_name":"Kranji"},{"line":1,"is_transit":false,"time":3,"transit":false,"station_id":"CUK","station_name":"Cakung","distance":3097,"i_long":106.951283,"i_lat":-6.219053},{"time":8,"transit":false,"station_name":"Klenderbaru","distance":1385,"i_lat":-6.217455,"line":1,"is_transit":false,"i_long":106.939679,"station_id":"KLDB"},{"i_lat":-6.215568,"i_long":106.922662,"station_name":"Buaran","is_transit":false,"time":1,"distance":1305,"line":1,"transit":false,"station_id":"BUA"},{"line":1,"distance":3100,"station_name":"Klender","i_long":106.899548,"station_id":"KLD","transit":false,"i_lat":-6.2135,"time":2,"is_transit":false},{"station_name":"Jatinegara","line":1,"time":3,"distance":3395,"i_long":106.86807400000001,"is_transit":false,"transit":false,"station_id":"JNG","i_lat":-6.215091},{"transit":false,"time":2,"station_id":"MTR","i_lat":-6.212485,"line":1,"distance":1377,"i_long":106.858896,"station_name":"Matraman","is_transit":false},{"station_name":"Manggarai","distance":1275,"i_lat":-6.209883,"station_id":"MRI","transit":true,"is_transit":true,"i_long":106.84912,"time":2,"line":2},{"time":4,"i_lat":-6.198556,"is_transit":false,"station_name":"Cikini","station_id":"CKI","distance":1590,"line":2,"transit":false,"i_long":106.840169},{"station_id":"GDD","is_transit":false,"time":3,"i_lat":-6.186295,"line":2,"station_name":"Gondangdia","distance":1750,"i_long":106.832183,"transit":false},{"station_name":"Juanda","transit":false,"is_transit":false,"station_id":"JUA","time":4,"distance":2015,"i_long":106.828284,"i_lat":-6.166716,"line":2},{"i_lat":-6.160725,"line":2,"is_transit":false,"station_name":"Sawah Besar","time":2,"station_id":"SW","distance":1149,"i_long":106.827103,"transit":false},{"i_long":106.82482,"station_name":"Manggabesar","transit":false,"line":2,"distance":906,"is_transit":false,"i_lat":-6.149769,"station_id":"MGB","time":2},{"distance":1080,"station_name":"Jayakarta","i_long":106.820901,"time":2,"transit":false,"station_id":"JAY","is_transit":false,"line":2,"i_lat":-6.141205},{"station_id":"JAKK","time":4,"station_name":"Jakarta Kota","is_transit":true,"i_long":106.812439,"line":2,"i_lat":-6.137569,"distance":1264,"transit":true},{"time":3,"line":4,"transit":true,"station_name":"Kampung Bandan","i_long":106.826365,"i_lat":-6.132549,"station_id":"KPB","distance":1364,"is_transit":true},{"i_long":106.79867,"station_id":"AK","transit":false,"is_transit":false,"station_name":"Angke","time":9,"distance":4102,"line":1,"i_lat":-6.144674},{"time":4,"i_long":106.800832,"is_transit":true,"station_name":"Duri","line":1,"station_id":"DU","i_lat":-6.155215,"transit":true,"distance":1230},{"distance":1700,"i_long":106.788277,"line":5,"station_id":"GGL","is_transit":false,"transit":false,"time":3,"i_lat":-6.162021,"station_name":"Grogol"},{"time":2,"distance":2036,"station_id":"PSG","station_name":"Pesing","is_transit":false,"transit":false,"i_lat":-6.161433,"line":5,"i_long":106.771379},{"station_id":"TKO","is_transit":false,"i_lat":-6.1587309999999995,"transit":false,"station_name":"Taman Kota","time":2,"distance":1614,"i_long":106.756522,"line":5},{"station_name":"Bojongindah","i_long":106.737035,"transit":false,"is_transit":false,"i_lat":-6.159876,"time":2,"distance":2334,"station_id":"BOI","line":5},{"distance":1152,"is_transit":false,"i_lat":-6.162758,"line":5,"transit":false,"i_long":106.723064,"station_name":"Rawa Buaya","time":4,"station_id":"RW"},{"station_id":"KDS","distance":2504,"is_transit":false,"transit":false,"station_name":"Kalideres","i_long":106.701612,"time":3,"line":5,"i_lat":-6.166068},{"time":3,"is_transit":false,"i_long":106.679458,"transit":false,"i_lat":-6.169933,"station_id":"PI","station_name":"Poris","distance":2548,"line":5},{"station_id":"BPR","is_transit":false,"station_name":"Batuceper","i_long":106.665036,"line":5,"transit":false,"distance":1834,"i_lat":-6.171811,"time":3},{"i_long":106.64657,"transit":false,"time":3,"station_id":"TTI","i_lat":-6.17331,"line":5,"is_transit":false,"distance":2028,"station_name":"Tanah Tinggi"},{"transit":false,"is_transit":false,"station_name":"Tangerang","station_id":"TNG","i_lat":-6.176583,"i_long":106.632761,"distance":1547,"line":5,"time":3}],[{"is_transit":false,"station_id":"CKR","time":0,"i_long":107.144613,"distance":0,"transit":false,"station_name":"Cikarang","line":1,"i_lat":-6.2553149999999995},{"station_id":"TLM","transit":false,"i_lat":-6.262938,"i_long":107.093313,"station_name":"Metland Telaga Murni","time":4,"line":1,"is_transit":false,"distance":3689},{"station_id":"CIT","is_transit":false,"transit":false,"distance":2800,"line":1,"time":2,"i_long":107.083084,"i_lat":-6.261877,"station_name":"Cibitung"},{"distance":3420,"station_id":"TB","time":3,"i_lat":-6.258864,"i_long":107.055722,"transit":false,"is_transit":false,"line":1,"station_name":"Tambun"},{"station_id":"BKST","transit":false,"line":1,"is_transit":false,"i_lat":-6.248029,"distance":4460,"i_long":107.016735,"station_name":"Bekasi Timur","time":7},{"time":2,"transit":false,"station_id":"BKS","distance":2368,"i_long":106.997013,"is_transit":false,"line":1,"i_lat":-6.236616,"station_name":"Bekasi"},{"station_id":"KRI","time":4,"distance":2520,"transit":false,"station_name":"Kranji","i_long":106.977657,"i_lat":-6.224515,"is_transit":false,"line":1},{"is_transit":false,"transit":false,"line":1,"i_lat":-6.219053,"distance":3097,"station_id":"CUK","time":3,"i_long":106.951283,"station_name":"Cakung"},{"distance":1385,"transit":false,"i_long":106.939679,"line":1,"station_name":"Klenderbaru","i_lat":-6.217455,"station_id":"KLDB","is_transit":false,"time":8},{"time":1,"distance":1305,"i_lat":-6.215568,"line":1,"is_transit":false,"station_id":"BUA","i_long":106.922662,"station_name":"Buaran","transit":false},{"station_name":"Klender","station_id":"KLD","is_transit":false,"transit":false,"time":2,"i_lat":-6.2135,"distance":3100,"i_long":106.899548,"line":1},{"time":3,"transit":true,"distance":3395,"line":1,"i_long":106.86807400000001,"is_transit":true,"i_lat":-6.215091,"station_id":"JNG","station_name":"Jatinegara"},{"station_name":"Pondok Jati","time":2,"line":11,"i_lat":-6.209188,"distance":1236,"station_id":"POK","transit":false,"is_transit":false,"i_long":106.861737},{"i_long":106.855437,"line":11,"i_lat":-6.193792,"time":2,"distance":1829,"station_name":"Kramat","station_id":"KMT","transit":false,"is_transit":false},{"transit":false,"i_lat":-6.185975,"i_long":106.850107,"station_id":"GST","time":1,"line":11,"is_transit":false,"station_name":"Gang Sentiong","distance":973},{"station_name":"Pasar Senen","transit":false,"i_lat":-6.174784,"i_long":106.84368,"station_id":"PSE","is_transit":false,"distance":1567,"time":8,"line":11},{"line":11,"station_id":"KMO","transit":false,"is_transit":false,"distance":1436,"station_name":"Kemayoran","time":4,"i_lat":-6.161728,"i_long":106.839204},{"distance":1901,"time":5,"station_name":"Rajawali","is_transit":false,"line":11,"transit":false,"i_long":106.836569,"station_id":"RJW","i_lat":-6.14505},{"i_lat":-6.132549,"i_long":106.826365,"line":4,"time":3,"station_name":"Kampung Bandan","station_id":"KPB","distance":1444,"is_transit":true,"transit":true},{"i_lat":-6.137569,"line":2,"transit":true,"station_name":"Jakarta Kota","distance":1364,"i_long":106.812439,"is_transit":true,"time":3,"station_id":"JAKK"},{"station_id":"JAY","transit":false,"time":4,"is_transit":false,"i_long":106.820901,"station_name":"Jayakarta","line":2,"distance":1264,"i_lat":-6.141205},{"time":2,"is_transit":false,"transit":false,"station_id":"MGB","station_name":"Manggabesar","line":2,"i_lat":-6.149769,"distance":1080,"i_long":106.82482},{"i_long":106.827103,"i_lat":-6.160725,"distance":906,"station_id":"SW","line":2,"station_name":"Sawah Besar","transit":false,"is_transit":false,"time":2},{"station_id":"JUA","time":2,"is_transit":false,"line":2,"i_long":106.828284,"station_name":"Juanda","transit":false,"i_lat":-6.166716,"distance":1149},{"is_transit":false,"i_lat":-6.186295,"station_name":"Gondangdia","line":2,"transit":false,"station_id":"GDD","time":4,"distance":2015,"i_long":106.832183},{"time":3,"line":2,"transit":false,"i_long":106.840169,"station_name":"Cikini","is_transit":false,"station_id":"CKI","distance":1750,"i_lat":-6.198556},{"line":2,"station_name":"Manggarai","transit":true,"i_long":106.84912,"is_transit":true,"i_lat":-6.209883,"time":4,"station_id":"MRI","distance":1590},{"station_name":"Sudirman","station_id":"SUD","is_transit":false,"i_lat":-6.202263,"distance":3186,"i_long":106.822649,"time":4,"line":1,"transit":false},{"is_transit":false,"station_name":"Sudirman Baru","distance":280,"transit":false,"time":1,"line":1,"station_id":"SUDB","i_lat":-6.201433,"i_long":106.819881},{"time":1,"transit":false,"distance":471,"line":1,"station_name":"Karet","is_transit":false,"station_id":"KAT","i_lat":-6.20132,"i_long":106.816351},{"i_lat":-6.185545,"station_name":"Tanah Abang","line":1,"i_long":106.811091,"distance":2029,"is_transit":false,"station_id":"THB","time":5,"transit":false},{"transit":true,"time":8,"line":1,"is_transit":true,"i_lat":-6.155215,"i_long":106.800832,"station_id":"DU","station_name":"Duri","distance":3632},{"i_long":106.788277,"i_lat":-6.162021,"station_name":"Grogol","is_transit":false,"time":3,"transit":false,"distance":1700,"station_id":"GGL","line":5},{"i_long":106.771379,"line":5,"transit":false,"station_name":"Pesing","is_transit":false,"distance":2036,"i_lat":-6.161433,"time":2,"station_id":"PSG"},{"is_transit":false,"i_lat":-6.1587309999999995,"station_id":"TKO","line":5,"transit":false,"station_name":"Taman Kota","distance":1614,"i_long":106.756522,"time":2},{"is_transit":false,"station_id":"BOI","i_lat":-6.159876,"distance":2334,"station_name":"Bojongindah","transit":false,"i_long":106.737035,"time":2,"line":5},{"station_name":"Rawa Buaya","time":4,"is_transit":false,"distance":1152,"i_lat":-6.162758,"line":5,"station_id":"RW","transit":false,"i_long":106.723064},{"i_lat":-6.166068,"time":3,"is_transit":false,"station_id":"KDS","line":5,"station_name":"Kalideres","transit":false,"i_long":106.701612,"distance":2504},{"time":3,"i_lat":-6.169933,"line":5,"is_transit":false,"transit":false,"distance":2548,"station_name":"Poris","i_long":106.679458,"station_id":"PI"},{"station_id":"BPR","i_long":106.665036,"distance":1834,"transit":false,"station_name":"Batuceper","is_transit":false,"i_lat":-6.171811,"line":5,"time":3},{"is_transit":false,"distance":2028,"station_id":"TTI","i_long":106.64657,"time":3,"line":5,"station_name":"Tanah Tinggi","i_lat":-6.17331,"transit":false},{"station_id":"TNG","is_transit":false,"transit":false,"station_name":"Tangerang","i_lat":-6.176583,"time":3,"i_long":106.632761,"line":5,"distance":1547}]]}