{"data":[[{"line":1,"time":0,"is_transit":false,"station_id":"CKR","station_name":"Cikarang","i_long":107.144613,"i_lat":-6.2553149999999995,"transit":false,"distance":0},{"distance":3689,"station_name":"Metland Telaga Murni","transit":false,"is_transit":false,"i_lat":-6.262938,"time":4,"i_long":107.093313,"station_id":"TLM","line":1},{"station_name":"Cibitung","is_transit":false,"i_lat":-6.261877,"line":1,"distance":2800,"i_long":107.083084,"time":2,"station_id":"CIT","transit":false},{"station_name":"Tambun","station_id":"TB","i_long":107.055722,"distance":3420,"transit":false,"line":1,"i_lat":-6.258864,"time":3,"is_transit":false},{"transit":false,"i_lat":-6.248029,"station_id":"BKST","time":7,"distance":4460,"station_name":"Bekasi Timur","is_transit":false,"i_long":107.016735,"line":1},{"time":2,"i_lat":-6.236616,"distance":2368,"station_id":"BKS","station_name":"Bekasi","i_long":106.997013,"is_transit":false,"transit":false,"line":1},{"is_transit":false,"distance":2520,"station_id":"KRI","i_long":106.977657,"line":1,"i_lat":-6.224515,"time":4,"station_name":"Kranji","transit":false},{"i_long":106.951283,"distance":3097,"is_transit":false,"station_name":"Cakung","i_lat":-6.219053,"line":1,"station_id":"CUK","time":3,"transit":false},{"transit":false,"i_long":106.939679,"station_id":"KLDB","station_name":"Klenderbaru","line":1,"time":8,"distance":1385,"i_lat":-6.217455,"is_transit":false},{"time":1,"station_name":"Buaran","i_lat":-6.215568,"i_long":106.922662,"station_id":"BUA","transit":false,"is_transit":false,"line":1,"distance":1305},{"station_name":"Klender","i_lat":-6.2135,"line":1,"time":2,"distance":3100,"station_id":"KLD","is_transit":false,"transit":false,"i_long":106.899548},{"distance":3395,"i_lat":-6.215091,"line":1,"i_long":106.86807400000001,"station_id":"JNG","is_transit":false,"station_name":"Jatinegara","time":3,"transit":false},{"station_id":"MTR","i_long":106.858896,"i_lat":-6.212485,"time":2,"is_transit":false,"transit":false,"line":1,"station_name":"Matraman","distance":1377},{"transit":false,"line":2,"i_lat":-6.209883,"i_long":106.84912,"is_transit":false,"distance":1275,"station_id":"MRI","station_name":"Manggarai","time":2},{"line":1,"transit":false,"station_name":"Sudirman","i_lat":-6.202263,"i_long":106.822649,"time":4,"distance":3186,"is_transit":false,"station_id":"SUD"},{"transit":false,"station_id":"SUDB","distance":280,"is_transit":false,"i_lat":-6.201433,"line":1,"i_long":106.819881,"time":1,"station_name":"Sudirman Baru"},{"distance":471,"i_lat":-6.20132,"i_long":106.816351,"is_transit":false,"station_id":"KAT","time":1,"station_name":"Karet","transit":false,"line":1},{"i_lat":-6.185545,"i_long":106.811091,"station_name":"Tanah Abang","time":5,"line":1,"transit":true,"station_id":"THB","distance":2029,"is_transit":true},{"distance":3191,"transit":false,"time":6,"is_transit":false,"station_name":"Palmerah","line":6,"i_long":106.79689,"station_id":"PLM","i_lat":-6.207404},{"transit":false,"time":7,"i_lat":-6.237242,"distance":3737,"station_id":"KBY","is_transit":false,"station_name":"Kebayoran","i_long":106.780334,"line":6},{"transit":false,"station_id":"PDJ","line":6,"i_long":106.74273,"is_transit":false,"time":8,"distance":6218,"station_name":"Pondokranji","i_lat":-6.276362},{"station_id":"JMU","station_name":"Jurangmangu","transit":false,"i_lat":-6.288927,"i_long":106.728916,"line":6,"is_transit":false,"time":3,"distance":2179},{"station_id":"SDM","i_long":106.712277,"line":6,"time":4,"is_transit":false,"distance":1994,"transit":false,"i_lat":-6.296963,"station_name":"Sudimara"},{"time":6,"is_transit":false,"distance":4566,"station_name":"Rawa Buntu","i_lat":-6.314823,"line":6,"transit":false,"i_long":106.675475,"station_id":"RU"},{"time":4,"station_name":"Serpong","i_long":106.66566,"transit":false,"line":6,"distance":2413,"station_id":"SRP","i_lat":-6.319871,"is_transit":false},{"station_id":"CSK","transit":false,"line":3,"time":4,"station_name":"Cisauk","is_transit":false,"i_lat":-6.32484,"i_long":106.640411,"distance":1784}],[{"station_id":"CKR","is_transit":false,"station_name":"Cikarang","distance":0,"line":1,"i_long":107.144613,"transit":false,"i_lat":-6.2553149999999995,"time":0},{"time":4,"is_transit":false,"distance":3689,"transit":false,"station_name":"Metland Telaga Murni","i_lat":-6.262938,"line":1,"station_id":"TLM","i_long":107.093313},{"station_id":"CIT","station_name":"Cibitung","transit":false,"i_lat":-6.261877,"line":1,"is_transit":false,"distance":2800,"i_long":107.083084,"time":2},{"station_id":"TB","station_name":"Tambun","i_long":107.055722,"distance":3420,"transit":false,"i_lat":-6.258864,"is_transit":false,"line":1,"time":3},{"station_id":"BKST","time":7,"transit":false,"station_name":"Bekasi Timur","i_lat":-6.248029,"i_long":107.016735,"line":1,"is_transit":false,"distance":4460},{"station_name":"Bekasi","is_transit":false,"station_id":"BKS","time":2,"distance":2368,"transit":false,"i_lat":-6.236616,"i_long":106.997013,"line":1},{"time":4,"transit":false,"i_lat":-6.224515,"i_long":106.977657,"distance":2520,"station_name":"Kranji","is_transit":false,"station_id":"KRI","line":1},{"is_transit":false,"i_lat":-6.219053,"i_long":106.951283,"time":3,"distance":3097,"line":1,"station_name":"Cakung","station_id":"CUK","transit":false},{"is_transit":false,"distance":1385,"transit":false,"line":1,"station_id":"KLDB","station_name":"Klenderbaru","time":8,"i_long":106.939679,"i_lat":-6.217455},{"time":1,"transit":false,"i_lat":-6.215568,"i_long":106.922662,"distance":1305,"station_id":"BUA","is_transit":false,"station_name":"Buaran","line":1},{"station_name":"Klender","time":2,"transit":false,"station_id":"KLD","line":1,"is_transit":false,"distance":3100,"i_lat":-6.2135,"i_long":106.899548},{"transit":true,"i_long":106.86807400000001,"distance":3395,"line":1,"time":3,"is_transit":true,"i_lat":-6.215091,"station_id":"JNG","station_name":"Jatinegara"},{"is_transit":false,"time":2,"station_name":"Pondok Jati","distance":1236,"transit":false,"i_lat":-6.209188,"station_id":"POK","i_long":106.861737,"line":11},{"transit":false,"i_lat":-6.193792,"time":2,"i_long":106.855437,"is_transit":false,"line":11,"distance":1829,"station_id":"KMT","station_name":"Kramat"},{"line":11,"is_transit":false,"station_name":"Gang Sentiong","time":1,"transit":false,"i_long":106.850107,"distance":973,"station_id":"GST","i_lat":-6.185975},{"station_name":"Pasar Senen","is_transit":false,"distance":1567,"i_long":106.84368,"transit":false,"time":8,"station_id":"PSE","i_lat":-6.174784,"line":11},{"station_name":"Kemayoran","line":11,"i_lat":-6.161728,"transit":false,"distance":1436,"i_long":106.839204,"time":4,"is_transit":false,"station_id":"KMO"},{"station_name":"Rajawali","line":11,"i_lat":-6.14505,"time":5,"i_long":106.836569,"distance":1901,"transit":false,"station_id":"RJW","is_transit":false},{"i_long":106.826365,"transit":true,"line":4,"time":3,"distance":1444,"station_name":"Kampung Bandan","is_transit":true,"i_lat":-6.132549,"station_id":"KPB"},{"distance":4102,"station_id":"AK","i_lat":-6.144674,"i_long":106.79867,"is_transit":false,"transit":false,"line":1,"station_name":"Angke","time":9},{"station_id":"DU","line":1,"time":4,"transit":false,"is_transit":false,"distance":1230,"i_lat":-6.155215,"i_long":106.800832,"station_name":"Duri"},{"i_long":106.811091,"is_transit":true,"i_lat":-6.185545,"time":8,"station_id":"THB","line":1,"station_name":"Tanah Abang","distance":3632,"transit":true},{"transit":false,"station_id":"PLM","is_transit":false,"station_name":"Palmerah","line":6,"i_long":106.79689,"distance":3191,"time":6,"i_lat":-6.207404},{"i_lat":-6.237242,"distance":3737,"time":7,"is_transit":false,"station_id":"KBY","station_name":"Kebayoran","transit":false,"i_long":106.780334,"line":6},{"i_long":106.74273,"time":8,"line":6,"distance":6218,"i_lat":-6.276362,"transit":false,"is_transit":false,"station_name":"Pondokranji","station_id":"PDJ"},{"is_transit":false,"transit":false,"i_lat":-6.288927,"line":6,"station_id":"JMU","time":3,"station_name":"Jurangmangu","i_long":106.728916,"distance":2179},{"line":6,"station_id":"SDM","i_lat":-6.296963,"transit":false,"distance":1994,"station_name":"Sudimara","time":4,"is_transit":false,"i_long":106.712277},{"station_id":"RU","i_long":106.675475,"distance":4566,"time":6,"station_name":"Rawa Buntu","line":6,"i_lat":-6.314823,"is_transit":false,"transit":false},{"i_long":106.66566,"is_transit":false,"distance":2413,"line":6,"transit":false,"i_lat":-6.319871,"station_id":"SRP","time":4,"station_name":"Serpong"},{"is_transit":false,"station_name":"Cisauk","distance":1784,"time":4,"station_id":"CSK","transit":false,"i_long":106.640411,"line":3,"i_lat":-6.32484}],[{"time":0,"is_transit":false,"distance":0,"station_id":"CKR","i_lat":-6.2553149999999995,"station_name":"Cikarang","i_long":107.144613,"transit":false,"line":1},{"is_transit":false,"line":1,"station_name":"Metland Telaga Murni","station_id":"TLM","time":4,"transit":false,"i_lat":-6.262938,"i_long":107.093313,"distance":3689},{"line":1,"station_name":"Cibitung","i_lat":-6.261877,"i_long":107.083084,"time":2,"distance":2800,"is_transit":false,"station_id":"CIT","transit":false},{"station_name":"Tambun","is_transit":false,"i_lat":-6.258864,"line":1,"transit":false,"distance":3420,"station_id":"TB","time":3,"i_long":107.055722},{"line":1,"time":7,"station_id":"BKST","is_transit":false,"i_long":107.016735,"station_name":"Bekasi Timur","distance":4460,"transit":false,"i_lat":-6.248029},{"transit":false,"station_name":"Bekasi","i_lat":-6.236616,"line":1,"distance":2368,"time":2,"i_long":106.997013,"station_id":"BKS","is_transit":false},{"line":1,"i_lat":-6.224515,"i_long":106.977657,"is_transit":false,"time":4,"station_id":"KRI","station_name":"Kranji","distance":2520,"transit":false},{"time":3,"station_name":"Cakung","transit":false,"is_transit":false,"distance":3097,"station_id":"CUK","i_lat":-6.219053,"i_long":106.951283,"line":1},{"station_name":"Klenderbaru","line":1,"distance":1385,"station_id":"KLDB","time":8,"i_lat":-6.217455,"i_long":106.939679,"is_transit":false,"transit":false},{"distance":1305,"line":1,"station_id":"BUA","i_lat":-6.215568,"i_long":106.922662,"station_name":"Buaran","transit":false,"is_transit":false,"time":1},{"transit":false,"distance":3100,"station_name":"Klender","i_long":106.899548,"line":1,"is_transit":false,"i_lat":-6.2135,"time":2,"station_id":"KLD"},{"is_transit":false,"i_long":106.86807400000001,"time":3,"i_lat":-6.215091,"transit":false,"distance":3395,"line":1,"station_id":"JNG","station_name":"Jatinegara"},{"transit":false,"station_id":"MTR","distance":1377,"line":1,"is_transit":false,"time":2,"station_name":"Matraman","i_lat":-6.212485,"i_long":106.858896},{"distance":1275,"is_transit":true,"station_name":"Manggarai","station_id":"MRI","i_lat":-6.209883,"i_long":106.84912,"line":2,"time":2,"transit":true},{"line":2,"is_transit":false,"time":4,"transit":false,"i_long":106.840169,"station_id":"CKI","distance":1590,"i_lat":-6.198556,"station_name":"Cikini"},{"i_long":106.832183,"distance":1750,"line":2,"station_name":"Gondangdia","station_id":"GDD","is_transit":false,"time":3,"i_lat":-6.186295,"transit":false},{"i_long":106.828284,"distance":2015,"i_lat":-6.166716,"station_id":"JUA","time":4,"line":2,"transit":false,"station_name":"Juanda","is_transit":false},{"distance":1149,"time":2,"station_id":"SW","i_lat":-6.160725,"i_long":106.827103,"is_transit":false,"line":2,"station_name":"Sawah Besar","transit":false},{"time":2,"distance":906,"station_id":"MGB","transit":false,"i_lat":-6.149769,"i_long":106.82482,"is_transit":false,"station_name":"Manggabesar","line":2},{"i_lat":-6.141205,"line":2,"distance":1080,"station_id":"JAY","i_long":106.820901,"transit":false,"is_transit":false,"station_name":"Jayakarta","time":2},{"distance":1264,"time":4,"i_lat":-6.137569,"station_id":"JAKK","is_transit":true,"station_name":"Jakarta Kota","i_long":106.812439,"transit":true,"line":2},{"station_id":"KPB","station_name":"Kampung Bandan","transit":true,"distance":1364,"time":3,"i_long":106.826365,"i_lat":-6.132549,"line":4,"is_transit":true},{"is_transit":false,"time":9,"distance":4102,"i_long":106.79867,"station_id":"AK","transit":false,"station_name":"Angke","line":1,"i_lat":-6.144674},{"line":1,"transit":false,"is_transit":false,"station_id":"DU","i_lat":-6.155215,"i_long":106.800832,"station_name":"Duri","time":4,"distance":1230},{"is_transit":true,"time":8,"i_long":106.811091,"line":1,"station_id":"THB","transit":true,"i_lat":-6.185545,"station_name":"Tanah Abang","distance":3632},{"station_name":"Palmerah","line":6,"distance":3191,"transit":false,"i_lat":-6.207404,"is_transit":false,"time":6,"station_id":"PLM","i_long":106.79689},{"station_id":"KBY","line":6,"transit":false,"station_name":"Kebayoran","i_lat":-6.237242,"i_long":106.780334,"time":7,"is_transit":false,"distance":3737},{"transit":false,"station_name":"Pondokranji","i_lat":-6.276362,"distance":6218,"line":6,"station_id":"PDJ","i_long":106.74273,"time":8,"is_transit":false},{"station_name":"Jurangmangu","time":3,"distance":2179,"is_transit":false,"station_id":"JMU","transit":false,"line":6,"i_lat":-6.288927,"i_long":106.728916},{"time":4,"is_transit":false,"station_name":"Sudimara","line":6,"i_lat":-6.296963,"distance":1994,"station_id":"SDM","transit":false,"i_long":106.712277},{"i_long":106.675475,"distance":4566,"station_name":"Rawa Buntu","time":6,"line":6,"is_transit":false,"station_id":"RU","i_lat":-6.314823,"transit":false},{"transit":false,"time":4,"i_long":106.66566,"line":6,"is_transit":false,"station_name":"Serpong","distance":2413,"station_id":"SRP","i_lat":-6.319871},{"station_name":"Cisauk","transit":false,"i_lat":-6.32484,"line":3,"i_long":106.640411,"distance":1784,"time":4,"is_transit":false,"station_id":"CSK"}],[{"line":1,"is_transit":false,"time":0,"i_long":107.144613,"station_name":"Cikarang","transit":false,"station_id":"CKR","i_lat":-6.2553149999999995,"distance":0},{"station_name":"Metland Telaga Murni","i_lat":-6.262938,"transit":false,"i_long":107.093313,"station_id":"TLM","time":4,"distance":3689,"line":1,"is_transit":false},{"line":1,"time":2,"distance":2800,"transit":false,"i_lat":-6.261877,"is_transit":false,"station_id":"CIT","i_long":107.083084,"station_name":"Cibitung"},{"is_transit":false,"station_id":"TB","station_name":"Tambun","i_long":107.055722,"transit":false,"i_lat":-6.258864,"distance":3420,"line":1,"time":3},{"distance":4460,"time":7,"station_id":"BKST","i_lat":-6.248029,"station_name":"Bekasi Timur","i_long":107.016735,"line":1,"transit":false,"is_transit":false},{"distance":2368,"station_name":"Bekasi","i_lat":-6.236616,"i_long":106.997013,"line":1,"time":2,"station_id":"BKS","is_transit":false,"transit":false},{"is_transit":false,"i_lat":-6.224515,"time":4,"distance":2520,"station_name":"Kranji","transit":false,"line":1,"station_id":"KRI","i_long":106.977657},{"line":1,"is_transit":false,"transit":false,"time":3,"station_id":"CUK","i_long":106.951283,"station_name":"Cakung","i_lat":-6.219053,"distance":3097},{"station_id":"KLDB","station_name":"Klenderbaru","i_lat":-6.217455,"transit":false,"i_long":106.939679,"line":1,"is_transit":false,"time":8,"distance":1385},{"transit":false,"station_id":"BUA","i_lat":-6.215568,"time":1,"distance":1305,"i_long":106.922662,"is_transit":false,"station_name":"Buaran","line":1},{"station_id":"KLD","i_long":106.899548,"distance":3100,"transit":false,"is_transit":false,"i_lat":-6.2135,"time":2,"station_name":"Klender","line":1},{"is_transit":true,"distance":3395,"time":3,"station_name":"Jatinegara","transit":true,"station_id":"JNG","i_lat":-6.215091,"i_long":106.86807400000001,"line":1},{"time":2,"is_transit":false,"station_id":"POK","distance":1236,"station_name":"Pondok Jati","i_long":106.861737,"transit":false,"i_lat":-6.209188,"line":11},{"transit":false,"line":11,"station_id":"KMT","station_name":"Kramat","i_long":106.855437,"time":2,"distance":1829,"is_transit":false,"i_lat":-6.193792},{"distance":973,"time":1,"i_long":106.850107,"line":11,"station_name":"Gang Sentiong","transit":false,"i_lat":-6.185975,"station_id":"GST","is_transit":false},{"station_id":"PSE","transit":false,"line":11,"is_transit":false,"station_name":"Pasar Senen","distance":1567,"time":8,"i_lat":-6.174784,"i_long":106.84368},{"transit":false,"i_lat":-6.161728,"station_id":"KMO","time":4,"station_name":"Kemayoran","distance":1436,"i_long":106.839204,"line":11,"is_transit":false},{"distance":1901,"station_id":"RJW","is_transit":false,"transit":false,"time":5,"i_lat":-6.14505,"station_name":"Rajawali","line":11,"i_long":106.836569},{"station_name":"Kampung Bandan","transit":true,"station_id":"KPB","is_transit":true,"i_long":106.826365,"distance":1444,"line":4,"time":3,"i_lat":-6.132549},{"i_lat":-6.137569,"station_id":"JAKK","transit":true,"station_name":"Jakarta Kota","i_long":106.812439,"time":3,"is_transit":true,"distance":1364,"line":2},{"is_transit":false,"transit":false,"distance":1264,"i_lat":-6.141205,"i_long":106.820901,"station_name":"Jayakarta","station_id":"JAY","line":2,"time":4},{"line":2,"i_long":106.82482,"station_name":"Manggabesar","is_transit":false,"station_id":"MGB","distance":1080,"time":2,"transit":false,"i_lat":-6.149769},{"is_transit":false,"transit":false,"station_id":"SW","line":2,"station_name":"Sawah Besar","i_long":106.827103,"time":2,"distance":906,"i_lat":-6.160725},{"time":2,"is_transit":false,"distance":1149,"station_id":"JUA","transit":false,"i_lat":-6.166716,"i_long":106.828284,"line":2,"station_name":"Juanda"},{"distance":2015,"station_id":"GDD","i_long":106.832183,"time":4,"transit":false,"line":2,"i_lat":-6.186295,"station_name":"Gondangdia","is_transit":false},{"time":3,"line":2,"i_long":106.840169,"station_name":"Cikini","distance":1750,"transit":false,"is_transit":false,"i_lat":-6.198556,"station_id":"CKI"},{"i_lat":-6.209883,"station_name":"Manggarai","transit":true,"i_long":106.84912,"time":4,"is_transit":true,"distance":1590,"station_id":"MRI","line":2},{"line":1,"distance":3186,"transit":false,"time":4,"station_id":"SUD","i_lat":-6.202263,"is_transit":false,"station_name":"Sudirman","i_long":106.822649},{"station_id":"SUDB","time":1,"is_transit":false,"i_long":106.819881,"distance":280,"line":1,"transit":false,"station_name":"Sudirman Baru","i_lat":-6.201433},{"station_name":"Karet","is_transit":false,"distance":471,"i_lat":-6.20132,"station_id":"KAT","line":1,"transit":false,"i_long":106.816351,"time":1},{"station_id":"THB","line":1,"i_long":106.811091,"is_transit":true,"time":5,"distance":2029,"station_name":"Tanah Abang","transit":true,"i_lat":-6.185545},{"transit":false,"time":6,"i_lat":-6.207404,"i_long":106.79689,"station_id":"PLM","line":6,"is_transit":false,"distance":3191,"station_name":"Palmerah"},{"station_id":"KBY","transit":false,"line":6,"i_lat":-6.237242,"distance":3737,"station_name":"Kebayoran","i_long":106.780334,"time":7,"is_transit":false},{"line":6,"distance":6218,"i_lat":-6.276362,"i_long":106.74273,"station_name":"Pondokranji","transit":false,"station_id":"PDJ","is_transit":false,"time":8},{"line":6,"transit":false,"is_transit":false,"distance":2179,"i_lat":-6.288927,"time":3,"station_id":"JMU","i_long":106.728916,"station_name":"Jurangmangu"},{"station_id":"SDM","transit":false,"i_lat":-6.296963,"time":4,"station_name":"Sudimara","i_long":106.712277,"line":6,"distance":1994,"is_transit":false},{"line":6,"i_long":106.675475,"is_transit":false,"transit":false,"time":6,"station_name":"Rawa Buntu","i_lat":-6.314823,"distance":4566,"station_id":"RU"},{"is_transit":false,"station_name":"Serpong","time":4,"transit":false,"station_id":"SRP","distance":2413,"i_long":106.66566,"i_lat":-6.319871,"line":6},{"station_name":"Cisauk","is_transit":false,"transit":false,"line":3,"i_lat":-6.32484,"station_id":"CSK","i_long":106.640411,"time":4,"distance":1784}]]}