{"data":[[{"i_lat":-6.2553149999999995,"is_transit":false,"transit":false,"line":1,"distance":0,"i_long":107.144613,"time":0,"station_name":"Cikarang","station_id":"CKR"},{"i_lat":-6.262938,"time":4,"is_transit":false,"i_long":107.093313,"distance":3689,"station_name":"Metland Telaga Murni","transit":false,"line":1,"station_id":"TLM"},{"station_name":"Cibitung","i_lat":-6.261877,"time":2,"i_long":107.083084,"transit":false,"line":1,"station_id":"CIT","distance":2800,"is_transit":false},{"time":3,"station_id":"TB","station_name":"Tambun","transit":false,"distance":3420,"line":1,"is_transit":false,"i_lat":-6.258864,"i_long":107.055722},{"distance":4460,"transit":false,"i_lat":-6.248029,"i_long":107.016735,"station_name":"Bekasi Timur","is_transit":false,"time":7,"station_id":"BKST","line":1},{"i_long":106.997013,"transit":false,"i_lat":-6.236616,"line":1,"time":2,"distance":2368,"is_transit":false,"station_name":"Bekasi","station_id":"BKS"},{"line":1,"i_lat":-6.224515,"time":4,"distance":2520,"station_id":"KRI","station_name":"Kranji","transit":false,"i_long":106.977657,"is_transit":false},{"station_id":"CUK","time":3,"is_transit":false,"distance":3097,"i_lat":-6.219053,"i_long":106.951283,"line":1,"transit":false,"station_name":"Cakung"},{"i_lat":-6.217455,"time":8,"is_transit":false,"transit":false,"station_id":"KLDB","station_name":"Klenderbaru","distance":1385,"i_long":106.939679,"line":1},{"time":1,"line":1,"transit":false,"i_long":106.922662,"distance":1305,"i_lat":-6.215568,"station_name":"Buaran","is_transit":false,"station_id":"BUA"},{"time":2,"i_long":106.899548,"station_id":"KLD","line":1,"transit":false,"station_name":"Klender","is_transit":false,"i_lat":-6.2135,"distance":3100},{"i_long":106.86807400000001,"transit":false,"i_lat":-6.215091,"distance":3395,"station_name":"Jatinegara","station_id":"JNG","time":3,"is_transit":false,"line":1},{"i_long":106.858896,"line":1,"distance":1377,"i_lat":-6.212485,"station_name":"Matraman","is_transit":false,"transit":false,"time":2,"station_id":"MTR"},{"i_long":106.84912,"distance":1275,"is_transit":false,"line":2,"station_id":"MRI","time":2,"transit":false,"station_name":"Manggarai","i_lat":-6.209883},{"is_transit":false,"i_long":106.822649,"station_name":"Sudirman","transit":false,"time":4,"distance":3186,"i_lat":-6.202263,"station_id":"SUD","line":1},{"transit":false,"i_lat":-6.201433,"line":1,"station_name":"Sudirman Baru","is_transit":false,"i_long":106.819881,"station_id":"SUDB","distance":280,"time":1},{"station_name":"Karet","i_long":106.816351,"line":1,"time":1,"distance":471,"station_id":"KAT","is_transit":false,"transit":false,"i_lat":-6.20132},{"distance":2029,"station_id":"THB","is_transit":false,"line":1,"time":5,"station_name":"Tanah Abang","transit":false,"i_lat":-6.185545,"i_long":106.811091},{"time":8,"station_id":"DU","line":1,"transit":true,"is_transit":true,"i_lat":-6.155215,"station_name":"Duri","i_long":106.800832,"distance":3632},{"line":5,"transit":false,"station_id":"GRG","time":3,"distance":1700,"is_transit":false,"i_lat":-6.162021,"i_long":106.788277,"station_name":"Grogol"},{"station_id":"PSG","station_name":"Pesing","time":2,"distance":2036,"is_transit":false,"i_lat":-6.161433,"i_long":106.771379,"line":5,"transit":false},{"i_long":106.756522,"time":2,"i_lat":-6.1587309999999995,"station_id":"TKO","distance":1614,"is_transit":false,"line":5,"station_name":"Taman Kota","transit":false},{"line":5,"station_id":"BOI","station_name":"Bojongindah","is_transit":false,"time":2,"distance":2334,"i_lat":-6.159876,"transit":false,"i_long":106.737035},{"station_id":"RW","time":4,"station_name":"Rawa Buaya","transit":false,"i_lat":-6.162758,"line":5,"is_transit":false,"i_long":106.723064,"distance":1152}],[{"is_transit":false,"time":0,"transit":false,"i_lat":-6.2553149999999995,"line":1,"station_name":"Cikarang","station_id":"CKR","distance":0,"i_long":107.144613},{"line":1,"distance":3689,"station_id":"TLM","i_long":107.093313,"i_lat":-6.262938,"is_transit":false,"time":4,"transit":false,"station_name":"Metland Telaga Murni"},{"station_id":"CIT","i_lat":-6.261877,"distance":2800,"station_name":"Cibitung","time":2,"i_long":107.083084,"transit":false,"line":1,"is_transit":false},{"station_id":"TB","is_transit":false,"i_long":107.055722,"distance":3420,"transit":false,"i_lat":-6.258864,"station_name":"Tambun","line":1,"time":3},{"line":1,"distance":4460,"station_id":"BKST","transit":false,"time":7,"i_long":107.016735,"is_transit":false,"station_name":"Bekasi Timur","i_lat":-6.248029},{"station_id":"BKS","time":2,"distance":2368,"i_lat":-6.236616,"line":1,"transit":false,"station_name":"Bekasi","is_transit":false,"i_long":106.997013},{"transit":false,"is_transit":false,"station_id":"KRI","distance":2520,"time":4,"i_long":106.977657,"line":1,"station_name":"Kranji","i_lat":-6.224515},{"line":1,"station_name":"Cakung","distance":3097,"i_long":106.951283,"station_id":"CUK","time":3,"is_transit":false,"i_lat":-6.219053,"transit":false},{"i_lat":-6.217455,"line":1,"station_id":"KLDB","distance":1385,"is_transit":false,"time":8,"transit":false,"i_long":106.939679,"station_name":"Klenderbaru"},{"i_lat":-6.215568,"station_id":"BUA","time":1,"distance":1305,"transit":false,"i_long":106.922662,"line":1,"is_transit":false,"station_name":"Buaran"},{"line":1,"station_id":"KLD","time":2,"distance":3100,"i_lat":-6.2135,"transit":false,"is_transit":false,"station_name":"Klender","i_long":106.899548},{"is_transit":true,"transit":true,"station_id":"JNG","station_name":"Jatinegara","distance":3395,"i_lat":-6.215091,"time":3,"i_long":106.86807400000001,"line":1},{"transit":false,"i_long":106.861737,"station_name":"Pondok Jati","i_lat":-6.209188,"line":11,"is_transit":false,"station_id":"POK","time":2,"distance":1236},{"is_transit":false,"line":11,"station_id":"KMT","i_lat":-6.193792,"i_long":106.855437,"station_name":"Kramat","transit":false,"distance":1829,"time":2},{"transit":false,"i_lat":-6.185975,"station_id":"GST","line":11,"is_transit":false,"station_name":"Gang Sentiong","i_long":106.850107,"time":1,"distance":973},{"is_transit":false,"distance":1567,"i_lat":-6.174784,"i_long":106.84368,"station_name":"Pasar Senen","transit":false,"station_id":"PSE","time":8,"line":11},{"i_long":106.839204,"is_transit":false,"distance":1436,"transit":false,"station_id":"KMO","time":4,"line":11,"i_lat":-6.161728,"station_name":"Kemayoran"},{"line":11,"time":5,"transit":false,"is_transit":false,"distance":1901,"i_lat":-6.14505,"station_id":"RJW","i_long":106.836569,"station_name":"Rajawali"},{"i_long":106.826365,"distance":1444,"transit":true,"station_name":"Kampung Bandan","time":3,"is_transit":true,"line":4,"i_lat":-6.132549,"station_id":"KPB"},{"i_lat":-6.144674,"station_id":"AK","i_long":106.79867,"distance":4102,"time":9,"transit":false,"is_transit":false,"line":1,"station_name":"Angke"},{"i_long":106.800832,"line":1,"station_id":"DU","transit":true,"is_transit":true,"time":4,"distance":1230,"station_name":"Duri","i_lat":-6.155215},{"is_transit":false,"i_long":106.788277,"time":3,"station_name":"Grogol","line":5,"transit":false,"distance":1700,"station_id":"GRG","i_lat":-6.162021},{"transit":false,"station_id":"PSG","distance":2036,"time":2,"i_lat":-6.161433,"i_long":106.771379,"station_name":"Pesing","is_transit":false,"line":5},{"transit":false,"line":5,"station_id":"TKO","is_transit":false,"i_long":106.756522,"distance":1614,"time":2,"i_lat":-6.1587309999999995,"station_name":"Taman Kota"},{"station_id":"BOI","time":2,"is_transit":false,"i_long":106.737035,"i_lat":-6.159876,"transit":false,"station_name":"Bojongindah","distance":2334,"line":5},{"transit":false,"i_lat":-6.162758,"line":5,"station_name":"Rawa Buaya","distance":1152,"time":4,"is_transit":false,"station_id":"RW","i_long":106.723064}],[{"time":0,"station_id":"CKR","distance":0,"i_lat":-6.2553149999999995,"transit":false,"i_long":107.144613,"line":1,"is_transit":false,"station_name":"Cikarang"},{"station_name":"Metland Telaga Murni","i_lat":-6.262938,"station_id":"TLM","i_long":107.093313,"time":4,"distance":3689,"transit":false,"is_transit":false,"line":1},{"i_lat":-6.261877,"is_transit":false,"line":1,"time":2,"station_name":"Cibitung","transit":false,"distance":2800,"station_id":"CIT","i_long":107.083084},{"time":3,"line":1,"transit":false,"distance":3420,"is_transit":false,"i_long":107.055722,"i_lat":-6.258864,"station_id":"TB","station_name":"Tambun"},{"distance":4460,"line":1,"is_transit":false,"station_name":"Bekasi Timur","i_lat":-6.248029,"station_id":"BKST","i_long":107.016735,"time":7,"transit":false},{"is_transit":false,"transit":false,"distance":2368,"i_lat":-6.236616,"time":2,"station_name":"Bekasi","station_id":"BKS","line":1,"i_long":106.997013},{"i_lat":-6.224515,"station_id":"KRI","station_name":"Kranji","line":1,"time":4,"distance":2520,"is_transit":false,"i_long":106.977657,"transit":false},{"time":3,"station_id":"CUK","distance":3097,"is_transit":false,"transit":false,"i_long":106.951283,"line":1,"i_lat":-6.219053,"station_name":"Cakung"},{"i_lat":-6.217455,"distance":1385,"is_transit":false,"station_id":"KLDB","line":1,"station_name":"Klenderbaru","i_long":106.939679,"time":8,"transit":false},{"station_id":"BUA","time":1,"transit":false,"i_lat":-6.215568,"is_transit":false,"station_name":"Buaran","i_long":106.922662,"line":1,"distance":1305},{"station_id":"KLD","station_name":"Klender","i_long":106.899548,"i_lat":-6.2135,"line":1,"transit":false,"time":2,"is_transit":false,"distance":3100},{"line":1,"distance":3395,"transit":false,"station_id":"JNG","station_name":"Jatinegara","time":3,"is_transit":false,"i_long":106.86807400000001,"i_lat":-6.215091},{"is_transit":false,"station_id":"MTR","time":2,"transit":false,"i_long":106.858896,"distance":1377,"station_name":"Matraman","i_lat":-6.212485,"line":1},{"is_transit":true,"transit":true,"i_long":106.84912,"station_id":"MRI","time":2,"distance":1275,"station_name":"Manggarai","i_lat":-6.209883,"line":2},{"station_id":"CKI","i_lat":-6.198556,"time":4,"station_name":"Cikini","line":2,"distance":1590,"is_transit":false,"transit":false,"i_long":106.840169},{"is_transit":false,"distance":1750,"transit":false,"station_name":"Gondangdia","i_lat":-6.186295,"station_id":"GDD","line":2,"i_long":106.832183,"time":3},{"station_id":"JUA","i_lat":-6.166716,"i_long":106.828284,"is_transit":false,"time":4,"transit":false,"station_name":"Juanda","line":2,"distance":2015},{"line":2,"i_long":106.827103,"is_transit":false,"station_name":"Sawah Besar","transit":false,"i_lat":-6.160725,"time":2,"station_id":"SW","distance":1149},{"distance":906,"i_long":106.82482,"line":2,"i_lat":-6.149769,"station_name":"Manggabesar","is_transit":false,"time":2,"station_id":"MGB","transit":false},{"distance":1080,"line":2,"i_lat":-6.141205,"is_transit":false,"time":2,"transit":false,"station_name":"Jayakarta","station_id":"JAY","i_long":106.820901},{"time":4,"transit":true,"is_transit":true,"i_lat":-6.137569,"line":2,"station_id":"JAKK","i_long":106.812439,"station_name":"Jakarta Kota","distance":1264},{"i_long":106.826365,"distance":1364,"i_lat":-6.132549,"station_id":"KPB","line":4,"station_name":"Kampung Bandan","is_transit":true,"transit":true,"time":3},{"transit":false,"i_long":106.79867,"distance":4102,"station_id":"AK","is_transit":false,"time":9,"station_name":"Angke","line":1,"i_lat":-6.144674},{"is_transit":true,"i_lat":-6.155215,"line":1,"station_id":"DU","transit":true,"station_name":"Duri","time":4,"distance":1230,"i_long":106.800832},{"station_id":"GRG","station_name":"Grogol","i_long":106.788277,"transit":false,"is_transit":false,"line":5,"distance":1700,"time":3,"i_lat":-6.162021},{"distance":2036,"transit":false,"station_name":"Pesing","time":2,"station_id":"PSG","is_transit":false,"i_lat":-6.161433,"i_long":106.771379,"line":5},{"i_lat":-6.1587309999999995,"line":5,"station_id":"TKO","time":2,"transit":false,"distance":1614,"is_transit":false,"station_name":"Taman Kota","i_long":106.756522},{"line":5,"i_lat":-6.159876,"transit":false,"i_long":106.737035,"time":2,"station_name":"Bojongindah","station_id":"BOI","is_transit":false,"distance":2334},{"transit":false,"time":4,"station_id":"RW","distance":1152,"station_name":"Rawa Buaya","i_lat":-6.162758,"i_long":106.723064,"line":5,"is_transit":false}],[{"line":1,"time":0,"station_name":"Cikarang","transit":false,"i_lat":-6.2553149999999995,"i_long":107.144613,"station_id":"CKR","distance":0,"is_transit":false},{"i_lat":-6.262938,"line":1,"station_id":"TLM","is_transit":false,"time":4,"transit":false,"distance":3689,"station_name":"Metland Telaga Murni","i_long":107.093313},{"is_transit":false,"station_id":"CIT","time":2,"line":1,"station_name":"Cibitung","i_long":107.083084,"distance":2800,"i_lat":-6.261877,"transit":false},{"is_transit":false,"station_name":"Tambun","time":3,"i_lat":-6.258864,"line":1,"distance":3420,"station_id":"TB","transit":false,"i_long":107.055722},{"is_transit":false,"distance":4460,"station_id":"BKST","station_name":"Bekasi Timur","i_lat":-6.248029,"time":7,"i_long":107.016735,"line":1,"transit":false},{"time":2,"transit":false,"i_lat":-6.236616,"is_transit":false,"distance":2368,"station_id":"BKS","station_name":"Bekasi","i_long":106.997013,"line":1},{"transit":false,"i_long":106.977657,"time":4,"i_lat":-6.224515,"line":1,"distance":2520,"station_id":"KRI","station_name":"Kranji","is_transit":false},{"i_lat":-6.219053,"transit":false,"time":3,"i_long":106.951283,"distance":3097,"station_id":"CUK","station_name":"Cakung","line":1,"is_transit":false},{"distance":1385,"line":1,"is_transit":false,"station_name":"Klenderbaru","i_lat":-6.217455,"i_long":106.939679,"station_id":"KLDB","transit":false,"time":8},{"station_id":"BUA","distance":1305,"transit":false,"is_transit":false,"line":1,"station_name":"Buaran","i_lat":-6.215568,"i_long":106.922662,"time":1},{"is_transit":false,"i_lat":-6.2135,"i_long":106.899548,"line":1,"time":2,"station_name":"Klender","transit":false,"distance":3100,"station_id":"KLD"},{"is_transit":true,"i_lat":-6.215091,"line":1,"station_name":"Jatinegara","station_id":"JNG","transit":true,"time":3,"distance":3395,"i_long":106.86807400000001},{"is_transit":false,"i_long":106.861737,"line":11,"distance":1236,"station_name":"Pondok Jati","i_lat":-6.209188,"transit":false,"time":2,"station_id":"POK"},{"is_transit":false,"line":11,"time":2,"station_id":"KMT","transit":false,"station_name":"Kramat","i_lat":-6.193792,"i_long":106.855437,"distance":1829},{"time":1,"transit":false,"line":11,"i_lat":-6.185975,"is_transit":false,"distance":973,"station_name":"Gang Sentiong","station_id":"GST","i_long":106.850107},{"is_transit":false,"i_lat":-6.174784,"time":8,"distance":1567,"transit":false,"station_name":"Pasar Senen","i_long":106.84368,"station_id":"PSE","line":11},{"time":4,"station_id":"KMO","station_name":"Kemayoran","line":11,"transit":false,"distance":1436,"i_long":106.839204,"i_lat":-6.161728,"is_transit":false},{"i_long":106.836569,"line":11,"is_transit":false,"distance":1901,"i_lat":-6.14505,"time":5,"station_id":"RJW","transit":false,"station_name":"Rajawali"},{"transit":true,"time":3,"is_transit":true,"i_long":106.826365,"station_name":"Kampung Bandan","line":4,"station_id":"KPB","distance":1444,"i_lat":-6.132549},{"line":2,"station_id":"JAKK","station_name":"Jakarta Kota","time":3,"is_transit":true,"i_lat":-6.137569,"i_long":106.812439,"distance":1364,"transit":true},{"distance":1264,"line":2,"is_transit":false,"transit":false,"station_id":"JAY","station_name":"Jayakarta","i_lat":-6.141205,"i_long":106.820901,"time":4},{"line":2,"transit":false,"is_transit":false,"station_id":"MGB","station_name":"Manggabesar","i_long":106.82482,"distance":1080,"i_lat":-6.149769,"time":2},{"distance":906,"station_name":"Sawah Besar","station_id":"SW","i_long":106.827103,"is_transit":false,"transit":false,"line":2,"time":2,"i_lat":-6.160725},{"station_name":"Juanda","line":2,"i_lat":-6.166716,"is_transit":false,"time":2,"i_long":106.828284,"distance":1149,"transit":false,"station_id":"JUA"},{"i_long":106.832183,"station_name":"Gondangdia","distance":2015,"is_transit":false,"transit":false,"line":2,"station_id":"GDD","time":4,"i_lat":-6.186295},{"is_transit":false,"line":2,"time":3,"station_name":"Cikini","i_long":106.840169,"station_id":"CKI","transit":false,"i_lat":-6.198556,"distance":1750},{"transit":true,"station_id":"MRI","time":4,"distance":1590,"station_name":"Manggarai","i_long":106.84912,"i_lat":-6.209883,"is_transit":true,"line":2},{"i_long":106.822649,"is_transit":false,"station_name":"Sudirman","line":1,"station_id":"SUD","transit":false,"time":4,"distance":3186,"i_lat":-6.202263},{"station_id":"SUDB","line":1,"time":1,"i_long":106.819881,"transit":false,"i_lat":-6.201433,"is_transit":false,"distance":280,"station_name":"Sudirman Baru"},{"i_lat":-6.20132,"distance":471,"station_name":"Karet","is_transit":false,"i_long":106.816351,"station_id":"KAT","time":1,"transit":false,"line":1},{"time":5,"i_long":106.811091,"line":1,"station_name":"Tanah Abang","station_id":"THB","distance":2029,"is_transit":false,"transit":false,"i_lat":-6.185545},{"i_long":106.800832,"is_transit":true,"line":1,"distance":3632,"station_name":"Duri","station_id":"DU","time":8,"transit":true,"i_lat":-6.155215},{"line":5,"distance":1700,"station_id":"GRG","i_long":106.788277,"station_name":"Grogol","i_lat":-6.162021,"time":3,"transit":false,"is_transit":false},{"distance":2036,"station_name":"Pesing","i_lat":-6.161433,"is_transit":false,"transit":false,"station_id":"PSG","i_long":106.771379,"time":2,"line":5},{"line":5,"time":2,"distance":1614,"is_transit":false,"i_lat":-6.1587309999999995,"transit":false,"station_id":"TKO","station_name":"Taman Kota","i_long":106.756522},{"station_id":"BOI","is_transit":false,"i_lat":-6.159876,"transit":false,"line":5,"time":2,"distance":2334,"station_name":"Bojongindah","i_long":106.737035},{"distance":1152,"station_name":"Rawa Buaya","i_lat":-6.162758,"transit":false,"time":4,"is_transit":false,"line":5,"station_id":"RW","i_long":106.723064}]]}