{"data":[[{"is_transit":false,"station_name":"Cikarang","distance":0,"line":0,"station_id":"CKR","transit":false,"i_lat":-6.2553149999999995,"i_long":107.144613,"time":0},{"distance":3689,"transit":false,"is_transit":false,"station_name":"Metland Telaga Murni","i_long":107.093313,"station_id":"TLM","time":4,"i_lat":-6.262938,"line":1},{"distance":2800,"transit":false,"line":0,"time":2,"station_id":"CIT","i_lat":-6.261877,"i_long":107.083084,"station_name":"Cibitung","is_transit":false},{"distance":3420,"i_lat":-6.258864,"time":3,"line":1,"station_id":"TB","is_transit":false,"i_long":107.055722,"station_name":"Tambun","transit":false},{"line":0,"i_lat":-6.248029,"distance":4460,"station_name":"Bekasi Timur","transit":false,"i_long":107.016735,"is_transit":false,"station_id":"BKST","time":7},{"station_id":"BKS","line":0,"i_long":106.997013,"is_transit":false,"transit":false,"distance":2368,"station_name":"Bekasi","time":2,"i_lat":-6.236616},{"station_name":"Kranji","transit":false,"station_id":"KRI","is_transit":false,"time":4,"distance":2520,"i_long":106.977657,"line":1,"i_lat":-6.224515},{"transit":false,"station_name":"Cakung","line":0,"i_long":106.951283,"time":3,"distance":3097,"station_id":"CUK","i_lat":-6.219053,"is_transit":false},{"i_long":106.939679,"distance":1385,"is_transit":false,"station_name":"Klenderbaru","transit":false,"i_lat":-6.217455,"time":8,"line":1,"station_id":"KLDB"},{"is_transit":false,"time":1,"station_name":"Buaran","station_id":"BUA","i_lat":-6.215568,"line":0,"i_long":106.922662,"distance":1305,"transit":false},{"station_id":"KLD","i_lat":-6.2135,"time":2,"line":1,"i_long":106.899548,"distance":3100,"station_name":"Klender","transit":false,"is_transit":false},{"time":3,"is_transit":true,"i_lat":-6.215091,"station_name":"Jatinegara","transit":false,"line":0,"i_long":106.86807400000001,"distance":3395,"station_id":"JNG"},{"transit":false,"time":2,"line":1,"station_name":"Matraman","i_lat":-6.212485,"i_long":106.858896,"station_id":"MTR","is_transit":false,"distance":1377},{"station_name":"Manggarai","i_long":106.84912,"transit":true,"time":2,"distance":1275,"i_lat":-6.209883,"station_id":"MRI","is_transit":true,"line":0},{"is_transit":false,"station_name":"Tebet","i_lat":-6.226659,"i_long":106.857948,"time":4,"distance":2610,"line":2,"station_id":"TEB","transit":false},{"time":2,"distance":1230,"line":0,"is_transit":false,"transit":false,"station_name":"Cawang","i_long":106.856607,"i_lat":-6.242512,"station_id":"CW"},{"i_lat":-6.255332,"distance":1546,"time":3,"station_id":"DRN","is_transit":false,"transit":false,"station_name":"Duren Kalibata","line":0,"i_long":106.85449},{"line":2,"distance":824,"time":2,"station_name":"Pasar Minggu Baru","transit":false,"i_lat":-6.263214,"i_long":106.851577,"station_id":"PSMB","is_transit":false},{"transit":false,"distance":2380,"is_transit":false,"i_long":106.843999,"station_name":"Pasar Minggu","station_id":"PSM","time":2,"i_lat":-6.2842400000000005,"line":2},{"time":4,"station_id":"TNT","line":2,"i_long":106.838896,"is_transit":false,"distance":2820,"station_name":"Tanjung Barat","transit":false,"i_lat":-6.3080680000000005},{"transit":false,"line":2,"time":3,"distance":2671,"station_name":"Lenteng Agung","i_long":106.832616,"i_lat":-6.330363,"station_id":"LNA","is_transit":false},{"is_transit":false,"station_id":"UP","time":2,"i_long":106.834175,"distance":1029,"i_lat":-6.339291,"transit":false,"line":2,"station_name":"Univ. Pancasila"},{"is_transit":false,"transit":false,"i_lat":-6.360749,"station_id":"UI","time":3,"station_name":"Univ. Indonesia","i_long":106.831474,"distance":2264,"line":2},{"i_lat":-6.369073,"i_long":106.831114,"distance":1109,"line":2,"time":2,"is_transit":false,"station_name":"Pondok Cina","transit":false,"station_id":"POC"},{"line":0,"station_id":"DPB","transit":false,"station_name":"Depokbaru","i_long":106.819451,"is_transit":false,"i_lat":-6.391065,"time":4,"distance":2727},{"time":3,"transit":false,"i_long":106.816926,"station_name":"Depok","i_lat":-6.405256,"is_transit":false,"line":0,"station_id":"DP","distance":1584},{"station_id":"CTA","i_lat":-6.448811,"transit":false,"is_transit":true,"time":6,"station_name":"Citayam","line":1,"distance":5084,"i_long":106.800298},{"transit":false,"is_transit":false,"station_id":"CBN","time":10,"i_lat":-6.46424,"i_long":106.851978,"line":0,"distance":6740,"station_name":"Cibinong"}],[{"line":0,"is_transit":false,"distance":0,"station_name":"Cikarang","i_long":107.144613,"time":0,"station_id":"CKR","transit":false,"i_lat":-6.2553149999999995},{"i_lat":-6.262938,"line":1,"station_id":"TLM","distance":3689,"is_transit":false,"time":4,"station_name":"Metland Telaga Murni","i_long":107.093313,"transit":false},{"i_long":107.083084,"station_id":"CIT","station_name":"Cibitung","i_lat":-6.261877,"transit":false,"line":0,"time":2,"is_transit":false,"distance":2800},{"is_transit":false,"i_lat":-6.258864,"line":1,"time":3,"transit":false,"distance":3420,"i_long":107.055722,"station_id":"TB","station_name":"Tambun"},{"time":7,"line":0,"station_id":"BKST","is_transit":false,"i_long":107.016735,"i_lat":-6.248029,"distance":4460,"transit":false,"station_name":"Bekasi Timur"},{"i_long":106.997013,"station_id":"BKS","i_lat":-6.236616,"distance":2368,"line":0,"transit":false,"time":2,"station_name":"Bekasi","is_transit":false},{"station_id":"KRI","distance":2520,"station_name":"Kranji","i_long":106.977657,"time":4,"i_lat":-6.224515,"transit":false,"is_transit":false,"line":1},{"distance":3097,"station_name":"Cakung","transit":false,"station_id":"CUK","i_long":106.951283,"is_transit":false,"i_lat":-6.219053,"line":0,"time":3},{"transit":false,"distance":1385,"is_transit":false,"line":1,"station_name":"Klenderbaru","station_id":"KLDB","i_lat":-6.217455,"time":8,"i_long":106.939679},{"transit":false,"station_id":"BUA","distance":1305,"i_lat":-6.215568,"line":0,"is_transit":false,"i_long":106.922662,"station_name":"Buaran","time":1},{"is_transit":false,"distance":3100,"station_id":"KLD","i_long":106.899548,"time":2,"line":1,"i_lat":-6.2135,"station_name":"Klender","transit":false},{"i_lat":-6.215091,"transit":true,"time":3,"line":0,"distance":3395,"station_name":"Jatinegara","i_long":106.86807400000001,"station_id":"JNG","is_transit":true},{"distance":1236,"i_lat":-6.209188,"i_long":106.861737,"line":11,"station_id":"POK","is_transit":false,"station_name":"Pondok Jati","time":2,"transit":false},{"station_id":"KMT","line":11,"is_transit":false,"transit":false,"station_name":"Kramat","i_lat":-6.193792,"distance":1829,"time":2,"i_long":106.855437},{"distance":973,"i_lat":-6.185975,"i_long":106.850107,"line":11,"station_name":"Gang Sentiong","is_transit":false,"time":1,"transit":false,"station_id":"GST"},{"line":11,"distance":1567,"time":8,"i_long":106.84368,"station_name":"Pasar Senen","station_id":"PSE","is_transit":false,"transit":false,"i_lat":-6.174784},{"line":11,"station_id":"KMO","time":4,"distance":1436,"is_transit":false,"i_long":106.839204,"i_lat":-6.161728,"transit":false,"station_name":"Kemayoran"},{"is_transit":false,"transit":false,"station_name":"Rajawali","distance":1901,"line":11,"station_id":"RJW","i_lat":-6.14505,"time":5,"i_long":106.836569},{"is_transit":true,"transit":true,"station_name":"Kampung Bandan","i_long":106.826365,"station_id":"KPB","time":3,"distance":1444,"line":0,"i_lat":-6.132549},{"station_name":"Angke","station_id":"AK","distance":4102,"transit":false,"is_transit":false,"time":9,"i_long":106.79867,"line":0,"i_lat":-6.144674},{"is_transit":true,"station_id":"DU","distance":1230,"station_name":"Duri","transit":true,"i_lat":-6.155215,"line":1,"i_long":106.800832,"time":4},{"transit":false,"distance":3632,"station_name":"Tanah Abang","line":1,"i_lat":-6.185545,"time":8,"station_id":"THB","is_transit":true,"i_long":106.811091},{"transit":false,"station_id":"KAT","time":5,"i_lat":-6.20132,"station_name":"Karet","i_long":106.816351,"line":1,"distance":2029,"is_transit":false},{"station_id":"SUDB","distance":471,"i_lat":-6.201433,"line":1,"is_transit":false,"i_long":106.819881,"time":1,"transit":false,"station_name":"Sudirman Baru"},{"i_lat":-6.202263,"is_transit":false,"station_name":"Sudirman","distance":280,"time":1,"station_id":"SUD","i_long":106.822649,"line":1,"transit":false},{"i_long":106.84912,"line":0,"distance":3186,"transit":true,"i_lat":-6.209883,"station_name":"Manggarai","time":4,"station_id":"MRI","is_transit":true},{"transit":false,"line":2,"i_lat":-6.226659,"i_long":106.857948,"station_id":"TEB","distance":2610,"is_transit":false,"station_name":"Tebet","time":4},{"station_name":"Cawang","is_transit":false,"i_lat":-6.242512,"line":0,"time":2,"transit":false,"i_long":106.856607,"station_id":"CW","distance":1230},{"transit":false,"is_transit":false,"i_lat":-6.255332,"time":3,"distance":1546,"line":0,"i_long":106.85449,"station_name":"Duren Kalibata","station_id":"DRN"},{"station_id":"PSMB","is_transit":false,"time":2,"i_long":106.851577,"line":2,"i_lat":-6.263214,"distance":824,"transit":false,"station_name":"Pasar Minggu Baru"},{"transit":false,"i_lat":-6.2842400000000005,"time":2,"i_long":106.843999,"station_id":"PSM","is_transit":false,"distance":2380,"station_name":"Pasar Minggu","line":2},{"i_long":106.838896,"station_id":"TNT","transit":false,"time":4,"station_name":"Tanjung Barat","i_lat":-6.3080680000000005,"is_transit":false,"line":2,"distance":2820},{"distance":2671,"time":3,"station_name":"Lenteng Agung","transit":false,"i_long":106.832616,"station_id":"LNA","line":2,"i_lat":-6.330363,"is_transit":false},{"station_id":"UP","is_transit":false,"time":2,"i_long":106.834175,"distance":1029,"station_name":"Univ. Pancasila","transit":false,"line":2,"i_lat":-6.339291},{"distance":2264,"i_lat":-6.360749,"station_id":"UI","i_long":106.831474,"line":2,"is_transit":false,"station_name":"Univ. Indonesia","transit":false,"time":3},{"station_name":"Pondok Cina","station_id":"POC","time":2,"distance":1109,"transit":false,"i_lat":-6.369073,"i_long":106.831114,"line":2,"is_transit":false},{"distance":2727,"is_transit":false,"line":0,"station_name":"Depokbaru","i_long":106.819451,"i_lat":-6.391065,"time":4,"transit":false,"station_id":"DPB"},{"line":0,"station_name":"Depok","transit":false,"station_id":"DP","time":3,"i_lat":-6.405256,"distance":1584,"i_long":106.816926,"is_transit":false},{"station_id":"CTA","station_name":"Citayam","is_transit":true,"line":1,"distance":5084,"i_long":106.800298,"time":6,"transit":false,"i_lat":-6.448811},{"distance":6740,"transit":false,"is_transit":false,"station_name":"Cibinong","i_lat":-6.46424,"station_id":"CBN","time":10,"i_long":106.851978,"line":0}],[{"is_transit":false,"station_id":"CKR","time":0,"station_name":"Cikarang","i_lat":-6.2553149999999995,"transit":false,"distance":0,"i_long":107.144613,"line":0},{"transit":false,"line":1,"time":4,"is_transit":false,"station_name":"Metland Telaga Murni","station_id":"TLM","i_lat":-6.262938,"distance":3689,"i_long":107.093313},{"i_long":107.083084,"station_id":"CIT","transit":false,"time":2,"distance":2800,"station_name":"Cibitung","is_transit":false,"i_lat":-6.261877,"line":0},{"i_long":107.055722,"line":1,"station_id":"TB","transit":false,"i_lat":-6.258864,"time":3,"is_transit":false,"distance":3420,"station_name":"Tambun"},{"i_long":107.016735,"line":0,"i_lat":-6.248029,"time":7,"station_id":"BKST","is_transit":false,"distance":4460,"station_name":"Bekasi Timur","transit":false},{"i_long":106.997013,"i_lat":-6.236616,"station_id":"BKS","line":0,"time":2,"distance":2368,"station_name":"Bekasi","transit":false,"is_transit":false},{"i_long":106.977657,"station_id":"KRI","time":4,"station_name":"Kranji","i_lat":-6.224515,"transit":false,"line":1,"is_transit":false,"distance":2520},{"station_name":"Cakung","distance":3097,"i_lat":-6.219053,"time":3,"transit":false,"line":0,"i_long":106.951283,"is_transit":false,"station_id":"CUK"},{"i_lat":-6.217455,"time":8,"line":1,"distance":1385,"transit":false,"is_transit":false,"station_name":"Klenderbaru","station_id":"KLDB","i_long":106.939679},{"transit":false,"time":1,"station_name":"Buaran","line":0,"is_transit":false,"station_id":"BUA","i_lat":-6.215568,"distance":1305,"i_long":106.922662},{"station_name":"Klender","is_transit":false,"transit":false,"i_lat":-6.2135,"distance":3100,"time":2,"i_long":106.899548,"line":1,"station_id":"KLD"},{"line":0,"time":3,"i_lat":-6.215091,"distance":3395,"station_name":"Jatinegara","is_transit":true,"transit":true,"station_id":"JNG","i_long":106.86807400000001},{"time":2,"is_transit":false,"station_id":"POK","line":11,"i_lat":-6.209188,"distance":1236,"station_name":"Pondok Jati","transit":false,"i_long":106.861737},{"i_long":106.855437,"line":11,"transit":false,"distance":1829,"station_name":"Kramat","station_id":"KMT","is_transit":false,"time":2,"i_lat":-6.193792},{"distance":973,"transit":false,"is_transit":false,"station_name":"Gang Sentiong","i_lat":-6.185975,"station_id":"GST","i_long":106.850107,"line":11,"time":1},{"transit":false,"i_lat":-6.174784,"is_transit":false,"i_long":106.84368,"time":8,"line":11,"station_id":"PSE","station_name":"Pasar Senen","distance":1567},{"i_lat":-6.161728,"time":4,"station_name":"Kemayoran","station_id":"KMO","transit":false,"i_long":106.839204,"line":11,"is_transit":false,"distance":1436},{"time":5,"distance":1901,"transit":false,"i_long":106.836569,"station_id":"RJW","is_transit":false,"i_lat":-6.14505,"station_name":"Rajawali","line":11},{"station_id":"KPB","time":3,"i_lat":-6.132549,"distance":1444,"station_name":"Kampung Bandan","i_long":106.826365,"is_transit":true,"transit":true,"line":0},{"station_id":"JAKK","is_transit":true,"distance":1364,"station_name":"Jakarta Kota","i_lat":-6.137569,"transit":true,"i_long":106.812439,"line":0,"time":3},{"station_id":"JAY","transit":false,"line":7,"is_transit":false,"time":4,"station_name":"Jayakarta","i_lat":-6.141205,"i_long":106.820901,"distance":1264},{"i_long":106.82482,"is_transit":false,"time":2,"station_id":"MGB","i_lat":-6.149769,"line":2,"distance":1080,"transit":false,"station_name":"Manggabesar"},{"time":2,"is_transit":false,"distance":906,"i_long":106.827103,"i_lat":-6.160725,"line":2,"station_id":"SW","station_name":"Sawah Besar","transit":false},{"transit":false,"is_transit":false,"station_id":"JUA","time":2,"distance":1149,"i_lat":-6.166716,"station_name":"Juanda","i_long":106.828284,"line":2},{"line":2,"is_transit":false,"i_long":106.832183,"station_id":"GDD","time":4,"distance":2015,"station_name":"Gondangdia","i_lat":-6.186295,"transit":false},{"time":3,"station_name":"Cikini","i_lat":-6.198556,"is_transit":false,"i_long":106.840169,"distance":1750,"transit":false,"station_id":"CKI","line":0},{"is_transit":true,"station_name":"Manggarai","station_id":"MRI","transit":true,"time":4,"distance":1590,"i_lat":-6.209883,"line":0,"i_long":106.84912},{"is_transit":false,"line":2,"i_long":106.857948,"station_id":"TEB","distance":2610,"transit":false,"station_name":"Tebet","i_lat":-6.226659,"time":4},{"station_id":"CW","is_transit":false,"station_name":"Cawang","transit":false,"i_lat":-6.242512,"i_long":106.856607,"line":0,"time":2,"distance":1230},{"station_id":"DRN","line":0,"distance":1546,"transit":false,"is_transit":false,"time":3,"i_lat":-6.255332,"i_long":106.85449,"station_name":"Duren Kalibata"},{"i_long":106.851577,"time":2,"line":2,"transit":false,"station_name":"Pasar Minggu Baru","is_transit":false,"station_id":"PSMB","distance":824,"i_lat":-6.263214},{"is_transit":false,"time":2,"distance":2380,"i_lat":-6.2842400000000005,"i_long":106.843999,"line":2,"station_name":"Pasar Minggu","transit":false,"station_id":"PSM"},{"i_lat":-6.3080680000000005,"station_id":"TNT","is_transit":false,"i_long":106.838896,"line":2,"time":4,"station_name":"Tanjung Barat","transit":false,"distance":2820},{"is_transit":false,"transit":false,"station_name":"Lenteng Agung","i_long":106.832616,"time":3,"i_lat":-6.330363,"station_id":"LNA","distance":2671,"line":2},{"transit":false,"station_id":"UP","i_lat":-6.339291,"i_long":106.834175,"is_transit":false,"time":2,"distance":1029,"station_name":"Univ. Pancasila","line":2},{"station_id":"UI","is_transit":false,"time":3,"station_name":"Univ. Indonesia","i_lat":-6.360749,"distance":2264,"line":2,"transit":false,"i_long":106.831474},{"distance":1109,"transit":false,"station_id":"POC","station_name":"Pondok Cina","i_lat":-6.369073,"line":2,"is_transit":false,"time":2,"i_long":106.831114},{"transit":false,"line":0,"distance":2727,"i_long":106.819451,"station_name":"Depokbaru","time":4,"i_lat":-6.391065,"station_id":"DPB","is_transit":false},{"is_transit":false,"station_name":"Depok","station_id":"DP","transit":false,"i_lat":-6.405256,"time":3,"distance":1584,"i_long":106.816926,"line":0},{"station_id":"CTA","time":6,"is_transit":true,"i_long":106.800298,"distance":5084,"line":1,"station_name":"Citayam","transit":false,"i_lat":-6.448811},{"station_id":"CBN","time":10,"station_name":"Cibinong","distance":6740,"is_transit":false,"transit":false,"i_lat":-6.46424,"i_long":106.851978,"line":0}]]}