{"data":[[{"distance":0,"transit":false,"is_transit":false,"time":0,"i_long":107.144613,"station_id":"CKR","i_lat":-6.2553149999999995,"station_name":"Cikarang","line":0},{"station_id":"TLM","line":1,"station_name":"Metland Telaga Murni","i_long":107.093313,"i_lat":-6.262938,"distance":3689,"transit":false,"is_transit":false,"time":4},{"station_id":"CIT","transit":false,"i_lat":-6.261877,"station_name":"Cibitung","is_transit":false,"time":2,"i_long":107.083084,"distance":2800,"line":0},{"i_lat":-6.258864,"i_long":107.055722,"is_transit":false,"distance":3420,"time":3,"station_id":"TB","station_name":"Tambun","transit":false,"line":1},{"time":7,"line":0,"i_long":107.016735,"i_lat":-6.248029,"distance":4460,"transit":false,"station_name":"Bekasi Timur","station_id":"BKST","is_transit":false},{"line":0,"i_lat":-6.236616,"time":2,"is_transit":false,"i_long":106.997013,"station_id":"BKS","transit":false,"station_name":"Bekasi","distance":2368},{"station_name":"Kranji","transit":false,"i_long":106.977657,"is_transit":false,"station_id":"KRI","i_lat":-6.224515,"distance":2520,"time":4,"line":1},{"time":3,"station_id":"CUK","is_transit":false,"station_name":"Cakung","i_long":106.951283,"distance":3097,"i_lat":-6.219053,"line":0,"transit":false},{"station_id":"KLDB","i_long":106.939679,"transit":false,"station_name":"Klenderbaru","is_transit":false,"distance":1385,"line":1,"time":8,"i_lat":-6.217455},{"transit":false,"station_name":"Buaran","distance":1305,"station_id":"BUA","time":1,"is_transit":false,"i_lat":-6.215568,"i_long":106.922662,"line":0},{"line":1,"station_name":"Klender","distance":3100,"time":2,"transit":false,"i_lat":-6.2135,"i_long":106.899548,"is_transit":false,"station_id":"KLD"},{"i_long":106.86807400000001,"station_name":"Jatinegara","station_id":"JNG","time":3,"is_transit":true,"i_lat":-6.215091,"line":0,"distance":3395,"transit":true},{"i_lat":-6.209188,"station_id":"POK","is_transit":false,"time":2,"transit":false,"station_name":"Pondok Jati","i_long":106.861737,"distance":1236,"line":11},{"station_name":"Kramat","i_lat":-6.193792,"station_id":"KMT","i_long":106.855437,"distance":1829,"time":2,"line":11,"is_transit":false,"transit":false},{"i_long":106.850107,"station_name":"Gang Sentiong","distance":973,"is_transit":false,"i_lat":-6.185975,"transit":false,"line":11,"time":1,"station_id":"GST"},{"station_id":"PSE","station_name":"Pasar Senen","transit":false,"distance":1567,"i_lat":-6.174784,"time":8,"i_long":106.84368,"line":11,"is_transit":false},{"line":11,"distance":1436,"station_id":"KMO","i_long":106.839204,"time":4,"transit":false,"i_lat":-6.161728,"is_transit":false,"station_name":"Kemayoran"}],[{"time":0,"distance":0,"i_lat":-6.2553149999999995,"station_name":"Cikarang","i_long":107.144613,"is_transit":false,"transit":false,"line":0,"station_id":"CKR"},{"i_long":107.093313,"is_transit":false,"time":4,"transit":false,"distance":3689,"i_lat":-6.262938,"station_id":"TLM","station_name":"Metland Telaga Murni","line":1},{"is_transit":false,"distance":2800,"i_lat":-6.261877,"time":2,"line":0,"station_name":"Cibitung","transit":false,"i_long":107.083084,"station_id":"CIT"},{"distance":3420,"station_id":"TB","i_lat":-6.258864,"transit":false,"line":1,"is_transit":false,"time":3,"i_long":107.055722,"station_name":"Tambun"},{"line":0,"i_lat":-6.248029,"station_id":"BKST","is_transit":false,"i_long":107.016735,"transit":false,"station_name":"Bekasi Timur","time":7,"distance":4460},{"distance":2368,"transit":false,"station_name":"Bekasi","time":2,"i_lat":-6.236616,"is_transit":false,"i_long":106.997013,"station_id":"BKS","line":0},{"i_lat":-6.224515,"station_name":"Kranji","is_transit":false,"transit":false,"line":1,"time":4,"i_long":106.977657,"station_id":"KRI","distance":2520},{"time":3,"transit":false,"i_long":106.951283,"is_transit":false,"distance":3097,"i_lat":-6.219053,"station_id":"CUK","line":0,"station_name":"Cakung"},{"station_id":"KLDB","distance":1385,"time":8,"is_transit":false,"i_long":106.939679,"transit":false,"i_lat":-6.217455,"line":1,"station_name":"Klenderbaru"},{"time":1,"i_lat":-6.215568,"station_name":"Buaran","transit":false,"i_long":106.922662,"distance":1305,"line":0,"is_transit":false,"station_id":"BUA"},{"station_name":"Klender","i_lat":-6.2135,"station_id":"KLD","transit":false,"line":1,"is_transit":false,"distance":3100,"time":2,"i_long":106.899548},{"i_long":106.86807400000001,"transit":false,"time":3,"distance":3395,"i_lat":-6.215091,"line":0,"is_transit":true,"station_id":"JNG","station_name":"Jatinegara"},{"is_transit":false,"transit":false,"time":2,"station_name":"Matraman","i_lat":-6.212485,"station_id":"MTR","line":1,"distance":1377,"i_long":106.858896},{"distance":1275,"station_id":"MRI","i_lat":-6.209883,"line":0,"station_name":"Manggarai","is_transit":true,"transit":false,"i_long":106.84912,"time":2},{"station_id":"SUD","is_transit":false,"station_name":"Sudirman","time":4,"distance":3186,"i_lat":-6.202263,"transit":false,"line":1,"i_long":106.822649},{"i_lat":-6.201433,"is_transit":false,"distance":280,"station_id":"SUDB","station_name":"Sudirman Baru","line":1,"time":1,"i_long":106.819881,"transit":false},{"i_lat":-6.20132,"transit":false,"station_name":"Karet","time":1,"station_id":"KAT","distance":471,"i_long":106.816351,"line":1,"is_transit":false},{"is_transit":true,"i_lat":-6.185545,"time":5,"station_name":"Tanah Abang","i_long":106.811091,"distance":2029,"line":1,"station_id":"THB","transit":false},{"station_id":"DU","distance":3632,"time":8,"transit":true,"station_name":"Duri","i_long":106.800832,"is_transit":true,"line":1,"i_lat":-6.155215},{"station_id":"AK","is_transit":false,"transit":false,"distance":1230,"i_lat":-6.144674,"line":0,"station_name":"Angke","i_long":106.79867,"time":4},{"i_lat":-6.132549,"i_long":106.826365,"line":0,"is_transit":true,"station_name":"Kampung Bandan","time":9,"station_id":"KPB","transit":true,"distance":4102},{"is_transit":false,"line":11,"station_id":"RJW","transit":false,"time":3,"i_long":106.836569,"distance":1444,"i_lat":-6.14505,"station_name":"Rajawali"},{"station_id":"KMO","station_name":"Kemayoran","is_transit":false,"line":11,"transit":false,"i_lat":-6.161728,"distance":1901,"time":5,"i_long":106.839204}],[{"station_name":"Cikarang","time":0,"line":0,"i_long":107.144613,"station_id":"CKR","is_transit":false,"distance":0,"transit":false,"i_lat":-6.2553149999999995},{"station_name":"Metland Telaga Murni","time":4,"station_id":"TLM","distance":3689,"line":1,"i_lat":-6.262938,"is_transit":false,"transit":false,"i_long":107.093313},{"time":2,"distance":2800,"transit":false,"i_lat":-6.261877,"line":0,"station_name":"Cibitung","station_id":"CIT","is_transit":false,"i_long":107.083084},{"distance":3420,"i_lat":-6.258864,"line":1,"station_id":"TB","station_name":"Tambun","i_long":107.055722,"time":3,"transit":false,"is_transit":false},{"station_name":"Bekasi Timur","transit":false,"i_lat":-6.248029,"line":0,"is_transit":false,"station_id":"BKST","time":7,"distance":4460,"i_long":107.016735},{"i_long":106.997013,"station_name":"Bekasi","transit":false,"is_transit":false,"distance":2368,"i_lat":-6.236616,"line":0,"station_id":"BKS","time":2},{"transit":false,"distance":2520,"i_long":106.977657,"line":1,"i_lat":-6.224515,"time":4,"station_id":"KRI","station_name":"Kranji","is_transit":false},{"distance":3097,"line":0,"is_transit":false,"station_name":"Cakung","station_id":"CUK","i_lat":-6.219053,"transit":false,"time":3,"i_long":106.951283},{"time":8,"distance":1385,"is_transit":false,"transit":false,"station_id":"KLDB","line":1,"i_lat":-6.217455,"i_long":106.939679,"station_name":"Klenderbaru"},{"line":0,"distance":1305,"station_name":"Buaran","transit":false,"station_id":"BUA","i_lat":-6.215568,"i_long":106.922662,"is_transit":false,"time":1},{"i_lat":-6.2135,"station_id":"KLD","distance":3100,"station_name":"Klender","is_transit":false,"transit":false,"time":2,"line":1,"i_long":106.899548},{"i_lat":-6.215091,"station_name":"Jatinegara","line":0,"i_long":106.86807400000001,"station_id":"JNG","distance":3395,"is_transit":true,"transit":false,"time":3},{"station_id":"MTR","i_lat":-6.212485,"station_name":"Matraman","time":2,"i_long":106.858896,"distance":1377,"line":1,"is_transit":false,"transit":false},{"i_long":106.84912,"i_lat":-6.209883,"distance":1275,"station_id":"MRI","is_transit":true,"station_name":"Manggarai","time":2,"transit":true,"line":0},{"station_name":"Cikini","i_lat":-6.198556,"line":0,"time":4,"i_long":106.840169,"distance":1590,"transit":false,"station_id":"CKI","is_transit":false},{"time":3,"transit":false,"station_id":"GDD","distance":1750,"station_name":"Gondangdia","is_transit":false,"i_lat":-6.186295,"i_long":106.832183,"line":2},{"is_transit":false,"i_long":106.828284,"line":2,"i_lat":-6.166716,"transit":false,"station_id":"JUA","time":4,"station_name":"Juanda","distance":2015},{"station_id":"SW","distance":1149,"i_lat":-6.160725,"i_long":106.827103,"time":2,"line":2,"station_name":"Sawah Besar","transit":false,"is_transit":false},{"time":2,"i_long":106.82482,"i_lat":-6.149769,"distance":906,"station_id":"MGB","station_name":"Manggabesar","transit":false,"line":2,"is_transit":false},{"i_long":106.820901,"i_lat":-6.141205,"is_transit":false,"time":2,"line":7,"distance":1080,"station_id":"JAY","station_name":"Jayakarta","transit":false},{"is_transit":true,"station_name":"Jakarta Kota","time":4,"line":0,"distance":1264,"i_lat":-6.137569,"station_id":"JAKK","transit":true,"i_long":106.812439},{"station_name":"Kampung Bandan","distance":1364,"station_id":"KPB","i_long":106.826365,"time":3,"i_lat":-6.132549,"transit":true,"is_transit":true,"line":0},{"i_lat":-6.14505,"time":3,"station_name":"Rajawali","i_long":106.836569,"is_transit":false,"line":11,"station_id":"RJW","distance":1444,"transit":false},{"station_name":"Kemayoran","i_lat":-6.161728,"distance":1901,"is_transit":false,"time":5,"station_id":"KMO","line":11,"transit":false,"i_long":106.839204}]]}