{"data":[[{"i_lat":-6.2553149999999995,"station_name":"Cikarang","transit":false,"time":0,"station_id":"CKR","is_transit":false,"line":0,"distance":0,"i_long":107.144613},{"i_long":107.093313,"transit":false,"station_name":"Metland Telaga Murni","line":1,"distance":3689,"station_id":"TLM","i_lat":-6.262938,"time":4,"is_transit":false},{"distance":2800,"station_name":"Cibitung","transit":false,"station_id":"CIT","i_long":107.083084,"line":0,"i_lat":-6.261877,"time":2,"is_transit":false},{"distance":3420,"i_lat":-6.258864,"transit":false,"time":3,"i_long":107.055722,"station_name":"Tambun","line":1,"is_transit":false,"station_id":"TB"},{"station_name":"Bekasi Timur","station_id":"BKST","time":7,"i_lat":-6.248029,"distance":4460,"is_transit":false,"i_long":107.016735,"line":0,"transit":false},{"i_lat":-6.236616,"line":0,"time":2,"station_id":"BKS","station_name":"Bekasi","is_transit":false,"transit":false,"distance":2368,"i_long":106.997013},{"transit":false,"station_name":"Kranji","distance":2520,"time":4,"station_id":"KRI","i_long":106.977657,"is_transit":false,"i_lat":-6.224515,"line":1},{"station_name":"Cakung","is_transit":false,"transit":false,"i_long":106.951283,"line":0,"i_lat":-6.219053,"station_id":"CUK","time":3,"distance":3097},{"station_id":"KLDB","distance":1385,"i_long":106.939679,"station_name":"Klenderbaru","time":8,"i_lat":-6.217455,"transit":false,"is_transit":false,"line":1},{"transit":false,"station_name":"Buaran","line":0,"station_id":"BUA","time":1,"distance":1305,"is_transit":false,"i_long":106.922662,"i_lat":-6.215568},{"distance":3100,"station_id":"KLD","time":2,"station_name":"Klender","transit":false,"i_long":106.899548,"line":1,"is_transit":false,"i_lat":-6.2135},{"is_transit":true,"i_lat":-6.215091,"i_long":106.86807400000001,"station_name":"Jatinegara","distance":3395,"transit":false,"line":0,"time":3,"station_id":"JNG"},{"station_id":"MTR","time":2,"distance":1377,"i_lat":-6.212485,"station_name":"Matraman","transit":false,"line":1,"is_transit":false,"i_long":106.858896},{"station_id":"MRI","i_long":106.84912,"station_name":"Manggarai","distance":1275,"is_transit":true,"transit":false,"line":0,"time":2,"i_lat":-6.209883},{"transit":false,"time":4,"station_id":"SUD","i_long":106.822649,"distance":3186,"station_name":"Sudirman","i_lat":-6.202263,"line":1,"is_transit":false},{"i_lat":-6.201433,"i_long":106.819881,"station_id":"SUDB","is_transit":false,"time":1,"distance":280,"transit":false,"line":1,"station_name":"Sudirman Baru"},{"time":1,"station_id":"KAT","i_long":106.816351,"distance":471,"line":1,"is_transit":false,"station_name":"Karet","i_lat":-6.20132,"transit":false},{"is_transit":true,"distance":2029,"line":1,"i_lat":-6.185545,"time":5,"station_id":"THB","i_long":106.811091,"station_name":"Tanah Abang","transit":false},{"station_name":"Duri","is_transit":true,"time":8,"transit":true,"i_lat":-6.155215,"i_long":106.800832,"distance":3632,"line":1,"station_id":"DU"},{"station_name":"Grogol","station_id":"GGL","distance":1700,"transit":false,"i_lat":-6.162021,"i_long":106.788277,"time":3,"is_transit":false,"line":5}],[{"distance":0,"transit":false,"i_lat":-6.2553149999999995,"line":0,"time":0,"station_id":"CKR","is_transit":false,"i_long":107.144613,"station_name":"Cikarang"},{"is_transit":false,"time":4,"line":1,"transit":false,"i_long":107.093313,"i_lat":-6.262938,"station_name":"Metland Telaga Murni","distance":3689,"station_id":"TLM"},{"time":2,"i_long":107.083084,"transit":false,"distance":2800,"station_id":"CIT","station_name":"Cibitung","i_lat":-6.261877,"line":0,"is_transit":false},{"station_name":"Tambun","i_long":107.055722,"is_transit":false,"time":3,"i_lat":-6.258864,"station_id":"TB","line":1,"distance":3420,"transit":false},{"transit":false,"i_lat":-6.248029,"station_id":"BKST","time":7,"i_long":107.016735,"line":0,"distance":4460,"is_transit":false,"station_name":"Bekasi Timur"},{"time":2,"i_long":106.997013,"station_id":"BKS","station_name":"Bekasi","distance":2368,"i_lat":-6.236616,"is_transit":false,"transit":false,"line":0},{"i_lat":-6.224515,"station_name":"Kranji","distance":2520,"station_id":"KRI","transit":false,"i_long":106.977657,"line":1,"time":4,"is_transit":false},{"distance":3097,"transit":false,"is_transit":false,"time":3,"station_id":"CUK","line":0,"station_name":"Cakung","i_long":106.951283,"i_lat":-6.219053},{"transit":false,"station_name":"Klenderbaru","i_long":106.939679,"is_transit":false,"time":8,"i_lat":-6.217455,"line":1,"distance":1385,"station_id":"KLDB"},{"i_lat":-6.215568,"distance":1305,"transit":false,"station_name":"Buaran","station_id":"BUA","is_transit":false,"time":1,"line":0,"i_long":106.922662},{"station_id":"KLD","i_long":106.899548,"distance":3100,"transit":false,"i_lat":-6.2135,"time":2,"station_name":"Klender","line":1,"is_transit":false},{"i_long":106.86807400000001,"station_name":"Jatinegara","distance":3395,"transit":true,"line":0,"is_transit":true,"time":3,"i_lat":-6.215091,"station_id":"JNG"},{"line":11,"i_lat":-6.209188,"time":2,"transit":false,"i_long":106.861737,"station_name":"Pondok Jati","distance":1236,"is_transit":false,"station_id":"POK"},{"i_long":106.855437,"station_id":"KMT","transit":false,"station_name":"Kramat","line":11,"distance":1829,"time":2,"is_transit":false,"i_lat":-6.193792},{"station_id":"GST","station_name":"Gang Sentiong","time":1,"is_transit":false,"distance":973,"line":11,"i_long":106.850107,"i_lat":-6.185975,"transit":false},{"time":8,"i_lat":-6.174784,"i_long":106.84368,"station_name":"Pasar Senen","is_transit":false,"line":11,"station_id":"PSE","transit":false,"distance":1567},{"time":4,"i_long":106.839204,"transit":false,"station_name":"Kemayoran","i_lat":-6.161728,"line":11,"distance":1436,"station_id":"KMO","is_transit":false},{"station_name":"Rajawali","is_transit":false,"i_lat":-6.14505,"line":11,"i_long":106.836569,"distance":1901,"transit":false,"time":5,"station_id":"RJW"},{"i_long":106.826365,"is_transit":true,"distance":1444,"i_lat":-6.132549,"station_id":"KPB","transit":true,"line":0,"time":3,"station_name":"Kampung Bandan"},{"line":0,"time":9,"station_name":"Angke","station_id":"AK","transit":false,"i_lat":-6.144674,"is_transit":false,"distance":4102,"i_long":106.79867},{"transit":true,"i_long":106.800832,"station_id":"DU","distance":1230,"i_lat":-6.155215,"is_transit":true,"line":1,"station_name":"Duri","time":4},{"transit":false,"i_lat":-6.162021,"i_long":106.788277,"line":5,"distance":1700,"station_id":"GGL","station_name":"Grogol","is_transit":false,"time":3}],[{"distance":0,"is_transit":false,"i_lat":-6.2553149999999995,"line":0,"station_name":"Cikarang","transit":false,"station_id":"CKR","i_long":107.144613,"time":0},{"station_id":"TLM","i_lat":-6.262938,"line":1,"distance":3689,"station_name":"Metland Telaga Murni","is_transit":false,"transit":false,"i_long":107.093313,"time":4},{"distance":2800,"is_transit":false,"station_name":"Cibitung","time":2,"station_id":"CIT","i_lat":-6.261877,"transit":false,"i_long":107.083084,"line":0},{"is_transit":false,"i_long":107.055722,"transit":false,"station_name":"Tambun","station_id":"TB","line":1,"distance":3420,"time":3,"i_lat":-6.258864},{"station_id":"BKST","station_name":"Bekasi Timur","i_lat":-6.248029,"is_transit":false,"transit":false,"time":7,"i_long":107.016735,"distance":4460,"line":0},{"transit":false,"station_name":"Bekasi","is_transit":false,"distance":2368,"i_lat":-6.236616,"station_id":"BKS","i_long":106.997013,"line":0,"time":2},{"line":1,"time":4,"i_lat":-6.224515,"station_id":"KRI","i_long":106.977657,"is_transit":false,"distance":2520,"transit":false,"station_name":"Kranji"},{"is_transit":false,"i_lat":-6.219053,"time":3,"distance":3097,"transit":false,"station_name":"Cakung","i_long":106.951283,"line":0,"station_id":"CUK"},{"time":8,"transit":false,"station_id":"KLDB","is_transit":false,"distance":1385,"i_long":106.939679,"station_name":"Klenderbaru","line":1,"i_lat":-6.217455},{"i_lat":-6.215568,"is_transit":false,"transit":false,"line":0,"station_name":"Buaran","time":1,"distance":1305,"i_long":106.922662,"station_id":"BUA"},{"i_long":106.899548,"transit":false,"station_name":"Klender","i_lat":-6.2135,"time":2,"is_transit":false,"line":1,"station_id":"KLD","distance":3100},{"i_long":106.86807400000001,"is_transit":true,"transit":false,"time":3,"distance":3395,"station_id":"JNG","i_lat":-6.215091,"station_name":"Jatinegara","line":0},{"is_transit":false,"station_name":"Matraman","distance":1377,"transit":false,"line":1,"time":2,"i_lat":-6.212485,"i_long":106.858896,"station_id":"MTR"},{"transit":true,"i_long":106.84912,"is_transit":true,"station_name":"Manggarai","distance":1275,"time":2,"i_lat":-6.209883,"station_id":"MRI","line":0},{"i_lat":-6.198556,"station_name":"Cikini","is_transit":false,"station_id":"CKI","distance":1590,"transit":false,"i_long":106.840169,"line":0,"time":4},{"station_id":"GDD","transit":false,"distance":1750,"line":2,"is_transit":false,"i_lat":-6.186295,"time":3,"i_long":106.832183,"station_name":"Gondangdia"},{"station_name":"Juanda","station_id":"JUA","line":2,"time":4,"is_transit":false,"i_lat":-6.166716,"i_long":106.828284,"distance":2015,"transit":false},{"i_long":106.827103,"station_id":"SW","i_lat":-6.160725,"station_name":"Sawah Besar","transit":false,"line":2,"time":2,"distance":1149,"is_transit":false},{"is_transit":false,"time":2,"station_name":"Manggabesar","transit":false,"i_long":106.82482,"distance":906,"station_id":"MGB","line":2,"i_lat":-6.149769},{"time":2,"distance":1080,"i_long":106.820901,"is_transit":false,"transit":false,"station_id":"JAY","i_lat":-6.141205,"line":7,"station_name":"Jayakarta"},{"i_long":106.812439,"line":0,"distance":1264,"station_id":"JAKK","station_name":"Jakarta Kota","is_transit":true,"time":4,"i_lat":-6.137569,"transit":true},{"time":3,"is_transit":true,"station_name":"Kampung Bandan","i_lat":-6.132549,"station_id":"KPB","distance":1364,"transit":false,"i_long":106.826365,"line":0},{"is_transit":false,"transit":false,"i_long":106.79867,"station_id":"AK","i_lat":-6.144674,"distance":4102,"line":0,"time":9,"station_name":"Angke"},{"station_name":"Duri","time":4,"is_transit":true,"transit":true,"line":1,"i_long":106.800832,"i_lat":-6.155215,"station_id":"DU","distance":1230},{"i_long":106.788277,"transit":false,"station_name":"Grogol","station_id":"GGL","distance":1700,"line":5,"time":3,"is_transit":false,"i_lat":-6.162021}],[{"station_name":"Cikarang","i_long":107.144613,"station_id":"CKR","is_transit":false,"transit":false,"time":0,"distance":0,"i_lat":-6.2553149999999995,"line":0},{"time":4,"station_id":"TLM","i_long":107.093313,"transit":false,"i_lat":-6.262938,"station_name":"Metland Telaga Murni","distance":3689,"line":1,"is_transit":false},{"is_transit":false,"i_lat":-6.261877,"transit":false,"station_name":"Cibitung","time":2,"i_long":107.083084,"station_id":"CIT","distance":2800,"line":0},{"time":3,"distance":3420,"is_transit":false,"i_long":107.055722,"line":1,"transit":false,"i_lat":-6.258864,"station_name":"Tambun","station_id":"TB"},{"station_name":"Bekasi Timur","distance":4460,"i_lat":-6.248029,"station_id":"BKST","i_long":107.016735,"is_transit":false,"time":7,"line":0,"transit":false},{"distance":2368,"transit":false,"is_transit":false,"station_name":"Bekasi","time":2,"i_lat":-6.236616,"line":0,"station_id":"BKS","i_long":106.997013},{"i_long":106.977657,"distance":2520,"station_id":"KRI","i_lat":-6.224515,"is_transit":false,"transit":false,"time":4,"line":1,"station_name":"Kranji"},{"time":3,"distance":3097,"station_id":"CUK","i_long":106.951283,"transit":false,"i_lat":-6.219053,"station_name":"Cakung","line":0,"is_transit":false},{"station_name":"Klenderbaru","is_transit":false,"i_lat":-6.217455,"distance":1385,"station_id":"KLDB","line":1,"time":8,"i_long":106.939679,"transit":false},{"station_name":"Buaran","transit":false,"line":0,"time":1,"station_id":"BUA","distance":1305,"i_lat":-6.215568,"i_long":106.922662,"is_transit":false},{"time":2,"transit":false,"i_lat":-6.2135,"station_name":"Klender","line":1,"distance":3100,"is_transit":false,"station_id":"KLD","i_long":106.899548},{"i_lat":-6.215091,"station_name":"Jatinegara","transit":true,"distance":3395,"i_long":106.86807400000001,"is_transit":true,"station_id":"JNG","time":3,"line":0},{"i_lat":-6.209188,"is_transit":false,"station_name":"Pondok Jati","transit":false,"station_id":"POK","i_long":106.861737,"time":2,"distance":1236,"line":11},{"distance":1829,"line":11,"station_id":"KMT","i_lat":-6.193792,"station_name":"Kramat","transit":false,"is_transit":false,"time":2,"i_long":106.855437},{"i_long":106.850107,"is_transit":false,"i_lat":-6.185975,"station_id":"GST","time":1,"distance":973,"line":11,"station_name":"Gang Sentiong","transit":false},{"distance":1567,"station_name":"Pasar Senen","i_lat":-6.174784,"line":11,"i_long":106.84368,"time":8,"transit":false,"is_transit":false,"station_id":"PSE"},{"i_lat":-6.161728,"time":4,"i_long":106.839204,"distance":1436,"line":11,"station_id":"KMO","is_transit":false,"transit":false,"station_name":"Kemayoran"},{"i_lat":-6.14505,"i_long":106.836569,"station_name":"Rajawali","station_id":"RJW","time":5,"is_transit":false,"distance":1901,"transit":false,"line":11},{"i_long":106.826365,"station_id":"KPB","time":3,"station_name":"Kampung Bandan","line":0,"is_transit":true,"transit":true,"distance":1444,"i_lat":-6.132549},{"station_name":"Jakarta Kota","i_long":106.812439,"line":0,"transit":true,"distance":1364,"time":3,"i_lat":-6.137569,"station_id":"JAKK","is_transit":true},{"station_id":"JAY","is_transit":false,"distance":1264,"time":4,"i_lat":-6.141205,"line":7,"station_name":"Jayakarta","transit":false,"i_long":106.820901},{"transit":false,"i_long":106.82482,"station_id":"MGB","i_lat":-6.149769,"station_name":"Manggabesar","is_transit":false,"line":2,"time":2,"distance":1080},{"distance":906,"i_long":106.827103,"is_transit":false,"station_name":"Sawah Besar","line":2,"transit":false,"station_id":"SW","time":2,"i_lat":-6.160725},{"distance":1149,"i_lat":-6.166716,"time":2,"station_name":"Juanda","transit":false,"line":2,"i_long":106.828284,"station_id":"JUA","is_transit":false},{"station_id":"GDD","i_long":106.832183,"time":4,"transit":false,"distance":2015,"line":2,"station_name":"Gondangdia","is_transit":false,"i_lat":-6.186295},{"distance":1750,"is_transit":false,"line":0,"time":3,"station_name":"Cikini","transit":false,"i_lat":-6.198556,"station_id":"CKI","i_long":106.840169},{"time":4,"line":0,"is_transit":true,"transit":true,"i_lat":-6.209883,"i_long":106.84912,"station_id":"MRI","distance":1590,"station_name":"Manggarai"},{"time":4,"transit":false,"i_lat":-6.202263,"distance":3186,"line":1,"station_id":"SUD","station_name":"Sudirman","is_transit":false,"i_long":106.822649},{"transit":false,"is_transit":false,"distance":280,"i_long":106.819881,"station_id":"SUDB","time":1,"station_name":"Sudirman Baru","line":1,"i_lat":-6.201433},{"transit":false,"i_lat":-6.20132,"line":1,"is_transit":false,"station_name":"Karet","distance":471,"i_long":106.816351,"time":1,"station_id":"KAT"},{"transit":false,"i_long":106.811091,"time":5,"line":1,"i_lat":-6.185545,"station_name":"Tanah Abang","is_transit":true,"distance":2029,"station_id":"THB"},{"line":1,"station_name":"Duri","station_id":"DU","is_transit":true,"time":8,"i_long":106.800832,"distance":3632,"transit":true,"i_lat":-6.155215},{"station_name":"Grogol","line":5,"is_transit":false,"station_id":"GGL","i_lat":-6.162021,"distance":1700,"time":3,"i_long":106.788277,"transit":false}]]}