{"data":[[{"distance":0,"line":0,"time":0,"transit":false,"i_lat":-6.2553149999999995,"i_long":107.144613,"station_id":"CKR","is_transit":false,"station_name":"Cikarang"},{"i_lat":-6.262938,"is_transit":false,"line":1,"time":4,"station_name":"Metland Telaga Murni","transit":false,"distance":3689,"i_long":107.093313,"station_id":"TLM"},{"is_transit":false,"station_id":"CIT","line":0,"station_name":"Cibitung","time":2,"distance":2800,"i_lat":-6.261877,"i_long":107.083084,"transit":false},{"line":1,"is_transit":false,"transit":false,"distance":3420,"time":3,"i_lat":-6.258864,"station_name":"Tambun","station_id":"TB","i_long":107.055722},{"line":0,"i_long":107.016735,"i_lat":-6.248029,"distance":4460,"transit":false,"time":7,"station_id":"BKST","is_transit":false,"station_name":"Bekasi Timur"},{"transit":false,"time":2,"station_name":"Bekasi","distance":2368,"i_long":106.997013,"i_lat":-6.236616,"station_id":"BKS","line":0,"is_transit":false},{"distance":2520,"i_lat":-6.224515,"station_id":"KRI","i_long":106.977657,"time":4,"is_transit":false,"transit":false,"station_name":"Kranji","line":1},{"transit":false,"station_id":"CUK","i_long":106.951283,"time":3,"distance":3097,"station_name":"Cakung","is_transit":false,"line":0,"i_lat":-6.219053},{"station_id":"KLDB","transit":false,"i_lat":-6.217455,"is_transit":false,"time":8,"line":1,"i_long":106.939679,"distance":1385,"station_name":"Klenderbaru"},{"station_id":"BUA","i_lat":-6.215568,"line":0,"station_name":"Buaran","i_long":106.922662,"time":1,"is_transit":false,"transit":false,"distance":1305},{"line":1,"transit":false,"station_name":"Klender","i_long":106.899548,"station_id":"KLD","distance":3100,"i_lat":-6.2135,"time":2,"is_transit":false},{"station_id":"JNG","station_name":"Jatinegara","distance":3395,"i_long":106.86807400000001,"i_lat":-6.215091,"transit":true,"is_transit":true,"time":3,"line":0},{"i_lat":-6.209188,"line":11,"station_id":"POK","i_long":106.861737,"time":2,"distance":1236,"is_transit":false,"station_name":"Pondok Jati","transit":false},{"station_id":"KMT","i_lat":-6.193792,"i_long":106.855437,"line":11,"is_transit":false,"time":2,"transit":false,"distance":1829,"station_name":"Kramat"},{"i_lat":-6.185975,"time":1,"i_long":106.850107,"transit":false,"line":11,"is_transit":false,"station_name":"Gang Sentiong","station_id":"GST","distance":973},{"time":8,"transit":false,"distance":1567,"station_id":"PSE","is_transit":false,"i_long":106.84368,"station_name":"Pasar Senen","line":11,"i_lat":-6.174784},{"i_lat":-6.161728,"is_transit":false,"station_id":"KMO","station_name":"Kemayoran","line":11,"time":4,"i_long":106.839204,"transit":false,"distance":1436},{"i_lat":-6.14505,"station_name":"Rajawali","transit":false,"is_transit":false,"i_long":106.836569,"time":5,"distance":1901,"line":11,"station_id":"RJW"},{"transit":false,"i_long":106.826365,"line":0,"station_name":"Kampung Bandan","time":3,"station_id":"KPB","distance":1444,"i_lat":-6.132549,"is_transit":true}],[{"station_name":"Cikarang","time":0,"is_transit":false,"i_long":107.144613,"transit":false,"station_id":"CKR","distance":0,"i_lat":-6.2553149999999995,"line":0},{"i_lat":-6.262938,"time":4,"line":1,"distance":3689,"station_name":"Metland Telaga Murni","transit":false,"station_id":"TLM","i_long":107.093313,"is_transit":false},{"transit":false,"distance":2800,"is_transit":false,"time":2,"station_id":"CIT","i_lat":-6.261877,"station_name":"Cibitung","i_long":107.083084,"line":0},{"is_transit":false,"transit":false,"line":1,"time":3,"station_id":"TB","station_name":"Tambun","i_lat":-6.258864,"distance":3420,"i_long":107.055722},{"station_id":"BKST","i_long":107.016735,"line":0,"i_lat":-6.248029,"is_transit":false,"transit":false,"distance":4460,"station_name":"Bekasi Timur","time":7},{"line":0,"station_name":"Bekasi","i_long":106.997013,"i_lat":-6.236616,"time":2,"distance":2368,"is_transit":false,"station_id":"BKS","transit":false},{"transit":false,"time":4,"line":1,"is_transit":false,"i_lat":-6.224515,"distance":2520,"station_name":"Kranji","station_id":"KRI","i_long":106.977657},{"i_lat":-6.219053,"station_id":"CUK","i_long":106.951283,"line":0,"transit":false,"time":3,"is_transit":false,"station_name":"Cakung","distance":3097},{"line":1,"is_transit":false,"station_name":"Klenderbaru","transit":false,"time":8,"station_id":"KLDB","i_lat":-6.217455,"distance":1385,"i_long":106.939679},{"i_long":106.922662,"line":0,"station_name":"Buaran","transit":false,"distance":1305,"is_transit":false,"time":1,"station_id":"BUA","i_lat":-6.215568},{"line":1,"station_name":"Klender","distance":3100,"transit":false,"time":2,"is_transit":false,"station_id":"KLD","i_long":106.899548,"i_lat":-6.2135},{"transit":false,"i_lat":-6.215091,"i_long":106.86807400000001,"station_name":"Jatinegara","is_transit":true,"time":3,"station_id":"JNG","distance":3395,"line":0},{"distance":1377,"transit":false,"i_lat":-6.212485,"line":1,"time":2,"i_long":106.858896,"is_transit":false,"station_name":"Matraman","station_id":"MTR"},{"i_lat":-6.209883,"time":2,"station_id":"MRI","is_transit":true,"station_name":"Manggarai","distance":1275,"i_long":106.84912,"transit":false,"line":0},{"line":1,"is_transit":false,"distance":3186,"transit":false,"time":4,"station_name":"Sudirman","i_lat":-6.202263,"station_id":"SUD","i_long":106.822649},{"station_id":"SUDB","i_long":106.819881,"transit":false,"line":1,"i_lat":-6.201433,"time":1,"distance":280,"is_transit":false,"station_name":"Sudirman Baru"},{"i_long":106.816351,"transit":false,"is_transit":false,"distance":471,"line":1,"station_name":"Karet","time":1,"station_id":"KAT","i_lat":-6.20132},{"is_transit":true,"i_lat":-6.185545,"i_long":106.811091,"time":5,"station_id":"THB","station_name":"Tanah Abang","transit":false,"line":1,"distance":2029},{"station_name":"Duri","station_id":"DU","line":1,"i_lat":-6.155215,"i_long":106.800832,"transit":true,"distance":3632,"is_transit":true,"time":8},{"i_long":106.79867,"distance":1230,"station_name":"Angke","line":0,"time":4,"station_id":"AK","is_transit":false,"i_lat":-6.144674,"transit":false},{"i_lat":-6.132549,"time":9,"station_id":"KPB","is_transit":true,"i_long":106.826365,"line":0,"transit":false,"station_name":"Kampung Bandan","distance":4102}],[{"i_long":107.144613,"line":0,"is_transit":false,"station_id":"CKR","station_name":"Cikarang","transit":false,"i_lat":-6.2553149999999995,"distance":0,"time":0},{"is_transit":false,"line":1,"i_long":107.093313,"distance":3689,"station_name":"Metland Telaga Murni","transit":false,"i_lat":-6.262938,"time":4,"station_id":"TLM"},{"station_name":"Cibitung","is_transit":false,"i_lat":-6.261877,"time":2,"i_long":107.083084,"station_id":"CIT","transit":false,"distance":2800,"line":0},{"distance":3420,"time":3,"i_lat":-6.258864,"station_id":"TB","transit":false,"i_long":107.055722,"is_transit":false,"line":1,"station_name":"Tambun"},{"time":7,"i_lat":-6.248029,"distance":4460,"station_name":"Bekasi Timur","is_transit":false,"transit":false,"station_id":"BKST","i_long":107.016735,"line":0},{"is_transit":false,"station_name":"Bekasi","transit":false,"station_id":"BKS","line":0,"i_lat":-6.236616,"time":2,"i_long":106.997013,"distance":2368},{"station_name":"Kranji","line":1,"station_id":"KRI","is_transit":false,"distance":2520,"time":4,"i_lat":-6.224515,"i_long":106.977657,"transit":false},{"transit":false,"is_transit":false,"station_name":"Cakung","time":3,"line":0,"i_long":106.951283,"distance":3097,"i_lat":-6.219053,"station_id":"CUK"},{"station_name":"Klenderbaru","transit":false,"distance":1385,"is_transit":false,"station_id":"KLDB","line":1,"time":8,"i_lat":-6.217455,"i_long":106.939679},{"station_id":"BUA","line":0,"station_name":"Buaran","is_transit":false,"i_lat":-6.215568,"transit":false,"time":1,"distance":1305,"i_long":106.922662},{"i_lat":-6.2135,"transit":false,"line":1,"station_name":"Klender","time":2,"is_transit":false,"station_id":"KLD","distance":3100,"i_long":106.899548},{"i_long":106.86807400000001,"station_name":"Jatinegara","i_lat":-6.215091,"transit":false,"time":3,"station_id":"JNG","is_transit":true,"distance":3395,"line":0},{"distance":1377,"station_id":"MTR","transit":false,"time":2,"i_lat":-6.212485,"line":1,"is_transit":false,"i_long":106.858896,"station_name":"Matraman"},{"is_transit":true,"station_id":"MRI","i_lat":-6.209883,"time":2,"i_long":106.84912,"line":0,"station_name":"Manggarai","transit":true,"distance":1275},{"line":0,"transit":false,"i_lat":-6.198556,"is_transit":false,"i_long":106.840169,"distance":1590,"time":4,"station_id":"CKI","station_name":"Cikini"},{"is_transit":false,"i_long":106.832183,"station_id":"GDD","line":2,"transit":false,"time":3,"distance":1750,"station_name":"Gondangdia","i_lat":-6.186295},{"is_transit":false,"station_id":"JUA","transit":false,"time":4,"station_name":"Juanda","line":2,"i_lat":-6.166716,"distance":2015,"i_long":106.828284},{"station_name":"Sawah Besar","transit":false,"i_lat":-6.160725,"distance":1149,"is_transit":false,"time":2,"station_id":"SW","line":2,"i_long":106.827103},{"distance":906,"station_id":"MGB","i_lat":-6.149769,"transit":false,"station_name":"Manggabesar","line":2,"time":2,"i_long":106.82482,"is_transit":false},{"station_id":"JAY","time":2,"line":7,"distance":1080,"i_long":106.820901,"is_transit":false,"transit":false,"i_lat":-6.141205,"station_name":"Jayakarta"},{"line":0,"transit":true,"distance":1264,"i_long":106.812439,"station_name":"Jakarta Kota","is_transit":true,"time":4,"i_lat":-6.137569,"station_id":"JAKK"},{"transit":false,"i_long":106.826365,"station_name":"Kampung Bandan","line":0,"is_transit":true,"time":3,"i_lat":-6.132549,"station_id":"KPB","distance":1364}]]}