{"data":[[{"time":0,"i_long":107.144613,"line":1,"station_id":"CKR","distance":0,"is_transit":false,"transit":false,"station_name":"Cikarang","i_lat":-6.2553149999999995},{"transit":false,"distance":3689,"station_id":"TLM","station_name":"Metland Telaga Murni","i_lat":-6.262938,"is_transit":false,"line":1,"i_long":107.093313,"time":4},{"time":2,"station_id":"CIT","is_transit":false,"distance":2800,"i_lat":-6.261877,"i_long":107.083084,"station_name":"Cibitung","line":1,"transit":false},{"station_name":"Tambun","is_transit":false,"time":3,"i_lat":-6.258864,"station_id":"TB","transit":false,"i_long":107.055722,"distance":3420,"line":1},{"i_long":107.016735,"line":1,"is_transit":false,"time":7,"distance":4460,"station_id":"BKST","transit":false,"station_name":"Bekasi Timur","i_lat":-6.248029},{"line":1,"time":2,"i_lat":-6.236616,"is_transit":false,"distance":2368,"transit":false,"i_long":106.997013,"station_name":"Bekasi","station_id":"BKS"},{"is_transit":false,"time":4,"station_id":"KRI","i_lat":-6.224515,"distance":2520,"station_name":"Kranji","transit":false,"line":1,"i_long":106.977657},{"time":3,"distance":3097,"transit":false,"i_lat":-6.219053,"i_long":106.951283,"line":1,"is_transit":false,"station_id":"CUK","station_name":"Cakung"},{"transit":false,"time":8,"distance":1385,"line":1,"station_id":"KLDB","station_name":"Klenderbaru","is_transit":false,"i_lat":-6.217455,"i_long":106.939679},{"line":1,"i_lat":-6.215568,"i_long":106.922662,"time":1,"station_name":"Buaran","distance":1305,"transit":false,"is_transit":false,"station_id":"BUA"},{"is_transit":false,"distance":3100,"station_id":"KLD","transit":false,"i_lat":-6.2135,"line":1,"time":2,"i_long":106.899548,"station_name":"Klender"},{"line":1,"transit":false,"i_lat":-6.215091,"station_id":"JNG","station_name":"Jatinegara","distance":3395,"is_transit":false,"time":3,"i_long":106.86807400000001},{"station_name":"Matraman","station_id":"MTR","transit":false,"line":1,"i_long":106.858896,"distance":1377,"i_lat":-6.212485,"is_transit":false,"time":2},{"i_lat":-6.209883,"is_transit":true,"distance":1275,"station_name":"Manggarai","station_id":"MRI","transit":true,"time":2,"i_long":106.84912,"line":2},{"station_id":"TEB","i_lat":-6.226659,"station_name":"Tebet","is_transit":false,"time":4,"distance":2610,"transit":false,"i_long":106.857948,"line":2},{"station_id":"CW","line":2,"i_lat":-6.242512,"is_transit":false,"station_name":"Cawang","distance":1230,"i_long":106.856607,"time":2,"transit":false},{"station_name":"Duren Kalibata","distance":1546,"station_id":"DRN","i_lat":-6.255332,"is_transit":false,"time":3,"i_long":106.85449,"transit":false,"line":2},{"i_long":106.851577,"station_id":"PSMB","transit":false,"time":2,"is_transit":false,"distance":824,"i_lat":-6.263214,"line":2,"station_name":"Pasar Minggu Baru"},{"station_name":"Pasar Minggu","line":2,"distance":2380,"is_transit":false,"time":2,"station_id":"PSM","transit":false,"i_lat":-6.2842400000000005,"i_long":106.843999},{"station_name":"Tanjung Barat","is_transit":false,"time":4,"transit":false,"i_long":106.838896,"station_id":"TNT","distance":2820,"i_lat":-6.3080680000000005,"line":2},{"line":2,"i_long":106.832616,"transit":false,"station_name":"Lenteng Agung","is_transit":false,"station_id":"LNA","time":3,"distance":2671,"i_lat":-6.330363},{"time":2,"is_transit":false,"station_id":"UP","station_name":"Univ. Pancasila","i_lat":-6.339291,"transit":false,"i_long":106.834175,"distance":1029,"line":2},{"is_transit":false,"time":3,"transit":false,"distance":2264,"i_lat":-6.360749,"i_long":106.831474,"station_name":"Univ. Indonesia","station_id":"UI","line":2},{"is_transit":false,"time":2,"line":2,"distance":1109,"transit":false,"i_lat":-6.369073,"station_name":"Pondok Cina","station_id":"POC","i_long":106.831114},{"time":4,"i_long":106.819451,"station_id":"DPB","distance":2727,"i_lat":-6.391065,"station_name":"Depokbaru","is_transit":false,"transit":false,"line":2},{"i_long":106.816926,"line":2,"time":3,"station_id":"DP","i_lat":-6.405256,"station_name":"Depok","is_transit":false,"transit":false,"distance":1584},{"transit":true,"i_long":106.800298,"is_transit":true,"time":6,"station_id":"CTA","i_lat":-6.448811,"line":2,"station_name":"Citayam","distance":5084},{"station_name":"Pondok Rajeg","time":0,"transit":false,"station_id":"PDRG","line":21,"is_transit":false,"distance":0,"i_lat":-6.460735,"i_long":106.824374},{"is_transit":false,"time":0,"transit":false,"i_long":106.851978,"station_name":"Cibinong","station_id":"CBN","line":21,"i_lat":-6.46424,"distance":0}],[{"time":0,"station_id":"CKR","distance":0,"i_long":107.144613,"station_name":"Cikarang","i_lat":-6.2553149999999995,"is_transit":false,"transit":false,"line":1},{"station_id":"TLM","distance":3689,"station_name":"Metland Telaga Murni","is_transit":false,"time":4,"transit":false,"i_long":107.093313,"i_lat":-6.262938,"line":1},{"is_transit":false,"distance":2800,"line":1,"transit":false,"station_name":"Cibitung","station_id":"CIT","time":2,"i_lat":-6.261877,"i_long":107.083084},{"i_long":107.055722,"transit":false,"is_transit":false,"station_id":"TB","line":1,"i_lat":-6.258864,"station_name":"Tambun","time":3,"distance":3420},{"distance":4460,"station_name":"Bekasi Timur","time":7,"transit":false,"station_id":"BKST","i_lat":-6.248029,"i_long":107.016735,"line":1,"is_transit":false},{"distance":2368,"time":2,"line":1,"station_name":"Bekasi","is_transit":false,"transit":false,"i_lat":-6.236616,"station_id":"BKS","i_long":106.997013},{"station_id":"KRI","is_transit":false,"line":1,"transit":false,"i_long":106.977657,"distance":2520,"station_name":"Kranji","time":4,"i_lat":-6.224515},{"i_long":106.951283,"i_lat":-6.219053,"is_transit":false,"station_name":"Cakung","time":3,"station_id":"CUK","line":1,"distance":3097,"transit":false},{"station_id":"KLDB","station_name":"Klenderbaru","distance":1385,"i_long":106.939679,"i_lat":-6.217455,"line":1,"time":8,"is_transit":false,"transit":false},{"time":1,"station_name":"Buaran","distance":1305,"i_lat":-6.215568,"line":1,"i_long":106.922662,"transit":false,"is_transit":false,"station_id":"BUA"},{"i_lat":-6.2135,"station_name":"Klender","is_transit":false,"i_long":106.899548,"time":2,"station_id":"KLD","distance":3100,"line":1,"transit":false},{"transit":true,"station_name":"Jatinegara","is_transit":true,"i_long":106.86807400000001,"station_id":"JNG","time":3,"i_lat":-6.215091,"line":1,"distance":3395},{"distance":1236,"station_id":"POK","i_long":106.861737,"is_transit":false,"i_lat":-6.209188,"transit":false,"line":11,"station_name":"Pondok Jati","time":2},{"time":2,"station_name":"Kramat","station_id":"KMT","transit":false,"is_transit":false,"distance":1829,"line":11,"i_lat":-6.193792,"i_long":106.855437},{"station_name":"Gang Sentiong","line":11,"is_transit":false,"distance":973,"station_id":"GST","i_lat":-6.185975,"time":1,"transit":false,"i_long":106.850107},{"time":8,"station_id":"PSE","is_transit":false,"transit":false,"i_lat":-6.174784,"line":11,"station_name":"Pasar Senen","i_long":106.84368,"distance":1567},{"time":4,"is_transit":false,"transit":false,"i_long":106.839204,"station_id":"KMO","distance":1436,"line":11,"station_name":"Kemayoran","i_lat":-6.161728},{"i_lat":-6.14505,"i_long":106.836569,"station_name":"Rajawali","time":5,"station_id":"RJW","line":11,"transit":false,"is_transit":false,"distance":1901},{"i_lat":-6.132549,"line":4,"station_id":"KPB","station_name":"Kampung Bandan","i_long":106.826365,"distance":1444,"transit":true,"time":3,"is_transit":true},{"station_name":"Angke","station_id":"AK","line":1,"time":9,"i_lat":-6.144674,"transit":false,"distance":4102,"i_long":106.79867,"is_transit":false},{"i_lat":-6.155215,"line":1,"station_name":"Duri","transit":false,"station_id":"DU","time":4,"is_transit":false,"i_long":106.800832,"distance":1230},{"line":1,"transit":false,"i_lat":-6.185545,"i_long":106.811091,"is_transit":false,"station_name":"Tanah Abang","distance":3632,"station_id":"THB","time":8},{"line":1,"transit":false,"station_name":"Karet","i_lat":-6.20132,"time":5,"distance":2029,"is_transit":false,"station_id":"KAT","i_long":106.816351},{"time":1,"distance":471,"i_long":106.819881,"is_transit":false,"i_lat":-6.201433,"line":1,"transit":false,"station_name":"Sudirman Baru","station_id":"SUDB"},{"i_long":106.822649,"line":1,"is_transit":false,"distance":280,"i_lat":-6.202263,"transit":false,"station_id":"SUD","station_name":"Sudirman","time":1},{"transit":true,"line":2,"distance":3186,"i_lat":-6.209883,"is_transit":true,"i_long":106.84912,"time":4,"station_id":"MRI","station_name":"Manggarai"},{"line":2,"time":4,"distance":2610,"station_id":"TEB","i_lat":-6.226659,"station_name":"Tebet","is_transit":false,"transit":false,"i_long":106.857948},{"distance":1230,"station_name":"Cawang","station_id":"CW","is_transit":false,"i_long":106.856607,"time":2,"transit":false,"line":2,"i_lat":-6.242512},{"distance":1546,"station_id":"DRN","i_lat":-6.255332,"line":2,"station_name":"Duren Kalibata","i_long":106.85449,"time":3,"transit":false,"is_transit":false},{"distance":824,"i_lat":-6.263214,"station_name":"Pasar Minggu Baru","is_transit":false,"station_id":"PSMB","i_long":106.851577,"line":2,"transit":false,"time":2},{"line":2,"station_id":"PSM","i_long":106.843999,"transit":false,"station_name":"Pasar Minggu","distance":2380,"time":2,"i_lat":-6.2842400000000005,"is_transit":false},{"station_name":"Tanjung Barat","station_id":"TNT","distance":2820,"transit":false,"i_lat":-6.3080680000000005,"i_long":106.838896,"is_transit":false,"line":2,"time":4},{"transit":false,"is_transit":false,"station_name":"Lenteng Agung","distance":2671,"station_id":"LNA","i_lat":-6.330363,"i_long":106.832616,"time":3,"line":2},{"i_lat":-6.339291,"time":2,"station_id":"UP","distance":1029,"i_long":106.834175,"station_name":"Univ. Pancasila","transit":false,"line":2,"is_transit":false},{"time":3,"station_id":"UI","transit":false,"is_transit":false,"station_name":"Univ. Indonesia","distance":2264,"i_lat":-6.360749,"line":2,"i_long":106.831474},{"transit":false,"station_name":"Pondok Cina","i_long":106.831114,"i_lat":-6.369073,"line":2,"time":2,"is_transit":false,"station_id":"POC","distance":1109},{"station_id":"DPB","distance":2727,"is_transit":false,"i_lat":-6.391065,"time":4,"station_name":"Depokbaru","line":2,"i_long":106.819451,"transit":false},{"distance":1584,"transit":false,"line":2,"is_transit":false,"station_name":"Depok","i_lat":-6.405256,"station_id":"DP","i_long":106.816926,"time":3},{"time":6,"is_transit":true,"i_lat":-6.448811,"i_long":106.800298,"station_name":"Citayam","transit":true,"station_id":"CTA","line":2,"distance":5084},{"station_name":"Pondok Rajeg","is_transit":false,"transit":false,"station_id":"PDRG","i_long":106.824374,"i_lat":-6.460735,"line":21,"time":0,"distance":0},{"station_id":"CBN","distance":0,"line":21,"i_long":106.851978,"transit":false,"station_name":"Cibinong","is_transit":false,"time":0,"i_lat":-6.46424}],[{"transit":false,"i_long":107.144613,"line":1,"time":0,"i_lat":-6.2553149999999995,"is_transit":false,"station_id":"CKR","distance":0,"station_name":"Cikarang"},{"transit":false,"i_long":107.093313,"is_transit":false,"distance":3689,"station_name":"Metland Telaga Murni","station_id":"TLM","line":1,"i_lat":-6.262938,"time":4},{"time":2,"i_lat":-6.261877,"transit":false,"i_long":107.083084,"is_transit":false,"distance":2800,"station_name":"Cibitung","station_id":"CIT","line":1},{"station_id":"TB","line":1,"transit":false,"i_lat":-6.258864,"distance":3420,"is_transit":false,"time":3,"station_name":"Tambun","i_long":107.055722},{"is_transit":false,"distance":4460,"i_lat":-6.248029,"station_name":"Bekasi Timur","i_long":107.016735,"transit":false,"time":7,"station_id":"BKST","line":1},{"is_transit":false,"transit":false,"i_long":106.997013,"time":2,"station_id":"BKS","i_lat":-6.236616,"station_name":"Bekasi","distance":2368,"line":1},{"station_id":"KRI","station_name":"Kranji","distance":2520,"i_long":106.977657,"time":4,"line":1,"transit":false,"i_lat":-6.224515,"is_transit":false},{"line":1,"distance":3097,"station_name":"Cakung","is_transit":false,"time":3,"station_id":"CUK","i_lat":-6.219053,"i_long":106.951283,"transit":false},{"is_transit":false,"line":1,"i_long":106.939679,"transit":false,"i_lat":-6.217455,"time":8,"station_name":"Klenderbaru","distance":1385,"station_id":"KLDB"},{"time":1,"line":1,"station_name":"Buaran","transit":false,"distance":1305,"station_id":"BUA","i_long":106.922662,"is_transit":false,"i_lat":-6.215568},{"is_transit":false,"time":2,"station_id":"KLD","line":1,"station_name":"Klender","i_lat":-6.2135,"transit":false,"distance":3100,"i_long":106.899548},{"i_long":106.86807400000001,"time":3,"transit":true,"station_id":"JNG","station_name":"Jatinegara","is_transit":true,"distance":3395,"i_lat":-6.215091,"line":1},{"i_long":106.861737,"transit":false,"is_transit":false,"time":2,"station_id":"POK","i_lat":-6.209188,"station_name":"Pondok Jati","line":11,"distance":1236},{"i_lat":-6.193792,"line":11,"time":2,"is_transit":false,"station_id":"KMT","transit":false,"i_long":106.855437,"station_name":"Kramat","distance":1829},{"time":1,"distance":973,"line":11,"is_transit":false,"station_name":"Gang Sentiong","station_id":"GST","transit":false,"i_lat":-6.185975,"i_long":106.850107},{"is_transit":false,"station_id":"PSE","time":8,"transit":false,"line":11,"distance":1567,"i_lat":-6.174784,"station_name":"Pasar Senen","i_long":106.84368},{"line":11,"transit":false,"distance":1436,"i_long":106.839204,"is_transit":false,"station_id":"KMO","i_lat":-6.161728,"time":4,"station_name":"Kemayoran"},{"transit":false,"i_lat":-6.14505,"line":11,"distance":1901,"time":5,"i_long":106.836569,"is_transit":false,"station_name":"Rajawali","station_id":"RJW"},{"station_id":"KPB","line":4,"distance":1444,"station_name":"Kampung Bandan","is_transit":true,"transit":true,"i_lat":-6.132549,"time":3,"i_long":106.826365},{"distance":1364,"time":3,"is_transit":true,"station_id":"JAKK","transit":true,"station_name":"Jakarta Kota","i_long":106.812439,"line":2,"i_lat":-6.137569},{"station_name":"Jayakarta","distance":1264,"i_long":106.820901,"transit":false,"station_id":"JAY","time":4,"is_transit":false,"line":2,"i_lat":-6.141205},{"i_long":106.82482,"station_id":"MGB","is_transit":false,"distance":1080,"line":2,"transit":false,"station_name":"Manggabesar","time":2,"i_lat":-6.149769},{"station_name":"Sawah Besar","transit":false,"is_transit":false,"i_long":106.827103,"line":2,"distance":906,"station_id":"SW","time":2,"i_lat":-6.160725},{"i_lat":-6.166716,"station_id":"JUA","line":2,"is_transit":false,"transit":false,"station_name":"Juanda","time":2,"i_long":106.828284,"distance":1149},{"line":2,"time":4,"is_transit":false,"station_id":"GDD","i_long":106.832183,"station_name":"Gondangdia","transit":false,"i_lat":-6.186295,"distance":2015},{"line":2,"is_transit":false,"time":3,"i_long":106.840169,"station_name":"Cikini","transit":false,"station_id":"CKI","i_lat":-6.198556,"distance":1750},{"station_name":"Manggarai","i_lat":-6.209883,"transit":false,"i_long":106.84912,"station_id":"MRI","time":4,"distance":1590,"line":2,"is_transit":false},{"line":2,"time":4,"distance":2610,"transit":false,"i_lat":-6.226659,"is_transit":false,"station_id":"TEB","i_long":106.857948,"station_name":"Tebet"},{"is_transit":false,"station_id":"CW","station_name":"Cawang","i_long":106.856607,"transit":false,"i_lat":-6.242512,"distance":1230,"line":2,"time":2},{"distance":1546,"time":3,"station_id":"DRN","i_lat":-6.255332,"station_name":"Duren Kalibata","i_long":106.85449,"line":2,"transit":false,"is_transit":false},{"station_name":"Pasar Minggu Baru","distance":824,"i_lat":-6.263214,"i_long":106.851577,"line":2,"time":2,"station_id":"PSMB","is_transit":false,"transit":false},{"is_transit":false,"i_lat":-6.2842400000000005,"time":2,"station_name":"Pasar Minggu","distance":2380,"transit":false,"line":2,"station_id":"PSM","i_long":106.843999},{"line":2,"is_transit":false,"transit":false,"time":4,"station_id":"TNT","i_long":106.838896,"station_name":"Tanjung Barat","i_lat":-6.3080680000000005,"distance":2820},{"transit":false,"i_lat":-6.330363,"line":2,"is_transit":false,"i_long":106.832616,"distance":2671,"time":3,"station_id":"LNA","station_name":"Lenteng Agung"},{"station_name":"Univ. Pancasila","transit":false,"i_lat":-6.339291,"is_transit":false,"line":2,"i_long":106.834175,"distance":1029,"time":2,"station_id":"UP"},{"i_long":106.831474,"i_lat":-6.360749,"transit":false,"station_name":"Univ. Indonesia","time":3,"line":2,"is_transit":false,"station_id":"UI","distance":2264},{"is_transit":false,"time":2,"distance":1109,"station_name":"Pondok Cina","station_id":"POC","transit":false,"i_long":106.831114,"line":2,"i_lat":-6.369073},{"transit":false,"line":2,"i_lat":-6.391065,"is_transit":false,"station_id":"DPB","i_long":106.819451,"station_name":"Depokbaru","distance":2727,"time":4},{"line":2,"time":3,"station_id":"DP","i_long":106.816926,"station_name":"Depok","transit":false,"i_lat":-6.405256,"is_transit":false,"distance":1584},{"transit":true,"distance":5084,"i_lat":-6.448811,"station_id":"CTA","station_name":"Citayam","time":6,"i_long":106.800298,"is_transit":true,"line":2},{"station_id":"PDRG","distance":0,"station_name":"Pondok Rajeg","i_lat":-6.460735,"line":21,"is_transit":false,"i_long":106.824374,"transit":false,"time":0},{"transit":false,"is_transit":false,"i_long":106.851978,"station_name":"Cibinong","distance":0,"i_lat":-6.46424,"station_id":"CBN","line":21,"time":0}]]}