{"data":[[{"distance":0,"transit":false,"is_transit":false,"time":0,"station_id":"CKR","i_lat":-6.2553149999999995,"i_long":107.144613,"line":1,"station_name":"Cikarang"},{"distance":3689,"i_long":107.093313,"time":4,"is_transit":false,"transit":false,"i_lat":-6.262938,"station_id":"TLM","line":1,"station_name":"Metland Telaga Murni"},{"i_lat":-6.261877,"station_id":"CIT","is_transit":false,"transit":false,"distance":2800,"i_long":107.083084,"station_name":"Cibitung","time":2,"line":1},{"station_name":"Tambun","i_long":107.055722,"line":1,"station_id":"TB","time":3,"distance":3420,"is_transit":false,"i_lat":-6.258864,"transit":false},{"distance":4460,"station_id":"BKST","station_name":"Bekasi Timur","transit":false,"i_lat":-6.248029,"i_long":107.016735,"is_transit":false,"time":7,"line":1},{"station_id":"BKS","is_transit":false,"i_long":106.997013,"line":1,"distance":2368,"station_name":"Bekasi","i_lat":-6.236616,"time":2,"transit":false},{"is_transit":false,"line":1,"distance":2520,"i_long":106.977657,"station_name":"Kranji","station_id":"KRI","transit":false,"i_lat":-6.224515,"time":4},{"distance":3097,"i_lat":-6.219053,"time":3,"station_id":"CUK","station_name":"Cakung","i_long":106.951283,"line":1,"transit":false,"is_transit":false},{"i_lat":-6.217455,"time":8,"is_transit":false,"distance":1385,"station_name":"Klenderbaru","i_long":106.939679,"transit":false,"line":1,"station_id":"KLDB"},{"distance":1305,"i_long":106.922662,"line":1,"i_lat":-6.215568,"station_id":"BUA","is_transit":false,"station_name":"Buaran","time":1,"transit":false},{"is_transit":false,"i_long":106.899548,"station_name":"Klender","time":2,"transit":false,"distance":3100,"station_id":"KLD","i_lat":-6.2135,"line":1},{"is_transit":false,"station_name":"Jatinegara","i_lat":-6.215091,"distance":3395,"station_id":"JNG","transit":false,"i_long":106.86807400000001,"line":1,"time":3},{"i_long":106.858896,"distance":1377,"station_name":"Matraman","is_transit":false,"line":1,"time":2,"i_lat":-6.212485,"station_id":"MTR","transit":false},{"i_lat":-6.209883,"i_long":106.84912,"distance":1275,"station_name":"Manggarai","is_transit":false,"station_id":"MRI","line":2,"time":2,"transit":false},{"i_long":106.822649,"station_name":"Sudirman","is_transit":false,"line":1,"station_id":"SUD","time":4,"transit":false,"i_lat":-6.202263,"distance":3186},{"is_transit":false,"transit":false,"station_name":"Sudirman Baru","i_long":106.819881,"distance":280,"station_id":"SUDB","i_lat":-6.201433,"time":1,"line":1},{"station_name":"Karet","is_transit":false,"line":1,"distance":471,"i_long":106.816351,"transit":false,"time":1,"i_lat":-6.20132,"station_id":"KAT"},{"line":1,"station_id":"THB","distance":2029,"station_name":"Tanah Abang","transit":true,"time":5,"is_transit":true,"i_lat":-6.185545,"i_long":106.811091},{"transit":false,"i_long":106.79689,"line":6,"time":6,"station_name":"Palmerah","station_id":"PLM","is_transit":false,"i_lat":-6.207404,"distance":3191},{"station_name":"Kebayoran","time":7,"line":6,"i_long":106.780334,"is_transit":false,"i_lat":-6.237242,"distance":3737,"station_id":"KBY","transit":false},{"time":8,"transit":false,"i_lat":-6.276362,"distance":6218,"line":6,"station_id":"PDJ","is_transit":false,"i_long":106.74273,"station_name":"Pondokranji"},{"station_id":"JMU","is_transit":false,"line":6,"distance":2179,"station_name":"Jurangmangu","transit":false,"i_lat":-6.288927,"i_long":106.728916,"time":3},{"station_id":"SDM","transit":false,"station_name":"Sudimara","distance":1994,"time":4,"i_lat":-6.296963,"i_long":106.712277,"line":6,"is_transit":false}],[{"transit":false,"i_long":107.144613,"time":0,"distance":0,"station_name":"Cikarang","i_lat":-6.2553149999999995,"line":1,"is_transit":false,"station_id":"CKR"},{"station_id":"TLM","transit":false,"distance":3689,"time":4,"i_lat":-6.262938,"i_long":107.093313,"station_name":"Metland Telaga Murni","is_transit":false,"line":1},{"transit":false,"i_lat":-6.261877,"line":1,"is_transit":false,"i_long":107.083084,"time":2,"station_id":"CIT","distance":2800,"station_name":"Cibitung"},{"i_lat":-6.258864,"station_id":"TB","line":1,"i_long":107.055722,"distance":3420,"station_name":"Tambun","is_transit":false,"transit":false,"time":3},{"i_lat":-6.248029,"station_id":"BKST","distance":4460,"is_transit":false,"i_long":107.016735,"station_name":"Bekasi Timur","time":7,"line":1,"transit":false},{"distance":2368,"i_lat":-6.236616,"station_name":"Bekasi","line":1,"i_long":106.997013,"transit":false,"time":2,"station_id":"BKS","is_transit":false},{"station_id":"KRI","time":4,"i_lat":-6.224515,"distance":2520,"transit":false,"is_transit":false,"line":1,"i_long":106.977657,"station_name":"Kranji"},{"time":3,"transit":false,"line":1,"is_transit":false,"station_id":"CUK","distance":3097,"i_lat":-6.219053,"station_name":"Cakung","i_long":106.951283},{"distance":1385,"is_transit":false,"transit":false,"time":8,"station_name":"Klenderbaru","i_long":106.939679,"station_id":"KLDB","i_lat":-6.217455,"line":1},{"time":1,"transit":false,"i_long":106.922662,"station_id":"BUA","distance":1305,"line":1,"is_transit":false,"station_name":"Buaran","i_lat":-6.215568},{"distance":3100,"time":2,"transit":false,"i_lat":-6.2135,"is_transit":false,"line":1,"station_id":"KLD","i_long":106.899548,"station_name":"Klender"},{"i_lat":-6.215091,"distance":3395,"is_transit":true,"transit":true,"time":3,"line":1,"station_name":"Jatinegara","station_id":"JNG","i_long":106.86807400000001},{"i_lat":-6.209188,"is_transit":false,"transit":false,"distance":1236,"line":11,"time":2,"station_name":"Pondok Jati","station_id":"POK","i_long":106.861737},{"station_name":"Kramat","i_long":106.855437,"transit":false,"line":11,"is_transit":false,"distance":1829,"time":2,"station_id":"KMT","i_lat":-6.193792},{"station_id":"GST","i_lat":-6.185975,"station_name":"Gang Sentiong","is_transit":false,"distance":973,"transit":false,"line":11,"time":1,"i_long":106.850107},{"is_transit":false,"time":8,"station_name":"Pasar Senen","transit":false,"i_lat":-6.174784,"line":11,"distance":1567,"station_id":"PSE","i_long":106.84368},{"station_id":"KMO","is_transit":false,"distance":1436,"i_long":106.839204,"transit":false,"i_lat":-6.161728,"line":11,"time":4,"station_name":"Kemayoran"},{"time":5,"i_lat":-6.14505,"station_id":"RJW","is_transit":false,"line":11,"distance":1901,"station_name":"Rajawali","transit":false,"i_long":106.836569},{"is_transit":true,"i_long":106.826365,"transit":true,"station_name":"Kampung Bandan","distance":1444,"line":4,"time":3,"i_lat":-6.132549,"station_id":"KPB"},{"transit":false,"is_transit":false,"distance":4102,"time":9,"i_lat":-6.144674,"i_long":106.79867,"line":1,"station_name":"Angke","station_id":"AK"},{"distance":1230,"is_transit":false,"i_long":106.800832,"time":4,"station_id":"DU","station_name":"Duri","transit":false,"i_lat":-6.155215,"line":1},{"line":1,"station_name":"Tanah Abang","is_transit":true,"distance":3632,"station_id":"THB","i_lat":-6.185545,"i_long":106.811091,"transit":true,"time":8},{"i_long":106.79689,"line":6,"station_name":"Palmerah","distance":3191,"transit":false,"is_transit":false,"time":6,"i_lat":-6.207404,"station_id":"PLM"},{"station_name":"Kebayoran","line":6,"distance":3737,"i_lat":-6.237242,"is_transit":false,"i_long":106.780334,"station_id":"KBY","time":7,"transit":false},{"station_name":"Pondokranji","is_transit":false,"distance":6218,"time":8,"line":6,"station_id":"PDJ","i_lat":-6.276362,"i_long":106.74273,"transit":false},{"time":3,"station_name":"Jurangmangu","i_long":106.728916,"transit":false,"distance":2179,"station_id":"JMU","is_transit":false,"i_lat":-6.288927,"line":6},{"i_long":106.712277,"station_name":"Sudimara","transit":false,"i_lat":-6.296963,"distance":1994,"station_id":"SDM","is_transit":false,"line":6,"time":4}],[{"line":1,"station_id":"CKR","transit":false,"is_transit":false,"i_lat":-6.2553149999999995,"distance":0,"station_name":"Cikarang","time":0,"i_long":107.144613},{"i_lat":-6.262938,"is_transit":false,"distance":3689,"transit":false,"time":4,"station_id":"TLM","station_name":"Metland Telaga Murni","i_long":107.093313,"line":1},{"time":2,"station_name":"Cibitung","station_id":"CIT","transit":false,"line":1,"is_transit":false,"i_lat":-6.261877,"distance":2800,"i_long":107.083084},{"i_long":107.055722,"distance":3420,"station_id":"TB","station_name":"Tambun","i_lat":-6.258864,"time":3,"is_transit":false,"transit":false,"line":1},{"i_long":107.016735,"line":1,"distance":4460,"station_id":"BKST","is_transit":false,"i_lat":-6.248029,"transit":false,"station_name":"Bekasi Timur","time":7},{"time":2,"i_long":106.997013,"station_id":"BKS","is_transit":false,"distance":2368,"transit":false,"line":1,"station_name":"Bekasi","i_lat":-6.236616},{"station_name":"Kranji","station_id":"KRI","distance":2520,"is_transit":false,"transit":false,"i_lat":-6.224515,"time":4,"i_long":106.977657,"line":1},{"station_name":"Cakung","transit":false,"station_id":"CUK","i_lat":-6.219053,"line":1,"distance":3097,"time":3,"is_transit":false,"i_long":106.951283},{"distance":1385,"transit":false,"line":1,"time":8,"is_transit":false,"i_long":106.939679,"station_id":"KLDB","station_name":"Klenderbaru","i_lat":-6.217455},{"station_name":"Buaran","is_transit":false,"distance":1305,"time":1,"i_lat":-6.215568,"line":1,"station_id":"BUA","i_long":106.922662,"transit":false},{"i_lat":-6.2135,"distance":3100,"station_name":"Klender","i_long":106.899548,"station_id":"KLD","time":2,"is_transit":false,"line":1,"transit":false},{"distance":3395,"station_name":"Jatinegara","transit":false,"i_long":106.86807400000001,"station_id":"JNG","is_transit":false,"line":1,"i_lat":-6.215091,"time":3},{"station_name":"Matraman","transit":false,"is_transit":false,"distance":1377,"i_long":106.858896,"station_id":"MTR","time":2,"i_lat":-6.212485,"line":1},{"time":2,"distance":1275,"i_long":106.84912,"station_name":"Manggarai","station_id":"MRI","i_lat":-6.209883,"line":2,"is_transit":true,"transit":true},{"time":4,"i_long":106.840169,"transit":false,"i_lat":-6.198556,"station_name":"Cikini","station_id":"CKI","is_transit":false,"line":2,"distance":1590},{"transit":false,"i_lat":-6.186295,"line":2,"i_long":106.832183,"distance":1750,"station_name":"Gondangdia","station_id":"GDD","is_transit":false,"time":3},{"time":4,"station_name":"Juanda","line":2,"i_lat":-6.166716,"distance":2015,"i_long":106.828284,"is_transit":false,"transit":false,"station_id":"JUA"},{"i_lat":-6.160725,"distance":1149,"transit":false,"line":2,"station_name":"Sawah Besar","is_transit":false,"station_id":"SW","i_long":106.827103,"time":2},{"line":2,"station_name":"Manggabesar","distance":906,"station_id":"MGB","transit":false,"i_long":106.82482,"time":2,"is_transit":false,"i_lat":-6.149769},{"transit":false,"station_name":"Jayakarta","time":2,"i_long":106.820901,"station_id":"JAY","distance":1080,"is_transit":false,"line":2,"i_lat":-6.141205},{"transit":true,"i_long":106.812439,"station_name":"Jakarta Kota","is_transit":true,"distance":1264,"line":2,"time":4,"i_lat":-6.137569,"station_id":"JAKK"},{"station_id":"KPB","i_lat":-6.132549,"transit":true,"i_long":106.826365,"distance":1364,"station_name":"Kampung Bandan","time":3,"is_transit":true,"line":4},{"distance":4102,"line":1,"station_id":"AK","i_lat":-6.144674,"i_long":106.79867,"is_transit":false,"transit":false,"time":9,"station_name":"Angke"},{"i_lat":-6.155215,"is_transit":false,"station_name":"Duri","transit":false,"station_id":"DU","distance":1230,"line":1,"time":4,"i_long":106.800832},{"i_long":106.811091,"distance":3632,"time":8,"i_lat":-6.185545,"station_id":"THB","is_transit":true,"station_name":"Tanah Abang","transit":true,"line":1},{"line":6,"i_lat":-6.207404,"time":6,"distance":3191,"is_transit":false,"transit":false,"i_long":106.79689,"station_name":"Palmerah","station_id":"PLM"},{"station_id":"KBY","is_transit":false,"time":7,"line":6,"station_name":"Kebayoran","distance":3737,"i_lat":-6.237242,"i_long":106.780334,"transit":false},{"is_transit":false,"i_long":106.74273,"transit":false,"line":6,"station_id":"PDJ","i_lat":-6.276362,"distance":6218,"time":8,"station_name":"Pondokranji"},{"station_name":"Jurangmangu","is_transit":false,"station_id":"JMU","time":3,"transit":false,"i_long":106.728916,"line":6,"i_lat":-6.288927,"distance":2179},{"i_lat":-6.296963,"station_id":"SDM","station_name":"Sudimara","time":4,"distance":1994,"line":6,"is_transit":false,"transit":false,"i_long":106.712277}],[{"distance":0,"line":1,"station_name":"Cikarang","i_long":107.144613,"transit":false,"i_lat":-6.2553149999999995,"time":0,"station_id":"CKR","is_transit":false},{"time":4,"transit":false,"line":1,"station_id":"TLM","i_long":107.093313,"is_transit":false,"station_name":"Metland Telaga Murni","i_lat":-6.262938,"distance":3689},{"time":2,"is_transit":false,"station_id":"CIT","station_name":"Cibitung","i_lat":-6.261877,"i_long":107.083084,"distance":2800,"transit":false,"line":1},{"i_lat":-6.258864,"time":3,"station_name":"Tambun","station_id":"TB","distance":3420,"transit":false,"i_long":107.055722,"is_transit":false,"line":1},{"station_name":"Bekasi Timur","station_id":"BKST","transit":false,"i_long":107.016735,"time":7,"distance":4460,"i_lat":-6.248029,"line":1,"is_transit":false},{"i_long":106.997013,"distance":2368,"transit":false,"i_lat":-6.236616,"station_name":"Bekasi","time":2,"station_id":"BKS","is_transit":false,"line":1},{"line":1,"station_id":"KRI","transit":false,"is_transit":false,"i_lat":-6.224515,"i_long":106.977657,"distance":2520,"time":4,"station_name":"Kranji"},{"is_transit":false,"i_long":106.951283,"line":1,"distance":3097,"time":3,"station_name":"Cakung","transit":false,"station_id":"CUK","i_lat":-6.219053},{"i_long":106.939679,"transit":false,"i_lat":-6.217455,"line":1,"station_name":"Klenderbaru","time":8,"station_id":"KLDB","distance":1385,"is_transit":false},{"is_transit":false,"i_lat":-6.215568,"station_name":"Buaran","station_id":"BUA","i_long":106.922662,"line":1,"distance":1305,"time":1,"transit":false},{"distance":3100,"i_long":106.899548,"time":2,"is_transit":false,"station_id":"KLD","station_name":"Klender","transit":false,"i_lat":-6.2135,"line":1},{"transit":true,"line":1,"distance":3395,"time":3,"i_lat":-6.215091,"i_long":106.86807400000001,"station_id":"JNG","station_name":"Jatinegara","is_transit":true},{"station_id":"POK","i_lat":-6.209188,"station_name":"Pondok Jati","time":2,"i_long":106.861737,"distance":1236,"transit":false,"line":11,"is_transit":false},{"distance":1829,"i_long":106.855437,"time":2,"is_transit":false,"line":11,"station_id":"KMT","i_lat":-6.193792,"transit":false,"station_name":"Kramat"},{"time":1,"distance":973,"station_id":"GST","line":11,"station_name":"Gang Sentiong","is_transit":false,"i_lat":-6.185975,"i_long":106.850107,"transit":false},{"line":11,"time":8,"i_long":106.84368,"transit":false,"i_lat":-6.174784,"station_name":"Pasar Senen","is_transit":false,"distance":1567,"station_id":"PSE"},{"station_id":"KMO","station_name":"Kemayoran","transit":false,"distance":1436,"i_long":106.839204,"time":4,"i_lat":-6.161728,"line":11,"is_transit":false},{"i_long":106.836569,"line":11,"time":5,"station_name":"Rajawali","station_id":"RJW","i_lat":-6.14505,"distance":1901,"transit":false,"is_transit":false},{"station_id":"KPB","i_lat":-6.132549,"station_name":"Kampung Bandan","time":3,"i_long":106.826365,"is_transit":true,"transit":true,"line":4,"distance":1444},{"distance":1364,"station_id":"JAKK","time":3,"station_name":"Jakarta Kota","is_transit":true,"line":2,"i_long":106.812439,"transit":true,"i_lat":-6.137569},{"distance":1264,"transit":false,"i_long":106.820901,"line":2,"i_lat":-6.141205,"time":4,"station_name":"Jayakarta","is_transit":false,"station_id":"JAY"},{"time":2,"i_lat":-6.149769,"is_transit":false,"transit":false,"distance":1080,"line":2,"station_name":"Manggabesar","station_id":"MGB","i_long":106.82482},{"distance":906,"time":2,"station_name":"Sawah Besar","is_transit":false,"station_id":"SW","transit":false,"i_long":106.827103,"line":2,"i_lat":-6.160725},{"transit":false,"time":2,"distance":1149,"station_id":"JUA","station_name":"Juanda","i_long":106.828284,"line":2,"i_lat":-6.166716,"is_transit":false},{"line":2,"station_name":"Gondangdia","station_id":"GDD","i_long":106.832183,"i_lat":-6.186295,"distance":2015,"time":4,"transit":false,"is_transit":false},{"distance":1750,"line":2,"station_name":"Cikini","i_lat":-6.198556,"i_long":106.840169,"time":3,"transit":false,"is_transit":false,"station_id":"CKI"},{"distance":1590,"is_transit":true,"line":2,"time":4,"station_name":"Manggarai","station_id":"MRI","i_long":106.84912,"transit":true,"i_lat":-6.209883},{"time":4,"transit":false,"i_long":106.822649,"distance":3186,"line":1,"is_transit":false,"i_lat":-6.202263,"station_name":"Sudirman","station_id":"SUD"},{"station_id":"SUDB","station_name":"Sudirman Baru","transit":false,"distance":280,"time":1,"i_long":106.819881,"i_lat":-6.201433,"line":1,"is_transit":false},{"station_id":"KAT","line":1,"i_lat":-6.20132,"time":1,"i_long":106.816351,"transit":false,"station_name":"Karet","is_transit":false,"distance":471},{"is_transit":true,"i_lat":-6.185545,"time":5,"station_id":"THB","station_name":"Tanah Abang","line":1,"i_long":106.811091,"transit":true,"distance":2029},{"station_id":"PLM","station_name":"Palmerah","distance":3191,"line":6,"i_lat":-6.207404,"i_long":106.79689,"time":6,"transit":false,"is_transit":false},{"station_name":"Kebayoran","station_id":"KBY","distance":3737,"transit":false,"i_long":106.780334,"is_transit":false,"i_lat":-6.237242,"line":6,"time":7},{"i_long":106.74273,"station_name":"Pondokranji","transit":false,"is_transit":false,"distance":6218,"time":8,"line":6,"station_id":"PDJ","i_lat":-6.276362},{"i_long":106.728916,"transit":false,"time":3,"is_transit":false,"line":6,"i_lat":-6.288927,"distance":2179,"station_name":"Jurangmangu","station_id":"JMU"},{"i_long":106.712277,"line":6,"station_id":"SDM","transit":false,"station_name":"Sudimara","time":4,"is_transit":false,"i_lat":-6.296963,"distance":1994}]]}