{"data":[[{"station_name":"Cikarang","transit":false,"i_lat":-6.2553149999999995,"time":0,"is_transit":false,"station_id":"CKR","distance":0,"i_long":107.144613,"line":0},{"time":4,"distance":3689,"line":1,"transit":false,"station_name":"Metland Telaga Murni","station_id":"TLM","i_lat":-6.262938,"i_long":107.093313,"is_transit":false},{"distance":2800,"station_name":"Cibitung","station_id":"CIT","i_lat":-6.261877,"transit":false,"is_transit":false,"line":0,"i_long":107.083084,"time":2},{"line":1,"station_id":"TB","i_lat":-6.258864,"i_long":107.055722,"is_transit":false,"transit":false,"distance":3420,"time":3,"station_name":"Tambun"},{"station_id":"BKST","i_long":107.016735,"station_name":"Bekasi Timur","transit":false,"distance":4460,"i_lat":-6.248029,"line":0,"is_transit":false,"time":7},{"station_name":"Bekasi","transit":false,"i_long":106.997013,"line":0,"time":2,"distance":2368,"i_lat":-6.236616,"is_transit":false,"station_id":"BKS"},{"is_transit":false,"station_name":"Kranji","i_lat":-6.224515,"i_long":106.977657,"line":1,"time":4,"distance":2520,"transit":false,"station_id":"KRI"},{"distance":3097,"i_lat":-6.219053,"is_transit":false,"transit":false,"i_long":106.951283,"station_name":"Cakung","time":3,"station_id":"CUK","line":0},{"station_id":"KLDB","time":8,"i_lat":-6.217455,"transit":false,"distance":1385,"station_name":"Klenderbaru","i_long":106.939679,"line":1,"is_transit":false},{"i_long":106.922662,"station_id":"BUA","distance":1305,"time":1,"transit":false,"station_name":"Buaran","line":0,"i_lat":-6.215568,"is_transit":false},{"transit":false,"line":1,"i_long":106.899548,"is_transit":false,"distance":3100,"time":2,"i_lat":-6.2135,"station_name":"Klender","station_id":"KLD"},{"i_lat":-6.215091,"station_name":"Jatinegara","i_long":106.86807400000001,"station_id":"JNG","is_transit":true,"time":3,"distance":3395,"transit":false,"line":0},{"station_id":"MTR","distance":1377,"i_long":106.858896,"time":2,"station_name":"Matraman","is_transit":false,"i_lat":-6.212485,"transit":false,"line":1},{"is_transit":true,"distance":1275,"time":2,"i_lat":-6.209883,"i_long":106.84912,"station_name":"Manggarai","transit":false,"line":0,"station_id":"MRI"},{"transit":false,"i_lat":-6.202263,"is_transit":false,"station_name":"Sudirman","distance":3186,"i_long":106.822649,"line":1,"time":4,"station_id":"SUD"},{"time":1,"line":1,"transit":false,"station_name":"Sudirman Baru","i_long":106.819881,"station_id":"SUDB","distance":280,"i_lat":-6.201433,"is_transit":false},{"i_lat":-6.20132,"station_id":"KAT","transit":false,"line":1,"is_transit":false,"distance":471,"station_name":"Karet","time":1,"i_long":106.816351},{"line":1,"station_id":"THB","transit":true,"time":5,"is_transit":true,"i_lat":-6.185545,"station_name":"Tanah Abang","i_long":106.811091,"distance":2029},{"i_lat":-6.207404,"transit":false,"station_id":"PLM","line":6,"distance":3191,"i_long":106.79689,"station_name":"Palmerah","is_transit":false,"time":6},{"time":7,"distance":3737,"transit":false,"i_lat":-6.237242,"line":6,"is_transit":false,"i_long":106.780334,"station_name":"Kebayoran","station_id":"KBY"},{"station_name":"Pondokranji","i_lat":-6.276362,"station_id":"PDJ","i_long":106.74273,"is_transit":false,"time":8,"line":6,"distance":6218,"transit":false},{"i_lat":-6.288927,"time":3,"station_id":"JMU","i_long":106.728916,"station_name":"Jurangmangu","line":6,"distance":2179,"transit":false,"is_transit":false},{"time":4,"i_long":106.712277,"is_transit":false,"transit":false,"line":6,"station_id":"SDM","i_lat":-6.296963,"distance":1994,"station_name":"Sudimara"}],[{"time":0,"i_long":107.144613,"distance":0,"line":0,"transit":false,"i_lat":-6.2553149999999995,"station_id":"CKR","is_transit":false,"station_name":"Cikarang"},{"station_id":"TLM","time":4,"i_long":107.093313,"line":1,"distance":3689,"i_lat":-6.262938,"transit":false,"is_transit":false,"station_name":"Metland Telaga Murni"},{"transit":false,"station_name":"Cibitung","distance":2800,"line":0,"i_lat":-6.261877,"station_id":"CIT","is_transit":false,"i_long":107.083084,"time":2},{"i_lat":-6.258864,"i_long":107.055722,"line":1,"is_transit":false,"station_name":"Tambun","station_id":"TB","distance":3420,"time":3,"transit":false},{"station_name":"Bekasi Timur","distance":4460,"line":0,"transit":false,"station_id":"BKST","is_transit":false,"time":7,"i_lat":-6.248029,"i_long":107.016735},{"i_lat":-6.236616,"line":0,"distance":2368,"station_name":"Bekasi","station_id":"BKS","i_long":106.997013,"is_transit":false,"transit":false,"time":2},{"station_name":"Kranji","i_lat":-6.224515,"station_id":"KRI","i_long":106.977657,"line":1,"time":4,"is_transit":false,"distance":2520,"transit":false},{"transit":false,"i_long":106.951283,"i_lat":-6.219053,"is_transit":false,"station_id":"CUK","station_name":"Cakung","time":3,"line":0,"distance":3097},{"i_long":106.939679,"distance":1385,"is_transit":false,"i_lat":-6.217455,"station_id":"KLDB","transit":false,"time":8,"line":1,"station_name":"Klenderbaru"},{"station_name":"Buaran","i_long":106.922662,"station_id":"BUA","transit":false,"time":1,"is_transit":false,"line":0,"distance":1305,"i_lat":-6.215568},{"i_long":106.899548,"is_transit":false,"station_id":"KLD","i_lat":-6.2135,"line":1,"distance":3100,"time":2,"station_name":"Klender","transit":false},{"line":0,"i_lat":-6.215091,"station_name":"Jatinegara","time":3,"station_id":"JNG","distance":3395,"transit":true,"i_long":106.86807400000001,"is_transit":true},{"station_id":"POK","is_transit":false,"time":2,"station_name":"Pondok Jati","transit":false,"i_lat":-6.209188,"i_long":106.861737,"distance":1236,"line":11},{"station_id":"KMT","distance":1829,"is_transit":false,"i_long":106.855437,"station_name":"Kramat","line":11,"transit":false,"i_lat":-6.193792,"time":2},{"transit":false,"line":11,"station_id":"GST","i_lat":-6.185975,"is_transit":false,"i_long":106.850107,"time":1,"distance":973,"station_name":"Gang Sentiong"},{"distance":1567,"i_lat":-6.174784,"i_long":106.84368,"time":8,"transit":false,"station_id":"PSE","is_transit":false,"line":11,"station_name":"Pasar Senen"},{"i_long":106.839204,"is_transit":false,"i_lat":-6.161728,"distance":1436,"transit":false,"line":11,"station_id":"KMO","time":4,"station_name":"Kemayoran"},{"distance":1901,"station_id":"RJW","is_transit":false,"station_name":"Rajawali","transit":false,"i_long":106.836569,"i_lat":-6.14505,"line":11,"time":5},{"i_long":106.826365,"is_transit":true,"time":3,"distance":1444,"station_name":"Kampung Bandan","transit":true,"line":0,"i_lat":-6.132549,"station_id":"KPB"},{"i_lat":-6.144674,"i_long":106.79867,"distance":4102,"line":0,"is_transit":false,"transit":false,"station_name":"Angke","time":9,"station_id":"AK"},{"is_transit":true,"distance":1230,"i_lat":-6.155215,"station_name":"Duri","time":4,"i_long":106.800832,"line":1,"transit":true,"station_id":"DU"},{"i_lat":-6.185545,"station_id":"THB","station_name":"Tanah Abang","line":1,"is_transit":true,"i_long":106.811091,"distance":3632,"time":8,"transit":true},{"station_name":"Palmerah","line":6,"is_transit":false,"transit":false,"i_long":106.79689,"i_lat":-6.207404,"station_id":"PLM","distance":3191,"time":6},{"station_name":"Kebayoran","line":6,"i_lat":-6.237242,"i_long":106.780334,"station_id":"KBY","is_transit":false,"distance":3737,"time":7,"transit":false},{"line":6,"transit":false,"station_id":"PDJ","distance":6218,"time":8,"i_lat":-6.276362,"is_transit":false,"station_name":"Pondokranji","i_long":106.74273},{"station_name":"Jurangmangu","time":3,"i_lat":-6.288927,"is_transit":false,"i_long":106.728916,"distance":2179,"station_id":"JMU","transit":false,"line":6},{"is_transit":false,"station_name":"Sudimara","station_id":"SDM","time":4,"distance":1994,"transit":false,"i_lat":-6.296963,"i_long":106.712277,"line":6}],[{"i_long":107.144613,"line":0,"station_name":"Cikarang","station_id":"CKR","distance":0,"i_lat":-6.2553149999999995,"time":0,"transit":false,"is_transit":false},{"station_id":"TLM","station_name":"Metland Telaga Murni","line":1,"distance":3689,"time":4,"is_transit":false,"transit":false,"i_lat":-6.262938,"i_long":107.093313},{"i_long":107.083084,"time":2,"station_id":"CIT","line":0,"is_transit":false,"distance":2800,"station_name":"Cibitung","transit":false,"i_lat":-6.261877},{"is_transit":false,"i_lat":-6.258864,"distance":3420,"time":3,"i_long":107.055722,"line":1,"transit":false,"station_name":"Tambun","station_id":"TB"},{"distance":4460,"i_lat":-6.248029,"line":0,"time":7,"transit":false,"station_id":"BKST","is_transit":false,"station_name":"Bekasi Timur","i_long":107.016735},{"i_lat":-6.236616,"station_id":"BKS","station_name":"Bekasi","is_transit":false,"i_long":106.997013,"line":0,"distance":2368,"time":2,"transit":false},{"distance":2520,"i_long":106.977657,"station_id":"KRI","transit":false,"time":4,"station_name":"Kranji","is_transit":false,"i_lat":-6.224515,"line":1},{"is_transit":false,"distance":3097,"transit":false,"i_lat":-6.219053,"time":3,"i_long":106.951283,"station_name":"Cakung","station_id":"CUK","line":0},{"distance":1385,"is_transit":false,"time":8,"station_name":"Klenderbaru","line":1,"station_id":"KLDB","transit":false,"i_lat":-6.217455,"i_long":106.939679},{"i_long":106.922662,"line":0,"time":1,"distance":1305,"i_lat":-6.215568,"station_id":"BUA","transit":false,"station_name":"Buaran","is_transit":false},{"station_id":"KLD","station_name":"Klender","i_lat":-6.2135,"i_long":106.899548,"is_transit":false,"distance":3100,"time":2,"line":1,"transit":false},{"i_lat":-6.215091,"station_id":"JNG","is_transit":true,"time":3,"transit":false,"i_long":106.86807400000001,"line":0,"station_name":"Jatinegara","distance":3395},{"i_long":106.858896,"time":2,"is_transit":false,"i_lat":-6.212485,"station_id":"MTR","station_name":"Matraman","transit":false,"distance":1377,"line":1},{"station_id":"MRI","distance":1275,"i_lat":-6.209883,"is_transit":true,"transit":true,"line":0,"station_name":"Manggarai","time":2,"i_long":106.84912},{"i_lat":-6.198556,"i_long":106.840169,"line":0,"station_name":"Cikini","station_id":"CKI","time":4,"transit":false,"is_transit":false,"distance":1590},{"distance":1750,"station_id":"GDD","line":2,"time":3,"station_name":"Gondangdia","transit":false,"i_long":106.832183,"is_transit":false,"i_lat":-6.186295},{"station_id":"JUA","is_transit":false,"time":4,"distance":2015,"i_long":106.828284,"line":2,"i_lat":-6.166716,"transit":false,"station_name":"Juanda"},{"station_id":"SW","distance":1149,"i_long":106.827103,"is_transit":false,"transit":false,"time":2,"station_name":"Sawah Besar","line":2,"i_lat":-6.160725},{"station_id":"MGB","is_transit":false,"i_lat":-6.149769,"line":2,"station_name":"Manggabesar","transit":false,"i_long":106.82482,"time":2,"distance":906},{"station_name":"Jayakarta","distance":1080,"transit":false,"time":2,"station_id":"JAY","i_long":106.820901,"i_lat":-6.141205,"line":7,"is_transit":false},{"time":4,"distance":1264,"i_long":106.812439,"line":0,"station_id":"JAKK","station_name":"Jakarta Kota","i_lat":-6.137569,"transit":true,"is_transit":true},{"distance":1364,"i_lat":-6.132549,"station_name":"Kampung Bandan","transit":false,"line":0,"station_id":"KPB","time":3,"is_transit":true,"i_long":106.826365},{"is_transit":false,"time":9,"transit":false,"distance":4102,"line":0,"station_id":"AK","i_lat":-6.144674,"station_name":"Angke","i_long":106.79867},{"i_long":106.800832,"station_name":"Duri","distance":1230,"time":4,"station_id":"DU","i_lat":-6.155215,"line":1,"transit":true,"is_transit":true},{"transit":true,"time":8,"station_name":"Tanah Abang","is_transit":true,"i_lat":-6.185545,"i_long":106.811091,"distance":3632,"line":1,"station_id":"THB"},{"transit":false,"station_name":"Palmerah","i_long":106.79689,"is_transit":false,"distance":3191,"line":6,"i_lat":-6.207404,"station_id":"PLM","time":6},{"line":6,"distance":3737,"transit":false,"is_transit":false,"station_id":"KBY","station_name":"Kebayoran","i_lat":-6.237242,"time":7,"i_long":106.780334},{"time":8,"line":6,"i_long":106.74273,"is_transit":false,"i_lat":-6.276362,"station_id":"PDJ","distance":6218,"station_name":"Pondokranji","transit":false},{"i_long":106.728916,"time":3,"station_id":"JMU","transit":false,"is_transit":false,"distance":2179,"station_name":"Jurangmangu","i_lat":-6.288927,"line":6},{"time":4,"is_transit":false,"station_name":"Sudimara","transit":false,"i_lat":-6.296963,"distance":1994,"station_id":"SDM","i_long":106.712277,"line":6}],[{"is_transit":false,"line":0,"transit":false,"station_name":"Cikarang","distance":0,"time":0,"i_long":107.144613,"i_lat":-6.2553149999999995,"station_id":"CKR"},{"time":4,"distance":3689,"is_transit":false,"station_name":"Metland Telaga Murni","i_lat":-6.262938,"station_id":"TLM","line":1,"transit":false,"i_long":107.093313},{"is_transit":false,"time":2,"station_name":"Cibitung","i_long":107.083084,"line":0,"station_id":"CIT","distance":2800,"i_lat":-6.261877,"transit":false},{"transit":false,"is_transit":false,"distance":3420,"i_long":107.055722,"station_name":"Tambun","i_lat":-6.258864,"station_id":"TB","time":3,"line":1},{"i_lat":-6.248029,"distance":4460,"station_id":"BKST","is_transit":false,"i_long":107.016735,"line":0,"time":7,"transit":false,"station_name":"Bekasi Timur"},{"is_transit":false,"transit":false,"station_id":"BKS","i_lat":-6.236616,"station_name":"Bekasi","i_long":106.997013,"time":2,"distance":2368,"line":0},{"line":1,"time":4,"station_name":"Kranji","is_transit":false,"i_lat":-6.224515,"distance":2520,"i_long":106.977657,"station_id":"KRI","transit":false},{"station_name":"Cakung","distance":3097,"i_lat":-6.219053,"station_id":"CUK","is_transit":false,"time":3,"i_long":106.951283,"line":0,"transit":false},{"is_transit":false,"line":1,"station_id":"KLDB","transit":false,"i_lat":-6.217455,"distance":1385,"station_name":"Klenderbaru","time":8,"i_long":106.939679},{"station_id":"BUA","distance":1305,"line":0,"station_name":"Buaran","transit":false,"i_long":106.922662,"is_transit":false,"time":1,"i_lat":-6.215568},{"time":2,"i_long":106.899548,"distance":3100,"station_id":"KLD","is_transit":false,"i_lat":-6.2135,"line":1,"transit":false,"station_name":"Klender"},{"line":0,"is_transit":true,"time":3,"i_long":106.86807400000001,"station_name":"Jatinegara","station_id":"JNG","i_lat":-6.215091,"distance":3395,"transit":true},{"station_name":"Pondok Jati","station_id":"POK","i_long":106.861737,"line":11,"distance":1236,"time":2,"is_transit":false,"i_lat":-6.209188,"transit":false},{"i_long":106.855437,"i_lat":-6.193792,"time":2,"transit":false,"distance":1829,"line":11,"is_transit":false,"station_name":"Kramat","station_id":"KMT"},{"time":1,"line":11,"distance":973,"i_lat":-6.185975,"is_transit":false,"station_name":"Gang Sentiong","transit":false,"i_long":106.850107,"station_id":"GST"},{"station_id":"PSE","time":8,"distance":1567,"is_transit":false,"station_name":"Pasar Senen","transit":false,"i_long":106.84368,"line":11,"i_lat":-6.174784},{"i_lat":-6.161728,"i_long":106.839204,"line":11,"station_id":"KMO","distance":1436,"time":4,"is_transit":false,"station_name":"Kemayoran","transit":false},{"time":5,"i_lat":-6.14505,"i_long":106.836569,"distance":1901,"is_transit":false,"station_name":"Rajawali","transit":false,"station_id":"RJW","line":11},{"station_name":"Kampung Bandan","i_lat":-6.132549,"is_transit":true,"station_id":"KPB","i_long":106.826365,"transit":true,"distance":1444,"time":3,"line":0},{"distance":1364,"is_transit":true,"transit":true,"i_lat":-6.137569,"station_id":"JAKK","station_name":"Jakarta Kota","time":3,"i_long":106.812439,"line":0},{"distance":1264,"station_name":"Jayakarta","line":7,"time":4,"transit":false,"station_id":"JAY","i_lat":-6.141205,"i_long":106.820901,"is_transit":false},{"line":2,"i_long":106.82482,"time":2,"transit":false,"is_transit":false,"station_name":"Manggabesar","i_lat":-6.149769,"station_id":"MGB","distance":1080},{"i_long":106.827103,"line":2,"transit":false,"distance":906,"is_transit":false,"time":2,"station_name":"Sawah Besar","i_lat":-6.160725,"station_id":"SW"},{"line":2,"is_transit":false,"distance":1149,"station_id":"JUA","station_name":"Juanda","time":2,"i_long":106.828284,"transit":false,"i_lat":-6.166716},{"transit":false,"time":4,"station_name":"Gondangdia","i_long":106.832183,"distance":2015,"i_lat":-6.186295,"is_transit":false,"line":2,"station_id":"GDD"},{"is_transit":false,"transit":false,"time":3,"station_id":"CKI","distance":1750,"i_long":106.840169,"line":0,"station_name":"Cikini","i_lat":-6.198556},{"distance":1590,"station_name":"Manggarai","line":0,"transit":true,"station_id":"MRI","i_lat":-6.209883,"time":4,"i_long":106.84912,"is_transit":true},{"i_long":106.822649,"is_transit":false,"time":4,"distance":3186,"transit":false,"i_lat":-6.202263,"station_id":"SUD","station_name":"Sudirman","line":1},{"i_lat":-6.201433,"station_name":"Sudirman Baru","station_id":"SUDB","transit":false,"time":1,"distance":280,"is_transit":false,"line":1,"i_long":106.819881},{"station_id":"KAT","is_transit":false,"station_name":"Karet","i_lat":-6.20132,"transit":false,"line":1,"distance":471,"i_long":106.816351,"time":1},{"is_transit":true,"i_lat":-6.185545,"line":1,"station_id":"THB","station_name":"Tanah Abang","time":5,"transit":true,"i_long":106.811091,"distance":2029},{"transit":false,"station_id":"PLM","distance":3191,"i_lat":-6.207404,"time":6,"i_long":106.79689,"station_name":"Palmerah","line":6,"is_transit":false},{"i_long":106.780334,"transit":false,"i_lat":-6.237242,"time":7,"line":6,"is_transit":false,"station_id":"KBY","distance":3737,"station_name":"Kebayoran"},{"time":8,"distance":6218,"i_lat":-6.276362,"station_name":"Pondokranji","i_long":106.74273,"transit":false,"is_transit":false,"line":6,"station_id":"PDJ"},{"time":3,"transit":false,"i_long":106.728916,"distance":2179,"i_lat":-6.288927,"station_id":"JMU","is_transit":false,"line":6,"station_name":"Jurangmangu"},{"line":6,"distance":1994,"i_long":106.712277,"transit":false,"station_id":"SDM","is_transit":false,"i_lat":-6.296963,"station_name":"Sudimara","time":4}]]}