{"data":[[{"time":0,"line":1,"station_id":"CKR","i_long":107.144613,"distance":0,"station_name":"Cikarang","is_transit":false,"i_lat":-6.2553149999999995,"transit":false},{"time":4,"distance":3689,"station_id":"TLM","i_lat":-6.262938,"transit":false,"is_transit":false,"i_long":107.093313,"station_name":"Metland Telaga Murni","line":1},{"i_lat":-6.261877,"station_id":"CIT","is_transit":false,"distance":2800,"transit":false,"time":2,"i_long":107.083084,"line":1,"station_name":"Cibitung"},{"station_name":"Tambun","transit":false,"distance":3420,"line":1,"time":3,"is_transit":false,"station_id":"TB","i_long":107.055722,"i_lat":-6.258864},{"station_name":"Bekasi Timur","is_transit":false,"station_id":"BKST","transit":false,"i_long":107.016735,"line":1,"i_lat":-6.248029,"time":7,"distance":4460},{"is_transit":false,"i_long":106.997013,"station_id":"BKS","distance":2368,"time":2,"i_lat":-6.236616,"transit":false,"line":1,"station_name":"Bekasi"},{"line":1,"time":4,"i_lat":-6.224515,"i_long":106.977657,"distance":2520,"is_transit":false,"station_id":"KRI","station_name":"Kranji","transit":false},{"is_transit":false,"line":1,"i_lat":-6.219053,"station_id":"CUK","time":3,"i_long":106.951283,"transit":false,"station_name":"Cakung","distance":3097},{"distance":1385,"is_transit":false,"i_long":106.939679,"station_id":"KLDB","transit":false,"time":8,"station_name":"Klenderbaru","i_lat":-6.217455,"line":1},{"station_id":"BUA","transit":false,"i_lat":-6.215568,"is_transit":false,"distance":1305,"station_name":"Buaran","time":1,"line":1,"i_long":106.922662},{"time":2,"station_id":"KLD","distance":3100,"is_transit":false,"i_long":106.899548,"transit":false,"station_name":"Klender","line":1,"i_lat":-6.2135},{"station_name":"Jatinegara","line":1,"time":3,"i_long":106.86807400000001,"i_lat":-6.215091,"transit":false,"station_id":"JNG","is_transit":false,"distance":3395},{"i_long":106.858896,"station_id":"MTR","line":1,"station_name":"Matraman","i_lat":-6.212485,"transit":false,"time":2,"distance":1377,"is_transit":false},{"station_name":"Manggarai","transit":true,"station_id":"MRI","time":2,"is_transit":true,"distance":1275,"line":2,"i_lat":-6.209883,"i_long":106.84912},{"line":2,"i_lat":-6.198556,"i_long":106.840169,"is_transit":false,"time":4,"station_id":"CKI","distance":1590,"station_name":"Cikini","transit":false},{"line":2,"distance":1750,"station_name":"Gondangdia","transit":false,"time":3,"i_long":106.832183,"station_id":"GDD","is_transit":false,"i_lat":-6.186295},{"station_name":"Juanda","transit":false,"distance":2015,"i_lat":-6.166716,"i_long":106.828284,"station_id":"JUA","line":2,"time":4,"is_transit":false},{"distance":1149,"station_name":"Sawah Besar","transit":false,"is_transit":false,"i_long":106.827103,"time":2,"line":2,"i_lat":-6.160725,"station_id":"SW"}],[{"line":1,"transit":false,"is_transit":false,"station_id":"CKR","i_long":107.144613,"i_lat":-6.2553149999999995,"station_name":"Cikarang","time":0,"distance":0},{"i_lat":-6.262938,"station_name":"Metland Telaga Murni","is_transit":false,"i_long":107.093313,"line":1,"station_id":"TLM","time":4,"distance":3689,"transit":false},{"station_name":"Cibitung","station_id":"CIT","is_transit":false,"distance":2800,"time":2,"transit":false,"line":1,"i_lat":-6.261877,"i_long":107.083084},{"is_transit":false,"i_lat":-6.258864,"distance":3420,"i_long":107.055722,"station_id":"TB","transit":false,"station_name":"Tambun","time":3,"line":1},{"i_long":107.016735,"time":7,"station_id":"BKST","transit":false,"station_name":"Bekasi Timur","distance":4460,"i_lat":-6.248029,"is_transit":false,"line":1},{"is_transit":false,"i_long":106.997013,"line":1,"distance":2368,"station_name":"Bekasi","transit":false,"time":2,"i_lat":-6.236616,"station_id":"BKS"},{"i_long":106.977657,"time":4,"i_lat":-6.224515,"station_name":"Kranji","is_transit":false,"distance":2520,"station_id":"KRI","line":1,"transit":false},{"is_transit":false,"time":3,"station_id":"CUK","i_lat":-6.219053,"transit":false,"station_name":"Cakung","distance":3097,"i_long":106.951283,"line":1},{"time":8,"is_transit":false,"distance":1385,"i_long":106.939679,"station_name":"Klenderbaru","i_lat":-6.217455,"station_id":"KLDB","transit":false,"line":1},{"station_id":"BUA","time":1,"transit":false,"is_transit":false,"distance":1305,"i_lat":-6.215568,"station_name":"Buaran","i_long":106.922662,"line":1},{"transit":false,"station_name":"Klender","is_transit":false,"time":2,"distance":3100,"i_lat":-6.2135,"line":1,"i_long":106.899548,"station_id":"KLD"},{"i_long":106.86807400000001,"time":3,"station_name":"Jatinegara","distance":3395,"station_id":"JNG","is_transit":true,"line":1,"i_lat":-6.215091,"transit":true},{"i_lat":-6.209188,"distance":1236,"i_long":106.861737,"line":11,"station_name":"Pondok Jati","is_transit":false,"station_id":"POK","time":2,"transit":false},{"line":11,"is_transit":false,"i_long":106.855437,"station_id":"KMT","transit":false,"station_name":"Kramat","i_lat":-6.193792,"distance":1829,"time":2},{"station_name":"Gang Sentiong","transit":false,"i_lat":-6.185975,"i_long":106.850107,"time":1,"is_transit":false,"station_id":"GST","distance":973,"line":11},{"time":8,"line":11,"station_name":"Pasar Senen","is_transit":false,"transit":false,"distance":1567,"i_lat":-6.174784,"i_long":106.84368,"station_id":"PSE"},{"transit":false,"i_long":106.839204,"station_name":"Kemayoran","distance":1436,"station_id":"KMO","line":11,"is_transit":false,"time":4,"i_lat":-6.161728},{"i_long":106.836569,"transit":false,"station_name":"Rajawali","line":11,"station_id":"RJW","i_lat":-6.14505,"distance":1901,"is_transit":false,"time":5},{"is_transit":true,"station_id":"KPB","i_lat":-6.132549,"i_long":106.826365,"distance":1444,"station_name":"Kampung Bandan","time":3,"line":4,"transit":true},{"station_name":"Jakarta Kota","is_transit":true,"line":2,"distance":1364,"i_lat":-6.137569,"transit":true,"time":3,"i_long":106.812439,"station_id":"JAKK"},{"station_name":"Jayakarta","line":2,"station_id":"JAY","time":4,"is_transit":false,"transit":false,"i_long":106.820901,"distance":1264,"i_lat":-6.141205},{"time":2,"i_long":106.82482,"line":2,"is_transit":false,"station_name":"Manggabesar","transit":false,"station_id":"MGB","i_lat":-6.149769,"distance":1080},{"line":2,"time":2,"station_id":"SW","transit":false,"station_name":"Sawah Besar","distance":906,"is_transit":false,"i_long":106.827103,"i_lat":-6.160725}],[{"transit":false,"time":0,"station_name":"Cikarang","line":1,"station_id":"CKR","i_long":107.144613,"is_transit":false,"i_lat":-6.2553149999999995,"distance":0},{"station_id":"TLM","distance":3689,"is_transit":false,"time":4,"i_long":107.093313,"i_lat":-6.262938,"transit":false,"line":1,"station_name":"Metland Telaga Murni"},{"i_long":107.083084,"line":1,"transit":false,"i_lat":-6.261877,"station_id":"CIT","is_transit":false,"time":2,"distance":2800,"station_name":"Cibitung"},{"time":3,"i_long":107.055722,"station_id":"TB","station_name":"Tambun","transit":false,"i_lat":-6.258864,"line":1,"distance":3420,"is_transit":false},{"transit":false,"i_lat":-6.248029,"is_transit":false,"i_long":107.016735,"time":7,"station_id":"BKST","station_name":"Bekasi Timur","distance":4460,"line":1},{"i_lat":-6.236616,"station_id":"BKS","time":2,"transit":false,"i_long":106.997013,"line":1,"distance":2368,"is_transit":false,"station_name":"Bekasi"},{"i_long":106.977657,"line":1,"station_name":"Kranji","distance":2520,"transit":false,"time":4,"station_id":"KRI","is_transit":false,"i_lat":-6.224515},{"transit":false,"distance":3097,"i_long":106.951283,"is_transit":false,"station_name":"Cakung","station_id":"CUK","line":1,"time":3,"i_lat":-6.219053},{"i_long":106.939679,"time":8,"i_lat":-6.217455,"transit":false,"distance":1385,"station_name":"Klenderbaru","station_id":"KLDB","is_transit":false,"line":1},{"distance":1305,"station_name":"Buaran","line":1,"is_transit":false,"i_long":106.922662,"time":1,"i_lat":-6.215568,"station_id":"BUA","transit":false},{"distance":3100,"i_long":106.899548,"line":1,"is_transit":false,"time":2,"i_lat":-6.2135,"station_name":"Klender","transit":false,"station_id":"KLD"},{"i_lat":-6.215091,"transit":false,"is_transit":false,"line":1,"time":3,"distance":3395,"station_id":"JNG","i_long":106.86807400000001,"station_name":"Jatinegara"},{"transit":false,"line":1,"station_name":"Matraman","time":2,"distance":1377,"station_id":"MTR","is_transit":false,"i_lat":-6.212485,"i_long":106.858896},{"line":2,"is_transit":false,"i_long":106.84912,"time":2,"i_lat":-6.209883,"station_name":"Manggarai","transit":false,"station_id":"MRI","distance":1275},{"station_name":"Sudirman","is_transit":false,"time":4,"distance":3186,"i_long":106.822649,"transit":false,"i_lat":-6.202263,"station_id":"SUD","line":1},{"distance":280,"i_lat":-6.201433,"is_transit":false,"station_id":"SUDB","transit":false,"line":1,"i_long":106.819881,"time":1,"station_name":"Sudirman Baru"},{"transit":false,"i_long":106.816351,"line":1,"station_name":"Karet","time":1,"is_transit":false,"distance":471,"i_lat":-6.20132,"station_id":"KAT"},{"transit":false,"station_id":"THB","i_lat":-6.185545,"i_long":106.811091,"line":1,"is_transit":false,"time":5,"station_name":"Tanah Abang","distance":2029},{"i_lat":-6.155215,"station_name":"Duri","station_id":"DU","distance":3632,"line":1,"transit":false,"is_transit":false,"time":8,"i_long":106.800832},{"time":4,"is_transit":false,"i_long":106.79867,"line":1,"distance":1230,"station_name":"Angke","transit":false,"station_id":"AK","i_lat":-6.144674},{"distance":4102,"is_transit":true,"line":4,"i_lat":-6.132549,"i_long":106.826365,"transit":true,"time":9,"station_name":"Kampung Bandan","station_id":"KPB"},{"transit":true,"time":3,"is_transit":true,"i_lat":-6.137569,"line":2,"i_long":106.812439,"station_name":"Jakarta Kota","distance":1364,"station_id":"JAKK"},{"i_lat":-6.141205,"is_transit":false,"line":2,"distance":1264,"i_long":106.820901,"station_id":"JAY","transit":false,"time":4,"station_name":"Jayakarta"},{"i_long":106.82482,"line":2,"distance":1080,"time":2,"station_id":"MGB","station_name":"Manggabesar","is_transit":false,"transit":false,"i_lat":-6.149769},{"station_name":"Sawah Besar","distance":906,"time":2,"transit":false,"i_lat":-6.160725,"station_id":"SW","i_long":106.827103,"is_transit":false,"line":2}],[{"i_long":107.144613,"station_name":"Cikarang","transit":false,"distance":0,"line":1,"station_id":"CKR","time":0,"is_transit":false,"i_lat":-6.2553149999999995},{"time":4,"station_name":"Metland Telaga Murni","station_id":"TLM","is_transit":false,"distance":3689,"i_long":107.093313,"line":1,"transit":false,"i_lat":-6.262938},{"transit":false,"i_long":107.083084,"station_id":"CIT","distance":2800,"line":1,"is_transit":false,"time":2,"i_lat":-6.261877,"station_name":"Cibitung"},{"is_transit":false,"station_name":"Tambun","time":3,"station_id":"TB","distance":3420,"i_lat":-6.258864,"i_long":107.055722,"transit":false,"line":1},{"i_long":107.016735,"station_id":"BKST","transit":false,"time":7,"distance":4460,"i_lat":-6.248029,"line":1,"station_name":"Bekasi Timur","is_transit":false},{"i_lat":-6.236616,"i_long":106.997013,"line":1,"station_name":"Bekasi","transit":false,"distance":2368,"time":2,"is_transit":false,"station_id":"BKS"},{"station_id":"KRI","is_transit":false,"i_lat":-6.224515,"line":1,"time":4,"transit":false,"i_long":106.977657,"station_name":"Kranji","distance":2520},{"i_long":106.951283,"i_lat":-6.219053,"station_name":"Cakung","is_transit":false,"station_id":"CUK","time":3,"distance":3097,"transit":false,"line":1},{"line":1,"station_name":"Klenderbaru","i_lat":-6.217455,"time":8,"distance":1385,"station_id":"KLDB","is_transit":false,"i_long":106.939679,"transit":false},{"i_long":106.922662,"transit":false,"station_name":"Buaran","time":1,"i_lat":-6.215568,"is_transit":false,"distance":1305,"station_id":"BUA","line":1},{"distance":3100,"transit":false,"i_long":106.899548,"station_id":"KLD","is_transit":false,"line":1,"time":2,"station_name":"Klender","i_lat":-6.2135},{"station_name":"Jatinegara","line":1,"i_long":106.86807400000001,"station_id":"JNG","is_transit":true,"transit":true,"i_lat":-6.215091,"time":3,"distance":3395},{"time":2,"station_id":"POK","station_name":"Pondok Jati","distance":1236,"i_lat":-6.209188,"is_transit":false,"i_long":106.861737,"line":11,"transit":false},{"station_id":"KMT","time":2,"is_transit":false,"transit":false,"distance":1829,"station_name":"Kramat","i_lat":-6.193792,"i_long":106.855437,"line":11},{"transit":false,"i_lat":-6.185975,"station_name":"Gang Sentiong","line":11,"distance":973,"is_transit":false,"station_id":"GST","i_long":106.850107,"time":1},{"is_transit":false,"line":11,"distance":1567,"station_id":"PSE","station_name":"Pasar Senen","i_lat":-6.174784,"transit":false,"time":8,"i_long":106.84368},{"i_long":106.839204,"line":11,"transit":false,"distance":1436,"is_transit":false,"time":4,"i_lat":-6.161728,"station_id":"KMO","station_name":"Kemayoran"},{"line":11,"is_transit":false,"station_name":"Rajawali","distance":1901,"i_lat":-6.14505,"i_long":106.836569,"station_id":"RJW","transit":false,"time":5},{"i_lat":-6.132549,"station_name":"Kampung Bandan","i_long":106.826365,"distance":1444,"station_id":"KPB","time":3,"is_transit":true,"line":4,"transit":true},{"time":9,"transit":false,"station_name":"Angke","i_lat":-6.144674,"distance":4102,"i_long":106.79867,"line":1,"station_id":"AK","is_transit":false},{"distance":1230,"i_lat":-6.155215,"time":4,"transit":false,"is_transit":false,"i_long":106.800832,"station_id":"DU","line":1,"station_name":"Duri"},{"distance":3632,"station_id":"THB","time":8,"i_long":106.811091,"line":1,"is_transit":false,"i_lat":-6.185545,"station_name":"Tanah Abang","transit":false},{"station_name":"Karet","time":5,"line":1,"station_id":"KAT","i_lat":-6.20132,"i_long":106.816351,"is_transit":false,"distance":2029,"transit":false},{"distance":471,"is_transit":false,"transit":false,"station_id":"SUDB","line":1,"i_long":106.819881,"station_name":"Sudirman Baru","i_lat":-6.201433,"time":1},{"distance":280,"i_lat":-6.202263,"is_transit":false,"i_long":106.822649,"line":1,"station_name":"Sudirman","transit":false,"time":1,"station_id":"SUD"},{"transit":true,"time":4,"is_transit":true,"i_lat":-6.209883,"line":2,"i_long":106.84912,"distance":3186,"station_name":"Manggarai","station_id":"MRI"},{"i_long":106.840169,"station_name":"Cikini","is_transit":false,"station_id":"CKI","line":2,"distance":1590,"transit":false,"time":4,"i_lat":-6.198556},{"transit":false,"line":2,"i_long":106.832183,"distance":1750,"time":3,"is_transit":false,"station_id":"GDD","i_lat":-6.186295,"station_name":"Gondangdia"},{"i_long":106.828284,"is_transit":false,"transit":false,"station_id":"JUA","station_name":"Juanda","i_lat":-6.166716,"time":4,"distance":2015,"line":2},{"distance":1149,"is_transit":false,"transit":false,"line":2,"i_lat":-6.160725,"station_name":"Sawah Besar","i_long":106.827103,"station_id":"SW","time":2}]]}