{"data":[[{"line":1,"distance":0,"is_transit":false,"station_name":"Cikarang","i_long":107.144613,"transit":false,"time":0,"station_id":"CKR","i_lat":-6.2553149999999995},{"is_transit":false,"i_long":107.093313,"distance":3689,"station_id":"TLM","transit":false,"i_lat":-6.262938,"time":4,"line":1,"station_name":"Metland Telaga Murni"},{"station_name":"Cibitung","i_long":107.083084,"line":1,"i_lat":-6.261877,"time":2,"distance":2800,"station_id":"CIT","transit":false,"is_transit":false},{"i_long":107.055722,"line":1,"time":3,"is_transit":false,"transit":false,"distance":3420,"station_name":"Tambun","station_id":"TB","i_lat":-6.258864},{"i_lat":-6.248029,"time":7,"distance":4460,"station_id":"BKST","station_name":"Bekasi Timur","transit":false,"line":1,"i_long":107.016735,"is_transit":false},{"i_lat":-6.236616,"line":1,"station_name":"Bekasi","is_transit":false,"distance":2368,"i_long":106.997013,"station_id":"BKS","time":2,"transit":false},{"station_id":"KRI","distance":2520,"station_name":"Kranji","transit":false,"is_transit":false,"i_long":106.977657,"line":1,"i_lat":-6.224515,"time":4},{"time":3,"station_name":"Cakung","is_transit":false,"distance":3097,"transit":false,"i_lat":-6.219053,"i_long":106.951283,"line":1,"station_id":"CUK"},{"station_name":"Klenderbaru","station_id":"KLDB","is_transit":false,"i_long":106.939679,"transit":false,"line":1,"distance":1385,"i_lat":-6.217455,"time":8},{"distance":1305,"transit":false,"i_long":106.922662,"time":1,"station_id":"BUA","line":1,"station_name":"Buaran","is_transit":false,"i_lat":-6.215568},{"i_long":106.899548,"line":1,"station_id":"KLD","station_name":"Klender","time":2,"distance":3100,"transit":false,"i_lat":-6.2135,"is_transit":false},{"time":3,"station_name":"Jatinegara","i_lat":-6.215091,"transit":false,"distance":3395,"line":1,"station_id":"JNG","is_transit":false,"i_long":106.86807400000001},{"i_long":106.858896,"station_id":"MTR","distance":1377,"is_transit":false,"transit":false,"line":1,"time":2,"station_name":"Matraman","i_lat":-6.212485},{"distance":1275,"i_lat":-6.209883,"time":2,"station_name":"Manggarai","station_id":"MRI","line":2,"i_long":106.84912,"is_transit":false,"transit":false},{"is_transit":false,"time":4,"station_name":"Sudirman","line":1,"station_id":"SUD","distance":3186,"i_lat":-6.202263,"transit":false,"i_long":106.822649},{"station_name":"Sudirman Baru","time":1,"line":1,"distance":280,"transit":false,"i_long":106.819881,"is_transit":false,"station_id":"SUDB","i_lat":-6.201433},{"station_name":"Karet","transit":false,"time":1,"distance":471,"station_id":"KAT","i_lat":-6.20132,"i_long":106.816351,"line":1,"is_transit":false},{"time":5,"i_lat":-6.185545,"is_transit":false,"i_long":106.811091,"station_id":"THB","transit":false,"line":1,"station_name":"Tanah Abang","distance":2029},{"i_lat":-6.155215,"line":1,"i_long":106.800832,"station_id":"DU","transit":true,"station_name":"Duri","time":8,"distance":3632,"is_transit":true},{"time":3,"station_name":"Grogol","line":5,"i_lat":-6.162021,"is_transit":false,"station_id":"GRG","i_long":106.788277,"distance":1700,"transit":false},{"station_id":"PSG","distance":2036,"time":2,"is_transit":false,"i_lat":-6.161433,"station_name":"Pesing","line":5,"transit":false,"i_long":106.771379}],[{"time":0,"distance":0,"station_name":"Cikarang","i_lat":-6.2553149999999995,"i_long":107.144613,"is_transit":false,"line":1,"station_id":"CKR","transit":false},{"i_long":107.093313,"is_transit":false,"distance":3689,"station_id":"TLM","transit":false,"line":1,"station_name":"Metland Telaga Murni","time":4,"i_lat":-6.262938},{"station_id":"CIT","line":1,"time":2,"is_transit":false,"station_name":"Cibitung","distance":2800,"i_lat":-6.261877,"i_long":107.083084,"transit":false},{"time":3,"station_name":"Tambun","line":1,"i_lat":-6.258864,"i_long":107.055722,"transit":false,"distance":3420,"is_transit":false,"station_id":"TB"},{"station_id":"BKST","line":1,"is_transit":false,"station_name":"Bekasi Timur","i_lat":-6.248029,"i_long":107.016735,"transit":false,"time":7,"distance":4460},{"line":1,"distance":2368,"station_id":"BKS","transit":false,"time":2,"i_long":106.997013,"is_transit":false,"station_name":"Bekasi","i_lat":-6.236616},{"line":1,"distance":2520,"station_id":"KRI","station_name":"Kranji","is_transit":false,"i_lat":-6.224515,"transit":false,"i_long":106.977657,"time":4},{"distance":3097,"i_long":106.951283,"station_name":"Cakung","time":3,"line":1,"station_id":"CUK","transit":false,"i_lat":-6.219053,"is_transit":false},{"line":1,"i_lat":-6.217455,"station_name":"Klenderbaru","time":8,"transit":false,"distance":1385,"station_id":"KLDB","is_transit":false,"i_long":106.939679},{"station_id":"BUA","is_transit":false,"time":1,"station_name":"Buaran","i_lat":-6.215568,"distance":1305,"line":1,"i_long":106.922662,"transit":false},{"i_long":106.899548,"time":2,"transit":false,"station_id":"KLD","distance":3100,"station_name":"Klender","is_transit":false,"i_lat":-6.2135,"line":1},{"is_transit":true,"station_id":"JNG","distance":3395,"time":3,"station_name":"Jatinegara","transit":true,"line":1,"i_lat":-6.215091,"i_long":106.86807400000001},{"is_transit":false,"station_id":"POK","time":2,"distance":1236,"i_lat":-6.209188,"line":11,"station_name":"Pondok Jati","i_long":106.861737,"transit":false},{"time":2,"station_id":"KMT","i_lat":-6.193792,"i_long":106.855437,"line":11,"transit":false,"station_name":"Kramat","is_transit":false,"distance":1829},{"station_id":"GST","distance":973,"station_name":"Gang Sentiong","time":1,"i_lat":-6.185975,"is_transit":false,"i_long":106.850107,"transit":false,"line":11},{"distance":1567,"station_name":"Pasar Senen","line":11,"i_long":106.84368,"time":8,"transit":false,"is_transit":false,"station_id":"PSE","i_lat":-6.174784},{"i_lat":-6.161728,"line":11,"distance":1436,"i_long":106.839204,"station_id":"KMO","transit":false,"time":4,"is_transit":false,"station_name":"Kemayoran"},{"i_lat":-6.14505,"station_id":"RJW","time":5,"is_transit":false,"line":11,"station_name":"Rajawali","transit":false,"i_long":106.836569,"distance":1901},{"station_id":"KPB","line":4,"is_transit":true,"station_name":"Kampung Bandan","i_lat":-6.132549,"time":3,"transit":true,"distance":1444,"i_long":106.826365},{"station_id":"AK","is_transit":false,"station_name":"Angke","i_lat":-6.144674,"line":1,"i_long":106.79867,"time":9,"transit":false,"distance":4102},{"i_long":106.800832,"line":1,"transit":true,"station_id":"DU","time":4,"distance":1230,"is_transit":true,"i_lat":-6.155215,"station_name":"Duri"},{"station_id":"GRG","station_name":"Grogol","transit":false,"time":3,"distance":1700,"is_transit":false,"line":5,"i_lat":-6.162021,"i_long":106.788277},{"line":5,"i_lat":-6.161433,"station_id":"PSG","time":2,"transit":false,"is_transit":false,"station_name":"Pesing","i_long":106.771379,"distance":2036}],[{"station_name":"Cikarang","station_id":"CKR","transit":false,"distance":0,"i_lat":-6.2553149999999995,"is_transit":false,"i_long":107.144613,"line":1,"time":0},{"is_transit":false,"station_id":"TLM","i_long":107.093313,"time":4,"distance":3689,"station_name":"Metland Telaga Murni","i_lat":-6.262938,"transit":false,"line":1},{"station_name":"Cibitung","i_long":107.083084,"i_lat":-6.261877,"time":2,"is_transit":false,"distance":2800,"transit":false,"line":1,"station_id":"CIT"},{"station_id":"TB","transit":false,"station_name":"Tambun","i_long":107.055722,"distance":3420,"time":3,"is_transit":false,"line":1,"i_lat":-6.258864},{"station_name":"Bekasi Timur","i_lat":-6.248029,"station_id":"BKST","line":1,"is_transit":false,"transit":false,"time":7,"i_long":107.016735,"distance":4460},{"station_id":"BKS","transit":false,"is_transit":false,"distance":2368,"time":2,"i_long":106.997013,"i_lat":-6.236616,"station_name":"Bekasi","line":1},{"time":4,"distance":2520,"is_transit":false,"i_long":106.977657,"station_name":"Kranji","i_lat":-6.224515,"station_id":"KRI","transit":false,"line":1},{"transit":false,"line":1,"time":3,"i_lat":-6.219053,"i_long":106.951283,"distance":3097,"station_name":"Cakung","station_id":"CUK","is_transit":false},{"is_transit":false,"transit":false,"i_lat":-6.217455,"i_long":106.939679,"line":1,"station_id":"KLDB","time":8,"distance":1385,"station_name":"Klenderbaru"},{"transit":false,"distance":1305,"time":1,"i_lat":-6.215568,"i_long":106.922662,"line":1,"station_name":"Buaran","station_id":"BUA","is_transit":false},{"station_name":"Klender","line":1,"time":2,"station_id":"KLD","is_transit":false,"i_long":106.899548,"i_lat":-6.2135,"distance":3100,"transit":false},{"station_id":"JNG","is_transit":false,"distance":3395,"time":3,"i_long":106.86807400000001,"line":1,"i_lat":-6.215091,"transit":false,"station_name":"Jatinegara"},{"station_name":"Matraman","i_lat":-6.212485,"i_long":106.858896,"is_transit":false,"transit":false,"time":2,"distance":1377,"station_id":"MTR","line":1},{"line":2,"is_transit":true,"station_name":"Manggarai","i_lat":-6.209883,"i_long":106.84912,"station_id":"MRI","transit":true,"distance":1275,"time":2},{"station_id":"CKI","time":4,"distance":1590,"i_long":106.840169,"is_transit":false,"i_lat":-6.198556,"station_name":"Cikini","transit":false,"line":2},{"is_transit":false,"i_lat":-6.186295,"distance":1750,"station_id":"GDD","i_long":106.832183,"line":2,"time":3,"station_name":"Gondangdia","transit":false},{"i_lat":-6.166716,"distance":2015,"time":4,"is_transit":false,"line":2,"station_id":"JUA","transit":false,"station_name":"Juanda","i_long":106.828284},{"station_id":"SW","transit":false,"distance":1149,"time":2,"is_transit":false,"line":2,"i_long":106.827103,"station_name":"Sawah Besar","i_lat":-6.160725},{"transit":false,"i_lat":-6.149769,"time":2,"is_transit":false,"i_long":106.82482,"line":2,"station_name":"Manggabesar","distance":906,"station_id":"MGB"},{"time":2,"station_id":"JAY","transit":false,"distance":1080,"is_transit":false,"station_name":"Jayakarta","i_lat":-6.141205,"i_long":106.820901,"line":2},{"line":2,"is_transit":true,"transit":true,"time":4,"i_long":106.812439,"i_lat":-6.137569,"distance":1264,"station_name":"Jakarta Kota","station_id":"JAKK"},{"line":4,"distance":1364,"station_id":"KPB","station_name":"Kampung Bandan","transit":true,"i_lat":-6.132549,"i_long":106.826365,"time":3,"is_transit":true},{"distance":4102,"time":9,"i_long":106.79867,"line":1,"station_name":"Angke","is_transit":false,"transit":false,"i_lat":-6.144674,"station_id":"AK"},{"time":4,"station_name":"Duri","line":1,"distance":1230,"i_long":106.800832,"i_lat":-6.155215,"station_id":"DU","transit":true,"is_transit":true},{"is_transit":false,"time":3,"transit":false,"station_id":"GRG","i_long":106.788277,"distance":1700,"line":5,"station_name":"Grogol","i_lat":-6.162021},{"line":5,"i_lat":-6.161433,"distance":2036,"i_long":106.771379,"transit":false,"station_id":"PSG","time":2,"is_transit":false,"station_name":"Pesing"}],[{"is_transit":false,"distance":0,"transit":false,"line":1,"station_id":"CKR","time":0,"station_name":"Cikarang","i_lat":-6.2553149999999995,"i_long":107.144613},{"transit":false,"is_transit":false,"line":1,"i_lat":-6.262938,"station_id":"TLM","station_name":"Metland Telaga Murni","i_long":107.093313,"time":4,"distance":3689},{"is_transit":false,"transit":false,"time":2,"station_name":"Cibitung","i_long":107.083084,"i_lat":-6.261877,"line":1,"station_id":"CIT","distance":2800},{"line":1,"station_name":"Tambun","is_transit":false,"station_id":"TB","transit":false,"time":3,"i_long":107.055722,"distance":3420,"i_lat":-6.258864},{"distance":4460,"transit":false,"station_id":"BKST","is_transit":false,"station_name":"Bekasi Timur","i_long":107.016735,"line":1,"i_lat":-6.248029,"time":7},{"station_id":"BKS","station_name":"Bekasi","i_lat":-6.236616,"distance":2368,"time":2,"is_transit":false,"i_long":106.997013,"transit":false,"line":1},{"transit":false,"time":4,"distance":2520,"is_transit":false,"i_long":106.977657,"station_name":"Kranji","station_id":"KRI","i_lat":-6.224515,"line":1},{"distance":3097,"station_id":"CUK","line":1,"transit":false,"time":3,"station_name":"Cakung","i_long":106.951283,"is_transit":false,"i_lat":-6.219053},{"distance":1385,"line":1,"time":8,"station_id":"KLDB","transit":false,"i_lat":-6.217455,"station_name":"Klenderbaru","is_transit":false,"i_long":106.939679},{"time":1,"is_transit":false,"i_long":106.922662,"line":1,"distance":1305,"transit":false,"i_lat":-6.215568,"station_name":"Buaran","station_id":"BUA"},{"is_transit":false,"transit":false,"time":2,"station_name":"Klender","i_lat":-6.2135,"distance":3100,"line":1,"i_long":106.899548,"station_id":"KLD"},{"distance":3395,"i_lat":-6.215091,"line":1,"is_transit":true,"i_long":106.86807400000001,"station_id":"JNG","station_name":"Jatinegara","transit":true,"time":3},{"transit":false,"distance":1236,"is_transit":false,"i_long":106.861737,"line":11,"i_lat":-6.209188,"time":2,"station_name":"Pondok Jati","station_id":"POK"},{"station_name":"Kramat","distance":1829,"transit":false,"i_long":106.855437,"station_id":"KMT","time":2,"is_transit":false,"i_lat":-6.193792,"line":11},{"i_long":106.850107,"transit":false,"station_id":"GST","station_name":"Gang Sentiong","i_lat":-6.185975,"distance":973,"is_transit":false,"line":11,"time":1},{"time":8,"line":11,"transit":false,"distance":1567,"i_long":106.84368,"i_lat":-6.174784,"station_id":"PSE","is_transit":false,"station_name":"Pasar Senen"},{"i_long":106.839204,"time":4,"distance":1436,"station_id":"KMO","is_transit":false,"transit":false,"station_name":"Kemayoran","i_lat":-6.161728,"line":11},{"i_long":106.836569,"distance":1901,"time":5,"i_lat":-6.14505,"transit":false,"station_id":"RJW","station_name":"Rajawali","is_transit":false,"line":11},{"i_lat":-6.132549,"station_name":"Kampung Bandan","time":3,"i_long":106.826365,"line":4,"transit":true,"station_id":"KPB","is_transit":true,"distance":1444},{"station_name":"Jakarta Kota","i_lat":-6.137569,"line":2,"station_id":"JAKK","is_transit":true,"transit":true,"distance":1364,"time":3,"i_long":106.812439},{"is_transit":false,"i_lat":-6.141205,"transit":false,"station_name":"Jayakarta","station_id":"JAY","i_long":106.820901,"line":2,"time":4,"distance":1264},{"i_long":106.82482,"station_name":"Manggabesar","time":2,"line":2,"distance":1080,"station_id":"MGB","transit":false,"is_transit":false,"i_lat":-6.149769},{"station_id":"SW","is_transit":false,"i_long":106.827103,"transit":false,"time":2,"i_lat":-6.160725,"line":2,"distance":906,"station_name":"Sawah Besar"},{"is_transit":false,"distance":1149,"i_long":106.828284,"station_id":"JUA","i_lat":-6.166716,"time":2,"line":2,"station_name":"Juanda","transit":false},{"transit":false,"i_long":106.832183,"is_transit":false,"station_name":"Gondangdia","line":2,"distance":2015,"time":4,"i_lat":-6.186295,"station_id":"GDD"},{"station_id":"CKI","distance":1750,"time":3,"transit":false,"i_lat":-6.198556,"i_long":106.840169,"line":2,"is_transit":false,"station_name":"Cikini"},{"time":4,"is_transit":true,"i_long":106.84912,"station_name":"Manggarai","station_id":"MRI","i_lat":-6.209883,"distance":1590,"line":2,"transit":true},{"distance":3186,"i_long":106.822649,"time":4,"transit":false,"station_id":"SUD","is_transit":false,"i_lat":-6.202263,"line":1,"station_name":"Sudirman"},{"is_transit":false,"i_long":106.819881,"i_lat":-6.201433,"line":1,"distance":280,"station_id":"SUDB","transit":false,"time":1,"station_name":"Sudirman Baru"},{"station_name":"Karet","time":1,"i_lat":-6.20132,"station_id":"KAT","i_long":106.816351,"distance":471,"transit":false,"line":1,"is_transit":false},{"time":5,"i_long":106.811091,"is_transit":false,"line":1,"i_lat":-6.185545,"transit":false,"station_id":"THB","station_name":"Tanah Abang","distance":2029},{"i_lat":-6.155215,"is_transit":true,"line":1,"transit":true,"station_id":"DU","distance":3632,"i_long":106.800832,"time":8,"station_name":"Duri"},{"time":3,"is_transit":false,"distance":1700,"station_id":"GRG","i_lat":-6.162021,"line":5,"i_long":106.788277,"station_name":"Grogol","transit":false},{"i_long":106.771379,"i_lat":-6.161433,"distance":2036,"line":5,"transit":false,"is_transit":false,"station_name":"Pesing","station_id":"PSG","time":2}]]}