{"data":[[{"is_transit":false,"line":1,"time":0,"transit":false,"distance":0,"station_id":"CKR","i_lat":-6.2553149999999995,"i_long":107.144613,"station_name":"Cikarang"},{"time":4,"line":1,"i_lat":-6.262938,"i_long":107.093313,"station_name":"Metland Telaga Murni","transit":false,"distance":3689,"station_id":"TLM","is_transit":false},{"transit":false,"distance":2800,"time":2,"i_long":107.083084,"i_lat":-6.261877,"is_transit":false,"station_name":"Cibitung","line":1,"station_id":"CIT"},{"transit":false,"i_lat":-6.258864,"line":1,"distance":3420,"station_name":"Tambun","i_long":107.055722,"station_id":"TB","time":3,"is_transit":false},{"station_id":"BKST","transit":false,"line":1,"distance":4460,"time":7,"station_name":"Bekasi Timur","is_transit":false,"i_long":107.016735,"i_lat":-6.248029},{"i_lat":-6.236616,"station_id":"BKS","i_long":106.997013,"distance":2368,"transit":false,"line":1,"station_name":"Bekasi","time":2,"is_transit":false},{"i_long":106.977657,"distance":2520,"line":1,"transit":false,"station_id":"KRI","is_transit":false,"time":4,"station_name":"Kranji","i_lat":-6.224515},{"time":3,"i_lat":-6.219053,"station_name":"Cakung","is_transit":false,"i_long":106.951283,"line":1,"station_id":"CUK","distance":3097,"transit":false},{"distance":1385,"i_long":106.939679,"line":1,"i_lat":-6.217455,"time":8,"station_name":"Klenderbaru","station_id":"KLDB","transit":false,"is_transit":false},{"station_name":"Buaran","i_long":106.922662,"is_transit":false,"time":1,"transit":false,"distance":1305,"line":1,"station_id":"BUA","i_lat":-6.215568},{"line":1,"i_long":106.899548,"station_name":"Klender","is_transit":false,"distance":3100,"time":2,"station_id":"KLD","transit":false,"i_lat":-6.2135},{"time":3,"i_lat":-6.215091,"line":1,"station_name":"Jatinegara","distance":3395,"station_id":"JNG","is_transit":true,"transit":true,"i_long":106.86807400000001},{"transit":false,"i_long":106.861737,"is_transit":false,"station_id":"POK","line":11,"station_name":"Pondok Jati","time":2,"distance":1236,"i_lat":-6.209188},{"transit":false,"i_lat":-6.193792,"station_name":"Kramat","is_transit":false,"distance":1829,"station_id":"KMT","i_long":106.855437,"time":2,"line":11},{"transit":false,"distance":973,"time":1,"is_transit":false,"station_name":"Gang Sentiong","line":11,"i_long":106.850107,"station_id":"GST","i_lat":-6.185975},{"time":8,"i_long":106.84368,"line":11,"station_id":"PSE","transit":false,"station_name":"Pasar Senen","is_transit":false,"distance":1567,"i_lat":-6.174784},{"is_transit":false,"i_long":106.839204,"line":11,"i_lat":-6.161728,"distance":1436,"time":4,"station_id":"KMO","station_name":"Kemayoran","transit":false},{"i_lat":-6.14505,"i_long":106.836569,"line":11,"time":5,"distance":1901,"is_transit":false,"transit":false,"station_name":"Rajawali","station_id":"RJW"},{"i_lat":-6.132549,"line":4,"time":3,"station_name":"Kampung Bandan","distance":1444,"i_long":106.826365,"transit":false,"station_id":"KPB","is_transit":false}],[{"transit":false,"station_id":"CKR","is_transit":false,"i_long":107.144613,"distance":0,"time":0,"station_name":"Cikarang","i_lat":-6.2553149999999995,"line":1},{"distance":3689,"time":4,"i_lat":-6.262938,"station_name":"Metland Telaga Murni","transit":false,"i_long":107.093313,"line":1,"is_transit":false,"station_id":"TLM"},{"station_name":"Cibitung","i_lat":-6.261877,"i_long":107.083084,"distance":2800,"time":2,"line":1,"station_id":"CIT","is_transit":false,"transit":false},{"station_id":"TB","distance":3420,"transit":false,"line":1,"i_lat":-6.258864,"is_transit":false,"time":3,"i_long":107.055722,"station_name":"Tambun"},{"i_lat":-6.248029,"i_long":107.016735,"station_id":"BKST","line":1,"station_name":"Bekasi Timur","time":7,"transit":false,"distance":4460,"is_transit":false},{"i_lat":-6.236616,"time":2,"distance":2368,"station_name":"Bekasi","i_long":106.997013,"line":1,"station_id":"BKS","is_transit":false,"transit":false},{"distance":2520,"station_id":"KRI","i_long":106.977657,"station_name":"Kranji","i_lat":-6.224515,"time":4,"transit":false,"line":1,"is_transit":false},{"distance":3097,"i_lat":-6.219053,"transit":false,"i_long":106.951283,"line":1,"station_id":"CUK","time":3,"is_transit":false,"station_name":"Cakung"},{"is_transit":false,"station_name":"Klenderbaru","i_lat":-6.217455,"i_long":106.939679,"time":8,"station_id":"KLDB","transit":false,"line":1,"distance":1385},{"station_id":"BUA","line":1,"distance":1305,"i_long":106.922662,"is_transit":false,"transit":false,"i_lat":-6.215568,"station_name":"Buaran","time":1},{"transit":false,"station_name":"Klender","time":2,"station_id":"KLD","distance":3100,"line":1,"i_lat":-6.2135,"is_transit":false,"i_long":106.899548},{"station_name":"Jatinegara","i_lat":-6.215091,"line":1,"station_id":"JNG","time":3,"i_long":106.86807400000001,"transit":false,"is_transit":false,"distance":3395},{"is_transit":false,"transit":false,"i_long":106.858896,"station_name":"Matraman","i_lat":-6.212485,"station_id":"MTR","distance":1377,"time":2,"line":1},{"i_long":106.84912,"station_id":"MRI","time":2,"i_lat":-6.209883,"is_transit":false,"transit":false,"distance":1275,"line":2,"station_name":"Manggarai"},{"i_lat":-6.202263,"station_name":"Sudirman","station_id":"SUD","is_transit":false,"time":4,"transit":false,"distance":3186,"i_long":106.822649,"line":1},{"distance":280,"i_long":106.819881,"station_name":"Sudirman Baru","transit":false,"i_lat":-6.201433,"station_id":"SUDB","is_transit":false,"line":1,"time":1},{"is_transit":false,"transit":false,"distance":471,"station_name":"Karet","i_lat":-6.20132,"i_long":106.816351,"time":1,"line":1,"station_id":"KAT"},{"is_transit":false,"time":5,"station_name":"Tanah Abang","distance":2029,"i_long":106.811091,"transit":false,"i_lat":-6.185545,"line":1,"station_id":"THB"},{"time":8,"distance":3632,"i_lat":-6.155215,"is_transit":false,"line":1,"transit":false,"station_id":"DU","i_long":106.800832,"station_name":"Duri"},{"i_lat":-6.144674,"line":1,"distance":1230,"time":4,"i_long":106.79867,"is_transit":false,"station_id":"AK","transit":false,"station_name":"Angke"},{"distance":4102,"time":9,"transit":false,"i_lat":-6.132549,"is_transit":false,"station_id":"KPB","line":4,"station_name":"Kampung Bandan","i_long":106.826365}],[{"is_transit":false,"transit":false,"i_lat":-6.2553149999999995,"line":1,"station_name":"Cikarang","distance":0,"i_long":107.144613,"station_id":"CKR","time":0},{"is_transit":false,"time":4,"i_lat":-6.262938,"station_name":"Metland Telaga Murni","line":1,"station_id":"TLM","transit":false,"distance":3689,"i_long":107.093313},{"station_name":"Cibitung","i_lat":-6.261877,"line":1,"is_transit":false,"distance":2800,"time":2,"station_id":"CIT","transit":false,"i_long":107.083084},{"station_id":"TB","time":3,"i_lat":-6.258864,"i_long":107.055722,"station_name":"Tambun","distance":3420,"line":1,"transit":false,"is_transit":false},{"distance":4460,"i_long":107.016735,"line":1,"time":7,"station_id":"BKST","transit":false,"i_lat":-6.248029,"is_transit":false,"station_name":"Bekasi Timur"},{"station_name":"Bekasi","time":2,"distance":2368,"line":1,"station_id":"BKS","i_long":106.997013,"i_lat":-6.236616,"transit":false,"is_transit":false},{"station_name":"Kranji","i_lat":-6.224515,"station_id":"KRI","time":4,"distance":2520,"is_transit":false,"i_long":106.977657,"line":1,"transit":false},{"is_transit":false,"station_id":"CUK","time":3,"transit":false,"i_lat":-6.219053,"i_long":106.951283,"station_name":"Cakung","line":1,"distance":3097},{"distance":1385,"i_long":106.939679,"station_id":"KLDB","time":8,"is_transit":false,"line":1,"i_lat":-6.217455,"station_name":"Klenderbaru","transit":false},{"station_id":"BUA","line":1,"transit":false,"is_transit":false,"i_long":106.922662,"i_lat":-6.215568,"time":1,"station_name":"Buaran","distance":1305},{"station_id":"KLD","transit":false,"is_transit":false,"time":2,"distance":3100,"i_long":106.899548,"station_name":"Klender","line":1,"i_lat":-6.2135},{"i_lat":-6.215091,"i_long":106.86807400000001,"line":1,"time":3,"station_name":"Jatinegara","station_id":"JNG","is_transit":false,"transit":false,"distance":3395},{"line":1,"i_long":106.858896,"station_id":"MTR","is_transit":false,"transit":false,"distance":1377,"time":2,"station_name":"Matraman","i_lat":-6.212485},{"is_transit":true,"line":2,"distance":1275,"station_name":"Manggarai","i_lat":-6.209883,"i_long":106.84912,"station_id":"MRI","time":2,"transit":true},{"distance":1590,"station_name":"Cikini","line":2,"i_lat":-6.198556,"i_long":106.840169,"is_transit":false,"station_id":"CKI","time":4,"transit":false},{"station_name":"Gondangdia","distance":1750,"station_id":"GDD","line":2,"transit":false,"time":3,"i_long":106.832183,"i_lat":-6.186295,"is_transit":false},{"is_transit":false,"line":2,"i_lat":-6.166716,"transit":false,"station_name":"Juanda","time":4,"distance":2015,"station_id":"JUA","i_long":106.828284},{"station_id":"SW","transit":false,"distance":1149,"line":2,"i_long":106.827103,"i_lat":-6.160725,"is_transit":false,"time":2,"station_name":"Sawah Besar"},{"distance":906,"station_name":"Manggabesar","time":2,"i_long":106.82482,"station_id":"MGB","is_transit":false,"line":2,"i_lat":-6.149769,"transit":false},{"time":2,"is_transit":false,"station_name":"Jayakarta","distance":1080,"i_lat":-6.141205,"line":2,"transit":false,"i_long":106.820901,"station_id":"JAY"},{"transit":true,"i_lat":-6.137569,"i_long":106.812439,"station_id":"JAKK","station_name":"Jakarta Kota","time":4,"is_transit":true,"distance":1264,"line":2},{"station_id":"KPB","transit":false,"i_lat":-6.132549,"line":4,"i_long":106.826365,"distance":1364,"is_transit":false,"time":3,"station_name":"Kampung Bandan"}]]}