{"data":[[{"i_long":107.144613,"line":1,"transit":false,"is_transit":false,"time":0,"distance":0,"station_id":"CKR","i_lat":-6.2553149999999995,"station_name":"Cikarang"},{"station_id":"TLM","time":4,"is_transit":false,"distance":3689,"transit":false,"station_name":"Metland Telaga Murni","i_lat":-6.262938,"i_long":107.093313,"line":1},{"is_transit":false,"i_lat":-6.261877,"i_long":107.083084,"line":1,"transit":false,"station_id":"CIT","station_name":"Cibitung","time":2,"distance":2800},{"transit":false,"line":1,"station_name":"Tambun","i_lat":-6.258864,"station_id":"TB","distance":3420,"i_long":107.055722,"time":3,"is_transit":false},{"station_id":"BKST","line":1,"distance":4460,"time":7,"station_name":"Bekasi Timur","is_transit":false,"transit":false,"i_lat":-6.248029,"i_long":107.016735},{"i_lat":-6.236616,"station_id":"BKS","line":1,"transit":false,"distance":2368,"station_name":"Bekasi","is_transit":false,"time":2,"i_long":106.997013},{"station_name":"Kranji","i_lat":-6.224515,"distance":2520,"is_transit":false,"transit":false,"time":4,"i_long":106.977657,"line":1,"station_id":"KRI"},{"is_transit":false,"line":1,"i_lat":-6.219053,"time":3,"station_name":"Cakung","distance":3097,"station_id":"CUK","transit":false,"i_long":106.951283},{"distance":1385,"time":8,"station_id":"KLDB","station_name":"Klenderbaru","i_lat":-6.217455,"line":1,"i_long":106.939679,"transit":false,"is_transit":false},{"time":1,"distance":1305,"i_lat":-6.215568,"transit":false,"is_transit":false,"station_name":"Buaran","line":1,"station_id":"BUA","i_long":106.922662},{"i_lat":-6.2135,"distance":3100,"line":1,"station_id":"KLD","i_long":106.899548,"station_name":"Klender","is_transit":false,"time":2,"transit":false},{"station_name":"Jatinegara","transit":false,"i_lat":-6.215091,"line":1,"distance":3395,"is_transit":false,"i_long":106.86807400000001,"station_id":"JNG","time":3},{"station_name":"Matraman","transit":false,"distance":1377,"i_lat":-6.212485,"i_long":106.858896,"line":1,"station_id":"MTR","is_transit":false,"time":2},{"station_name":"Manggarai","distance":1275,"is_transit":true,"i_lat":-6.209883,"time":2,"station_id":"MRI","transit":true,"i_long":106.84912,"line":2},{"i_long":106.840169,"transit":false,"distance":1590,"time":4,"station_id":"CKI","i_lat":-6.198556,"line":2,"station_name":"Cikini","is_transit":false},{"station_name":"Gondangdia","i_long":106.832183,"distance":1750,"line":2,"is_transit":false,"time":3,"transit":false,"i_lat":-6.186295,"station_id":"GDD"},{"time":4,"i_long":106.828284,"station_id":"JUA","is_transit":false,"transit":false,"station_name":"Juanda","i_lat":-6.166716,"line":2,"distance":2015},{"time":2,"is_transit":false,"station_id":"SW","station_name":"Sawah Besar","i_lat":-6.160725,"distance":1149,"i_long":106.827103,"line":2,"transit":false}],[{"line":1,"station_id":"CKR","i_lat":-6.2553149999999995,"station_name":"Cikarang","transit":false,"is_transit":false,"time":0,"distance":0,"i_long":107.144613},{"is_transit":false,"distance":3689,"i_lat":-6.262938,"transit":false,"time":4,"i_long":107.093313,"line":1,"station_name":"Metland Telaga Murni","station_id":"TLM"},{"station_id":"CIT","time":2,"is_transit":false,"line":1,"distance":2800,"transit":false,"i_long":107.083084,"i_lat":-6.261877,"station_name":"Cibitung"},{"time":3,"i_lat":-6.258864,"is_transit":false,"station_id":"TB","station_name":"Tambun","i_long":107.055722,"distance":3420,"transit":false,"line":1},{"station_name":"Bekasi Timur","station_id":"BKST","time":7,"i_lat":-6.248029,"transit":false,"i_long":107.016735,"line":1,"is_transit":false,"distance":4460},{"time":2,"distance":2368,"transit":false,"i_lat":-6.236616,"is_transit":false,"line":1,"i_long":106.997013,"station_id":"BKS","station_name":"Bekasi"},{"station_id":"KRI","station_name":"Kranji","time":4,"distance":2520,"i_lat":-6.224515,"i_long":106.977657,"is_transit":false,"transit":false,"line":1},{"station_name":"Cakung","time":3,"distance":3097,"line":1,"i_lat":-6.219053,"transit":false,"i_long":106.951283,"is_transit":false,"station_id":"CUK"},{"i_long":106.939679,"i_lat":-6.217455,"station_id":"KLDB","time":8,"transit":false,"distance":1385,"station_name":"Klenderbaru","line":1,"is_transit":false},{"is_transit":false,"i_long":106.922662,"transit":false,"station_id":"BUA","distance":1305,"i_lat":-6.215568,"line":1,"station_name":"Buaran","time":1},{"time":2,"is_transit":false,"distance":3100,"station_id":"KLD","i_lat":-6.2135,"i_long":106.899548,"station_name":"Klender","line":1,"transit":false},{"is_transit":true,"station_id":"JNG","transit":true,"i_lat":-6.215091,"line":1,"distance":3395,"time":3,"i_long":106.86807400000001,"station_name":"Jatinegara"},{"is_transit":false,"station_name":"Pondok Jati","line":11,"time":2,"distance":1236,"transit":false,"i_long":106.861737,"station_id":"POK","i_lat":-6.209188},{"is_transit":false,"station_id":"KMT","station_name":"Kramat","time":2,"i_long":106.855437,"transit":false,"line":11,"distance":1829,"i_lat":-6.193792},{"transit":false,"i_lat":-6.185975,"station_name":"Gang Sentiong","time":1,"is_transit":false,"line":11,"station_id":"GST","distance":973,"i_long":106.850107},{"station_name":"Pasar Senen","is_transit":false,"i_long":106.84368,"distance":1567,"station_id":"PSE","transit":false,"line":11,"i_lat":-6.174784,"time":8},{"distance":1436,"station_id":"KMO","station_name":"Kemayoran","time":4,"is_transit":false,"line":11,"transit":false,"i_long":106.839204,"i_lat":-6.161728},{"i_lat":-6.14505,"is_transit":false,"station_id":"RJW","station_name":"Rajawali","distance":1901,"transit":false,"time":5,"i_long":106.836569,"line":11},{"i_lat":-6.132549,"is_transit":true,"station_id":"KPB","time":3,"transit":true,"i_long":106.826365,"distance":1444,"station_name":"Kampung Bandan","line":4},{"distance":1364,"station_id":"JAKK","station_name":"Jakarta Kota","time":3,"line":2,"is_transit":true,"transit":true,"i_lat":-6.137569,"i_long":106.812439},{"distance":1264,"i_lat":-6.141205,"is_transit":false,"time":4,"station_id":"JAY","transit":false,"station_name":"Jayakarta","i_long":106.820901,"line":2},{"i_long":106.82482,"is_transit":false,"transit":false,"line":2,"i_lat":-6.149769,"station_name":"Manggabesar","station_id":"MGB","time":2,"distance":1080},{"is_transit":false,"i_lat":-6.160725,"station_id":"SW","transit":false,"i_long":106.827103,"line":2,"time":2,"station_name":"Sawah Besar","distance":906}],[{"i_long":107.144613,"station_id":"CKR","is_transit":false,"station_name":"Cikarang","time":0,"transit":false,"i_lat":-6.2553149999999995,"line":1,"distance":0},{"is_transit":false,"station_name":"Metland Telaga Murni","distance":3689,"transit":false,"line":1,"i_long":107.093313,"time":4,"i_lat":-6.262938,"station_id":"TLM"},{"transit":false,"i_long":107.083084,"line":1,"time":2,"i_lat":-6.261877,"station_id":"CIT","distance":2800,"is_transit":false,"station_name":"Cibitung"},{"station_name":"Tambun","transit":false,"station_id":"TB","i_lat":-6.258864,"line":1,"i_long":107.055722,"is_transit":false,"distance":3420,"time":3},{"is_transit":false,"station_name":"Bekasi Timur","time":7,"distance":4460,"i_long":107.016735,"line":1,"transit":false,"i_lat":-6.248029,"station_id":"BKST"},{"is_transit":false,"station_id":"BKS","distance":2368,"transit":false,"i_lat":-6.236616,"i_long":106.997013,"time":2,"line":1,"station_name":"Bekasi"},{"station_id":"KRI","station_name":"Kranji","time":4,"distance":2520,"i_lat":-6.224515,"line":1,"is_transit":false,"transit":false,"i_long":106.977657},{"station_id":"CUK","i_long":106.951283,"distance":3097,"transit":false,"is_transit":false,"time":3,"station_name":"Cakung","i_lat":-6.219053,"line":1},{"time":8,"station_id":"KLDB","line":1,"transit":false,"is_transit":false,"station_name":"Klenderbaru","i_lat":-6.217455,"distance":1385,"i_long":106.939679},{"distance":1305,"station_id":"BUA","station_name":"Buaran","transit":false,"is_transit":false,"i_lat":-6.215568,"i_long":106.922662,"time":1,"line":1},{"line":1,"i_lat":-6.2135,"is_transit":false,"distance":3100,"station_id":"KLD","transit":false,"station_name":"Klender","time":2,"i_long":106.899548},{"station_id":"JNG","time":3,"station_name":"Jatinegara","i_lat":-6.215091,"line":1,"i_long":106.86807400000001,"is_transit":false,"transit":false,"distance":3395},{"i_lat":-6.212485,"i_long":106.858896,"station_name":"Matraman","is_transit":false,"station_id":"MTR","distance":1377,"line":1,"time":2,"transit":false},{"i_long":106.84912,"is_transit":false,"line":2,"transit":false,"station_id":"MRI","station_name":"Manggarai","time":2,"distance":1275,"i_lat":-6.209883},{"is_transit":false,"distance":3186,"station_name":"Sudirman","i_long":106.822649,"line":1,"transit":false,"i_lat":-6.202263,"time":4,"station_id":"SUD"},{"time":1,"is_transit":false,"line":1,"transit":false,"i_lat":-6.201433,"station_id":"SUDB","i_long":106.819881,"distance":280,"station_name":"Sudirman Baru"},{"i_lat":-6.20132,"distance":471,"station_name":"Karet","i_long":106.816351,"line":1,"time":1,"station_id":"KAT","is_transit":false,"transit":false},{"is_transit":false,"time":5,"i_long":106.811091,"transit":false,"distance":2029,"i_lat":-6.185545,"station_name":"Tanah Abang","station_id":"THB","line":1},{"i_long":106.800832,"station_id":"DU","is_transit":false,"time":8,"distance":3632,"station_name":"Duri","transit":false,"i_lat":-6.155215,"line":1},{"i_long":106.79867,"is_transit":false,"station_id":"AK","distance":1230,"station_name":"Angke","transit":false,"line":1,"time":4,"i_lat":-6.144674},{"station_name":"Kampung Bandan","distance":4102,"time":9,"i_long":106.826365,"transit":true,"is_transit":true,"i_lat":-6.132549,"line":4,"station_id":"KPB"},{"station_id":"JAKK","time":3,"transit":true,"is_transit":true,"i_long":106.812439,"distance":1364,"i_lat":-6.137569,"line":2,"station_name":"Jakarta Kota"},{"line":2,"i_long":106.820901,"is_transit":false,"time":4,"distance":1264,"station_name":"Jayakarta","transit":false,"station_id":"JAY","i_lat":-6.141205},{"line":2,"time":2,"distance":1080,"station_name":"Manggabesar","transit":false,"is_transit":false,"station_id":"MGB","i_lat":-6.149769,"i_long":106.82482},{"station_name":"Sawah Besar","is_transit":false,"station_id":"SW","distance":906,"i_lat":-6.160725,"i_long":106.827103,"line":2,"time":2,"transit":false}],[{"line":1,"station_id":"CKR","i_lat":-6.2553149999999995,"distance":0,"station_name":"Cikarang","i_long":107.144613,"time":0,"is_transit":false,"transit":false},{"station_id":"TLM","time":4,"transit":false,"distance":3689,"i_lat":-6.262938,"i_long":107.093313,"station_name":"Metland Telaga Murni","line":1,"is_transit":false},{"station_name":"Cibitung","i_long":107.083084,"line":1,"distance":2800,"transit":false,"is_transit":false,"station_id":"CIT","time":2,"i_lat":-6.261877},{"line":1,"station_id":"TB","distance":3420,"is_transit":false,"i_lat":-6.258864,"time":3,"transit":false,"station_name":"Tambun","i_long":107.055722},{"is_transit":false,"station_name":"Bekasi Timur","station_id":"BKST","i_lat":-6.248029,"line":1,"transit":false,"time":7,"distance":4460,"i_long":107.016735},{"station_name":"Bekasi","i_lat":-6.236616,"i_long":106.997013,"line":1,"distance":2368,"transit":false,"station_id":"BKS","time":2,"is_transit":false},{"i_lat":-6.224515,"transit":false,"station_id":"KRI","distance":2520,"time":4,"is_transit":false,"station_name":"Kranji","line":1,"i_long":106.977657},{"station_name":"Cakung","i_lat":-6.219053,"distance":3097,"station_id":"CUK","is_transit":false,"line":1,"i_long":106.951283,"time":3,"transit":false},{"i_lat":-6.217455,"transit":false,"line":1,"station_name":"Klenderbaru","i_long":106.939679,"station_id":"KLDB","distance":1385,"time":8,"is_transit":false},{"transit":false,"distance":1305,"line":1,"station_id":"BUA","time":1,"is_transit":false,"i_lat":-6.215568,"i_long":106.922662,"station_name":"Buaran"},{"line":1,"time":2,"station_name":"Klender","transit":false,"is_transit":false,"i_lat":-6.2135,"station_id":"KLD","distance":3100,"i_long":106.899548},{"distance":3395,"is_transit":true,"i_lat":-6.215091,"line":1,"station_name":"Jatinegara","i_long":106.86807400000001,"time":3,"station_id":"JNG","transit":true},{"i_long":106.861737,"time":2,"transit":false,"station_name":"Pondok Jati","is_transit":false,"station_id":"POK","distance":1236,"i_lat":-6.209188,"line":11},{"line":11,"i_lat":-6.193792,"station_id":"KMT","distance":1829,"is_transit":false,"transit":false,"station_name":"Kramat","time":2,"i_long":106.855437},{"i_lat":-6.185975,"station_id":"GST","time":1,"line":11,"transit":false,"i_long":106.850107,"is_transit":false,"station_name":"Gang Sentiong","distance":973},{"time":8,"i_long":106.84368,"is_transit":false,"station_id":"PSE","station_name":"Pasar Senen","transit":false,"line":11,"distance":1567,"i_lat":-6.174784},{"station_name":"Kemayoran","transit":false,"line":11,"i_long":106.839204,"is_transit":false,"time":4,"station_id":"KMO","distance":1436,"i_lat":-6.161728},{"station_name":"Rajawali","i_long":106.836569,"line":11,"is_transit":false,"station_id":"RJW","transit":false,"i_lat":-6.14505,"time":5,"distance":1901},{"distance":1444,"i_lat":-6.132549,"line":4,"time":3,"transit":true,"i_long":106.826365,"is_transit":true,"station_name":"Kampung Bandan","station_id":"KPB"},{"i_lat":-6.144674,"line":1,"i_long":106.79867,"station_id":"AK","distance":4102,"time":9,"station_name":"Angke","is_transit":false,"transit":false},{"time":4,"i_long":106.800832,"line":1,"is_transit":false,"station_name":"Duri","transit":false,"station_id":"DU","distance":1230,"i_lat":-6.155215},{"distance":3632,"station_id":"THB","station_name":"Tanah Abang","time":8,"transit":false,"i_long":106.811091,"is_transit":false,"i_lat":-6.185545,"line":1},{"transit":false,"station_name":"Karet","distance":2029,"is_transit":false,"time":5,"station_id":"KAT","i_long":106.816351,"i_lat":-6.20132,"line":1},{"i_long":106.819881,"station_id":"SUDB","time":1,"transit":false,"is_transit":false,"distance":471,"station_name":"Sudirman Baru","i_lat":-6.201433,"line":1},{"time":1,"is_transit":false,"transit":false,"line":1,"station_name":"Sudirman","station_id":"SUD","i_lat":-6.202263,"i_long":106.822649,"distance":280},{"i_lat":-6.209883,"line":2,"distance":3186,"station_id":"MRI","i_long":106.84912,"time":4,"is_transit":true,"station_name":"Manggarai","transit":true},{"is_transit":false,"i_lat":-6.198556,"line":2,"distance":1590,"transit":false,"i_long":106.840169,"station_name":"Cikini","station_id":"CKI","time":4},{"time":3,"station_id":"GDD","station_name":"Gondangdia","i_long":106.832183,"is_transit":false,"transit":false,"line":2,"i_lat":-6.186295,"distance":1750},{"time":4,"transit":false,"station_name":"Juanda","is_transit":false,"station_id":"JUA","i_lat":-6.166716,"i_long":106.828284,"line":2,"distance":2015},{"distance":1149,"station_name":"Sawah Besar","i_lat":-6.160725,"is_transit":false,"station_id":"SW","time":2,"transit":false,"i_long":106.827103,"line":2}]]}