{"data":[[{"transit":false,"is_transit":false,"distance":0,"i_long":107.144613,"time":0,"i_lat":-6.2553149999999995,"line":0,"station_name":"Cikarang","station_id":"CKR"},{"distance":3689,"i_long":107.093313,"time":4,"i_lat":-6.262938,"station_id":"TLM","line":1,"is_transit":false,"station_name":"Metland Telaga Murni","transit":false},{"station_name":"Cibitung","i_lat":-6.261877,"line":0,"distance":2800,"is_transit":false,"station_id":"CIT","time":2,"transit":false,"i_long":107.083084},{"is_transit":false,"distance":3420,"station_name":"Tambun","transit":false,"line":1,"time":3,"i_lat":-6.258864,"i_long":107.055722,"station_id":"TB"},{"station_name":"Bekasi Timur","station_id":"BKST","distance":4460,"i_lat":-6.248029,"transit":false,"is_transit":false,"time":7,"line":0,"i_long":107.016735},{"station_id":"BKS","transit":false,"distance":2368,"station_name":"Bekasi","is_transit":false,"i_long":106.997013,"i_lat":-6.236616,"time":2,"line":0},{"transit":false,"i_long":106.977657,"distance":2520,"station_name":"Kranji","is_transit":false,"i_lat":-6.224515,"line":1,"station_id":"KRI","time":4},{"i_long":106.951283,"time":3,"line":0,"station_name":"Cakung","station_id":"CUK","is_transit":false,"transit":false,"distance":3097,"i_lat":-6.219053},{"station_id":"KLDB","time":8,"line":1,"transit":false,"distance":1385,"i_lat":-6.217455,"i_long":106.939679,"station_name":"Klenderbaru","is_transit":false},{"distance":1305,"is_transit":false,"transit":false,"i_long":106.922662,"station_id":"BUA","i_lat":-6.215568,"time":1,"station_name":"Buaran","line":0},{"i_long":106.899548,"time":2,"station_name":"Klender","distance":3100,"line":1,"is_transit":false,"transit":false,"i_lat":-6.2135,"station_id":"KLD"},{"transit":false,"distance":3395,"i_lat":-6.215091,"is_transit":true,"station_name":"Jatinegara","time":3,"i_long":106.86807400000001,"station_id":"JNG","line":0},{"i_lat":-6.212485,"station_name":"Matraman","station_id":"MTR","distance":1377,"time":2,"i_long":106.858896,"transit":false,"is_transit":false,"line":1},{"time":2,"i_lat":-6.209883,"line":0,"is_transit":true,"i_long":106.84912,"distance":1275,"station_name":"Manggarai","station_id":"MRI","transit":false},{"transit":false,"time":4,"i_long":106.822649,"is_transit":false,"line":1,"station_id":"SUD","i_lat":-6.202263,"distance":3186,"station_name":"Sudirman"},{"i_long":106.819881,"transit":false,"station_id":"SUDB","i_lat":-6.201433,"line":1,"time":1,"station_name":"Sudirman Baru","is_transit":false,"distance":280},{"time":1,"i_lat":-6.20132,"station_id":"KAT","is_transit":false,"distance":471,"station_name":"Karet","line":1,"i_long":106.816351,"transit":false},{"i_long":106.811091,"station_name":"Tanah Abang","transit":false,"i_lat":-6.185545,"line":1,"station_id":"THB","is_transit":true,"time":5,"distance":2029},{"station_name":"Duri","station_id":"DU","i_lat":-6.155215,"is_transit":true,"i_long":106.800832,"time":8,"transit":false,"distance":3632,"line":1}],[{"is_transit":false,"time":0,"distance":0,"i_long":107.144613,"line":0,"station_id":"CKR","transit":false,"station_name":"Cikarang","i_lat":-6.2553149999999995},{"i_long":107.093313,"line":1,"time":4,"station_name":"Metland Telaga Murni","transit":false,"i_lat":-6.262938,"station_id":"TLM","is_transit":false,"distance":3689},{"i_lat":-6.261877,"i_long":107.083084,"is_transit":false,"transit":false,"distance":2800,"station_id":"CIT","station_name":"Cibitung","time":2,"line":0},{"distance":3420,"transit":false,"line":1,"i_long":107.055722,"is_transit":false,"station_id":"TB","station_name":"Tambun","i_lat":-6.258864,"time":3},{"line":0,"time":7,"station_id":"BKST","i_long":107.016735,"transit":false,"distance":4460,"i_lat":-6.248029,"station_name":"Bekasi Timur","is_transit":false},{"line":0,"distance":2368,"i_long":106.997013,"time":2,"station_id":"BKS","station_name":"Bekasi","transit":false,"is_transit":false,"i_lat":-6.236616},{"i_lat":-6.224515,"station_id":"KRI","transit":false,"line":1,"is_transit":false,"time":4,"i_long":106.977657,"station_name":"Kranji","distance":2520},{"i_lat":-6.219053,"station_id":"CUK","transit":false,"line":0,"time":3,"distance":3097,"is_transit":false,"station_name":"Cakung","i_long":106.951283},{"transit":false,"line":1,"station_name":"Klenderbaru","time":8,"distance":1385,"is_transit":false,"station_id":"KLDB","i_lat":-6.217455,"i_long":106.939679},{"line":0,"station_id":"BUA","transit":false,"i_lat":-6.215568,"is_transit":false,"station_name":"Buaran","time":1,"distance":1305,"i_long":106.922662},{"transit":false,"station_id":"KLD","time":2,"i_long":106.899548,"distance":3100,"i_lat":-6.2135,"is_transit":false,"line":1,"station_name":"Klender"},{"i_long":106.86807400000001,"i_lat":-6.215091,"station_id":"JNG","station_name":"Jatinegara","distance":3395,"line":0,"is_transit":true,"time":3,"transit":true},{"is_transit":false,"station_name":"Pondok Jati","time":2,"station_id":"POK","distance":1236,"line":11,"i_lat":-6.209188,"transit":false,"i_long":106.861737},{"transit":false,"station_id":"KMT","distance":1829,"i_lat":-6.193792,"i_long":106.855437,"time":2,"station_name":"Kramat","is_transit":false,"line":11},{"i_lat":-6.185975,"time":1,"station_id":"GST","transit":false,"line":11,"distance":973,"i_long":106.850107,"is_transit":false,"station_name":"Gang Sentiong"},{"i_lat":-6.174784,"i_long":106.84368,"station_id":"PSE","distance":1567,"transit":false,"station_name":"Pasar Senen","time":8,"is_transit":false,"line":11},{"station_name":"Kemayoran","transit":false,"is_transit":false,"time":4,"i_lat":-6.161728,"station_id":"KMO","distance":1436,"i_long":106.839204,"line":11},{"distance":1901,"transit":false,"time":5,"station_id":"RJW","is_transit":false,"i_lat":-6.14505,"i_long":106.836569,"line":11,"station_name":"Rajawali"},{"station_id":"KPB","line":0,"is_transit":true,"distance":1444,"time":3,"transit":true,"i_long":106.826365,"station_name":"Kampung Bandan","i_lat":-6.132549},{"distance":4102,"line":0,"time":9,"station_id":"AK","station_name":"Angke","i_lat":-6.144674,"i_long":106.79867,"transit":false,"is_transit":false},{"station_id":"DU","transit":false,"is_transit":true,"line":1,"time":4,"station_name":"Duri","distance":1230,"i_lat":-6.155215,"i_long":106.800832}],[{"is_transit":false,"time":0,"station_id":"CKR","distance":0,"line":0,"station_name":"Cikarang","i_long":107.144613,"i_lat":-6.2553149999999995,"transit":false},{"line":1,"station_id":"TLM","transit":false,"distance":3689,"i_lat":-6.262938,"i_long":107.093313,"is_transit":false,"time":4,"station_name":"Metland Telaga Murni"},{"transit":false,"i_lat":-6.261877,"line":0,"i_long":107.083084,"station_id":"CIT","station_name":"Cibitung","time":2,"is_transit":false,"distance":2800},{"station_id":"TB","line":1,"transit":false,"is_transit":false,"i_lat":-6.258864,"time":3,"distance":3420,"station_name":"Tambun","i_long":107.055722},{"station_name":"Bekasi Timur","i_lat":-6.248029,"time":7,"i_long":107.016735,"line":0,"station_id":"BKST","transit":false,"is_transit":false,"distance":4460},{"station_name":"Bekasi","line":0,"station_id":"BKS","time":2,"i_long":106.997013,"transit":false,"is_transit":false,"i_lat":-6.236616,"distance":2368},{"station_id":"KRI","i_lat":-6.224515,"time":4,"transit":false,"distance":2520,"station_name":"Kranji","i_long":106.977657,"is_transit":false,"line":1},{"station_id":"CUK","station_name":"Cakung","transit":false,"is_transit":false,"distance":3097,"i_lat":-6.219053,"i_long":106.951283,"line":0,"time":3},{"station_name":"Klenderbaru","is_transit":false,"transit":false,"line":1,"i_long":106.939679,"station_id":"KLDB","i_lat":-6.217455,"distance":1385,"time":8},{"transit":false,"i_long":106.922662,"is_transit":false,"i_lat":-6.215568,"line":0,"time":1,"distance":1305,"station_id":"BUA","station_name":"Buaran"},{"distance":3100,"transit":false,"i_long":106.899548,"is_transit":false,"station_id":"KLD","i_lat":-6.2135,"line":1,"time":2,"station_name":"Klender"},{"transit":false,"i_lat":-6.215091,"is_transit":true,"line":0,"distance":3395,"station_id":"JNG","i_long":106.86807400000001,"time":3,"station_name":"Jatinegara"},{"distance":1377,"time":2,"line":1,"station_id":"MTR","i_lat":-6.212485,"transit":false,"station_name":"Matraman","is_transit":false,"i_long":106.858896},{"i_long":106.84912,"station_id":"MRI","station_name":"Manggarai","transit":true,"line":0,"is_transit":true,"distance":1275,"i_lat":-6.209883,"time":2},{"i_long":106.840169,"transit":false,"station_name":"Cikini","distance":1590,"i_lat":-6.198556,"time":4,"station_id":"CKI","line":0,"is_transit":false},{"line":2,"transit":false,"i_long":106.832183,"distance":1750,"is_transit":false,"time":3,"station_id":"GDD","i_lat":-6.186295,"station_name":"Gondangdia"},{"distance":2015,"time":4,"line":2,"station_name":"Juanda","transit":false,"station_id":"JUA","is_transit":false,"i_long":106.828284,"i_lat":-6.166716},{"is_transit":false,"station_name":"Sawah Besar","distance":1149,"transit":false,"line":2,"i_lat":-6.160725,"time":2,"i_long":106.827103,"station_id":"SW"},{"time":2,"station_name":"Manggabesar","distance":906,"is_transit":false,"transit":false,"i_lat":-6.149769,"line":2,"station_id":"MGB","i_long":106.82482},{"line":7,"station_name":"Jayakarta","time":2,"i_long":106.820901,"station_id":"JAY","transit":false,"is_transit":false,"distance":1080,"i_lat":-6.141205},{"line":0,"station_name":"Jakarta Kota","transit":true,"station_id":"JAKK","is_transit":true,"time":4,"distance":1264,"i_lat":-6.137569,"i_long":106.812439},{"line":0,"i_lat":-6.132549,"station_id":"KPB","station_name":"Kampung Bandan","transit":false,"is_transit":true,"distance":1364,"i_long":106.826365,"time":3},{"distance":4102,"station_id":"AK","is_transit":false,"i_long":106.79867,"time":9,"transit":false,"i_lat":-6.144674,"line":0,"station_name":"Angke"},{"station_id":"DU","time":4,"distance":1230,"is_transit":true,"line":1,"i_lat":-6.155215,"transit":false,"i_long":106.800832,"station_name":"Duri"}],[{"line":0,"station_name":"Cikarang","i_lat":-6.2553149999999995,"i_long":107.144613,"is_transit":false,"time":0,"distance":0,"transit":false,"station_id":"CKR"},{"distance":3689,"i_lat":-6.262938,"station_id":"TLM","time":4,"line":1,"transit":false,"is_transit":false,"i_long":107.093313,"station_name":"Metland Telaga Murni"},{"station_name":"Cibitung","station_id":"CIT","distance":2800,"i_lat":-6.261877,"i_long":107.083084,"line":0,"is_transit":false,"time":2,"transit":false},{"station_name":"Tambun","i_lat":-6.258864,"distance":3420,"transit":false,"time":3,"i_long":107.055722,"station_id":"TB","line":1,"is_transit":false},{"i_lat":-6.248029,"i_long":107.016735,"line":0,"station_id":"BKST","transit":false,"station_name":"Bekasi Timur","is_transit":false,"time":7,"distance":4460},{"distance":2368,"line":0,"i_lat":-6.236616,"station_name":"Bekasi","i_long":106.997013,"is_transit":false,"station_id":"BKS","time":2,"transit":false},{"distance":2520,"transit":false,"i_lat":-6.224515,"time":4,"i_long":106.977657,"station_id":"KRI","is_transit":false,"station_name":"Kranji","line":1},{"transit":false,"time":3,"i_lat":-6.219053,"station_name":"Cakung","station_id":"CUK","distance":3097,"line":0,"is_transit":false,"i_long":106.951283},{"transit":false,"is_transit":false,"station_name":"Klenderbaru","distance":1385,"time":8,"i_lat":-6.217455,"station_id":"KLDB","i_long":106.939679,"line":1},{"time":1,"i_lat":-6.215568,"distance":1305,"is_transit":false,"i_long":106.922662,"line":0,"transit":false,"station_id":"BUA","station_name":"Buaran"},{"transit":false,"distance":3100,"is_transit":false,"line":1,"station_id":"KLD","i_long":106.899548,"time":2,"station_name":"Klender","i_lat":-6.2135},{"line":0,"station_id":"JNG","i_long":106.86807400000001,"transit":true,"distance":3395,"station_name":"Jatinegara","i_lat":-6.215091,"is_transit":true,"time":3},{"is_transit":false,"time":2,"transit":false,"i_lat":-6.209188,"i_long":106.861737,"line":11,"distance":1236,"station_name":"Pondok Jati","station_id":"POK"},{"time":2,"i_lat":-6.193792,"is_transit":false,"transit":false,"i_long":106.855437,"distance":1829,"station_id":"KMT","station_name":"Kramat","line":11},{"i_long":106.850107,"station_name":"Gang Sentiong","distance":973,"transit":false,"line":11,"time":1,"is_transit":false,"i_lat":-6.185975,"station_id":"GST"},{"distance":1567,"station_id":"PSE","is_transit":false,"line":11,"i_long":106.84368,"station_name":"Pasar Senen","transit":false,"i_lat":-6.174784,"time":8},{"station_name":"Kemayoran","station_id":"KMO","is_transit":false,"i_long":106.839204,"transit":false,"time":4,"distance":1436,"i_lat":-6.161728,"line":11},{"i_long":106.836569,"distance":1901,"transit":false,"station_name":"Rajawali","station_id":"RJW","time":5,"is_transit":false,"i_lat":-6.14505,"line":11},{"station_name":"Kampung Bandan","transit":true,"i_lat":-6.132549,"station_id":"KPB","i_long":106.826365,"is_transit":true,"time":3,"distance":1444,"line":0},{"distance":1364,"is_transit":true,"station_name":"Jakarta Kota","i_lat":-6.137569,"i_long":106.812439,"time":3,"station_id":"JAKK","line":0,"transit":true},{"is_transit":false,"i_long":106.820901,"distance":1264,"transit":false,"time":4,"station_id":"JAY","station_name":"Jayakarta","i_lat":-6.141205,"line":7},{"distance":1080,"i_long":106.82482,"station_name":"Manggabesar","time":2,"i_lat":-6.149769,"station_id":"MGB","transit":false,"is_transit":false,"line":2},{"i_long":106.827103,"line":2,"i_lat":-6.160725,"is_transit":false,"station_name":"Sawah Besar","distance":906,"transit":false,"station_id":"SW","time":2},{"station_id":"JUA","transit":false,"i_long":106.828284,"i_lat":-6.166716,"line":2,"station_name":"Juanda","distance":1149,"time":2,"is_transit":false},{"transit":false,"i_lat":-6.186295,"station_id":"GDD","is_transit":false,"station_name":"Gondangdia","time":4,"distance":2015,"i_long":106.832183,"line":2},{"line":0,"distance":1750,"transit":false,"i_lat":-6.198556,"is_transit":false,"station_name":"Cikini","i_long":106.840169,"station_id":"CKI","time":3},{"distance":1590,"station_name":"Manggarai","is_transit":true,"station_id":"MRI","transit":true,"line":0,"i_lat":-6.209883,"time":4,"i_long":106.84912},{"line":1,"distance":3186,"i_lat":-6.202263,"transit":false,"is_transit":false,"time":4,"station_id":"SUD","i_long":106.822649,"station_name":"Sudirman"},{"transit":false,"line":1,"distance":280,"time":1,"station_id":"SUDB","station_name":"Sudirman Baru","i_lat":-6.201433,"is_transit":false,"i_long":106.819881},{"station_id":"KAT","time":1,"line":1,"station_name":"Karet","transit":false,"is_transit":false,"i_lat":-6.20132,"i_long":106.816351,"distance":471},{"time":5,"distance":2029,"station_name":"Tanah Abang","transit":false,"i_lat":-6.185545,"station_id":"THB","i_long":106.811091,"line":1,"is_transit":true},{"time":8,"distance":3632,"transit":false,"i_lat":-6.155215,"line":1,"station_name":"Duri","is_transit":true,"i_long":106.800832,"station_id":"DU"}]]}