{"data":[[{"station_id":"CKR","transit":false,"distance":0,"line":1,"i_lat":-6.2553149999999995,"station_name":"Cikarang","is_transit":false,"time":0,"i_long":107.144613},{"i_lat":-6.262938,"station_name":"Metland Telaga Murni","line":1,"i_long":107.093313,"transit":false,"time":4,"is_transit":false,"distance":3689,"station_id":"TLM"},{"line":1,"station_id":"CIT","transit":false,"distance":2800,"i_lat":-6.261877,"i_long":107.083084,"station_name":"Cibitung","time":2,"is_transit":false},{"transit":false,"is_transit":false,"time":3,"station_name":"Tambun","distance":3420,"i_lat":-6.258864,"line":1,"i_long":107.055722,"station_id":"TB"},{"time":7,"distance":4460,"station_name":"Bekasi Timur","i_lat":-6.248029,"i_long":107.016735,"line":1,"transit":false,"station_id":"BKST","is_transit":false},{"i_lat":-6.236616,"line":1,"transit":false,"station_name":"Bekasi","station_id":"BKS","i_long":106.997013,"time":2,"distance":2368,"is_transit":false},{"is_transit":false,"distance":2520,"transit":false,"station_name":"Kranji","i_lat":-6.224515,"time":4,"line":1,"station_id":"KRI","i_long":106.977657},{"station_id":"CUK","line":1,"transit":false,"time":3,"i_long":106.951283,"station_name":"Cakung","is_transit":false,"distance":3097,"i_lat":-6.219053},{"i_long":106.939679,"line":1,"time":8,"is_transit":false,"station_name":"Klenderbaru","i_lat":-6.217455,"transit":false,"distance":1385,"station_id":"KLDB"},{"station_id":"BUA","i_lat":-6.215568,"i_long":106.922662,"station_name":"Buaran","line":1,"is_transit":false,"time":1,"transit":false,"distance":1305},{"i_long":106.899548,"transit":false,"station_name":"Klender","distance":3100,"is_transit":false,"station_id":"KLD","line":1,"i_lat":-6.2135,"time":2},{"time":3,"line":1,"distance":3395,"transit":false,"is_transit":false,"station_name":"Jatinegara","i_lat":-6.215091,"station_id":"JNG","i_long":106.86807400000001},{"station_id":"MTR","line":1,"i_lat":-6.212485,"is_transit":false,"time":2,"distance":1377,"i_long":106.858896,"transit":false,"station_name":"Matraman"},{"line":2,"i_lat":-6.209883,"is_transit":true,"distance":1275,"i_long":106.84912,"transit":true,"station_id":"MRI","station_name":"Manggarai","time":2},{"i_long":106.857948,"time":4,"transit":false,"station_name":"Tebet","distance":2610,"i_lat":-6.226659,"line":2,"station_id":"TEB","is_transit":false},{"time":2,"i_lat":-6.242512,"station_id":"CW","line":2,"distance":1230,"transit":false,"i_long":106.856607,"station_name":"Cawang","is_transit":false},{"transit":false,"station_name":"Duren Kalibata","time":3,"distance":1546,"i_lat":-6.255332,"i_long":106.85449,"station_id":"DRN","line":2,"is_transit":false},{"line":2,"station_id":"PSMB","is_transit":false,"distance":824,"transit":false,"station_name":"Pasar Minggu Baru","i_lat":-6.263214,"time":2,"i_long":106.851577},{"distance":2380,"station_name":"Pasar Minggu","transit":false,"station_id":"PSM","is_transit":false,"i_lat":-6.2842400000000005,"line":2,"i_long":106.843999,"time":2},{"station_name":"Tanjung Barat","distance":2820,"station_id":"TNT","is_transit":false,"transit":false,"time":4,"i_lat":-6.3080680000000005,"line":2,"i_long":106.838896},{"time":3,"i_lat":-6.330363,"is_transit":false,"distance":2671,"i_long":106.832616,"line":2,"transit":false,"station_name":"Lenteng Agung","station_id":"LNA"},{"is_transit":false,"transit":false,"time":2,"i_long":106.834175,"station_id":"UP","distance":1029,"line":2,"i_lat":-6.339291,"station_name":"Univ. Pancasila"},{"distance":2264,"i_lat":-6.360749,"transit":false,"station_name":"Univ. Indonesia","station_id":"UI","is_transit":false,"time":3,"i_long":106.831474,"line":2},{"transit":false,"time":2,"station_id":"POC","line":2,"i_long":106.831114,"is_transit":false,"distance":1109,"i_lat":-6.369073,"station_name":"Pondok Cina"},{"i_lat":-6.391065,"station_name":"Depokbaru","transit":false,"time":4,"line":2,"is_transit":false,"distance":2727,"i_long":106.819451,"station_id":"DPB"},{"time":3,"distance":1584,"station_id":"DP","is_transit":false,"i_lat":-6.405256,"i_long":106.816926,"line":2,"station_name":"Depok","transit":false},{"station_name":"Citayam","time":6,"transit":true,"station_id":"CTA","distance":5084,"i_lat":-6.448811,"line":2,"is_transit":true,"i_long":106.800298},{"distance":0,"station_id":"PDRG","transit":false,"is_transit":false,"time":0,"station_name":"Pondok Rajeg","i_lat":-6.460735,"i_long":106.824374,"line":21},{"is_transit":false,"i_lat":-6.46424,"station_name":"Cibinong","i_long":106.851978,"line":21,"transit":false,"station_id":"CBN","time":0,"distance":0}],[{"station_id":"CKR","time":0,"transit":false,"is_transit":false,"i_lat":-6.2553149999999995,"line":1,"distance":0,"i_long":107.144613,"station_name":"Cikarang"},{"station_id":"TLM","station_name":"Metland Telaga Murni","distance":3689,"time":4,"is_transit":false,"i_long":107.093313,"line":1,"i_lat":-6.262938,"transit":false},{"transit":false,"time":2,"station_id":"CIT","distance":2800,"i_long":107.083084,"line":1,"i_lat":-6.261877,"is_transit":false,"station_name":"Cibitung"},{"line":1,"is_transit":false,"i_lat":-6.258864,"station_id":"TB","distance":3420,"station_name":"Tambun","i_long":107.055722,"transit":false,"time":3},{"time":7,"i_lat":-6.248029,"i_long":107.016735,"line":1,"station_id":"BKST","distance":4460,"transit":false,"is_transit":false,"station_name":"Bekasi Timur"},{"station_name":"Bekasi","is_transit":false,"i_lat":-6.236616,"time":2,"station_id":"BKS","i_long":106.997013,"transit":false,"distance":2368,"line":1},{"i_lat":-6.224515,"transit":false,"i_long":106.977657,"distance":2520,"is_transit":false,"station_name":"Kranji","time":4,"line":1,"station_id":"KRI"},{"distance":3097,"is_transit":false,"transit":false,"line":1,"i_lat":-6.219053,"i_long":106.951283,"station_id":"CUK","station_name":"Cakung","time":3},{"station_name":"Klenderbaru","station_id":"KLDB","line":1,"distance":1385,"i_lat":-6.217455,"is_transit":false,"time":8,"transit":false,"i_long":106.939679},{"i_long":106.922662,"line":1,"is_transit":false,"station_name":"Buaran","station_id":"BUA","time":1,"i_lat":-6.215568,"transit":false,"distance":1305},{"distance":3100,"time":2,"i_long":106.899548,"is_transit":false,"line":1,"station_id":"KLD","station_name":"Klender","i_lat":-6.2135,"transit":false},{"station_name":"Jatinegara","i_long":106.86807400000001,"line":1,"transit":true,"distance":3395,"time":3,"is_transit":true,"station_id":"JNG","i_lat":-6.215091},{"transit":false,"line":11,"distance":1236,"time":2,"is_transit":false,"station_id":"POK","i_lat":-6.209188,"i_long":106.861737,"station_name":"Pondok Jati"},{"i_lat":-6.193792,"transit":false,"i_long":106.855437,"station_id":"KMT","line":11,"station_name":"Kramat","is_transit":false,"time":2,"distance":1829},{"i_long":106.850107,"time":1,"station_id":"GST","is_transit":false,"distance":973,"i_lat":-6.185975,"transit":false,"station_name":"Gang Sentiong","line":11},{"i_long":106.84368,"transit":false,"line":11,"distance":1567,"station_name":"Pasar Senen","station_id":"PSE","time":8,"is_transit":false,"i_lat":-6.174784},{"time":4,"station_name":"Kemayoran","station_id":"KMO","is_transit":false,"i_long":106.839204,"transit":false,"i_lat":-6.161728,"line":11,"distance":1436},{"distance":1901,"station_id":"RJW","is_transit":false,"i_lat":-6.14505,"transit":false,"time":5,"i_long":106.836569,"station_name":"Rajawali","line":11},{"station_name":"Kampung Bandan","is_transit":true,"i_lat":-6.132549,"distance":1444,"station_id":"KPB","time":3,"transit":true,"i_long":106.826365,"line":4},{"line":1,"distance":4102,"i_lat":-6.144674,"station_name":"Angke","station_id":"AK","time":9,"transit":false,"is_transit":false,"i_long":106.79867},{"i_long":106.800832,"station_name":"Duri","station_id":"DU","distance":1230,"i_lat":-6.155215,"transit":false,"line":1,"time":4,"is_transit":false},{"is_transit":false,"transit":false,"distance":3632,"i_lat":-6.185545,"station_name":"Tanah Abang","i_long":106.811091,"line":1,"station_id":"THB","time":8},{"transit":false,"is_transit":false,"station_id":"KAT","i_long":106.816351,"time":5,"distance":2029,"i_lat":-6.20132,"station_name":"Karet","line":1},{"station_id":"SUDB","station_name":"Sudirman Baru","transit":false,"i_lat":-6.201433,"time":1,"distance":471,"i_long":106.819881,"line":1,"is_transit":false},{"station_id":"SUD","i_lat":-6.202263,"line":1,"time":1,"i_long":106.822649,"is_transit":false,"station_name":"Sudirman","transit":false,"distance":280},{"time":4,"line":2,"i_lat":-6.209883,"station_id":"MRI","distance":3186,"station_name":"Manggarai","is_transit":true,"transit":true,"i_long":106.84912},{"line":2,"distance":2610,"station_name":"Tebet","time":4,"i_long":106.857948,"station_id":"TEB","transit":false,"i_lat":-6.226659,"is_transit":false},{"i_long":106.856607,"distance":1230,"i_lat":-6.242512,"time":2,"station_name":"Cawang","station_id":"CW","is_transit":false,"line":2,"transit":false},{"time":3,"station_name":"Duren Kalibata","station_id":"DRN","transit":false,"i_long":106.85449,"line":2,"distance":1546,"i_lat":-6.255332,"is_transit":false},{"station_name":"Pasar Minggu Baru","time":2,"transit":false,"distance":824,"line":2,"is_transit":false,"i_lat":-6.263214,"i_long":106.851577,"station_id":"PSMB"},{"time":2,"i_long":106.843999,"transit":false,"distance":2380,"i_lat":-6.2842400000000005,"station_name":"Pasar Minggu","line":2,"is_transit":false,"station_id":"PSM"},{"station_name":"Tanjung Barat","transit":false,"line":2,"i_long":106.838896,"distance":2820,"time":4,"is_transit":false,"station_id":"TNT","i_lat":-6.3080680000000005},{"line":2,"time":3,"station_name":"Lenteng Agung","distance":2671,"transit":false,"i_long":106.832616,"is_transit":false,"station_id":"LNA","i_lat":-6.330363},{"station_id":"UP","line":2,"i_lat":-6.339291,"station_name":"Univ. Pancasila","distance":1029,"is_transit":false,"time":2,"i_long":106.834175,"transit":false},{"i_long":106.831474,"station_id":"UI","i_lat":-6.360749,"station_name":"Univ. Indonesia","distance":2264,"is_transit":false,"time":3,"line":2,"transit":false},{"station_name":"Pondok Cina","station_id":"POC","distance":1109,"i_long":106.831114,"is_transit":false,"i_lat":-6.369073,"line":2,"transit":false,"time":2},{"station_name":"Depokbaru","is_transit":false,"transit":false,"i_lat":-6.391065,"i_long":106.819451,"line":2,"time":4,"distance":2727,"station_id":"DPB"},{"is_transit":false,"i_lat":-6.405256,"line":2,"station_name":"Depok","time":3,"transit":false,"distance":1584,"i_long":106.816926,"station_id":"DP"},{"time":6,"is_transit":true,"line":2,"station_id":"CTA","transit":true,"station_name":"Citayam","distance":5084,"i_long":106.800298,"i_lat":-6.448811},{"station_name":"Pondok Rajeg","i_long":106.824374,"station_id":"PDRG","is_transit":false,"time":0,"distance":0,"i_lat":-6.460735,"line":21,"transit":false},{"i_long":106.851978,"line":21,"i_lat":-6.46424,"time":0,"station_name":"Cibinong","transit":false,"station_id":"CBN","distance":0,"is_transit":false}],[{"i_long":107.144613,"transit":false,"station_id":"CKR","is_transit":false,"i_lat":-6.2553149999999995,"station_name":"Cikarang","line":1,"distance":0,"time":0},{"station_id":"TLM","i_lat":-6.262938,"i_long":107.093313,"distance":3689,"line":1,"transit":false,"is_transit":false,"time":4,"station_name":"Metland Telaga Murni"},{"time":2,"station_name":"Cibitung","line":1,"is_transit":false,"i_lat":-6.261877,"station_id":"CIT","transit":false,"i_long":107.083084,"distance":2800},{"distance":3420,"station_name":"Tambun","time":3,"line":1,"station_id":"TB","transit":false,"i_lat":-6.258864,"i_long":107.055722,"is_transit":false},{"is_transit":false,"i_lat":-6.248029,"transit":false,"i_long":107.016735,"line":1,"station_name":"Bekasi Timur","time":7,"station_id":"BKST","distance":4460},{"station_name":"Bekasi","is_transit":false,"line":1,"transit":false,"time":2,"station_id":"BKS","distance":2368,"i_lat":-6.236616,"i_long":106.997013},{"transit":false,"station_id":"KRI","distance":2520,"i_long":106.977657,"line":1,"is_transit":false,"i_lat":-6.224515,"station_name":"Kranji","time":4},{"time":3,"i_lat":-6.219053,"station_name":"Cakung","distance":3097,"is_transit":false,"i_long":106.951283,"line":1,"station_id":"CUK","transit":false},{"transit":false,"i_long":106.939679,"is_transit":false,"i_lat":-6.217455,"station_id":"KLDB","distance":1385,"line":1,"station_name":"Klenderbaru","time":8},{"transit":false,"i_lat":-6.215568,"time":1,"station_id":"BUA","i_long":106.922662,"station_name":"Buaran","line":1,"distance":1305,"is_transit":false},{"station_name":"Klender","i_long":106.899548,"is_transit":false,"time":2,"line":1,"i_lat":-6.2135,"station_id":"KLD","transit":false,"distance":3100},{"transit":true,"distance":3395,"is_transit":true,"time":3,"i_long":106.86807400000001,"i_lat":-6.215091,"station_name":"Jatinegara","line":1,"station_id":"JNG"},{"line":11,"transit":false,"time":2,"station_name":"Pondok Jati","i_long":106.861737,"station_id":"POK","is_transit":false,"i_lat":-6.209188,"distance":1236},{"station_name":"Kramat","i_lat":-6.193792,"transit":false,"time":2,"distance":1829,"i_long":106.855437,"line":11,"is_transit":false,"station_id":"KMT"},{"station_name":"Gang Sentiong","time":1,"line":11,"i_long":106.850107,"transit":false,"station_id":"GST","is_transit":false,"i_lat":-6.185975,"distance":973},{"transit":false,"station_name":"Pasar Senen","station_id":"PSE","i_long":106.84368,"is_transit":false,"time":8,"distance":1567,"i_lat":-6.174784,"line":11},{"i_long":106.839204,"distance":1436,"time":4,"i_lat":-6.161728,"line":11,"station_id":"KMO","station_name":"Kemayoran","is_transit":false,"transit":false},{"transit":false,"time":5,"station_name":"Rajawali","is_transit":false,"i_lat":-6.14505,"i_long":106.836569,"line":11,"distance":1901,"station_id":"RJW"},{"time":3,"is_transit":true,"i_lat":-6.132549,"line":4,"station_name":"Kampung Bandan","i_long":106.826365,"station_id":"KPB","distance":1444,"transit":true},{"station_id":"JAKK","distance":1364,"is_transit":true,"i_lat":-6.137569,"i_long":106.812439,"station_name":"Jakarta Kota","line":2,"transit":true,"time":3},{"i_long":106.820901,"station_name":"Jayakarta","transit":false,"station_id":"JAY","line":2,"time":4,"distance":1264,"i_lat":-6.141205,"is_transit":false},{"station_id":"MGB","station_name":"Manggabesar","time":2,"is_transit":false,"transit":false,"line":2,"distance":1080,"i_long":106.82482,"i_lat":-6.149769},{"i_long":106.827103,"station_name":"Sawah Besar","line":2,"distance":906,"i_lat":-6.160725,"time":2,"station_id":"SW","is_transit":false,"transit":false},{"station_name":"Juanda","line":2,"is_transit":false,"distance":1149,"i_long":106.828284,"time":2,"station_id":"JUA","transit":false,"i_lat":-6.166716},{"station_name":"Gondangdia","transit":false,"station_id":"GDD","i_long":106.832183,"i_lat":-6.186295,"time":4,"distance":2015,"line":2,"is_transit":false},{"station_name":"Cikini","is_transit":false,"i_lat":-6.198556,"i_long":106.840169,"distance":1750,"line":2,"transit":false,"time":3,"station_id":"CKI"},{"i_long":106.84912,"transit":false,"time":4,"line":2,"distance":1590,"is_transit":false,"station_name":"Manggarai","station_id":"MRI","i_lat":-6.209883},{"station_name":"Tebet","time":4,"station_id":"TEB","i_lat":-6.226659,"i_long":106.857948,"distance":2610,"transit":false,"is_transit":false,"line":2},{"station_id":"CW","station_name":"Cawang","i_lat":-6.242512,"distance":1230,"i_long":106.856607,"transit":false,"line":2,"time":2,"is_transit":false},{"time":3,"distance":1546,"station_id":"DRN","line":2,"transit":false,"i_lat":-6.255332,"i_long":106.85449,"station_name":"Duren Kalibata","is_transit":false},{"station_name":"Pasar Minggu Baru","station_id":"PSMB","line":2,"transit":false,"distance":824,"is_transit":false,"i_long":106.851577,"time":2,"i_lat":-6.263214},{"i_lat":-6.2842400000000005,"i_long":106.843999,"line":2,"station_name":"Pasar Minggu","time":2,"station_id":"PSM","distance":2380,"is_transit":false,"transit":false},{"i_lat":-6.3080680000000005,"line":2,"is_transit":false,"station_id":"TNT","i_long":106.838896,"transit":false,"distance":2820,"time":4,"station_name":"Tanjung Barat"},{"transit":false,"station_id":"LNA","i_long":106.832616,"station_name":"Lenteng Agung","time":3,"distance":2671,"is_transit":false,"i_lat":-6.330363,"line":2},{"station_name":"Univ. Pancasila","time":2,"station_id":"UP","i_long":106.834175,"transit":false,"distance":1029,"is_transit":false,"i_lat":-6.339291,"line":2},{"distance":2264,"i_lat":-6.360749,"i_long":106.831474,"transit":false,"station_name":"Univ. Indonesia","station_id":"UI","is_transit":false,"line":2,"time":3},{"time":2,"station_id":"POC","transit":false,"distance":1109,"i_lat":-6.369073,"line":2,"station_name":"Pondok Cina","is_transit":false,"i_long":106.831114},{"distance":2727,"time":4,"is_transit":false,"i_long":106.819451,"line":2,"station_id":"DPB","i_lat":-6.391065,"transit":false,"station_name":"Depokbaru"},{"time":3,"transit":false,"is_transit":false,"i_lat":-6.405256,"station_name":"Depok","distance":1584,"line":2,"station_id":"DP","i_long":106.816926},{"is_transit":true,"transit":true,"line":2,"station_id":"CTA","distance":5084,"station_name":"Citayam","i_lat":-6.448811,"time":6,"i_long":106.800298},{"transit":false,"line":21,"distance":0,"time":0,"i_lat":-6.460735,"i_long":106.824374,"is_transit":false,"station_id":"PDRG","station_name":"Pondok Rajeg"},{"station_id":"CBN","distance":0,"station_name":"Cibinong","i_long":106.851978,"is_transit":false,"line":21,"transit":false,"i_lat":-6.46424,"time":0}]]}