{"data":[[{"transit":false,"station_name":"Cikarang","is_transit":false,"station_id":"CKR","time":0,"distance":0,"i_long":107.144613,"line":1,"i_lat":-6.2553149999999995},{"distance":3689,"i_lat":-6.262938,"i_long":107.093313,"station_id":"TLM","line":1,"is_transit":false,"transit":false,"station_name":"Metland Telaga Murni","time":4},{"line":1,"station_id":"CIT","station_name":"Cibitung","i_long":107.083084,"distance":2800,"transit":false,"is_transit":false,"time":2,"i_lat":-6.261877},{"transit":false,"distance":3420,"station_id":"TB","is_transit":false,"time":3,"station_name":"Tambun","i_lat":-6.258864,"i_long":107.055722,"line":1},{"is_transit":false,"i_lat":-6.248029,"station_name":"Bekasi Timur","time":7,"line":1,"station_id":"BKST","transit":false,"distance":4460,"i_long":107.016735},{"station_name":"Bekasi","transit":false,"is_transit":false,"i_long":106.997013,"time":2,"i_lat":-6.236616,"line":1,"distance":2368,"station_id":"BKS"},{"is_transit":false,"transit":false,"i_long":106.977657,"station_id":"KRI","line":1,"distance":2520,"i_lat":-6.224515,"time":4,"station_name":"Kranji"},{"station_id":"CUK","line":1,"i_lat":-6.219053,"distance":3097,"transit":false,"station_name":"Cakung","i_long":106.951283,"is_transit":false,"time":3},{"transit":false,"is_transit":false,"station_id":"KLDB","distance":1385,"line":1,"time":8,"station_name":"Klenderbaru","i_lat":-6.217455,"i_long":106.939679},{"time":1,"i_long":106.922662,"distance":1305,"line":1,"station_name":"Buaran","i_lat":-6.215568,"transit":false,"is_transit":false,"station_id":"BUA"},{"i_lat":-6.2135,"station_id":"KLD","transit":false,"station_name":"Klender","distance":3100,"is_transit":false,"i_long":106.899548,"time":2,"line":1},{"is_transit":false,"transit":false,"line":1,"station_id":"JNG","station_name":"Jatinegara","distance":3395,"i_lat":-6.215091,"i_long":106.86807400000001,"time":3},{"station_id":"MTR","station_name":"Matraman","i_lat":-6.212485,"i_long":106.858896,"line":1,"is_transit":false,"distance":1377,"transit":false,"time":2},{"station_name":"Manggarai","station_id":"MRI","transit":false,"is_transit":false,"time":2,"distance":1275,"i_lat":-6.209883,"line":2,"i_long":106.84912},{"distance":3186,"station_id":"SUD","time":4,"line":1,"transit":false,"station_name":"Sudirman","is_transit":false,"i_long":106.822649,"i_lat":-6.202263},{"i_long":106.819881,"line":1,"distance":280,"station_name":"Sudirman Baru","transit":false,"is_transit":false,"time":1,"station_id":"SUDB","i_lat":-6.201433},{"station_name":"Karet","transit":false,"is_transit":false,"distance":471,"station_id":"KAT","time":1,"i_lat":-6.20132,"i_long":106.816351,"line":1},{"station_name":"Tanah Abang","is_transit":true,"time":5,"station_id":"THB","i_lat":-6.185545,"i_long":106.811091,"transit":true,"distance":2029,"line":1},{"time":6,"distance":3191,"i_long":106.79689,"line":6,"station_name":"Palmerah","is_transit":false,"station_id":"PLM","transit":false,"i_lat":-6.207404},{"transit":false,"i_long":106.780334,"station_id":"KBY","station_name":"Kebayoran","is_transit":false,"i_lat":-6.237242,"line":6,"distance":3737,"time":7},{"distance":6218,"i_long":106.74273,"station_id":"PDJ","transit":false,"time":8,"line":6,"station_name":"Pondokranji","i_lat":-6.276362,"is_transit":false},{"distance":2179,"transit":false,"time":3,"is_transit":false,"station_name":"Jurangmangu","station_id":"JMU","i_lat":-6.288927,"line":6,"i_long":106.728916},{"distance":1994,"i_long":106.712277,"i_lat":-6.296963,"transit":false,"line":6,"time":4,"station_id":"SDM","is_transit":false,"station_name":"Sudimara"},{"station_id":"RU","is_transit":false,"i_long":106.675475,"time":6,"transit":false,"i_lat":-6.314823,"station_name":"Rawa Buntu","line":6,"distance":4566},{"i_long":106.66566,"time":4,"i_lat":-6.319871,"distance":2413,"transit":false,"station_id":"SRP","is_transit":false,"line":6,"station_name":"Serpong"},{"station_name":"Cisauk","i_lat":-6.32484,"i_long":106.640411,"is_transit":false,"line":3,"transit":false,"time":4,"distance":1784,"station_id":"CSK"},{"i_long":106.617853,"line":3,"transit":false,"time":4,"distance":2519,"is_transit":false,"i_lat":-6.329547,"station_id":"CC","station_name":"Cicayur"}],[{"time":0,"i_lat":-6.2553149999999995,"line":1,"i_long":107.144613,"station_name":"Cikarang","transit":false,"distance":0,"is_transit":false,"station_id":"CKR"},{"transit":false,"station_name":"Metland Telaga Murni","i_long":107.093313,"station_id":"TLM","is_transit":false,"time":4,"i_lat":-6.262938,"line":1,"distance":3689},{"distance":2800,"line":1,"time":2,"i_long":107.083084,"i_lat":-6.261877,"transit":false,"station_name":"Cibitung","station_id":"CIT","is_transit":false},{"is_transit":false,"time":3,"i_lat":-6.258864,"station_id":"TB","distance":3420,"line":1,"i_long":107.055722,"station_name":"Tambun","transit":false},{"time":7,"transit":false,"i_lat":-6.248029,"station_id":"BKST","i_long":107.016735,"distance":4460,"station_name":"Bekasi Timur","line":1,"is_transit":false},{"line":1,"is_transit":false,"distance":2368,"station_id":"BKS","station_name":"Bekasi","time":2,"i_long":106.997013,"transit":false,"i_lat":-6.236616},{"time":4,"station_id":"KRI","distance":2520,"i_long":106.977657,"line":1,"transit":false,"station_name":"Kranji","is_transit":false,"i_lat":-6.224515},{"i_long":106.951283,"station_id":"CUK","time":3,"is_transit":false,"distance":3097,"i_lat":-6.219053,"line":1,"transit":false,"station_name":"Cakung"},{"i_long":106.939679,"transit":false,"line":1,"time":8,"i_lat":-6.217455,"station_name":"Klenderbaru","station_id":"KLDB","is_transit":false,"distance":1385},{"station_id":"BUA","line":1,"distance":1305,"is_transit":false,"i_long":106.922662,"station_name":"Buaran","i_lat":-6.215568,"transit":false,"time":1},{"station_name":"Klender","i_lat":-6.2135,"transit":false,"i_long":106.899548,"line":1,"distance":3100,"time":2,"is_transit":false,"station_id":"KLD"},{"distance":3395,"time":3,"i_lat":-6.215091,"station_name":"Jatinegara","transit":true,"station_id":"JNG","line":1,"is_transit":true,"i_long":106.86807400000001},{"time":2,"i_lat":-6.209188,"i_long":106.861737,"distance":1236,"line":11,"station_name":"Pondok Jati","station_id":"POK","is_transit":false,"transit":false},{"station_id":"KMT","i_long":106.855437,"line":11,"i_lat":-6.193792,"time":2,"station_name":"Kramat","is_transit":false,"distance":1829,"transit":false},{"station_id":"GST","transit":false,"line":11,"i_long":106.850107,"distance":973,"i_lat":-6.185975,"is_transit":false,"station_name":"Gang Sentiong","time":1},{"station_id":"PSE","time":8,"line":11,"is_transit":false,"station_name":"Pasar Senen","transit":false,"distance":1567,"i_lat":-6.174784,"i_long":106.84368},{"line":11,"distance":1436,"i_lat":-6.161728,"transit":false,"is_transit":false,"i_long":106.839204,"station_name":"Kemayoran","station_id":"KMO","time":4},{"line":11,"is_transit":false,"station_id":"RJW","time":5,"i_lat":-6.14505,"i_long":106.836569,"distance":1901,"transit":false,"station_name":"Rajawali"},{"station_id":"KPB","transit":true,"distance":1444,"i_lat":-6.132549,"i_long":106.826365,"station_name":"Kampung Bandan","time":3,"line":4,"is_transit":true},{"time":9,"station_name":"Angke","is_transit":false,"line":1,"i_long":106.79867,"distance":4102,"station_id":"AK","transit":false,"i_lat":-6.144674},{"station_id":"DU","i_lat":-6.155215,"i_long":106.800832,"line":1,"station_name":"Duri","transit":false,"is_transit":false,"time":4,"distance":1230},{"station_name":"Tanah Abang","is_transit":true,"time":8,"station_id":"THB","transit":true,"i_lat":-6.185545,"i_long":106.811091,"line":1,"distance":3632},{"station_name":"Palmerah","i_long":106.79689,"station_id":"PLM","is_transit":false,"time":6,"line":6,"distance":3191,"transit":false,"i_lat":-6.207404},{"transit":false,"is_transit":false,"distance":3737,"station_id":"KBY","station_name":"Kebayoran","i_long":106.780334,"time":7,"line":6,"i_lat":-6.237242},{"station_id":"PDJ","station_name":"Pondokranji","transit":false,"time":8,"i_lat":-6.276362,"is_transit":false,"line":6,"i_long":106.74273,"distance":6218},{"station_id":"JMU","is_transit":false,"station_name":"Jurangmangu","i_long":106.728916,"line":6,"transit":false,"i_lat":-6.288927,"distance":2179,"time":3},{"transit":false,"distance":1994,"station_id":"SDM","station_name":"Sudimara","time":4,"i_lat":-6.296963,"i_long":106.712277,"line":6,"is_transit":false},{"i_long":106.675475,"line":6,"distance":4566,"transit":false,"is_transit":false,"i_lat":-6.314823,"time":6,"station_id":"RU","station_name":"Rawa Buntu"},{"station_id":"SRP","transit":false,"i_lat":-6.319871,"distance":2413,"is_transit":false,"line":6,"time":4,"station_name":"Serpong","i_long":106.66566},{"station_id":"CSK","is_transit":false,"transit":false,"time":4,"station_name":"Cisauk","i_lat":-6.32484,"i_long":106.640411,"line":3,"distance":1784},{"station_name":"Cicayur","transit":false,"is_transit":false,"line":3,"distance":2519,"i_lat":-6.329547,"i_long":106.617853,"station_id":"CC","time":4}],[{"distance":0,"i_lat":-6.2553149999999995,"i_long":107.144613,"is_transit":false,"station_name":"Cikarang","line":1,"transit":false,"time":0,"station_id":"CKR"},{"i_long":107.093313,"line":1,"is_transit":false,"distance":3689,"transit":false,"time":4,"i_lat":-6.262938,"station_id":"TLM","station_name":"Metland Telaga Murni"},{"i_lat":-6.261877,"is_transit":false,"line":1,"transit":false,"time":2,"distance":2800,"station_id":"CIT","i_long":107.083084,"station_name":"Cibitung"},{"i_lat":-6.258864,"station_id":"TB","transit":false,"time":3,"is_transit":false,"distance":3420,"station_name":"Tambun","i_long":107.055722,"line":1},{"transit":false,"time":7,"i_long":107.016735,"line":1,"i_lat":-6.248029,"is_transit":false,"station_name":"Bekasi Timur","station_id":"BKST","distance":4460},{"station_id":"BKS","transit":false,"line":1,"station_name":"Bekasi","i_lat":-6.236616,"time":2,"i_long":106.997013,"is_transit":false,"distance":2368},{"distance":2520,"line":1,"station_name":"Kranji","station_id":"KRI","is_transit":false,"time":4,"transit":false,"i_lat":-6.224515,"i_long":106.977657},{"station_name":"Cakung","line":1,"distance":3097,"station_id":"CUK","is_transit":false,"transit":false,"i_long":106.951283,"time":3,"i_lat":-6.219053},{"is_transit":false,"distance":1385,"station_id":"KLDB","station_name":"Klenderbaru","i_lat":-6.217455,"line":1,"time":8,"transit":false,"i_long":106.939679},{"is_transit":false,"i_lat":-6.215568,"distance":1305,"time":1,"station_name":"Buaran","line":1,"station_id":"BUA","i_long":106.922662,"transit":false},{"transit":false,"station_name":"Klender","line":1,"i_long":106.899548,"time":2,"station_id":"KLD","i_lat":-6.2135,"distance":3100,"is_transit":false},{"time":3,"station_name":"Jatinegara","distance":3395,"transit":false,"is_transit":false,"i_lat":-6.215091,"i_long":106.86807400000001,"station_id":"JNG","line":1},{"transit":false,"distance":1377,"time":2,"i_lat":-6.212485,"line":1,"station_name":"Matraman","station_id":"MTR","is_transit":false,"i_long":106.858896},{"time":2,"station_name":"Manggarai","line":2,"is_transit":true,"distance":1275,"i_lat":-6.209883,"i_long":106.84912,"transit":true,"station_id":"MRI"},{"station_name":"Cikini","distance":1590,"is_transit":false,"time":4,"i_lat":-6.198556,"i_long":106.840169,"station_id":"CKI","line":2,"transit":false},{"station_name":"Gondangdia","time":3,"distance":1750,"i_lat":-6.186295,"i_long":106.832183,"station_id":"GDD","transit":false,"is_transit":false,"line":2},{"station_id":"JUA","i_lat":-6.166716,"distance":2015,"i_long":106.828284,"transit":false,"time":4,"is_transit":false,"line":2,"station_name":"Juanda"},{"station_name":"Sawah Besar","i_long":106.827103,"is_transit":false,"i_lat":-6.160725,"time":2,"station_id":"SW","distance":1149,"line":2,"transit":false},{"transit":false,"distance":906,"is_transit":false,"i_lat":-6.149769,"time":2,"station_name":"Manggabesar","line":2,"station_id":"MGB","i_long":106.82482},{"distance":1080,"i_lat":-6.141205,"transit":false,"is_transit":false,"station_id":"JAY","station_name":"Jayakarta","line":2,"i_long":106.820901,"time":2},{"distance":1264,"station_id":"JAKK","i_lat":-6.137569,"transit":true,"station_name":"Jakarta Kota","is_transit":true,"time":4,"line":2,"i_long":106.812439},{"station_name":"Kampung Bandan","time":3,"transit":true,"line":4,"station_id":"KPB","is_transit":true,"i_lat":-6.132549,"i_long":106.826365,"distance":1364},{"time":9,"i_lat":-6.144674,"station_name":"Angke","station_id":"AK","is_transit":false,"distance":4102,"line":1,"transit":false,"i_long":106.79867},{"is_transit":false,"i_lat":-6.155215,"transit":false,"station_id":"DU","time":4,"station_name":"Duri","i_long":106.800832,"line":1,"distance":1230},{"station_id":"THB","i_long":106.811091,"time":8,"line":1,"transit":true,"is_transit":true,"distance":3632,"station_name":"Tanah Abang","i_lat":-6.185545},{"time":6,"transit":false,"i_long":106.79689,"station_name":"Palmerah","line":6,"station_id":"PLM","is_transit":false,"i_lat":-6.207404,"distance":3191},{"is_transit":false,"station_name":"Kebayoran","line":6,"time":7,"distance":3737,"transit":false,"i_lat":-6.237242,"station_id":"KBY","i_long":106.780334},{"time":8,"line":6,"distance":6218,"transit":false,"is_transit":false,"station_name":"Pondokranji","i_lat":-6.276362,"i_long":106.74273,"station_id":"PDJ"},{"station_name":"Jurangmangu","time":3,"i_lat":-6.288927,"distance":2179,"station_id":"JMU","i_long":106.728916,"is_transit":false,"line":6,"transit":false},{"distance":1994,"i_long":106.712277,"line":6,"transit":false,"is_transit":false,"station_id":"SDM","i_lat":-6.296963,"station_name":"Sudimara","time":4},{"distance":4566,"i_lat":-6.314823,"station_name":"Rawa Buntu","line":6,"i_long":106.675475,"station_id":"RU","is_transit":false,"transit":false,"time":6},{"i_lat":-6.319871,"line":6,"transit":false,"is_transit":false,"time":4,"station_id":"SRP","i_long":106.66566,"distance":2413,"station_name":"Serpong"},{"station_id":"CSK","station_name":"Cisauk","line":3,"time":4,"i_long":106.640411,"distance":1784,"is_transit":false,"transit":false,"i_lat":-6.32484},{"transit":false,"station_name":"Cicayur","station_id":"CC","is_transit":false,"time":4,"line":3,"distance":2519,"i_lat":-6.329547,"i_long":106.617853}],[{"i_lat":-6.2553149999999995,"transit":false,"i_long":107.144613,"distance":0,"station_id":"CKR","station_name":"Cikarang","is_transit":false,"line":1,"time":0},{"station_id":"TLM","is_transit":false,"station_name":"Metland Telaga Murni","time":4,"i_lat":-6.262938,"i_long":107.093313,"distance":3689,"transit":false,"line":1},{"i_long":107.083084,"line":1,"is_transit":false,"time":2,"station_name":"Cibitung","transit":false,"station_id":"CIT","i_lat":-6.261877,"distance":2800},{"station_name":"Tambun","distance":3420,"is_transit":false,"i_lat":-6.258864,"time":3,"transit":false,"i_long":107.055722,"line":1,"station_id":"TB"},{"distance":4460,"is_transit":false,"i_long":107.016735,"station_id":"BKST","transit":false,"time":7,"station_name":"Bekasi Timur","line":1,"i_lat":-6.248029},{"time":2,"i_lat":-6.236616,"line":1,"transit":false,"station_id":"BKS","distance":2368,"is_transit":false,"i_long":106.997013,"station_name":"Bekasi"},{"distance":2520,"station_id":"KRI","is_transit":false,"line":1,"time":4,"transit":false,"i_long":106.977657,"station_name":"Kranji","i_lat":-6.224515},{"i_lat":-6.219053,"time":3,"station_name":"Cakung","transit":false,"is_transit":false,"distance":3097,"line":1,"station_id":"CUK","i_long":106.951283},{"i_long":106.939679,"is_transit":false,"station_id":"KLDB","transit":false,"distance":1385,"i_lat":-6.217455,"time":8,"line":1,"station_name":"Klenderbaru"},{"transit":false,"line":1,"i_long":106.922662,"station_id":"BUA","distance":1305,"station_name":"Buaran","time":1,"is_transit":false,"i_lat":-6.215568},{"i_lat":-6.2135,"station_name":"Klender","line":1,"i_long":106.899548,"is_transit":false,"transit":false,"distance":3100,"station_id":"KLD","time":2},{"station_id":"JNG","station_name":"Jatinegara","i_lat":-6.215091,"i_long":106.86807400000001,"line":1,"is_transit":true,"transit":true,"time":3,"distance":3395},{"station_name":"Pondok Jati","station_id":"POK","i_lat":-6.209188,"i_long":106.861737,"time":2,"distance":1236,"transit":false,"is_transit":false,"line":11},{"is_transit":false,"line":11,"station_name":"Kramat","i_lat":-6.193792,"time":2,"transit":false,"station_id":"KMT","distance":1829,"i_long":106.855437},{"is_transit":false,"line":11,"station_name":"Gang Sentiong","i_long":106.850107,"i_lat":-6.185975,"distance":973,"transit":false,"time":1,"station_id":"GST"},{"line":11,"distance":1567,"time":8,"i_lat":-6.174784,"station_name":"Pasar Senen","i_long":106.84368,"is_transit":false,"station_id":"PSE","transit":false},{"time":4,"transit":false,"station_name":"Kemayoran","i_lat":-6.161728,"line":11,"station_id":"KMO","i_long":106.839204,"is_transit":false,"distance":1436},{"i_long":106.836569,"station_id":"RJW","station_name":"Rajawali","distance":1901,"is_transit":false,"transit":false,"time":5,"line":11,"i_lat":-6.14505},{"distance":1444,"station_name":"Kampung Bandan","time":3,"i_lat":-6.132549,"i_long":106.826365,"line":4,"transit":true,"station_id":"KPB","is_transit":true},{"station_name":"Jakarta Kota","station_id":"JAKK","time":3,"is_transit":true,"i_long":106.812439,"line":2,"distance":1364,"i_lat":-6.137569,"transit":true},{"station_name":"Jayakarta","distance":1264,"time":4,"station_id":"JAY","line":2,"is_transit":false,"i_lat":-6.141205,"i_long":106.820901,"transit":false},{"station_name":"Manggabesar","is_transit":false,"transit":false,"time":2,"i_long":106.82482,"line":2,"distance":1080,"i_lat":-6.149769,"station_id":"MGB"},{"line":2,"i_lat":-6.160725,"distance":906,"time":2,"is_transit":false,"station_id":"SW","i_long":106.827103,"station_name":"Sawah Besar","transit":false},{"is_transit":false,"distance":1149,"station_id":"JUA","line":2,"transit":false,"time":2,"i_long":106.828284,"i_lat":-6.166716,"station_name":"Juanda"},{"is_transit":false,"station_id":"GDD","distance":2015,"i_long":106.832183,"transit":false,"line":2,"time":4,"station_name":"Gondangdia","i_lat":-6.186295},{"transit":false,"station_name":"Cikini","distance":1750,"station_id":"CKI","time":3,"i_lat":-6.198556,"i_long":106.840169,"is_transit":false,"line":2},{"time":4,"station_name":"Manggarai","i_long":106.84912,"i_lat":-6.209883,"line":2,"transit":true,"station_id":"MRI","is_transit":true,"distance":1590},{"transit":false,"is_transit":false,"station_name":"Sudirman","i_lat":-6.202263,"line":1,"distance":3186,"station_id":"SUD","time":4,"i_long":106.822649},{"line":1,"transit":false,"distance":280,"is_transit":false,"station_id":"SUDB","i_lat":-6.201433,"station_name":"Sudirman Baru","i_long":106.819881,"time":1},{"time":1,"line":1,"transit":false,"i_lat":-6.20132,"station_id":"KAT","station_name":"Karet","is_transit":false,"distance":471,"i_long":106.816351},{"is_transit":true,"distance":2029,"station_id":"THB","line":1,"station_name":"Tanah Abang","i_lat":-6.185545,"transit":true,"time":5,"i_long":106.811091},{"i_long":106.79689,"line":6,"time":6,"i_lat":-6.207404,"transit":false,"distance":3191,"station_name":"Palmerah","station_id":"PLM","is_transit":false},{"time":7,"i_long":106.780334,"transit":false,"i_lat":-6.237242,"line":6,"station_id":"KBY","station_name":"Kebayoran","is_transit":false,"distance":3737},{"transit":false,"distance":6218,"is_transit":false,"station_id":"PDJ","i_long":106.74273,"line":6,"time":8,"i_lat":-6.276362,"station_name":"Pondokranji"},{"distance":2179,"station_name":"Jurangmangu","i_long":106.728916,"line":6,"time":3,"i_lat":-6.288927,"station_id":"JMU","is_transit":false,"transit":false},{"time":4,"i_long":106.712277,"station_id":"SDM","line":6,"i_lat":-6.296963,"distance":1994,"station_name":"Sudimara","is_transit":false,"transit":false},{"line":6,"station_name":"Rawa Buntu","station_id":"RU","is_transit":false,"i_lat":-6.314823,"distance":4566,"transit":false,"i_long":106.675475,"time":6},{"i_lat":-6.319871,"station_name":"Serpong","station_id":"SRP","distance":2413,"is_transit":false,"transit":false,"line":6,"time":4,"i_long":106.66566},{"transit":false,"time":4,"i_lat":-6.32484,"line":3,"is_transit":false,"distance":1784,"station_id":"CSK","station_name":"Cisauk","i_long":106.640411},{"i_long":106.617853,"distance":2519,"is_transit":false,"station_id":"CC","transit":false,"time":4,"line":3,"station_name":"Cicayur","i_lat":-6.329547}]]}