{"data":[[{"is_transit":false,"time":0,"i_lat":-6.2553149999999995,"distance":0,"station_name":"Cikarang","transit":false,"i_long":107.144613,"line":1,"station_id":"CKR"},{"is_transit":false,"i_lat":-6.262938,"i_long":107.093313,"line":1,"distance":3689,"transit":false,"time":4,"station_id":"TLM","station_name":"Metland Telaga Murni"},{"distance":2800,"transit":false,"is_transit":false,"time":2,"i_lat":-6.261877,"i_long":107.083084,"station_name":"Cibitung","station_id":"CIT","line":1},{"distance":3420,"time":3,"station_id":"TB","station_name":"Tambun","line":1,"is_transit":false,"transit":false,"i_lat":-6.258864,"i_long":107.055722},{"is_transit":false,"distance":4460,"station_name":"Bekasi Timur","i_lat":-6.248029,"i_long":107.016735,"line":1,"time":7,"station_id":"BKST","transit":false},{"transit":false,"line":1,"i_lat":-6.236616,"is_transit":false,"i_long":106.997013,"station_id":"BKS","time":2,"distance":2368,"station_name":"Bekasi"},{"line":1,"station_id":"KRI","i_long":106.977657,"transit":false,"i_lat":-6.224515,"time":4,"station_name":"Kranji","distance":2520,"is_transit":false},{"time":3,"distance":3097,"line":1,"i_lat":-6.219053,"station_id":"CUK","station_name":"Cakung","i_long":106.951283,"is_transit":false,"transit":false},{"time":8,"station_name":"Klenderbaru","line":1,"distance":1385,"is_transit":false,"transit":false,"station_id":"KLDB","i_lat":-6.217455,"i_long":106.939679},{"distance":1305,"time":1,"transit":false,"line":1,"i_lat":-6.215568,"station_name":"Buaran","i_long":106.922662,"station_id":"BUA","is_transit":false},{"time":2,"distance":3100,"transit":false,"i_long":106.899548,"station_id":"KLD","is_transit":false,"i_lat":-6.2135,"line":1,"station_name":"Klender"},{"is_transit":false,"line":1,"i_lat":-6.215091,"distance":3395,"station_id":"JNG","i_long":106.86807400000001,"station_name":"Jatinegara","time":3,"transit":false},{"station_name":"Matraman","time":2,"distance":1377,"i_lat":-6.212485,"i_long":106.858896,"station_id":"MTR","line":1,"is_transit":false,"transit":false},{"station_id":"MRI","station_name":"Manggarai","i_lat":-6.209883,"i_long":106.84912,"time":2,"is_transit":true,"line":2,"distance":1275,"transit":true},{"station_name":"Tebet","distance":2610,"i_lat":-6.226659,"i_long":106.857948,"time":4,"station_id":"TEB","is_transit":false,"line":2,"transit":false},{"i_lat":-6.242512,"time":2,"station_name":"Cawang","distance":1230,"transit":false,"i_long":106.856607,"station_id":"CW","is_transit":false,"line":2},{"station_name":"Duren Kalibata","transit":false,"station_id":"DRN","is_transit":false,"line":2,"i_long":106.85449,"distance":1546,"time":3,"i_lat":-6.255332},{"time":2,"i_lat":-6.263214,"i_long":106.851577,"distance":824,"transit":false,"line":2,"station_name":"Pasar Minggu Baru","station_id":"PSMB","is_transit":false},{"distance":2380,"line":2,"is_transit":false,"transit":false,"station_name":"Pasar Minggu","time":2,"i_lat":-6.2842400000000005,"i_long":106.843999,"station_id":"PSM"},{"i_long":106.838896,"station_id":"TNT","i_lat":-6.3080680000000005,"line":2,"distance":2820,"station_name":"Tanjung Barat","is_transit":false,"transit":false,"time":4},{"transit":false,"i_lat":-6.330363,"is_transit":false,"time":3,"line":2,"station_id":"LNA","i_long":106.832616,"station_name":"Lenteng Agung","distance":2671},{"transit":false,"i_lat":-6.339291,"i_long":106.834175,"station_name":"Univ. Pancasila","line":2,"time":2,"station_id":"UP","is_transit":false,"distance":1029},{"distance":2264,"station_id":"UI","i_long":106.831474,"is_transit":false,"transit":false,"i_lat":-6.360749,"line":2,"station_name":"Univ. Indonesia","time":3},{"station_name":"Pondok Cina","station_id":"POC","line":2,"i_long":106.831114,"distance":1109,"i_lat":-6.369073,"transit":false,"time":2,"is_transit":false},{"distance":2727,"station_name":"Depokbaru","i_long":106.819451,"i_lat":-6.391065,"time":4,"is_transit":false,"transit":false,"line":2,"station_id":"DPB"},{"time":3,"transit":false,"station_name":"Depok","is_transit":false,"station_id":"DP","distance":1584,"i_long":106.816926,"line":2,"i_lat":-6.405256},{"i_long":106.800298,"is_transit":true,"time":6,"station_id":"CTA","transit":true,"distance":5084,"station_name":"Citayam","i_lat":-6.448811,"line":2},{"transit":false,"time":0,"is_transit":false,"station_name":"Pondok Rajeg","station_id":"PDRG","i_long":106.824374,"line":21,"distance":0,"i_lat":-6.460735},{"is_transit":false,"distance":0,"i_lat":-6.46424,"i_long":106.851978,"time":0,"station_name":"Cibinong","station_id":"CBN","line":21,"transit":false}],[{"is_transit":false,"i_lat":-6.2553149999999995,"distance":0,"station_name":"Cikarang","station_id":"CKR","time":0,"i_long":107.144613,"line":1,"transit":false},{"transit":false,"station_id":"TLM","time":4,"i_lat":-6.262938,"i_long":107.093313,"line":1,"is_transit":false,"station_name":"Metland Telaga Murni","distance":3689},{"station_id":"CIT","time":2,"line":1,"is_transit":false,"distance":2800,"transit":false,"i_lat":-6.261877,"station_name":"Cibitung","i_long":107.083084},{"station_id":"TB","transit":false,"station_name":"Tambun","distance":3420,"time":3,"is_transit":false,"line":1,"i_lat":-6.258864,"i_long":107.055722},{"distance":4460,"time":7,"i_long":107.016735,"line":1,"is_transit":false,"transit":false,"i_lat":-6.248029,"station_name":"Bekasi Timur","station_id":"BKST"},{"station_name":"Bekasi","time":2,"i_lat":-6.236616,"station_id":"BKS","transit":false,"is_transit":false,"distance":2368,"line":1,"i_long":106.997013},{"station_id":"KRI","i_lat":-6.224515,"transit":false,"line":1,"distance":2520,"station_name":"Kranji","is_transit":false,"time":4,"i_long":106.977657},{"i_lat":-6.219053,"line":1,"distance":3097,"time":3,"transit":false,"i_long":106.951283,"station_name":"Cakung","station_id":"CUK","is_transit":false},{"distance":1385,"transit":false,"station_name":"Klenderbaru","time":8,"station_id":"KLDB","line":1,"i_lat":-6.217455,"is_transit":false,"i_long":106.939679},{"i_lat":-6.215568,"station_id":"BUA","distance":1305,"station_name":"Buaran","is_transit":false,"transit":false,"i_long":106.922662,"line":1,"time":1},{"line":1,"transit":false,"station_name":"Klender","station_id":"KLD","time":2,"i_lat":-6.2135,"i_long":106.899548,"distance":3100,"is_transit":false},{"station_name":"Jatinegara","time":3,"is_transit":true,"i_lat":-6.215091,"line":1,"i_long":106.86807400000001,"station_id":"JNG","transit":true,"distance":3395},{"is_transit":false,"transit":false,"i_long":106.861737,"distance":1236,"line":11,"station_id":"POK","station_name":"Pondok Jati","time":2,"i_lat":-6.209188},{"i_lat":-6.193792,"station_name":"Kramat","distance":1829,"line":11,"time":2,"station_id":"KMT","is_transit":false,"transit":false,"i_long":106.855437},{"is_transit":false,"i_long":106.850107,"station_name":"Gang Sentiong","station_id":"GST","time":1,"distance":973,"transit":false,"i_lat":-6.185975,"line":11},{"distance":1567,"station_name":"Pasar Senen","time":8,"i_lat":-6.174784,"station_id":"PSE","is_transit":false,"line":11,"transit":false,"i_long":106.84368},{"distance":1436,"station_id":"KMO","is_transit":false,"time":4,"transit":false,"i_lat":-6.161728,"i_long":106.839204,"line":11,"station_name":"Kemayoran"},{"transit":false,"station_name":"Rajawali","time":5,"i_long":106.836569,"is_transit":false,"distance":1901,"line":11,"i_lat":-6.14505,"station_id":"RJW"},{"station_name":"Kampung Bandan","station_id":"KPB","transit":true,"distance":1444,"is_transit":true,"time":3,"i_long":106.826365,"i_lat":-6.132549,"line":4},{"i_long":106.79867,"station_id":"AK","station_name":"Angke","time":9,"line":1,"is_transit":false,"distance":4102,"transit":false,"i_lat":-6.144674},{"is_transit":false,"station_id":"DU","distance":1230,"transit":false,"station_name":"Duri","i_lat":-6.155215,"time":4,"i_long":106.800832,"line":1},{"i_long":106.811091,"station_name":"Tanah Abang","line":1,"i_lat":-6.185545,"distance":3632,"transit":false,"station_id":"THB","time":8,"is_transit":false},{"transit":false,"distance":2029,"station_id":"KAT","i_lat":-6.20132,"i_long":106.816351,"station_name":"Karet","line":1,"is_transit":false,"time":5},{"distance":471,"station_name":"Sudirman Baru","i_long":106.819881,"transit":false,"time":1,"is_transit":false,"line":1,"station_id":"SUDB","i_lat":-6.201433},{"station_name":"Sudirman","i_long":106.822649,"is_transit":false,"time":1,"station_id":"SUD","distance":280,"line":1,"transit":false,"i_lat":-6.202263},{"i_lat":-6.209883,"i_long":106.84912,"station_id":"MRI","line":2,"is_transit":true,"time":4,"distance":3186,"station_name":"Manggarai","transit":true},{"station_name":"Tebet","station_id":"TEB","i_lat":-6.226659,"is_transit":false,"transit":false,"i_long":106.857948,"line":2,"time":4,"distance":2610},{"transit":false,"station_name":"Cawang","station_id":"CW","i_lat":-6.242512,"line":2,"distance":1230,"time":2,"i_long":106.856607,"is_transit":false},{"is_transit":false,"distance":1546,"station_name":"Duren Kalibata","transit":false,"station_id":"DRN","i_long":106.85449,"line":2,"time":3,"i_lat":-6.255332},{"distance":824,"transit":false,"station_name":"Pasar Minggu Baru","i_lat":-6.263214,"time":2,"is_transit":false,"i_long":106.851577,"line":2,"station_id":"PSMB"},{"i_long":106.843999,"distance":2380,"is_transit":false,"transit":false,"time":2,"i_lat":-6.2842400000000005,"station_name":"Pasar Minggu","station_id":"PSM","line":2},{"transit":false,"i_lat":-6.3080680000000005,"station_name":"Tanjung Barat","is_transit":false,"line":2,"time":4,"station_id":"TNT","i_long":106.838896,"distance":2820},{"i_lat":-6.330363,"time":3,"station_id":"LNA","is_transit":false,"transit":false,"station_name":"Lenteng Agung","distance":2671,"i_long":106.832616,"line":2},{"i_long":106.834175,"distance":1029,"is_transit":false,"i_lat":-6.339291,"station_name":"Univ. Pancasila","station_id":"UP","time":2,"line":2,"transit":false},{"station_name":"Univ. Indonesia","time":3,"is_transit":false,"transit":false,"station_id":"UI","distance":2264,"i_long":106.831474,"i_lat":-6.360749,"line":2},{"is_transit":false,"distance":1109,"station_id":"POC","station_name":"Pondok Cina","line":2,"i_lat":-6.369073,"transit":false,"i_long":106.831114,"time":2},{"station_id":"DPB","is_transit":false,"transit":false,"i_long":106.819451,"time":4,"station_name":"Depokbaru","distance":2727,"i_lat":-6.391065,"line":2},{"time":3,"station_id":"DP","i_long":106.816926,"station_name":"Depok","line":2,"transit":false,"distance":1584,"is_transit":false,"i_lat":-6.405256},{"is_transit":true,"i_lat":-6.448811,"transit":true,"i_long":106.800298,"station_name":"Citayam","station_id":"CTA","time":6,"distance":5084,"line":2},{"i_long":106.824374,"transit":false,"station_id":"PDRG","is_transit":false,"distance":0,"line":21,"time":0,"station_name":"Pondok Rajeg","i_lat":-6.460735},{"distance":0,"station_name":"Cibinong","transit":false,"i_long":106.851978,"station_id":"CBN","line":21,"time":0,"is_transit":false,"i_lat":-6.46424}],[{"i_lat":-6.2553149999999995,"distance":0,"station_name":"Cikarang","station_id":"CKR","time":0,"i_long":107.144613,"line":1,"is_transit":false,"transit":false},{"station_id":"TLM","station_name":"Metland Telaga Murni","transit":false,"i_lat":-6.262938,"i_long":107.093313,"distance":3689,"time":4,"line":1,"is_transit":false},{"distance":2800,"station_id":"CIT","time":2,"i_long":107.083084,"station_name":"Cibitung","is_transit":false,"i_lat":-6.261877,"line":1,"transit":false},{"i_long":107.055722,"station_id":"TB","station_name":"Tambun","distance":3420,"is_transit":false,"transit":false,"time":3,"i_lat":-6.258864,"line":1},{"time":7,"i_lat":-6.248029,"station_name":"Bekasi Timur","is_transit":false,"i_long":107.016735,"line":1,"station_id":"BKST","transit":false,"distance":4460},{"is_transit":false,"i_long":106.997013,"time":2,"line":1,"transit":false,"distance":2368,"i_lat":-6.236616,"station_name":"Bekasi","station_id":"BKS"},{"i_lat":-6.224515,"i_long":106.977657,"line":1,"station_name":"Kranji","station_id":"KRI","distance":2520,"time":4,"transit":false,"is_transit":false},{"station_name":"Cakung","station_id":"CUK","is_transit":false,"time":3,"i_lat":-6.219053,"distance":3097,"i_long":106.951283,"transit":false,"line":1},{"is_transit":false,"station_id":"KLDB","time":8,"i_lat":-6.217455,"station_name":"Klenderbaru","i_long":106.939679,"line":1,"transit":false,"distance":1385},{"transit":false,"i_long":106.922662,"station_id":"BUA","time":1,"is_transit":false,"i_lat":-6.215568,"line":1,"distance":1305,"station_name":"Buaran"},{"is_transit":false,"line":1,"distance":3100,"i_long":106.899548,"transit":false,"i_lat":-6.2135,"station_name":"Klender","station_id":"KLD","time":2},{"is_transit":true,"i_lat":-6.215091,"station_name":"Jatinegara","line":1,"i_long":106.86807400000001,"time":3,"station_id":"JNG","distance":3395,"transit":true},{"is_transit":false,"i_long":106.861737,"i_lat":-6.209188,"station_id":"POK","line":11,"distance":1236,"time":2,"transit":false,"station_name":"Pondok Jati"},{"i_lat":-6.193792,"transit":false,"i_long":106.855437,"station_id":"KMT","time":2,"distance":1829,"is_transit":false,"station_name":"Kramat","line":11},{"station_id":"GST","transit":false,"line":11,"time":1,"i_lat":-6.185975,"i_long":106.850107,"is_transit":false,"station_name":"Gang Sentiong","distance":973},{"transit":false,"station_id":"PSE","i_long":106.84368,"is_transit":false,"i_lat":-6.174784,"distance":1567,"station_name":"Pasar Senen","time":8,"line":11},{"time":4,"line":11,"i_long":106.839204,"station_id":"KMO","is_transit":false,"transit":false,"distance":1436,"i_lat":-6.161728,"station_name":"Kemayoran"},{"is_transit":false,"i_long":106.836569,"station_name":"Rajawali","i_lat":-6.14505,"transit":false,"time":5,"line":11,"station_id":"RJW","distance":1901},{"is_transit":true,"distance":1444,"station_name":"Kampung Bandan","station_id":"KPB","line":4,"i_long":106.826365,"time":3,"transit":true,"i_lat":-6.132549},{"station_id":"JAKK","transit":true,"station_name":"Jakarta Kota","distance":1364,"i_long":106.812439,"is_transit":true,"i_lat":-6.137569,"time":3,"line":2},{"i_lat":-6.141205,"distance":1264,"transit":false,"i_long":106.820901,"line":2,"time":4,"station_name":"Jayakarta","station_id":"JAY","is_transit":false},{"i_long":106.82482,"is_transit":false,"distance":1080,"station_id":"MGB","station_name":"Manggabesar","time":2,"i_lat":-6.149769,"line":2,"transit":false},{"station_id":"SW","station_name":"Sawah Besar","i_long":106.827103,"distance":906,"is_transit":false,"transit":false,"line":2,"time":2,"i_lat":-6.160725},{"line":2,"is_transit":false,"distance":1149,"station_id":"JUA","transit":false,"i_long":106.828284,"i_lat":-6.166716,"time":2,"station_name":"Juanda"},{"transit":false,"is_transit":false,"distance":2015,"line":2,"time":4,"i_lat":-6.186295,"i_long":106.832183,"station_name":"Gondangdia","station_id":"GDD"},{"i_lat":-6.198556,"is_transit":false,"i_long":106.840169,"distance":1750,"station_name":"Cikini","time":3,"line":2,"transit":false,"station_id":"CKI"},{"transit":false,"time":4,"i_lat":-6.209883,"line":2,"is_transit":false,"i_long":106.84912,"station_name":"Manggarai","distance":1590,"station_id":"MRI"},{"transit":false,"line":2,"station_name":"Tebet","station_id":"TEB","i_lat":-6.226659,"time":4,"i_long":106.857948,"is_transit":false,"distance":2610},{"transit":false,"station_name":"Cawang","station_id":"CW","line":2,"time":2,"i_lat":-6.242512,"distance":1230,"i_long":106.856607,"is_transit":false},{"line":2,"station_id":"DRN","distance":1546,"station_name":"Duren Kalibata","transit":false,"is_transit":false,"time":3,"i_lat":-6.255332,"i_long":106.85449},{"transit":false,"i_long":106.851577,"line":2,"station_name":"Pasar Minggu Baru","station_id":"PSMB","time":2,"is_transit":false,"i_lat":-6.263214,"distance":824},{"station_name":"Pasar Minggu","time":2,"line":2,"i_long":106.843999,"is_transit":false,"i_lat":-6.2842400000000005,"distance":2380,"station_id":"PSM","transit":false},{"transit":false,"time":4,"i_lat":-6.3080680000000005,"distance":2820,"line":2,"station_id":"TNT","is_transit":false,"i_long":106.838896,"station_name":"Tanjung Barat"},{"time":3,"i_long":106.832616,"transit":false,"i_lat":-6.330363,"station_name":"Lenteng Agung","station_id":"LNA","distance":2671,"is_transit":false,"line":2},{"station_name":"Univ. Pancasila","distance":1029,"transit":false,"i_lat":-6.339291,"is_transit":false,"i_long":106.834175,"time":2,"line":2,"station_id":"UP"},{"line":2,"station_id":"UI","distance":2264,"i_lat":-6.360749,"station_name":"Univ. Indonesia","time":3,"is_transit":false,"i_long":106.831474,"transit":false},{"station_name":"Pondok Cina","i_long":106.831114,"station_id":"POC","distance":1109,"is_transit":false,"i_lat":-6.369073,"transit":false,"line":2,"time":2},{"station_id":"DPB","transit":false,"time":4,"i_long":106.819451,"distance":2727,"station_name":"Depokbaru","is_transit":false,"line":2,"i_lat":-6.391065},{"distance":1584,"is_transit":false,"i_long":106.816926,"transit":false,"station_id":"DP","i_lat":-6.405256,"time":3,"station_name":"Depok","line":2},{"station_id":"CTA","is_transit":true,"i_long":106.800298,"line":2,"station_name":"Citayam","distance":5084,"transit":true,"time":6,"i_lat":-6.448811},{"time":0,"distance":0,"line":21,"station_name":"Pondok Rajeg","is_transit":false,"i_long":106.824374,"station_id":"PDRG","i_lat":-6.460735,"transit":false},{"station_id":"CBN","time":0,"i_long":106.851978,"line":21,"station_name":"Cibinong","distance":0,"is_transit":false,"i_lat":-6.46424,"transit":false}]]}