{"data":[[{"station_id":"CKR","distance":0,"i_long":107.144613,"time":0,"transit":false,"station_name":"Cikarang","i_lat":-6.2553149999999995,"line":0,"is_transit":false},{"line":1,"i_lat":-6.262938,"station_name":"Metland Telaga Murni","is_transit":false,"distance":3689,"transit":false,"station_id":"TLM","time":4,"i_long":107.093313},{"i_lat":-6.261877,"distance":2800,"line":0,"transit":false,"time":2,"i_long":107.083084,"station_name":"Cibitung","is_transit":false,"station_id":"CIT"},{"i_long":107.055722,"distance":3420,"i_lat":-6.258864,"time":3,"transit":false,"is_transit":false,"station_id":"TB","line":1,"station_name":"Tambun"},{"time":7,"station_id":"BKST","transit":false,"distance":4460,"station_name":"Bekasi Timur","i_long":107.016735,"is_transit":false,"line":0,"i_lat":-6.248029},{"transit":false,"time":2,"i_long":106.997013,"station_name":"Bekasi","station_id":"BKS","i_lat":-6.236616,"distance":2368,"line":0,"is_transit":false},{"i_long":106.977657,"station_id":"KRI","is_transit":false,"line":1,"time":4,"distance":2520,"station_name":"Kranji","i_lat":-6.224515,"transit":false},{"transit":false,"station_name":"Cakung","time":3,"i_lat":-6.219053,"station_id":"CUK","i_long":106.951283,"is_transit":false,"line":0,"distance":3097},{"distance":1385,"station_id":"KLDB","is_transit":false,"time":8,"i_lat":-6.217455,"station_name":"Klenderbaru","i_long":106.939679,"line":1,"transit":false},{"distance":1305,"time":1,"i_long":106.922662,"transit":false,"line":0,"station_name":"Buaran","is_transit":false,"station_id":"BUA","i_lat":-6.215568},{"time":2,"distance":3100,"line":1,"i_long":106.899548,"is_transit":false,"transit":false,"station_id":"KLD","i_lat":-6.2135,"station_name":"Klender"},{"i_lat":-6.215091,"i_long":106.86807400000001,"distance":3395,"line":0,"station_id":"JNG","time":3,"is_transit":true,"station_name":"Jatinegara","transit":false},{"distance":1377,"i_long":106.858896,"line":1,"station_id":"MTR","is_transit":false,"transit":false,"station_name":"Matraman","i_lat":-6.212485,"time":2},{"i_long":106.84912,"i_lat":-6.209883,"station_id":"MRI","is_transit":true,"time":2,"distance":1275,"transit":true,"station_name":"Manggarai","line":0},{"is_transit":false,"i_lat":-6.226659,"distance":2610,"i_long":106.857948,"line":2,"time":4,"transit":false,"station_id":"TEB","station_name":"Tebet"},{"time":2,"line":0,"is_transit":false,"station_id":"CW","i_lat":-6.242512,"distance":1230,"i_long":106.856607,"transit":false,"station_name":"Cawang"},{"i_long":106.85449,"distance":1546,"i_lat":-6.255332,"time":3,"transit":false,"line":0,"is_transit":false,"station_id":"DRN","station_name":"Duren Kalibata"},{"line":2,"is_transit":false,"i_long":106.851577,"station_name":"Pasar Minggu Baru","i_lat":-6.263214,"time":2,"station_id":"PSMB","distance":824,"transit":false},{"time":2,"station_id":"PSM","station_name":"Pasar Minggu","distance":2380,"i_lat":-6.2842400000000005,"transit":false,"i_long":106.843999,"line":2,"is_transit":false},{"is_transit":false,"transit":false,"station_name":"Tanjung Barat","distance":2820,"i_long":106.838896,"time":4,"station_id":"TNT","line":2,"i_lat":-6.3080680000000005},{"station_id":"LNA","station_name":"Lenteng Agung","transit":false,"time":3,"i_long":106.832616,"distance":2671,"is_transit":false,"line":2,"i_lat":-6.330363},{"time":2,"transit":false,"station_name":"Univ. Pancasila","is_transit":false,"line":2,"i_lat":-6.339291,"station_id":"UP","distance":1029,"i_long":106.834175},{"i_lat":-6.360749,"station_id":"UI","distance":2264,"i_long":106.831474,"is_transit":false,"station_name":"Univ. Indonesia","transit":false,"line":2,"time":3},{"transit":false,"is_transit":false,"line":2,"station_name":"Pondok Cina","i_long":106.831114,"time":2,"station_id":"POC","distance":1109,"i_lat":-6.369073},{"distance":2727,"is_transit":false,"time":4,"transit":false,"station_name":"Depokbaru","i_lat":-6.391065,"i_long":106.819451,"line":0,"station_id":"DPB"},{"i_lat":-6.405256,"is_transit":false,"station_name":"Depok","station_id":"DP","distance":1584,"time":3,"transit":false,"i_long":106.816926,"line":0}],[{"station_name":"Cikarang","time":0,"station_id":"CKR","is_transit":false,"distance":0,"i_long":107.144613,"i_lat":-6.2553149999999995,"transit":false,"line":0},{"is_transit":false,"i_long":107.093313,"i_lat":-6.262938,"distance":3689,"transit":false,"station_name":"Metland Telaga Murni","line":1,"time":4,"station_id":"TLM"},{"transit":false,"i_long":107.083084,"is_transit":false,"line":0,"station_name":"Cibitung","i_lat":-6.261877,"distance":2800,"station_id":"CIT","time":2},{"is_transit":false,"distance":3420,"transit":false,"station_id":"TB","i_lat":-6.258864,"i_long":107.055722,"station_name":"Tambun","time":3,"line":1},{"is_transit":false,"station_name":"Bekasi Timur","distance":4460,"transit":false,"i_lat":-6.248029,"line":0,"station_id":"BKST","time":7,"i_long":107.016735},{"station_name":"Bekasi","is_transit":false,"transit":false,"station_id":"BKS","distance":2368,"line":0,"i_lat":-6.236616,"i_long":106.997013,"time":2},{"distance":2520,"time":4,"transit":false,"line":1,"i_lat":-6.224515,"station_name":"Kranji","i_long":106.977657,"station_id":"KRI","is_transit":false},{"station_name":"Cakung","station_id":"CUK","transit":false,"i_lat":-6.219053,"i_long":106.951283,"time":3,"line":0,"is_transit":false,"distance":3097},{"station_id":"KLDB","transit":false,"line":1,"is_transit":false,"i_long":106.939679,"i_lat":-6.217455,"station_name":"Klenderbaru","time":8,"distance":1385},{"station_name":"Buaran","distance":1305,"line":0,"i_long":106.922662,"is_transit":false,"station_id":"BUA","i_lat":-6.215568,"time":1,"transit":false},{"i_lat":-6.2135,"i_long":106.899548,"distance":3100,"time":2,"transit":false,"station_name":"Klender","station_id":"KLD","line":1,"is_transit":false},{"time":3,"i_lat":-6.215091,"station_name":"Jatinegara","is_transit":true,"i_long":106.86807400000001,"line":0,"station_id":"JNG","distance":3395,"transit":true},{"transit":false,"line":11,"time":2,"distance":1236,"is_transit":false,"i_long":106.861737,"station_id":"POK","i_lat":-6.209188,"station_name":"Pondok Jati"},{"i_lat":-6.193792,"i_long":106.855437,"distance":1829,"station_id":"KMT","is_transit":false,"line":11,"time":2,"station_name":"Kramat","transit":false},{"station_name":"Gang Sentiong","station_id":"GST","transit":false,"i_lat":-6.185975,"is_transit":false,"i_long":106.850107,"distance":973,"line":11,"time":1},{"line":11,"distance":1567,"is_transit":false,"station_id":"PSE","transit":false,"i_long":106.84368,"i_lat":-6.174784,"station_name":"Pasar Senen","time":8},{"time":4,"i_lat":-6.161728,"station_id":"KMO","i_long":106.839204,"station_name":"Kemayoran","distance":1436,"line":11,"transit":false,"is_transit":false},{"i_long":106.836569,"station_id":"RJW","is_transit":false,"i_lat":-6.14505,"transit":false,"station_name":"Rajawali","distance":1901,"line":11,"time":5},{"is_transit":true,"line":0,"i_lat":-6.132549,"station_id":"KPB","time":3,"transit":true,"distance":1444,"i_long":106.826365,"station_name":"Kampung Bandan"},{"transit":false,"station_id":"AK","i_long":106.79867,"station_name":"Angke","line":0,"time":9,"is_transit":false,"i_lat":-6.144674,"distance":4102},{"line":1,"i_long":106.800832,"distance":1230,"station_id":"DU","is_transit":true,"time":4,"station_name":"Duri","transit":true,"i_lat":-6.155215},{"station_name":"Tanah Abang","time":8,"line":1,"distance":3632,"station_id":"THB","transit":false,"i_lat":-6.185545,"is_transit":true,"i_long":106.811091},{"line":1,"i_lat":-6.20132,"station_name":"Karet","is_transit":false,"transit":false,"i_long":106.816351,"time":5,"station_id":"KAT","distance":2029},{"line":1,"i_long":106.819881,"transit":false,"distance":471,"station_id":"SUDB","station_name":"Sudirman Baru","is_transit":false,"time":1,"i_lat":-6.201433},{"station_name":"Sudirman","is_transit":false,"station_id":"SUD","i_lat":-6.202263,"transit":false,"time":1,"i_long":106.822649,"distance":280,"line":1},{"station_name":"Manggarai","line":0,"is_transit":true,"time":4,"distance":3186,"transit":true,"i_long":106.84912,"station_id":"MRI","i_lat":-6.209883},{"station_id":"TEB","distance":2610,"time":4,"is_transit":false,"i_long":106.857948,"line":2,"transit":false,"i_lat":-6.226659,"station_name":"Tebet"},{"is_transit":false,"i_long":106.856607,"line":0,"distance":1230,"time":2,"i_lat":-6.242512,"station_id":"CW","station_name":"Cawang","transit":false},{"line":0,"station_name":"Duren Kalibata","is_transit":false,"time":3,"distance":1546,"transit":false,"i_long":106.85449,"station_id":"DRN","i_lat":-6.255332},{"time":2,"i_long":106.851577,"is_transit":false,"i_lat":-6.263214,"station_id":"PSMB","line":2,"station_name":"Pasar Minggu Baru","transit":false,"distance":824},{"station_name":"Pasar Minggu","is_transit":false,"transit":false,"i_lat":-6.2842400000000005,"time":2,"station_id":"PSM","i_long":106.843999,"line":2,"distance":2380},{"line":2,"distance":2820,"station_name":"Tanjung Barat","time":4,"i_lat":-6.3080680000000005,"i_long":106.838896,"station_id":"TNT","transit":false,"is_transit":false},{"transit":false,"i_lat":-6.330363,"time":3,"line":2,"i_long":106.832616,"is_transit":false,"distance":2671,"station_id":"LNA","station_name":"Lenteng Agung"},{"is_transit":false,"time":2,"transit":false,"station_id":"UP","i_long":106.834175,"line":2,"station_name":"Univ. Pancasila","i_lat":-6.339291,"distance":1029},{"is_transit":false,"line":2,"station_name":"Univ. Indonesia","distance":2264,"i_lat":-6.360749,"station_id":"UI","time":3,"transit":false,"i_long":106.831474},{"is_transit":false,"distance":1109,"i_long":106.831114,"line":2,"i_lat":-6.369073,"transit":false,"time":2,"station_name":"Pondok Cina","station_id":"POC"},{"is_transit":false,"i_lat":-6.391065,"i_long":106.819451,"station_name":"Depokbaru","time":4,"station_id":"DPB","distance":2727,"transit":false,"line":0},{"distance":1584,"i_lat":-6.405256,"line":0,"transit":false,"station_name":"Depok","station_id":"DP","is_transit":false,"time":3,"i_long":106.816926}],[{"i_lat":-6.2553149999999995,"transit":false,"station_id":"CKR","station_name":"Cikarang","i_long":107.144613,"time":0,"line":0,"distance":0,"is_transit":false},{"transit":false,"i_long":107.093313,"time":4,"line":1,"station_id":"TLM","i_lat":-6.262938,"distance":3689,"is_transit":false,"station_name":"Metland Telaga Murni"},{"time":2,"distance":2800,"transit":false,"station_id":"CIT","station_name":"Cibitung","i_lat":-6.261877,"line":0,"is_transit":false,"i_long":107.083084},{"station_id":"TB","station_name":"Tambun","distance":3420,"time":3,"is_transit":false,"transit":false,"i_lat":-6.258864,"i_long":107.055722,"line":1},{"is_transit":false,"station_id":"BKST","line":0,"transit":false,"i_long":107.016735,"i_lat":-6.248029,"station_name":"Bekasi Timur","time":7,"distance":4460},{"is_transit":false,"distance":2368,"line":0,"station_name":"Bekasi","time":2,"transit":false,"i_long":106.997013,"station_id":"BKS","i_lat":-6.236616},{"station_name":"Kranji","transit":false,"time":4,"distance":2520,"station_id":"KRI","is_transit":false,"line":1,"i_lat":-6.224515,"i_long":106.977657},{"i_lat":-6.219053,"i_long":106.951283,"distance":3097,"time":3,"transit":false,"station_id":"CUK","station_name":"Cakung","is_transit":false,"line":0},{"i_lat":-6.217455,"station_id":"KLDB","i_long":106.939679,"station_name":"Klenderbaru","distance":1385,"line":1,"time":8,"transit":false,"is_transit":false},{"station_name":"Buaran","distance":1305,"is_transit":false,"line":0,"time":1,"i_long":106.922662,"i_lat":-6.215568,"transit":false,"station_id":"BUA"},{"is_transit":false,"i_lat":-6.2135,"i_long":106.899548,"station_name":"Klender","time":2,"distance":3100,"transit":false,"line":1,"station_id":"KLD"},{"is_transit":true,"line":0,"i_lat":-6.215091,"station_name":"Jatinegara","time":3,"transit":true,"distance":3395,"i_long":106.86807400000001,"station_id":"JNG"},{"time":2,"i_long":106.861737,"transit":false,"line":11,"station_name":"Pondok Jati","distance":1236,"is_transit":false,"station_id":"POK","i_lat":-6.209188},{"line":11,"distance":1829,"station_id":"KMT","station_name":"Kramat","is_transit":false,"transit":false,"i_long":106.855437,"i_lat":-6.193792,"time":2},{"is_transit":false,"time":1,"station_id":"GST","transit":false,"station_name":"Gang Sentiong","i_lat":-6.185975,"i_long":106.850107,"distance":973,"line":11},{"time":8,"transit":false,"station_name":"Pasar Senen","is_transit":false,"i_long":106.84368,"line":11,"station_id":"PSE","distance":1567,"i_lat":-6.174784},{"station_name":"Kemayoran","station_id":"KMO","time":4,"transit":false,"i_lat":-6.161728,"i_long":106.839204,"line":11,"distance":1436,"is_transit":false},{"station_name":"Rajawali","station_id":"RJW","transit":false,"i_lat":-6.14505,"distance":1901,"time":5,"line":11,"i_long":106.836569,"is_transit":false},{"is_transit":true,"i_long":106.826365,"line":0,"station_name":"Kampung Bandan","i_lat":-6.132549,"time":3,"transit":true,"distance":1444,"station_id":"KPB"},{"distance":1364,"transit":true,"i_lat":-6.137569,"station_id":"JAKK","line":0,"is_transit":true,"i_long":106.812439,"time":3,"station_name":"Jakarta Kota"},{"i_lat":-6.141205,"line":7,"is_transit":false,"distance":1264,"station_name":"Jayakarta","transit":false,"time":4,"station_id":"JAY","i_long":106.820901},{"i_long":106.82482,"time":2,"line":2,"is_transit":false,"transit":false,"station_name":"Manggabesar","distance":1080,"station_id":"MGB","i_lat":-6.149769},{"station_id":"SW","transit":false,"time":2,"distance":906,"i_lat":-6.160725,"station_name":"Sawah Besar","i_long":106.827103,"is_transit":false,"line":2},{"i_lat":-6.166716,"time":2,"transit":false,"is_transit":false,"distance":1149,"line":2,"station_name":"Juanda","station_id":"JUA","i_long":106.828284},{"station_name":"Gondangdia","distance":2015,"station_id":"GDD","is_transit":false,"time":4,"i_long":106.832183,"line":2,"i_lat":-6.186295,"transit":false},{"i_long":106.840169,"station_id":"CKI","transit":false,"time":3,"distance":1750,"is_transit":false,"station_name":"Cikini","i_lat":-6.198556,"line":0},{"time":4,"i_long":106.84912,"i_lat":-6.209883,"distance":1590,"transit":true,"is_transit":true,"station_id":"MRI","station_name":"Manggarai","line":0},{"time":4,"i_lat":-6.226659,"distance":2610,"station_id":"TEB","is_transit":false,"transit":false,"station_name":"Tebet","line":2,"i_long":106.857948},{"time":2,"distance":1230,"i_long":106.856607,"transit":false,"line":0,"i_lat":-6.242512,"station_name":"Cawang","station_id":"CW","is_transit":false},{"i_long":106.85449,"station_name":"Duren Kalibata","i_lat":-6.255332,"line":0,"station_id":"DRN","time":3,"transit":false,"distance":1546,"is_transit":false},{"i_lat":-6.263214,"is_transit":false,"i_long":106.851577,"line":2,"station_name":"Pasar Minggu Baru","distance":824,"station_id":"PSMB","time":2,"transit":false},{"station_id":"PSM","station_name":"Pasar Minggu","transit":false,"is_transit":false,"line":2,"i_lat":-6.2842400000000005,"time":2,"distance":2380,"i_long":106.843999},{"distance":2820,"station_id":"TNT","i_long":106.838896,"transit":false,"station_name":"Tanjung Barat","time":4,"is_transit":false,"i_lat":-6.3080680000000005,"line":2},{"time":3,"station_id":"LNA","station_name":"Lenteng Agung","i_lat":-6.330363,"i_long":106.832616,"transit":false,"distance":2671,"is_transit":false,"line":2},{"distance":1029,"line":2,"is_transit":false,"station_id":"UP","station_name":"Univ. Pancasila","time":2,"i_lat":-6.339291,"transit":false,"i_long":106.834175},{"i_long":106.831474,"station_name":"Univ. Indonesia","distance":2264,"transit":false,"station_id":"UI","i_lat":-6.360749,"line":2,"is_transit":false,"time":3},{"line":2,"i_long":106.831114,"is_transit":false,"station_name":"Pondok Cina","transit":false,"station_id":"POC","time":2,"distance":1109,"i_lat":-6.369073},{"station_id":"DPB","i_long":106.819451,"line":0,"station_name":"Depokbaru","time":4,"is_transit":false,"distance":2727,"i_lat":-6.391065,"transit":false},{"i_lat":-6.405256,"transit":false,"i_long":106.816926,"line":0,"distance":1584,"station_name":"Depok","is_transit":false,"time":3,"station_id":"DP"}]]}