{"data":[[{"station_id":"CKR","is_transit":false,"line":1,"station_name":"Cikarang","time":0,"transit":false,"i_lat":-6.2553149999999995,"distance":0,"i_long":107.144613},{"time":4,"distance":3689,"i_long":107.093313,"station_name":"Metland Telaga Murni","i_lat":-6.262938,"station_id":"TLM","transit":false,"is_transit":false,"line":1},{"i_long":107.083084,"i_lat":-6.261877,"transit":false,"is_transit":false,"distance":2800,"line":1,"station_name":"Cibitung","time":2,"station_id":"CIT"},{"distance":3420,"time":3,"transit":false,"i_lat":-6.258864,"station_name":"Tambun","i_long":107.055722,"station_id":"TB","line":1,"is_transit":false},{"i_lat":-6.248029,"line":1,"station_id":"BKST","is_transit":false,"i_long":107.016735,"transit":false,"station_name":"Bekasi Timur","distance":4460,"time":7},{"time":2,"line":1,"station_name":"Bekasi","distance":2368,"i_lat":-6.236616,"is_transit":false,"transit":false,"station_id":"BKS","i_long":106.997013},{"time":4,"i_long":106.977657,"line":1,"station_id":"KRI","i_lat":-6.224515,"is_transit":false,"station_name":"Kranji","transit":false,"distance":2520},{"is_transit":false,"transit":false,"station_id":"CUK","station_name":"Cakung","distance":3097,"i_lat":-6.219053,"line":1,"i_long":106.951283,"time":3},{"time":8,"i_long":106.939679,"distance":1385,"station_id":"KLDB","station_name":"Klenderbaru","is_transit":false,"i_lat":-6.217455,"line":1,"transit":false},{"time":1,"distance":1305,"station_name":"Buaran","i_lat":-6.215568,"station_id":"BUA","transit":false,"i_long":106.922662,"is_transit":false,"line":1},{"line":1,"time":2,"station_id":"KLD","transit":false,"station_name":"Klender","distance":3100,"is_transit":false,"i_lat":-6.2135,"i_long":106.899548},{"i_lat":-6.215091,"line":1,"transit":false,"time":3,"distance":3395,"station_name":"Jatinegara","station_id":"JNG","i_long":106.86807400000001,"is_transit":false},{"time":2,"station_id":"MTR","station_name":"Matraman","transit":false,"i_lat":-6.212485,"line":1,"is_transit":false,"distance":1377,"i_long":106.858896},{"line":2,"is_transit":true,"time":2,"i_long":106.84912,"transit":true,"station_id":"MRI","distance":1275,"station_name":"Manggarai","i_lat":-6.209883},{"i_long":106.857948,"time":4,"is_transit":false,"distance":2610,"station_name":"Tebet","line":2,"transit":false,"station_id":"TEB","i_lat":-6.226659},{"is_transit":false,"i_lat":-6.242512,"i_long":106.856607,"station_id":"CW","time":2,"distance":1230,"transit":false,"line":2,"station_name":"Cawang"},{"i_long":106.85449,"station_id":"DRN","time":3,"distance":1546,"i_lat":-6.255332,"line":2,"station_name":"Duren Kalibata","is_transit":false,"transit":false},{"station_name":"Pasar Minggu Baru","is_transit":false,"time":2,"transit":false,"i_long":106.851577,"station_id":"PSMB","line":2,"distance":824,"i_lat":-6.263214},{"station_name":"Pasar Minggu","is_transit":false,"i_long":106.843999,"line":2,"distance":2380,"station_id":"PSM","time":2,"transit":false,"i_lat":-6.2842400000000005},{"distance":2820,"transit":false,"i_lat":-6.3080680000000005,"line":2,"i_long":106.838896,"is_transit":false,"station_id":"TNT","station_name":"Tanjung Barat","time":4},{"line":2,"time":3,"station_id":"LNA","transit":false,"distance":2671,"station_name":"Lenteng Agung","i_long":106.832616,"is_transit":false,"i_lat":-6.330363},{"station_name":"Univ. Pancasila","is_transit":false,"i_lat":-6.339291,"i_long":106.834175,"time":2,"line":2,"station_id":"UP","transit":false,"distance":1029},{"transit":false,"time":3,"i_long":106.831474,"is_transit":false,"i_lat":-6.360749,"station_id":"UI","line":2,"distance":2264,"station_name":"Univ. Indonesia"},{"distance":1109,"station_id":"POC","is_transit":false,"time":2,"i_long":106.831114,"line":2,"i_lat":-6.369073,"station_name":"Pondok Cina","transit":false},{"i_lat":-6.391065,"line":2,"transit":false,"station_id":"DPB","station_name":"Depokbaru","distance":2727,"is_transit":false,"time":4,"i_long":106.819451},{"time":3,"distance":1584,"i_lat":-6.405256,"i_long":106.816926,"is_transit":false,"line":2,"station_id":"DP","station_name":"Depok","transit":false}],[{"i_long":107.144613,"time":0,"station_id":"CKR","line":1,"station_name":"Cikarang","distance":0,"i_lat":-6.2553149999999995,"is_transit":false,"transit":false},{"station_name":"Metland Telaga Murni","i_long":107.093313,"transit":false,"i_lat":-6.262938,"is_transit":false,"line":1,"distance":3689,"time":4,"station_id":"TLM"},{"i_lat":-6.261877,"i_long":107.083084,"station_id":"CIT","station_name":"Cibitung","distance":2800,"time":2,"line":1,"transit":false,"is_transit":false},{"station_name":"Tambun","line":1,"i_long":107.055722,"transit":false,"is_transit":false,"time":3,"distance":3420,"i_lat":-6.258864,"station_id":"TB"},{"is_transit":false,"line":1,"station_name":"Bekasi Timur","time":7,"i_long":107.016735,"distance":4460,"station_id":"BKST","transit":false,"i_lat":-6.248029},{"line":1,"i_long":106.997013,"is_transit":false,"time":2,"transit":false,"i_lat":-6.236616,"distance":2368,"station_name":"Bekasi","station_id":"BKS"},{"time":4,"line":1,"station_name":"Kranji","i_lat":-6.224515,"is_transit":false,"station_id":"KRI","i_long":106.977657,"transit":false,"distance":2520},{"is_transit":false,"distance":3097,"transit":false,"station_id":"CUK","station_name":"Cakung","i_long":106.951283,"i_lat":-6.219053,"time":3,"line":1},{"station_name":"Klenderbaru","station_id":"KLDB","time":8,"i_long":106.939679,"distance":1385,"is_transit":false,"i_lat":-6.217455,"transit":false,"line":1},{"is_transit":false,"i_lat":-6.215568,"station_name":"Buaran","i_long":106.922662,"station_id":"BUA","time":1,"distance":1305,"transit":false,"line":1},{"station_id":"KLD","time":2,"distance":3100,"transit":false,"i_lat":-6.2135,"i_long":106.899548,"line":1,"station_name":"Klender","is_transit":false},{"i_lat":-6.215091,"i_long":106.86807400000001,"station_name":"Jatinegara","time":3,"line":1,"is_transit":true,"transit":true,"station_id":"JNG","distance":3395},{"distance":1236,"is_transit":false,"station_name":"Pondok Jati","time":2,"i_lat":-6.209188,"line":11,"transit":false,"i_long":106.861737,"station_id":"POK"},{"is_transit":false,"time":2,"i_long":106.855437,"transit":false,"station_name":"Kramat","i_lat":-6.193792,"station_id":"KMT","distance":1829,"line":11},{"distance":973,"i_lat":-6.185975,"i_long":106.850107,"line":11,"is_transit":false,"station_name":"Gang Sentiong","transit":false,"station_id":"GST","time":1},{"station_id":"PSE","i_long":106.84368,"station_name":"Pasar Senen","distance":1567,"transit":false,"time":8,"line":11,"is_transit":false,"i_lat":-6.174784},{"is_transit":false,"i_lat":-6.161728,"station_name":"Kemayoran","time":4,"line":11,"i_long":106.839204,"station_id":"KMO","transit":false,"distance":1436},{"is_transit":false,"i_lat":-6.14505,"station_name":"Rajawali","time":5,"distance":1901,"transit":false,"i_long":106.836569,"line":11,"station_id":"RJW"},{"transit":true,"i_lat":-6.132549,"i_long":106.826365,"line":4,"time":3,"station_id":"KPB","station_name":"Kampung Bandan","is_transit":true,"distance":1444},{"station_id":"AK","i_long":106.79867,"transit":false,"line":1,"time":9,"distance":4102,"is_transit":false,"i_lat":-6.144674,"station_name":"Angke"},{"distance":1230,"i_lat":-6.155215,"station_name":"Duri","i_long":106.800832,"transit":false,"is_transit":false,"station_id":"DU","line":1,"time":4},{"i_lat":-6.185545,"line":1,"transit":false,"distance":3632,"is_transit":false,"time":8,"station_name":"Tanah Abang","station_id":"THB","i_long":106.811091},{"time":5,"i_lat":-6.20132,"distance":2029,"is_transit":false,"i_long":106.816351,"line":1,"transit":false,"station_id":"KAT","station_name":"Karet"},{"transit":false,"station_name":"Sudirman Baru","is_transit":false,"time":1,"station_id":"SUDB","i_lat":-6.201433,"i_long":106.819881,"line":1,"distance":471},{"station_id":"SUD","i_long":106.822649,"time":1,"is_transit":false,"line":1,"transit":false,"distance":280,"i_lat":-6.202263,"station_name":"Sudirman"},{"distance":3186,"transit":true,"station_id":"MRI","is_transit":true,"i_long":106.84912,"line":2,"i_lat":-6.209883,"station_name":"Manggarai","time":4},{"distance":2610,"time":4,"transit":false,"i_lat":-6.226659,"station_id":"TEB","line":2,"station_name":"Tebet","i_long":106.857948,"is_transit":false},{"station_name":"Cawang","transit":false,"i_lat":-6.242512,"i_long":106.856607,"is_transit":false,"distance":1230,"station_id":"CW","time":2,"line":2},{"i_long":106.85449,"station_id":"DRN","line":2,"transit":false,"station_name":"Duren Kalibata","distance":1546,"is_transit":false,"i_lat":-6.255332,"time":3},{"time":2,"distance":824,"i_lat":-6.263214,"station_id":"PSMB","station_name":"Pasar Minggu Baru","transit":false,"i_long":106.851577,"line":2,"is_transit":false},{"station_id":"PSM","line":2,"time":2,"transit":false,"distance":2380,"i_lat":-6.2842400000000005,"is_transit":false,"i_long":106.843999,"station_name":"Pasar Minggu"},{"i_long":106.838896,"station_id":"TNT","is_transit":false,"transit":false,"time":4,"line":2,"i_lat":-6.3080680000000005,"distance":2820,"station_name":"Tanjung Barat"},{"is_transit":false,"time":3,"i_long":106.832616,"station_id":"LNA","station_name":"Lenteng Agung","distance":2671,"i_lat":-6.330363,"line":2,"transit":false},{"transit":false,"station_name":"Univ. Pancasila","distance":1029,"i_long":106.834175,"station_id":"UP","line":2,"time":2,"is_transit":false,"i_lat":-6.339291},{"is_transit":false,"time":3,"i_lat":-6.360749,"i_long":106.831474,"distance":2264,"station_id":"UI","station_name":"Univ. Indonesia","line":2,"transit":false},{"time":2,"distance":1109,"i_lat":-6.369073,"station_name":"Pondok Cina","i_long":106.831114,"line":2,"transit":false,"station_id":"POC","is_transit":false},{"transit":false,"time":4,"line":2,"i_lat":-6.391065,"is_transit":false,"distance":2727,"station_id":"DPB","i_long":106.819451,"station_name":"Depokbaru"},{"station_name":"Depok","distance":1584,"i_lat":-6.405256,"station_id":"DP","i_long":106.816926,"is_transit":false,"time":3,"line":2,"transit":false}],[{"i_lat":-6.2553149999999995,"time":0,"i_long":107.144613,"line":1,"transit":false,"station_id":"CKR","is_transit":false,"station_name":"Cikarang","distance":0},{"time":4,"station_id":"TLM","line":1,"is_transit":false,"i_long":107.093313,"i_lat":-6.262938,"distance":3689,"station_name":"Metland Telaga Murni","transit":false},{"transit":false,"is_transit":false,"station_name":"Cibitung","line":1,"i_long":107.083084,"distance":2800,"station_id":"CIT","time":2,"i_lat":-6.261877},{"transit":false,"station_name":"Tambun","station_id":"TB","line":1,"distance":3420,"time":3,"is_transit":false,"i_lat":-6.258864,"i_long":107.055722},{"station_name":"Bekasi Timur","distance":4460,"i_lat":-6.248029,"line":1,"station_id":"BKST","time":7,"i_long":107.016735,"transit":false,"is_transit":false},{"transit":false,"station_id":"BKS","time":2,"distance":2368,"station_name":"Bekasi","i_long":106.997013,"line":1,"i_lat":-6.236616,"is_transit":false},{"is_transit":false,"transit":false,"distance":2520,"i_long":106.977657,"station_name":"Kranji","i_lat":-6.224515,"line":1,"station_id":"KRI","time":4},{"is_transit":false,"transit":false,"distance":3097,"i_lat":-6.219053,"station_name":"Cakung","time":3,"i_long":106.951283,"line":1,"station_id":"CUK"},{"station_id":"KLDB","time":8,"i_long":106.939679,"transit":false,"line":1,"distance":1385,"is_transit":false,"station_name":"Klenderbaru","i_lat":-6.217455},{"station_id":"BUA","i_lat":-6.215568,"is_transit":false,"transit":false,"time":1,"station_name":"Buaran","distance":1305,"i_long":106.922662,"line":1},{"station_id":"KLD","is_transit":false,"time":2,"distance":3100,"i_lat":-6.2135,"i_long":106.899548,"line":1,"transit":false,"station_name":"Klender"},{"time":3,"i_lat":-6.215091,"i_long":106.86807400000001,"station_name":"Jatinegara","is_transit":true,"line":1,"distance":3395,"transit":true,"station_id":"JNG"},{"i_lat":-6.209188,"is_transit":false,"time":2,"i_long":106.861737,"station_id":"POK","line":11,"station_name":"Pondok Jati","distance":1236,"transit":false},{"i_long":106.855437,"station_id":"KMT","station_name":"Kramat","transit":false,"is_transit":false,"distance":1829,"line":11,"time":2,"i_lat":-6.193792},{"line":11,"time":1,"station_name":"Gang Sentiong","station_id":"GST","distance":973,"transit":false,"is_transit":false,"i_lat":-6.185975,"i_long":106.850107},{"transit":false,"is_transit":false,"station_id":"PSE","time":8,"i_lat":-6.174784,"station_name":"Pasar Senen","i_long":106.84368,"distance":1567,"line":11},{"transit":false,"i_lat":-6.161728,"time":4,"i_long":106.839204,"distance":1436,"line":11,"is_transit":false,"station_name":"Kemayoran","station_id":"KMO"},{"transit":false,"station_name":"Rajawali","time":5,"i_lat":-6.14505,"station_id":"RJW","line":11,"distance":1901,"i_long":106.836569,"is_transit":false},{"station_name":"Kampung Bandan","i_lat":-6.132549,"i_long":106.826365,"time":3,"distance":1444,"transit":true,"line":4,"is_transit":true,"station_id":"KPB"},{"station_name":"Jakarta Kota","i_long":106.812439,"time":3,"transit":true,"i_lat":-6.137569,"is_transit":true,"station_id":"JAKK","line":2,"distance":1364},{"i_lat":-6.141205,"station_name":"Jayakarta","i_long":106.820901,"line":2,"station_id":"JAY","transit":false,"is_transit":false,"distance":1264,"time":4},{"time":2,"transit":false,"is_transit":false,"station_name":"Manggabesar","i_long":106.82482,"distance":1080,"i_lat":-6.149769,"line":2,"station_id":"MGB"},{"time":2,"transit":false,"distance":906,"is_transit":false,"i_lat":-6.160725,"line":2,"station_name":"Sawah Besar","station_id":"SW","i_long":106.827103},{"transit":false,"i_long":106.828284,"station_id":"JUA","is_transit":false,"line":2,"station_name":"Juanda","time":2,"distance":1149,"i_lat":-6.166716},{"is_transit":false,"station_name":"Gondangdia","i_long":106.832183,"station_id":"GDD","line":2,"transit":false,"distance":2015,"time":4,"i_lat":-6.186295},{"is_transit":false,"transit":false,"station_id":"CKI","distance":1750,"station_name":"Cikini","line":2,"time":3,"i_lat":-6.198556,"i_long":106.840169},{"distance":1590,"is_transit":false,"i_lat":-6.209883,"i_long":106.84912,"line":2,"transit":false,"station_name":"Manggarai","station_id":"MRI","time":4},{"time":4,"line":2,"is_transit":false,"i_lat":-6.226659,"distance":2610,"transit":false,"station_name":"Tebet","i_long":106.857948,"station_id":"TEB"},{"is_transit":false,"time":2,"line":2,"station_id":"CW","transit":false,"i_long":106.856607,"station_name":"Cawang","i_lat":-6.242512,"distance":1230},{"station_name":"Duren Kalibata","is_transit":false,"time":3,"distance":1546,"i_long":106.85449,"line":2,"transit":false,"i_lat":-6.255332,"station_id":"DRN"},{"transit":false,"distance":824,"i_long":106.851577,"is_transit":false,"line":2,"i_lat":-6.263214,"station_name":"Pasar Minggu Baru","time":2,"station_id":"PSMB"},{"time":2,"station_name":"Pasar Minggu","i_lat":-6.2842400000000005,"i_long":106.843999,"is_transit":false,"station_id":"PSM","transit":false,"line":2,"distance":2380},{"i_long":106.838896,"i_lat":-6.3080680000000005,"station_id":"TNT","transit":false,"distance":2820,"is_transit":false,"station_name":"Tanjung Barat","line":2,"time":4},{"station_name":"Lenteng Agung","i_lat":-6.330363,"line":2,"distance":2671,"time":3,"station_id":"LNA","transit":false,"is_transit":false,"i_long":106.832616},{"distance":1029,"is_transit":false,"i_long":106.834175,"station_name":"Univ. Pancasila","i_lat":-6.339291,"station_id":"UP","line":2,"time":2,"transit":false},{"distance":2264,"transit":false,"time":3,"i_lat":-6.360749,"is_transit":false,"i_long":106.831474,"station_name":"Univ. Indonesia","station_id":"UI","line":2},{"transit":false,"i_lat":-6.369073,"station_name":"Pondok Cina","time":2,"distance":1109,"station_id":"POC","i_long":106.831114,"line":2,"is_transit":false},{"transit":false,"station_id":"DPB","line":2,"is_transit":false,"i_long":106.819451,"station_name":"Depokbaru","i_lat":-6.391065,"time":4,"distance":2727},{"time":3,"is_transit":false,"station_name":"Depok","station_id":"DP","i_lat":-6.405256,"transit":false,"line":2,"distance":1584,"i_long":106.816926}]]}