{"data":[[{"distance":0,"station_name":"Cikarang","i_long":107.144613,"is_transit":false,"line":0,"transit":false,"station_id":"CKR","time":0,"i_lat":-6.2553149999999995},{"line":1,"i_long":107.093313,"station_id":"TLM","distance":3689,"transit":false,"is_transit":false,"station_name":"Metland Telaga Murni","time":4,"i_lat":-6.262938},{"is_transit":false,"i_lat":-6.261877,"station_id":"CIT","transit":false,"i_long":107.083084,"line":0,"station_name":"Cibitung","distance":2800,"time":2},{"i_long":107.055722,"distance":3420,"is_transit":false,"station_name":"Tambun","line":1,"i_lat":-6.258864,"transit":false,"station_id":"TB","time":3},{"distance":4460,"station_name":"Bekasi Timur","line":0,"is_transit":false,"transit":false,"i_long":107.016735,"i_lat":-6.248029,"station_id":"BKST","time":7},{"time":2,"i_lat":-6.236616,"i_long":106.997013,"transit":false,"station_id":"BKS","line":0,"station_name":"Bekasi","distance":2368,"is_transit":false},{"line":1,"i_lat":-6.224515,"time":4,"transit":false,"station_name":"Kranji","station_id":"KRI","is_transit":false,"distance":2520,"i_long":106.977657},{"station_name":"Cakung","i_lat":-6.219053,"line":0,"distance":3097,"time":3,"is_transit":false,"i_long":106.951283,"transit":false,"station_id":"CUK"},{"distance":1385,"line":1,"time":8,"i_lat":-6.217455,"i_long":106.939679,"transit":false,"is_transit":false,"station_id":"KLDB","station_name":"Klenderbaru"},{"i_long":106.922662,"distance":1305,"transit":false,"line":0,"i_lat":-6.215568,"is_transit":false,"station_id":"BUA","station_name":"Buaran","time":1},{"station_name":"Klender","transit":false,"i_long":106.899548,"i_lat":-6.2135,"is_transit":false,"line":1,"station_id":"KLD","distance":3100,"time":2},{"is_transit":true,"station_id":"JNG","time":3,"distance":3395,"station_name":"Jatinegara","transit":false,"i_lat":-6.215091,"i_long":106.86807400000001,"line":0},{"i_long":106.858896,"transit":false,"station_name":"Matraman","time":2,"distance":1377,"i_lat":-6.212485,"station_id":"MTR","is_transit":false,"line":1},{"time":2,"i_long":106.84912,"transit":false,"i_lat":-6.209883,"distance":1275,"line":0,"is_transit":true,"station_id":"MRI","station_name":"Manggarai"},{"station_name":"Sudirman","station_id":"SUD","i_long":106.822649,"transit":false,"line":1,"i_lat":-6.202263,"time":4,"is_transit":false,"distance":3186},{"station_id":"SUDB","station_name":"Sudirman Baru","i_lat":-6.201433,"distance":280,"time":1,"transit":false,"i_long":106.819881,"line":1,"is_transit":false},{"station_name":"Karet","distance":471,"time":1,"is_transit":false,"transit":false,"i_lat":-6.20132,"i_long":106.816351,"station_id":"KAT","line":1},{"transit":true,"station_id":"THB","is_transit":true,"station_name":"Tanah Abang","i_long":106.811091,"i_lat":-6.185545,"line":1,"time":5,"distance":2029},{"transit":false,"i_long":106.79689,"is_transit":false,"distance":3191,"i_lat":-6.207404,"station_id":"PLM","line":6,"station_name":"Palmerah","time":6},{"is_transit":false,"station_name":"Kebayoran","i_lat":-6.237242,"i_long":106.780334,"time":7,"line":6,"transit":false,"station_id":"KBY","distance":3737},{"transit":false,"station_id":"PDJ","i_lat":-6.276362,"distance":6218,"station_name":"Pondokranji","line":6,"i_long":106.74273,"is_transit":false,"time":8},{"is_transit":false,"i_lat":-6.288927,"time":3,"station_name":"Jurangmangu","transit":false,"i_long":106.728916,"line":6,"distance":2179,"station_id":"JMU"},{"i_long":106.712277,"station_name":"Sudimara","is_transit":false,"distance":1994,"transit":false,"station_id":"SDM","i_lat":-6.296963,"line":6,"time":4},{"station_id":"RU","is_transit":false,"distance":4566,"station_name":"Rawa Buntu","transit":false,"i_lat":-6.314823,"time":6,"i_long":106.675475,"line":6},{"distance":2413,"is_transit":false,"station_name":"Serpong","time":4,"i_long":106.66566,"i_lat":-6.319871,"station_id":"SRP","transit":false,"line":6},{"station_id":"CSK","time":4,"distance":1784,"is_transit":false,"i_lat":-6.32484,"station_name":"Cisauk","i_long":106.640411,"line":0,"transit":false},{"i_lat":-6.329547,"time":4,"distance":2519,"line":0,"is_transit":false,"i_long":106.617853,"station_id":"CC","station_name":"Cicayur","transit":false}],[{"station_id":"CKR","time":0,"station_name":"Cikarang","transit":false,"is_transit":false,"distance":0,"i_lat":-6.2553149999999995,"i_long":107.144613,"line":0},{"station_name":"Metland Telaga Murni","i_lat":-6.262938,"station_id":"TLM","line":1,"distance":3689,"transit":false,"time":4,"i_long":107.093313,"is_transit":false},{"station_id":"CIT","is_transit":false,"i_long":107.083084,"line":0,"i_lat":-6.261877,"station_name":"Cibitung","distance":2800,"time":2,"transit":false},{"station_name":"Tambun","i_long":107.055722,"distance":3420,"line":1,"station_id":"TB","transit":false,"is_transit":false,"time":3,"i_lat":-6.258864},{"station_id":"BKST","i_long":107.016735,"distance":4460,"line":0,"i_lat":-6.248029,"time":7,"is_transit":false,"transit":false,"station_name":"Bekasi Timur"},{"station_name":"Bekasi","transit":false,"time":2,"is_transit":false,"line":0,"station_id":"BKS","distance":2368,"i_lat":-6.236616,"i_long":106.997013},{"station_name":"Kranji","transit":false,"i_lat":-6.224515,"time":4,"is_transit":false,"station_id":"KRI","distance":2520,"i_long":106.977657,"line":1},{"time":3,"distance":3097,"line":0,"transit":false,"station_name":"Cakung","station_id":"CUK","i_lat":-6.219053,"i_long":106.951283,"is_transit":false},{"distance":1385,"station_name":"Klenderbaru","station_id":"KLDB","i_lat":-6.217455,"transit":false,"is_transit":false,"line":1,"i_long":106.939679,"time":8},{"line":0,"station_id":"BUA","i_lat":-6.215568,"i_long":106.922662,"is_transit":false,"transit":false,"distance":1305,"time":1,"station_name":"Buaran"},{"station_id":"KLD","i_long":106.899548,"station_name":"Klender","transit":false,"distance":3100,"i_lat":-6.2135,"line":1,"is_transit":false,"time":2},{"station_name":"Jatinegara","transit":true,"i_long":106.86807400000001,"line":0,"time":3,"distance":3395,"i_lat":-6.215091,"is_transit":true,"station_id":"JNG"},{"is_transit":false,"station_name":"Pondok Jati","i_lat":-6.209188,"i_long":106.861737,"line":11,"time":2,"distance":1236,"transit":false,"station_id":"POK"},{"distance":1829,"i_lat":-6.193792,"is_transit":false,"transit":false,"i_long":106.855437,"station_name":"Kramat","time":2,"station_id":"KMT","line":11},{"station_id":"GST","time":1,"i_lat":-6.185975,"transit":false,"distance":973,"station_name":"Gang Sentiong","i_long":106.850107,"line":11,"is_transit":false},{"i_long":106.84368,"station_id":"PSE","distance":1567,"time":8,"transit":false,"station_name":"Pasar Senen","line":11,"i_lat":-6.174784,"is_transit":false},{"transit":false,"line":11,"i_long":106.839204,"is_transit":false,"distance":1436,"time":4,"i_lat":-6.161728,"station_name":"Kemayoran","station_id":"KMO"},{"i_long":106.836569,"i_lat":-6.14505,"is_transit":false,"distance":1901,"station_name":"Rajawali","line":11,"transit":false,"time":5,"station_id":"RJW"},{"transit":true,"i_lat":-6.132549,"station_name":"Kampung Bandan","line":0,"i_long":106.826365,"is_transit":true,"time":3,"station_id":"KPB","distance":1444},{"time":9,"station_id":"AK","distance":4102,"i_lat":-6.144674,"i_long":106.79867,"line":0,"transit":false,"is_transit":false,"station_name":"Angke"},{"i_lat":-6.155215,"line":1,"i_long":106.800832,"station_id":"DU","time":4,"distance":1230,"is_transit":true,"transit":true,"station_name":"Duri"},{"is_transit":true,"i_long":106.811091,"distance":3632,"time":8,"transit":true,"station_name":"Tanah Abang","i_lat":-6.185545,"line":1,"station_id":"THB"},{"line":6,"station_id":"PLM","i_long":106.79689,"station_name":"Palmerah","transit":false,"is_transit":false,"i_lat":-6.207404,"time":6,"distance":3191},{"line":6,"station_id":"KBY","transit":false,"time":7,"is_transit":false,"i_lat":-6.237242,"station_name":"Kebayoran","i_long":106.780334,"distance":3737},{"i_lat":-6.276362,"transit":false,"station_id":"PDJ","line":6,"distance":6218,"i_long":106.74273,"station_name":"Pondokranji","is_transit":false,"time":8},{"time":3,"distance":2179,"transit":false,"i_lat":-6.288927,"line":6,"is_transit":false,"i_long":106.728916,"station_name":"Jurangmangu","station_id":"JMU"},{"station_name":"Sudimara","i_lat":-6.296963,"station_id":"SDM","i_long":106.712277,"is_transit":false,"time":4,"line":6,"distance":1994,"transit":false},{"i_lat":-6.314823,"time":6,"station_id":"RU","i_long":106.675475,"station_name":"Rawa Buntu","line":6,"distance":4566,"transit":false,"is_transit":false},{"time":4,"i_long":106.66566,"is_transit":false,"transit":false,"line":6,"station_id":"SRP","i_lat":-6.319871,"distance":2413,"station_name":"Serpong"},{"time":4,"i_long":106.640411,"distance":1784,"line":0,"transit":false,"i_lat":-6.32484,"station_id":"CSK","is_transit":false,"station_name":"Cisauk"},{"station_id":"CC","time":4,"i_long":106.617853,"line":0,"distance":2519,"i_lat":-6.329547,"transit":false,"is_transit":false,"station_name":"Cicayur"}],[{"transit":false,"station_name":"Cikarang","distance":0,"line":0,"i_lat":-6.2553149999999995,"station_id":"CKR","is_transit":false,"i_long":107.144613,"time":0},{"i_lat":-6.262938,"i_long":107.093313,"line":1,"is_transit":false,"station_name":"Metland Telaga Murni","station_id":"TLM","distance":3689,"time":4,"transit":false},{"station_name":"Cibitung","distance":2800,"line":0,"transit":false,"station_id":"CIT","is_transit":false,"time":2,"i_lat":-6.261877,"i_long":107.083084},{"i_lat":-6.258864,"line":1,"distance":3420,"station_name":"Tambun","station_id":"TB","i_long":107.055722,"is_transit":false,"transit":false,"time":3},{"station_name":"Bekasi Timur","i_lat":-6.248029,"station_id":"BKST","i_long":107.016735,"line":0,"time":7,"is_transit":false,"distance":4460,"transit":false},{"transit":false,"i_long":106.997013,"i_lat":-6.236616,"is_transit":false,"station_id":"BKS","station_name":"Bekasi","time":2,"line":0,"distance":2368},{"i_long":106.977657,"distance":2520,"is_transit":false,"i_lat":-6.224515,"station_id":"KRI","transit":false,"time":4,"line":1,"station_name":"Kranji"},{"station_name":"Cakung","i_long":106.951283,"station_id":"CUK","transit":false,"time":3,"is_transit":false,"line":0,"distance":3097,"i_lat":-6.219053},{"i_long":106.939679,"is_transit":false,"station_id":"KLDB","i_lat":-6.217455,"line":1,"distance":1385,"time":8,"station_name":"Klenderbaru","transit":false},{"line":0,"i_lat":-6.215568,"station_name":"Buaran","time":1,"station_id":"BUA","distance":1305,"transit":false,"i_long":106.922662,"is_transit":false},{"station_id":"KLD","is_transit":false,"time":2,"station_name":"Klender","transit":false,"i_lat":-6.2135,"i_long":106.899548,"distance":3100,"line":1},{"station_id":"JNG","distance":3395,"is_transit":true,"i_long":106.86807400000001,"station_name":"Jatinegara","line":0,"transit":false,"i_lat":-6.215091,"time":3},{"transit":false,"line":1,"station_id":"MTR","i_lat":-6.212485,"is_transit":false,"i_long":106.858896,"time":2,"distance":1377,"station_name":"Matraman"},{"distance":1275,"i_lat":-6.209883,"i_long":106.84912,"time":2,"transit":true,"station_id":"MRI","is_transit":true,"line":0,"station_name":"Manggarai"},{"i_long":106.840169,"is_transit":false,"i_lat":-6.198556,"distance":1590,"transit":false,"line":0,"station_id":"CKI","time":4,"station_name":"Cikini"},{"is_transit":false,"distance":1750,"i_long":106.832183,"line":2,"station_id":"GDD","time":3,"station_name":"Gondangdia","transit":false,"i_lat":-6.186295},{"i_long":106.828284,"time":4,"station_name":"Juanda","is_transit":false,"distance":2015,"transit":false,"i_lat":-6.166716,"line":2,"station_id":"JUA"},{"i_lat":-6.160725,"i_long":106.827103,"distance":1149,"line":2,"is_transit":false,"transit":false,"station_name":"Sawah Besar","time":2,"station_id":"SW"},{"is_transit":false,"distance":906,"i_lat":-6.149769,"station_name":"Manggabesar","time":2,"i_long":106.82482,"line":2,"transit":false,"station_id":"MGB"},{"i_lat":-6.141205,"station_id":"JAY","station_name":"Jayakarta","line":7,"is_transit":false,"i_long":106.820901,"distance":1080,"time":2,"transit":false},{"station_name":"Jakarta Kota","line":0,"is_transit":true,"transit":true,"i_long":106.812439,"i_lat":-6.137569,"station_id":"JAKK","distance":1264,"time":4},{"station_name":"Kampung Bandan","line":0,"i_lat":-6.132549,"i_long":106.826365,"station_id":"KPB","is_transit":true,"distance":1364,"time":3,"transit":false},{"line":0,"transit":false,"station_id":"AK","distance":4102,"time":9,"i_lat":-6.144674,"is_transit":false,"station_name":"Angke","i_long":106.79867},{"station_name":"Duri","time":4,"i_lat":-6.155215,"is_transit":true,"i_long":106.800832,"distance":1230,"station_id":"DU","transit":true,"line":1},{"is_transit":true,"station_name":"Tanah Abang","station_id":"THB","time":8,"distance":3632,"transit":true,"i_lat":-6.185545,"i_long":106.811091,"line":1},{"i_long":106.79689,"line":6,"station_name":"Palmerah","station_id":"PLM","distance":3191,"i_lat":-6.207404,"time":6,"transit":false,"is_transit":false},{"station_id":"KBY","station_name":"Kebayoran","line":6,"distance":3737,"time":7,"is_transit":false,"transit":false,"i_lat":-6.237242,"i_long":106.780334},{"i_long":106.74273,"time":8,"station_id":"PDJ","line":6,"is_transit":false,"distance":6218,"station_name":"Pondokranji","transit":false,"i_lat":-6.276362},{"is_transit":false,"i_lat":-6.288927,"distance":2179,"time":3,"i_long":106.728916,"line":6,"transit":false,"station_name":"Jurangmangu","station_id":"JMU"},{"distance":1994,"i_lat":-6.296963,"line":6,"time":4,"transit":false,"station_id":"SDM","is_transit":false,"station_name":"Sudimara","i_long":106.712277},{"i_lat":-6.314823,"station_id":"RU","station_name":"Rawa Buntu","is_transit":false,"i_long":106.675475,"line":6,"distance":4566,"time":6,"transit":false},{"distance":2413,"i_long":106.66566,"station_id":"SRP","transit":false,"time":4,"station_name":"Serpong","is_transit":false,"i_lat":-6.319871,"line":6},{"is_transit":false,"distance":1784,"transit":false,"i_lat":-6.32484,"time":4,"i_long":106.640411,"station_name":"Cisauk","station_id":"CSK","line":0},{"i_lat":-6.329547,"i_long":106.617853,"is_transit":false,"station_id":"CC","transit":false,"distance":2519,"line":0,"time":4,"station_name":"Cicayur"}],[{"transit":false,"line":0,"i_lat":-6.2553149999999995,"station_id":"CKR","is_transit":false,"time":0,"i_long":107.144613,"distance":0,"station_name":"Cikarang"},{"is_transit":false,"i_lat":-6.262938,"station_id":"TLM","transit":false,"line":1,"time":4,"i_long":107.093313,"station_name":"Metland Telaga Murni","distance":3689},{"is_transit":false,"time":2,"i_lat":-6.261877,"station_name":"Cibitung","transit":false,"i_long":107.083084,"line":0,"station_id":"CIT","distance":2800},{"time":3,"i_lat":-6.258864,"station_id":"TB","transit":false,"line":1,"i_long":107.055722,"distance":3420,"station_name":"Tambun","is_transit":false},{"distance":4460,"i_lat":-6.248029,"station_name":"Bekasi Timur","i_long":107.016735,"transit":false,"time":7,"line":0,"station_id":"BKST","is_transit":false},{"time":2,"station_id":"BKS","station_name":"Bekasi","i_long":106.997013,"transit":false,"i_lat":-6.236616,"line":0,"distance":2368,"is_transit":false},{"time":4,"station_id":"KRI","i_long":106.977657,"distance":2520,"i_lat":-6.224515,"is_transit":false,"transit":false,"line":1,"station_name":"Kranji"},{"station_name":"Cakung","station_id":"CUK","transit":false,"is_transit":false,"i_lat":-6.219053,"i_long":106.951283,"line":0,"time":3,"distance":3097},{"i_long":106.939679,"time":8,"line":1,"distance":1385,"is_transit":false,"transit":false,"station_id":"KLDB","station_name":"Klenderbaru","i_lat":-6.217455},{"i_lat":-6.215568,"transit":false,"station_name":"Buaran","station_id":"BUA","is_transit":false,"distance":1305,"line":0,"i_long":106.922662,"time":1},{"station_name":"Klender","i_long":106.899548,"transit":false,"is_transit":false,"line":1,"i_lat":-6.2135,"station_id":"KLD","time":2,"distance":3100},{"i_lat":-6.215091,"is_transit":true,"distance":3395,"station_id":"JNG","line":0,"station_name":"Jatinegara","time":3,"transit":true,"i_long":106.86807400000001},{"distance":1236,"station_name":"Pondok Jati","line":11,"station_id":"POK","i_long":106.861737,"i_lat":-6.209188,"time":2,"transit":false,"is_transit":false},{"station_name":"Kramat","line":11,"is_transit":false,"i_lat":-6.193792,"transit":false,"i_long":106.855437,"station_id":"KMT","distance":1829,"time":2},{"transit":false,"time":1,"distance":973,"station_name":"Gang Sentiong","i_long":106.850107,"is_transit":false,"i_lat":-6.185975,"line":11,"station_id":"GST"},{"station_name":"Pasar Senen","station_id":"PSE","is_transit":false,"distance":1567,"i_lat":-6.174784,"line":11,"i_long":106.84368,"time":8,"transit":false},{"time":4,"line":11,"i_lat":-6.161728,"i_long":106.839204,"station_id":"KMO","is_transit":false,"transit":false,"station_name":"Kemayoran","distance":1436},{"station_name":"Rajawali","is_transit":false,"distance":1901,"transit":false,"time":5,"line":11,"station_id":"RJW","i_long":106.836569,"i_lat":-6.14505},{"distance":1444,"i_long":106.826365,"line":0,"time":3,"is_transit":true,"station_name":"Kampung Bandan","i_lat":-6.132549,"station_id":"KPB","transit":true},{"transit":true,"station_name":"Jakarta Kota","line":0,"time":3,"distance":1364,"is_transit":true,"i_lat":-6.137569,"station_id":"JAKK","i_long":106.812439},{"station_id":"JAY","time":4,"distance":1264,"station_name":"Jayakarta","line":7,"transit":false,"i_lat":-6.141205,"i_long":106.820901,"is_transit":false},{"is_transit":false,"station_id":"MGB","distance":1080,"transit":false,"i_lat":-6.149769,"i_long":106.82482,"line":2,"station_name":"Manggabesar","time":2},{"i_lat":-6.160725,"i_long":106.827103,"distance":906,"time":2,"transit":false,"station_name":"Sawah Besar","line":2,"station_id":"SW","is_transit":false},{"i_lat":-6.166716,"time":2,"distance":1149,"i_long":106.828284,"line":2,"station_id":"JUA","transit":false,"station_name":"Juanda","is_transit":false},{"transit":false,"line":2,"is_transit":false,"station_name":"Gondangdia","i_lat":-6.186295,"distance":2015,"station_id":"GDD","time":4,"i_long":106.832183},{"line":0,"transit":false,"station_name":"Cikini","station_id":"CKI","i_long":106.840169,"distance":1750,"is_transit":false,"time":3,"i_lat":-6.198556},{"time":4,"transit":true,"i_lat":-6.209883,"i_long":106.84912,"distance":1590,"station_name":"Manggarai","line":0,"station_id":"MRI","is_transit":true},{"station_id":"SUD","time":4,"is_transit":false,"transit":false,"i_lat":-6.202263,"distance":3186,"i_long":106.822649,"line":1,"station_name":"Sudirman"},{"time":1,"i_long":106.819881,"transit":false,"distance":280,"is_transit":false,"i_lat":-6.201433,"station_id":"SUDB","station_name":"Sudirman Baru","line":1},{"station_name":"Karet","i_lat":-6.20132,"station_id":"KAT","distance":471,"transit":false,"time":1,"line":1,"is_transit":false,"i_long":106.816351},{"distance":2029,"i_lat":-6.185545,"time":5,"transit":true,"i_long":106.811091,"is_transit":true,"line":1,"station_id":"THB","station_name":"Tanah Abang"},{"distance":3191,"station_name":"Palmerah","transit":false,"is_transit":false,"line":6,"time":6,"i_lat":-6.207404,"i_long":106.79689,"station_id":"PLM"},{"is_transit":false,"transit":false,"distance":3737,"i_long":106.780334,"station_id":"KBY","line":6,"i_lat":-6.237242,"station_name":"Kebayoran","time":7},{"i_lat":-6.276362,"i_long":106.74273,"station_id":"PDJ","is_transit":false,"station_name":"Pondokranji","line":6,"time":8,"distance":6218,"transit":false},{"is_transit":false,"i_lat":-6.288927,"transit":false,"line":6,"i_long":106.728916,"station_id":"JMU","distance":2179,"time":3,"station_name":"Jurangmangu"},{"station_name":"Sudimara","i_lat":-6.296963,"distance":1994,"i_long":106.712277,"line":6,"station_id":"SDM","is_transit":false,"transit":false,"time":4},{"time":6,"transit":false,"line":6,"station_name":"Rawa Buntu","is_transit":false,"station_id":"RU","distance":4566,"i_long":106.675475,"i_lat":-6.314823},{"line":6,"is_transit":false,"station_id":"SRP","i_long":106.66566,"distance":2413,"i_lat":-6.319871,"time":4,"transit":false,"station_name":"Serpong"},{"is_transit":false,"transit":false,"i_lat":-6.32484,"i_long":106.640411,"line":0,"station_id":"CSK","distance":1784,"time":4,"station_name":"Cisauk"},{"transit":false,"distance":2519,"time":4,"i_lat":-6.329547,"i_long":106.617853,"line":0,"is_transit":false,"station_id":"CC","station_name":"Cicayur"}]]}