{"data":[[{"distance":0,"station_id":"CKR","i_long":107.144613,"time":0,"is_transit":false,"transit":false,"line":0,"station_name":"Cikarang","i_lat":-6.2553149999999995},{"time":4,"station_id":"TLM","transit":false,"line":1,"distance":3689,"is_transit":false,"i_lat":-6.262938,"i_long":107.093313,"station_name":"Metland Telaga Murni"},{"distance":2800,"i_long":107.083084,"time":2,"station_id":"CIT","station_name":"Cibitung","transit":false,"i_lat":-6.261877,"is_transit":false,"line":0},{"i_long":107.055722,"time":3,"is_transit":false,"line":1,"transit":false,"station_name":"Tambun","distance":3420,"station_id":"TB","i_lat":-6.258864},{"station_name":"Bekasi Timur","is_transit":false,"line":0,"transit":false,"station_id":"BKST","time":7,"i_long":107.016735,"distance":4460,"i_lat":-6.248029},{"time":2,"is_transit":false,"line":0,"distance":2368,"i_long":106.997013,"station_name":"Bekasi","i_lat":-6.236616,"transit":false,"station_id":"BKS"},{"is_transit":false,"i_lat":-6.224515,"i_long":106.977657,"time":4,"distance":2520,"station_id":"KRI","line":1,"station_name":"Kranji","transit":false},{"transit":false,"distance":3097,"i_lat":-6.219053,"i_long":106.951283,"line":0,"is_transit":false,"time":3,"station_id":"CUK","station_name":"Cakung"},{"i_lat":-6.217455,"i_long":106.939679,"line":1,"transit":false,"station_id":"KLDB","time":8,"distance":1385,"station_name":"Klenderbaru","is_transit":false},{"station_name":"Buaran","station_id":"BUA","distance":1305,"line":0,"is_transit":false,"i_lat":-6.215568,"time":1,"transit":false,"i_long":106.922662},{"station_name":"Klender","line":1,"is_transit":false,"distance":3100,"transit":false,"i_long":106.899548,"i_lat":-6.2135,"station_id":"KLD","time":2},{"i_lat":-6.215091,"i_long":106.86807400000001,"line":0,"station_id":"JNG","station_name":"Jatinegara","transit":false,"distance":3395,"time":3,"is_transit":true},{"transit":false,"i_lat":-6.212485,"station_id":"MTR","time":2,"i_long":106.858896,"is_transit":false,"station_name":"Matraman","line":1,"distance":1377},{"i_long":106.84912,"transit":true,"line":0,"station_id":"MRI","is_transit":true,"i_lat":-6.209883,"time":2,"distance":1275,"station_name":"Manggarai"},{"station_id":"TEB","i_lat":-6.226659,"station_name":"Tebet","time":4,"i_long":106.857948,"is_transit":false,"distance":2610,"line":2,"transit":false},{"transit":false,"i_lat":-6.242512,"distance":1230,"station_id":"CW","is_transit":false,"station_name":"Cawang","time":2,"line":0,"i_long":106.856607},{"station_name":"Duren Kalibata","distance":1546,"transit":false,"station_id":"DRN","time":3,"i_long":106.85449,"line":0,"is_transit":false,"i_lat":-6.255332},{"distance":824,"station_id":"PSMB","transit":false,"i_long":106.851577,"station_name":"Pasar Minggu Baru","is_transit":false,"i_lat":-6.263214,"line":2,"time":2},{"station_id":"PSM","line":2,"station_name":"Pasar Minggu","time":2,"i_long":106.843999,"distance":2380,"is_transit":false,"i_lat":-6.2842400000000005,"transit":false},{"distance":2820,"time":4,"i_lat":-6.3080680000000005,"is_transit":false,"transit":false,"station_id":"TNT","i_long":106.838896,"line":2,"station_name":"Tanjung Barat"},{"is_transit":false,"station_id":"LNA","distance":2671,"station_name":"Lenteng Agung","transit":false,"i_lat":-6.330363,"time":3,"i_long":106.832616,"line":2},{"distance":1029,"time":2,"station_id":"UP","i_lat":-6.339291,"transit":false,"is_transit":false,"i_long":106.834175,"line":2,"station_name":"Univ. Pancasila"},{"transit":false,"i_lat":-6.360749,"i_long":106.831474,"is_transit":false,"time":3,"line":2,"distance":2264,"station_name":"Univ. Indonesia","station_id":"UI"},{"is_transit":false,"time":2,"transit":false,"station_name":"Pondok Cina","station_id":"POC","i_lat":-6.369073,"i_long":106.831114,"line":2,"distance":1109},{"time":4,"transit":false,"line":0,"distance":2727,"station_name":"Depokbaru","is_transit":false,"station_id":"DPB","i_lat":-6.391065,"i_long":106.819451},{"station_id":"DP","distance":1584,"transit":false,"station_name":"Depok","i_long":106.816926,"is_transit":false,"i_lat":-6.405256,"line":0,"time":3},{"i_lat":-6.448811,"station_id":"CTA","line":1,"time":6,"transit":false,"distance":5084,"station_name":"Citayam","i_long":106.800298,"is_transit":true},{"distance":5197,"is_transit":false,"i_lat":-6.493243,"i_long":106.792719,"line":0,"transit":false,"time":5,"station_id":"BJD","station_name":"Bojonggede"},{"time":5,"i_long":106.800016,"station_name":"Cilebut","i_lat":-6.530544,"distance":4331,"is_transit":false,"line":0,"transit":false,"station_id":"CLT"}],[{"station_name":"Cikarang","transit":false,"distance":0,"station_id":"CKR","is_transit":false,"i_lat":-6.2553149999999995,"line":0,"i_long":107.144613,"time":0},{"distance":3689,"i_long":107.093313,"is_transit":false,"line":1,"station_name":"Metland Telaga Murni","transit":false,"station_id":"TLM","time":4,"i_lat":-6.262938},{"is_transit":false,"time":2,"i_long":107.083084,"transit":false,"line":0,"station_name":"Cibitung","station_id":"CIT","distance":2800,"i_lat":-6.261877},{"station_id":"TB","transit":false,"distance":3420,"time":3,"line":1,"i_lat":-6.258864,"i_long":107.055722,"is_transit":false,"station_name":"Tambun"},{"station_name":"Bekasi Timur","i_long":107.016735,"station_id":"BKST","i_lat":-6.248029,"time":7,"is_transit":false,"transit":false,"distance":4460,"line":0},{"time":2,"i_long":106.997013,"station_name":"Bekasi","line":0,"distance":2368,"i_lat":-6.236616,"station_id":"BKS","transit":false,"is_transit":false},{"station_name":"Kranji","station_id":"KRI","transit":false,"distance":2520,"i_lat":-6.224515,"time":4,"is_transit":false,"line":1,"i_long":106.977657},{"station_name":"Cakung","i_lat":-6.219053,"is_transit":false,"transit":false,"station_id":"CUK","line":0,"distance":3097,"time":3,"i_long":106.951283},{"time":8,"distance":1385,"line":1,"station_name":"Klenderbaru","i_lat":-6.217455,"i_long":106.939679,"is_transit":false,"transit":false,"station_id":"KLDB"},{"station_id":"BUA","transit":false,"distance":1305,"is_transit":false,"i_long":106.922662,"station_name":"Buaran","i_lat":-6.215568,"time":1,"line":0},{"time":2,"i_lat":-6.2135,"station_id":"KLD","i_long":106.899548,"line":1,"distance":3100,"transit":false,"is_transit":false,"station_name":"Klender"},{"is_transit":true,"distance":3395,"transit":true,"time":3,"i_long":106.86807400000001,"line":0,"station_name":"Jatinegara","station_id":"JNG","i_lat":-6.215091},{"station_id":"POK","time":2,"line":11,"i_lat":-6.209188,"is_transit":false,"i_long":106.861737,"station_name":"Pondok Jati","transit":false,"distance":1236},{"station_id":"KMT","i_long":106.855437,"time":2,"station_name":"Kramat","line":11,"distance":1829,"is_transit":false,"i_lat":-6.193792,"transit":false},{"is_transit":false,"i_long":106.850107,"distance":973,"transit":false,"station_id":"GST","station_name":"Gang Sentiong","i_lat":-6.185975,"line":11,"time":1},{"time":8,"transit":false,"i_long":106.84368,"distance":1567,"is_transit":false,"station_id":"PSE","i_lat":-6.174784,"line":11,"station_name":"Pasar Senen"},{"distance":1436,"is_transit":false,"i_long":106.839204,"line":11,"station_name":"Kemayoran","time":4,"i_lat":-6.161728,"station_id":"KMO","transit":false},{"i_long":106.836569,"line":11,"i_lat":-6.14505,"station_id":"RJW","distance":1901,"transit":false,"time":5,"is_transit":false,"station_name":"Rajawali"},{"is_transit":true,"time":3,"station_id":"KPB","i_long":106.826365,"line":0,"transit":true,"i_lat":-6.132549,"distance":1444,"station_name":"Kampung Bandan"},{"i_lat":-6.144674,"is_transit":false,"transit":false,"time":9,"line":0,"i_long":106.79867,"distance":4102,"station_name":"Angke","station_id":"AK"},{"distance":1230,"time":4,"station_id":"DU","transit":true,"is_transit":true,"i_lat":-6.155215,"line":1,"i_long":106.800832,"station_name":"Duri"},{"line":1,"transit":false,"station_name":"Tanah Abang","time":8,"is_transit":true,"i_lat":-6.185545,"distance":3632,"station_id":"THB","i_long":106.811091},{"is_transit":false,"i_lat":-6.20132,"transit":false,"station_name":"Karet","station_id":"KAT","line":1,"i_long":106.816351,"time":5,"distance":2029},{"i_long":106.819881,"distance":471,"transit":false,"line":1,"i_lat":-6.201433,"station_name":"Sudirman Baru","time":1,"is_transit":false,"station_id":"SUDB"},{"i_long":106.822649,"line":1,"transit":false,"station_id":"SUD","is_transit":false,"time":1,"distance":280,"station_name":"Sudirman","i_lat":-6.202263},{"time":4,"is_transit":true,"line":0,"i_lat":-6.209883,"transit":true,"i_long":106.84912,"station_name":"Manggarai","distance":3186,"station_id":"MRI"},{"time":4,"station_id":"TEB","is_transit":false,"i_lat":-6.226659,"i_long":106.857948,"station_name":"Tebet","distance":2610,"line":2,"transit":false},{"i_lat":-6.242512,"i_long":106.856607,"station_id":"CW","is_transit":false,"line":0,"station_name":"Cawang","time":2,"distance":1230,"transit":false},{"station_id":"DRN","transit":false,"line":0,"i_long":106.85449,"is_transit":false,"time":3,"station_name":"Duren Kalibata","i_lat":-6.255332,"distance":1546},{"line":2,"transit":false,"station_id":"PSMB","time":2,"i_lat":-6.263214,"i_long":106.851577,"is_transit":false,"distance":824,"station_name":"Pasar Minggu Baru"},{"i_lat":-6.2842400000000005,"time":2,"i_long":106.843999,"distance":2380,"station_id":"PSM","is_transit":false,"station_name":"Pasar Minggu","line":2,"transit":false},{"station_id":"TNT","distance":2820,"is_transit":false,"i_long":106.838896,"line":2,"station_name":"Tanjung Barat","transit":false,"time":4,"i_lat":-6.3080680000000005},{"station_id":"LNA","line":2,"distance":2671,"transit":false,"i_long":106.832616,"is_transit":false,"i_lat":-6.330363,"time":3,"station_name":"Lenteng Agung"},{"is_transit":false,"line":2,"station_name":"Univ. Pancasila","station_id":"UP","i_long":106.834175,"i_lat":-6.339291,"transit":false,"distance":1029,"time":2},{"distance":2264,"time":3,"i_long":106.831474,"station_id":"UI","transit":false,"station_name":"Univ. Indonesia","i_lat":-6.360749,"line":2,"is_transit":false},{"line":2,"transit":false,"i_lat":-6.369073,"distance":1109,"station_id":"POC","station_name":"Pondok Cina","time":2,"is_transit":false,"i_long":106.831114},{"distance":2727,"i_long":106.819451,"station_name":"Depokbaru","station_id":"DPB","line":0,"time":4,"transit":false,"is_transit":false,"i_lat":-6.391065},{"distance":1584,"i_lat":-6.405256,"transit":false,"station_name":"Depok","is_transit":false,"i_long":106.816926,"line":0,"station_id":"DP","time":3},{"station_id":"CTA","i_lat":-6.448811,"station_name":"Citayam","i_long":106.800298,"transit":false,"distance":5084,"is_transit":true,"line":1,"time":6},{"transit":false,"station_name":"Bojonggede","is_transit":false,"i_long":106.792719,"line":0,"station_id":"BJD","i_lat":-6.493243,"time":5,"distance":5197},{"station_id":"CLT","line":0,"station_name":"Cilebut","distance":4331,"i_lat":-6.530544,"time":5,"transit":false,"is_transit":false,"i_long":106.800016}],[{"time":0,"station_name":"Cikarang","distance":0,"is_transit":false,"i_lat":-6.2553149999999995,"transit":false,"station_id":"CKR","i_long":107.144613,"line":0},{"station_name":"Metland Telaga Murni","i_long":107.093313,"transit":false,"line":1,"is_transit":false,"time":4,"distance":3689,"station_id":"TLM","i_lat":-6.262938},{"time":2,"i_long":107.083084,"line":0,"i_lat":-6.261877,"station_id":"CIT","distance":2800,"is_transit":false,"transit":false,"station_name":"Cibitung"},{"line":1,"time":3,"i_lat":-6.258864,"station_name":"Tambun","transit":false,"is_transit":false,"station_id":"TB","distance":3420,"i_long":107.055722},{"line":0,"time":7,"is_transit":false,"station_name":"Bekasi Timur","distance":4460,"i_long":107.016735,"station_id":"BKST","i_lat":-6.248029,"transit":false},{"distance":2368,"station_id":"BKS","i_long":106.997013,"station_name":"Bekasi","time":2,"is_transit":false,"i_lat":-6.236616,"transit":false,"line":0},{"time":4,"i_lat":-6.224515,"line":1,"distance":2520,"station_id":"KRI","station_name":"Kranji","i_long":106.977657,"is_transit":false,"transit":false},{"distance":3097,"time":3,"is_transit":false,"i_long":106.951283,"station_name":"Cakung","station_id":"CUK","i_lat":-6.219053,"transit":false,"line":0},{"transit":false,"i_long":106.939679,"station_name":"Klenderbaru","time":8,"i_lat":-6.217455,"line":1,"distance":1385,"is_transit":false,"station_id":"KLDB"},{"distance":1305,"i_long":106.922662,"station_id":"BUA","i_lat":-6.215568,"is_transit":false,"line":0,"station_name":"Buaran","transit":false,"time":1},{"station_name":"Klender","i_long":106.899548,"time":2,"i_lat":-6.2135,"line":1,"station_id":"KLD","transit":false,"distance":3100,"is_transit":false},{"transit":true,"i_long":106.86807400000001,"time":3,"distance":3395,"station_id":"JNG","i_lat":-6.215091,"is_transit":true,"station_name":"Jatinegara","line":0},{"time":2,"transit":false,"is_transit":false,"i_lat":-6.209188,"distance":1236,"station_id":"POK","i_long":106.861737,"station_name":"Pondok Jati","line":11},{"distance":1829,"i_lat":-6.193792,"i_long":106.855437,"is_transit":false,"line":11,"station_name":"Kramat","station_id":"KMT","time":2,"transit":false},{"i_long":106.850107,"station_name":"Gang Sentiong","i_lat":-6.185975,"time":1,"distance":973,"station_id":"GST","transit":false,"is_transit":false,"line":11},{"station_name":"Pasar Senen","transit":false,"station_id":"PSE","line":11,"is_transit":false,"i_long":106.84368,"time":8,"distance":1567,"i_lat":-6.174784},{"distance":1436,"station_name":"Kemayoran","transit":false,"is_transit":false,"i_long":106.839204,"station_id":"KMO","i_lat":-6.161728,"time":4,"line":11},{"station_name":"Rajawali","i_lat":-6.14505,"line":11,"station_id":"RJW","distance":1901,"transit":false,"time":5,"is_transit":false,"i_long":106.836569},{"time":3,"line":0,"station_id":"KPB","i_long":106.826365,"i_lat":-6.132549,"distance":1444,"transit":true,"station_name":"Kampung Bandan","is_transit":true},{"distance":1364,"i_long":106.812439,"time":3,"i_lat":-6.137569,"station_name":"Jakarta Kota","is_transit":true,"line":0,"transit":true,"station_id":"JAKK"},{"transit":false,"i_lat":-6.141205,"station_name":"Jayakarta","distance":1264,"station_id":"JAY","line":7,"time":4,"is_transit":false,"i_long":106.820901},{"i_long":106.82482,"station_id":"MGB","time":2,"distance":1080,"transit":false,"i_lat":-6.149769,"station_name":"Manggabesar","is_transit":false,"line":2},{"i_long":106.827103,"line":2,"distance":906,"transit":false,"time":2,"station_id":"SW","i_lat":-6.160725,"station_name":"Sawah Besar","is_transit":false},{"i_lat":-6.166716,"is_transit":false,"station_id":"JUA","distance":1149,"station_name":"Juanda","line":2,"transit":false,"time":2,"i_long":106.828284},{"time":4,"station_name":"Gondangdia","i_long":106.832183,"transit":false,"distance":2015,"i_lat":-6.186295,"line":2,"is_transit":false,"station_id":"GDD"},{"i_long":106.840169,"transit":false,"station_id":"CKI","time":3,"distance":1750,"station_name":"Cikini","i_lat":-6.198556,"is_transit":false,"line":0},{"station_name":"Manggarai","distance":1590,"station_id":"MRI","transit":true,"line":0,"time":4,"is_transit":true,"i_long":106.84912,"i_lat":-6.209883},{"line":2,"station_name":"Tebet","time":4,"is_transit":false,"transit":false,"station_id":"TEB","distance":2610,"i_lat":-6.226659,"i_long":106.857948},{"is_transit":false,"line":0,"time":2,"distance":1230,"transit":false,"i_long":106.856607,"station_name":"Cawang","station_id":"CW","i_lat":-6.242512},{"time":3,"is_transit":false,"transit":false,"station_id":"DRN","distance":1546,"station_name":"Duren Kalibata","i_lat":-6.255332,"i_long":106.85449,"line":0},{"station_name":"Pasar Minggu Baru","i_long":106.851577,"time":2,"station_id":"PSMB","i_lat":-6.263214,"transit":false,"line":2,"is_transit":false,"distance":824},{"station_name":"Pasar Minggu","transit":false,"time":2,"is_transit":false,"station_id":"PSM","line":2,"distance":2380,"i_lat":-6.2842400000000005,"i_long":106.843999},{"station_id":"TNT","i_lat":-6.3080680000000005,"line":2,"station_name":"Tanjung Barat","is_transit":false,"transit":false,"i_long":106.838896,"distance":2820,"time":4},{"station_name":"Lenteng Agung","is_transit":false,"station_id":"LNA","i_lat":-6.330363,"i_long":106.832616,"transit":false,"distance":2671,"line":2,"time":3},{"i_lat":-6.339291,"is_transit":false,"time":2,"station_id":"UP","distance":1029,"i_long":106.834175,"line":2,"station_name":"Univ. Pancasila","transit":false},{"time":3,"station_id":"UI","line":2,"station_name":"Univ. Indonesia","transit":false,"distance":2264,"is_transit":false,"i_long":106.831474,"i_lat":-6.360749},{"line":2,"distance":1109,"i_lat":-6.369073,"transit":false,"i_long":106.831114,"station_id":"POC","is_transit":false,"station_name":"Pondok Cina","time":2},{"i_lat":-6.391065,"station_id":"DPB","i_long":106.819451,"distance":2727,"station_name":"Depokbaru","time":4,"line":0,"transit":false,"is_transit":false},{"distance":1584,"i_lat":-6.405256,"station_id":"DP","time":3,"station_name":"Depok","transit":false,"is_transit":false,"i_long":106.816926,"line":0},{"is_transit":true,"station_id":"CTA","transit":false,"i_long":106.800298,"i_lat":-6.448811,"line":1,"distance":5084,"station_name":"Citayam","time":6},{"time":5,"i_long":106.792719,"station_id":"BJD","i_lat":-6.493243,"transit":false,"distance":5197,"is_transit":false,"line":0,"station_name":"Bojonggede"},{"is_transit":false,"station_name":"Cilebut","i_long":106.800016,"transit":false,"station_id":"CLT","time":5,"line":0,"distance":4331,"i_lat":-6.530544}]]}