{"data":[[{"is_transit":false,"i_lat":-6.2553149999999995,"station_name":"Cikarang","distance":0,"transit":false,"i_long":107.144613,"station_id":"CKR","line":1,"time":0},{"time":4,"transit":false,"i_lat":-6.262938,"line":1,"is_transit":false,"i_long":107.093313,"station_name":"Metland Telaga Murni","distance":3689,"station_id":"TLM"},{"time":2,"transit":false,"i_lat":-6.261877,"i_long":107.083084,"is_transit":false,"distance":2800,"line":1,"station_id":"CIT","station_name":"Cibitung"},{"i_lat":-6.258864,"station_id":"TB","transit":false,"line":1,"is_transit":false,"distance":3420,"time":3,"station_name":"Tambun","i_long":107.055722},{"station_name":"Bekasi Timur","line":1,"is_transit":false,"station_id":"BKST","distance":4460,"transit":false,"i_lat":-6.248029,"i_long":107.016735,"time":7},{"time":2,"station_name":"Bekasi","i_long":106.997013,"distance":2368,"line":1,"is_transit":false,"station_id":"BKS","i_lat":-6.236616,"transit":false},{"transit":false,"is_transit":false,"time":4,"i_long":106.977657,"line":1,"station_id":"KRI","i_lat":-6.224515,"station_name":"Kranji","distance":2520},{"line":1,"time":3,"station_id":"CUK","transit":false,"station_name":"Cakung","i_lat":-6.219053,"distance":3097,"is_transit":false,"i_long":106.951283},{"station_name":"Klenderbaru","distance":1385,"is_transit":false,"transit":false,"i_lat":-6.217455,"i_long":106.939679,"line":1,"station_id":"KLDB","time":8},{"station_name":"Buaran","transit":false,"i_long":106.922662,"station_id":"BUA","distance":1305,"time":1,"is_transit":false,"i_lat":-6.215568,"line":1},{"line":1,"time":2,"is_transit":false,"station_id":"KLD","i_long":106.899548,"distance":3100,"transit":false,"station_name":"Klender","i_lat":-6.2135},{"line":1,"distance":3395,"station_id":"JNG","i_long":106.86807400000001,"time":3,"station_name":"Jatinegara","is_transit":true,"i_lat":-6.215091,"transit":true},{"station_id":"POK","line":11,"transit":false,"station_name":"Pondok Jati","distance":1236,"time":2,"is_transit":false,"i_long":106.861737,"i_lat":-6.209188},{"time":2,"transit":false,"station_id":"KMT","i_lat":-6.193792,"distance":1829,"i_long":106.855437,"line":11,"station_name":"Kramat","is_transit":false},{"distance":973,"time":1,"i_lat":-6.185975,"line":11,"station_name":"Gang Sentiong","transit":false,"is_transit":false,"station_id":"GST","i_long":106.850107},{"station_name":"Pasar Senen","time":8,"is_transit":false,"transit":false,"i_long":106.84368,"station_id":"PSE","distance":1567,"line":11,"i_lat":-6.174784},{"time":4,"station_name":"Kemayoran","is_transit":false,"i_lat":-6.161728,"distance":1436,"transit":false,"i_long":106.839204,"station_id":"KMO","line":11}],[{"transit":false,"station_name":"Cikarang","i_long":107.144613,"station_id":"CKR","time":0,"distance":0,"line":1,"is_transit":false,"i_lat":-6.2553149999999995},{"i_long":107.093313,"line":1,"station_name":"Metland Telaga Murni","time":4,"is_transit":false,"i_lat":-6.262938,"transit":false,"station_id":"TLM","distance":3689},{"station_name":"Cibitung","transit":false,"i_lat":-6.261877,"time":2,"distance":2800,"i_long":107.083084,"line":1,"is_transit":false,"station_id":"CIT"},{"line":1,"station_id":"TB","station_name":"Tambun","i_long":107.055722,"transit":false,"time":3,"distance":3420,"i_lat":-6.258864,"is_transit":false},{"is_transit":false,"time":7,"station_name":"Bekasi Timur","station_id":"BKST","i_lat":-6.248029,"i_long":107.016735,"line":1,"distance":4460,"transit":false},{"time":2,"distance":2368,"line":1,"station_id":"BKS","station_name":"Bekasi","i_lat":-6.236616,"is_transit":false,"transit":false,"i_long":106.997013},{"i_lat":-6.224515,"time":4,"station_id":"KRI","station_name":"Kranji","is_transit":false,"distance":2520,"transit":false,"line":1,"i_long":106.977657},{"transit":false,"station_name":"Cakung","time":3,"i_long":106.951283,"is_transit":false,"line":1,"distance":3097,"station_id":"CUK","i_lat":-6.219053},{"is_transit":false,"station_name":"Klenderbaru","transit":false,"time":8,"station_id":"KLDB","i_long":106.939679,"i_lat":-6.217455,"line":1,"distance":1385},{"station_id":"BUA","time":1,"is_transit":false,"i_long":106.922662,"transit":false,"distance":1305,"line":1,"i_lat":-6.215568,"station_name":"Buaran"},{"station_id":"KLD","is_transit":false,"time":2,"line":1,"distance":3100,"i_lat":-6.2135,"i_long":106.899548,"station_name":"Klender","transit":false},{"line":1,"station_name":"Jatinegara","station_id":"JNG","distance":3395,"transit":false,"i_long":106.86807400000001,"is_transit":false,"time":3,"i_lat":-6.215091},{"transit":false,"i_long":106.858896,"is_transit":false,"distance":1377,"station_name":"Matraman","line":1,"time":2,"i_lat":-6.212485,"station_id":"MTR"},{"is_transit":false,"station_id":"MRI","i_lat":-6.209883,"time":2,"station_name":"Manggarai","i_long":106.84912,"distance":1275,"transit":false,"line":2},{"time":4,"station_name":"Sudirman","distance":3186,"i_long":106.822649,"station_id":"SUD","line":1,"i_lat":-6.202263,"transit":false,"is_transit":false},{"time":1,"station_id":"SUDB","transit":false,"i_lat":-6.201433,"distance":280,"i_long":106.819881,"station_name":"Sudirman Baru","is_transit":false,"line":1},{"station_id":"KAT","line":1,"station_name":"Karet","distance":471,"transit":false,"i_long":106.816351,"i_lat":-6.20132,"is_transit":false,"time":1},{"time":5,"transit":false,"i_long":106.811091,"station_id":"THB","station_name":"Tanah Abang","distance":2029,"is_transit":false,"i_lat":-6.185545,"line":1},{"transit":false,"station_name":"Duri","distance":3632,"is_transit":false,"i_long":106.800832,"time":8,"station_id":"DU","i_lat":-6.155215,"line":1},{"is_transit":false,"distance":1230,"line":1,"station_name":"Angke","station_id":"AK","time":4,"i_long":106.79867,"i_lat":-6.144674,"transit":false},{"distance":4102,"transit":true,"is_transit":true,"line":4,"i_lat":-6.132549,"station_id":"KPB","i_long":106.826365,"station_name":"Kampung Bandan","time":9},{"station_id":"RJW","station_name":"Rajawali","is_transit":false,"i_long":106.836569,"distance":1444,"time":3,"transit":false,"line":11,"i_lat":-6.14505},{"time":5,"station_id":"KMO","distance":1901,"transit":false,"is_transit":false,"station_name":"Kemayoran","i_lat":-6.161728,"i_long":106.839204,"line":11}],[{"time":0,"transit":false,"i_lat":-6.2553149999999995,"station_name":"Cikarang","is_transit":false,"distance":0,"line":1,"station_id":"CKR","i_long":107.144613},{"transit":false,"time":4,"station_name":"Metland Telaga Murni","i_long":107.093313,"line":1,"is_transit":false,"i_lat":-6.262938,"station_id":"TLM","distance":3689},{"station_name":"Cibitung","distance":2800,"i_lat":-6.261877,"transit":false,"time":2,"station_id":"CIT","line":1,"is_transit":false,"i_long":107.083084},{"i_lat":-6.258864,"time":3,"transit":false,"i_long":107.055722,"station_name":"Tambun","is_transit":false,"station_id":"TB","distance":3420,"line":1},{"station_name":"Bekasi Timur","i_lat":-6.248029,"is_transit":false,"time":7,"transit":false,"i_long":107.016735,"station_id":"BKST","line":1,"distance":4460},{"line":1,"distance":2368,"i_long":106.997013,"is_transit":false,"time":2,"station_id":"BKS","station_name":"Bekasi","transit":false,"i_lat":-6.236616},{"transit":false,"station_name":"Kranji","station_id":"KRI","distance":2520,"is_transit":false,"time":4,"i_lat":-6.224515,"i_long":106.977657,"line":1},{"station_id":"CUK","line":1,"i_long":106.951283,"distance":3097,"transit":false,"time":3,"station_name":"Cakung","is_transit":false,"i_lat":-6.219053},{"i_long":106.939679,"line":1,"i_lat":-6.217455,"transit":false,"distance":1385,"time":8,"station_name":"Klenderbaru","is_transit":false,"station_id":"KLDB"},{"time":1,"station_name":"Buaran","distance":1305,"is_transit":false,"i_lat":-6.215568,"i_long":106.922662,"line":1,"station_id":"BUA","transit":false},{"station_name":"Klender","is_transit":false,"i_long":106.899548,"distance":3100,"line":1,"time":2,"station_id":"KLD","transit":false,"i_lat":-6.2135},{"time":3,"i_lat":-6.215091,"line":1,"station_id":"JNG","station_name":"Jatinegara","distance":3395,"transit":false,"i_long":106.86807400000001,"is_transit":false},{"line":1,"station_id":"MTR","transit":false,"is_transit":false,"i_long":106.858896,"station_name":"Matraman","distance":1377,"i_lat":-6.212485,"time":2},{"i_lat":-6.209883,"i_long":106.84912,"line":2,"station_name":"Manggarai","distance":1275,"time":2,"station_id":"MRI","is_transit":true,"transit":true},{"is_transit":false,"time":4,"i_long":106.840169,"station_id":"CKI","transit":false,"distance":1590,"i_lat":-6.198556,"line":2,"station_name":"Cikini"},{"i_long":106.832183,"station_name":"Gondangdia","line":2,"distance":1750,"transit":false,"time":3,"is_transit":false,"i_lat":-6.186295,"station_id":"GDD"},{"is_transit":false,"distance":2015,"transit":false,"i_lat":-6.166716,"station_id":"JUA","i_long":106.828284,"station_name":"Juanda","line":2,"time":4},{"distance":1149,"station_id":"SW","transit":false,"line":2,"time":2,"is_transit":false,"i_lat":-6.160725,"station_name":"Sawah Besar","i_long":106.827103},{"i_long":106.82482,"transit":false,"line":2,"i_lat":-6.149769,"station_name":"Manggabesar","distance":906,"time":2,"station_id":"MGB","is_transit":false},{"transit":false,"i_lat":-6.141205,"station_name":"Jayakarta","i_long":106.820901,"distance":1080,"time":2,"station_id":"JAY","is_transit":false,"line":2},{"i_long":106.812439,"station_name":"Jakarta Kota","is_transit":true,"transit":true,"line":2,"time":4,"distance":1264,"i_lat":-6.137569,"station_id":"JAKK"},{"time":3,"is_transit":true,"transit":true,"i_long":106.826365,"distance":1364,"line":4,"station_name":"Kampung Bandan","i_lat":-6.132549,"station_id":"KPB"},{"time":3,"distance":1444,"transit":false,"i_lat":-6.14505,"station_id":"RJW","line":11,"i_long":106.836569,"station_name":"Rajawali","is_transit":false},{"is_transit":false,"i_long":106.839204,"distance":1901,"time":5,"line":11,"i_lat":-6.161728,"station_name":"Kemayoran","station_id":"KMO","transit":false}]]}