{"data":[[{"time":0,"distance":0,"station_id":"CKR","station_name":"Cikarang","i_lat":-6.2553149999999995,"i_long":107.144613,"line":1,"is_transit":false,"transit":false},{"i_long":107.093313,"i_lat":-6.262938,"station_id":"TLM","distance":3689,"transit":false,"station_name":"Metland Telaga Murni","time":4,"line":1,"is_transit":false},{"station_name":"Cibitung","transit":false,"station_id":"CIT","distance":2800,"is_transit":false,"i_lat":-6.261877,"i_long":107.083084,"time":2,"line":1},{"distance":3420,"is_transit":false,"line":1,"transit":false,"station_name":"Tambun","time":3,"i_lat":-6.258864,"i_long":107.055722,"station_id":"TB"},{"i_long":107.016735,"time":7,"line":1,"distance":4460,"station_id":"BKST","is_transit":false,"station_name":"Bekasi Timur","transit":false,"i_lat":-6.248029},{"station_id":"BKS","station_name":"Bekasi","distance":2368,"transit":false,"is_transit":false,"i_lat":-6.236616,"line":1,"i_long":106.997013,"time":2},{"i_long":106.977657,"is_transit":false,"line":1,"station_id":"KRI","i_lat":-6.224515,"distance":2520,"transit":false,"time":4,"station_name":"Kranji"},{"i_lat":-6.219053,"station_id":"CUK","line":1,"transit":false,"is_transit":false,"distance":3097,"i_long":106.951283,"station_name":"Cakung","time":3},{"station_id":"KLDB","distance":1385,"transit":false,"line":1,"is_transit":false,"i_lat":-6.217455,"i_long":106.939679,"time":8,"station_name":"Klenderbaru"},{"time":1,"transit":false,"station_id":"BUA","i_long":106.922662,"i_lat":-6.215568,"station_name":"Buaran","distance":1305,"line":1,"is_transit":false},{"station_name":"Klender","distance":3100,"i_lat":-6.2135,"time":2,"transit":false,"line":1,"i_long":106.899548,"is_transit":false,"station_id":"KLD"},{"time":3,"is_transit":false,"distance":3395,"station_id":"JNG","i_lat":-6.215091,"line":1,"transit":false,"i_long":106.86807400000001,"station_name":"Jatinegara"},{"i_long":106.858896,"station_name":"Matraman","line":1,"distance":1377,"i_lat":-6.212485,"transit":false,"time":2,"station_id":"MTR","is_transit":false},{"i_long":106.84912,"transit":false,"time":2,"line":2,"distance":1275,"station_id":"MRI","is_transit":false,"station_name":"Manggarai","i_lat":-6.209883},{"distance":3186,"is_transit":false,"line":1,"station_id":"SUD","i_lat":-6.202263,"transit":false,"time":4,"i_long":106.822649,"station_name":"Sudirman"},{"line":1,"is_transit":false,"i_lat":-6.201433,"station_id":"SUDB","time":1,"distance":280,"station_name":"Sudirman Baru","i_long":106.819881,"transit":false},{"line":1,"distance":471,"i_lat":-6.20132,"station_name":"Karet","station_id":"KAT","is_transit":false,"i_long":106.816351,"transit":false,"time":1},{"time":5,"is_transit":false,"transit":false,"station_name":"Tanah Abang","line":1,"distance":2029,"i_lat":-6.185545,"i_long":106.811091,"station_id":"THB"},{"time":8,"station_id":"DU","transit":true,"line":1,"i_long":106.800832,"i_lat":-6.155215,"is_transit":true,"station_name":"Duri","distance":3632},{"transit":false,"i_long":106.788277,"is_transit":false,"station_name":"Grogol","distance":1700,"station_id":"GGL","line":5,"i_lat":-6.162021,"time":3},{"station_id":"PSG","is_transit":false,"station_name":"Pesing","distance":2036,"transit":false,"time":2,"line":5,"i_lat":-6.161433,"i_long":106.771379},{"is_transit":false,"station_name":"Taman Kota","i_long":106.756522,"line":5,"i_lat":-6.1587309999999995,"distance":1614,"time":2,"station_id":"TKO","transit":false},{"transit":false,"line":5,"i_lat":-6.159876,"i_long":106.737035,"is_transit":false,"time":2,"distance":2334,"station_id":"BOI","station_name":"Bojongindah"}],[{"is_transit":false,"i_long":107.144613,"transit":false,"i_lat":-6.2553149999999995,"line":1,"time":0,"distance":0,"station_name":"Cikarang","station_id":"CKR"},{"transit":false,"station_id":"TLM","distance":3689,"time":4,"line":1,"i_lat":-6.262938,"station_name":"Metland Telaga Murni","is_transit":false,"i_long":107.093313},{"i_long":107.083084,"transit":false,"station_name":"Cibitung","station_id":"CIT","time":2,"distance":2800,"i_lat":-6.261877,"line":1,"is_transit":false},{"i_lat":-6.258864,"i_long":107.055722,"transit":false,"distance":3420,"line":1,"is_transit":false,"station_id":"TB","time":3,"station_name":"Tambun"},{"transit":false,"i_lat":-6.248029,"i_long":107.016735,"station_id":"BKST","is_transit":false,"line":1,"time":7,"distance":4460,"station_name":"Bekasi Timur"},{"station_id":"BKS","line":1,"is_transit":false,"transit":false,"station_name":"Bekasi","time":2,"distance":2368,"i_lat":-6.236616,"i_long":106.997013},{"i_long":106.977657,"line":1,"transit":false,"time":4,"distance":2520,"is_transit":false,"station_id":"KRI","i_lat":-6.224515,"station_name":"Kranji"},{"station_id":"CUK","i_lat":-6.219053,"line":1,"station_name":"Cakung","distance":3097,"is_transit":false,"transit":false,"time":3,"i_long":106.951283},{"station_name":"Klenderbaru","distance":1385,"transit":false,"station_id":"KLDB","time":8,"i_long":106.939679,"line":1,"is_transit":false,"i_lat":-6.217455},{"is_transit":false,"line":1,"distance":1305,"time":1,"transit":false,"i_lat":-6.215568,"i_long":106.922662,"station_name":"Buaran","station_id":"BUA"},{"transit":false,"time":2,"station_name":"Klender","distance":3100,"is_transit":false,"i_long":106.899548,"line":1,"i_lat":-6.2135,"station_id":"KLD"},{"station_name":"Jatinegara","is_transit":true,"line":1,"i_lat":-6.215091,"station_id":"JNG","time":3,"i_long":106.86807400000001,"transit":true,"distance":3395},{"time":2,"transit":false,"is_transit":false,"i_long":106.861737,"station_name":"Pondok Jati","station_id":"POK","distance":1236,"i_lat":-6.209188,"line":11},{"station_id":"KMT","is_transit":false,"i_lat":-6.193792,"line":11,"i_long":106.855437,"distance":1829,"transit":false,"station_name":"Kramat","time":2},{"i_lat":-6.185975,"station_id":"GST","is_transit":false,"i_long":106.850107,"distance":973,"line":11,"station_name":"Gang Sentiong","transit":false,"time":1},{"is_transit":false,"i_long":106.84368,"i_lat":-6.174784,"time":8,"station_name":"Pasar Senen","transit":false,"line":11,"distance":1567,"station_id":"PSE"},{"station_id":"KMO","is_transit":false,"i_long":106.839204,"line":11,"time":4,"station_name":"Kemayoran","distance":1436,"i_lat":-6.161728,"transit":false},{"line":11,"transit":false,"station_id":"RJW","i_lat":-6.14505,"i_long":106.836569,"is_transit":false,"station_name":"Rajawali","time":5,"distance":1901},{"time":3,"distance":1444,"line":4,"transit":true,"i_lat":-6.132549,"i_long":106.826365,"station_id":"KPB","station_name":"Kampung Bandan","is_transit":true},{"distance":4102,"time":9,"line":1,"transit":false,"station_id":"AK","is_transit":false,"i_long":106.79867,"station_name":"Angke","i_lat":-6.144674},{"distance":1230,"i_long":106.800832,"transit":true,"station_id":"DU","time":4,"i_lat":-6.155215,"line":1,"station_name":"Duri","is_transit":true},{"time":3,"distance":1700,"station_name":"Grogol","station_id":"GGL","i_lat":-6.162021,"line":5,"transit":false,"is_transit":false,"i_long":106.788277},{"time":2,"i_long":106.771379,"i_lat":-6.161433,"station_name":"Pesing","distance":2036,"station_id":"PSG","is_transit":false,"transit":false,"line":5},{"i_long":106.756522,"time":2,"distance":1614,"i_lat":-6.1587309999999995,"station_name":"Taman Kota","station_id":"TKO","transit":false,"is_transit":false,"line":5},{"line":5,"transit":false,"time":2,"i_lat":-6.159876,"station_name":"Bojongindah","i_long":106.737035,"distance":2334,"station_id":"BOI","is_transit":false}],[{"transit":false,"station_name":"Cikarang","time":0,"station_id":"CKR","is_transit":false,"i_lat":-6.2553149999999995,"i_long":107.144613,"distance":0,"line":1},{"transit":false,"i_lat":-6.262938,"i_long":107.093313,"line":1,"time":4,"station_id":"TLM","distance":3689,"station_name":"Metland Telaga Murni","is_transit":false},{"station_id":"CIT","i_lat":-6.261877,"line":1,"distance":2800,"is_transit":false,"transit":false,"station_name":"Cibitung","time":2,"i_long":107.083084},{"is_transit":false,"transit":false,"station_id":"TB","time":3,"line":1,"station_name":"Tambun","i_lat":-6.258864,"i_long":107.055722,"distance":3420},{"i_lat":-6.248029,"station_name":"Bekasi Timur","i_long":107.016735,"distance":4460,"time":7,"is_transit":false,"station_id":"BKST","transit":false,"line":1},{"station_name":"Bekasi","transit":false,"i_long":106.997013,"line":1,"is_transit":false,"distance":2368,"i_lat":-6.236616,"station_id":"BKS","time":2},{"station_name":"Kranji","station_id":"KRI","i_long":106.977657,"is_transit":false,"time":4,"transit":false,"line":1,"distance":2520,"i_lat":-6.224515},{"station_name":"Cakung","is_transit":false,"transit":false,"i_lat":-6.219053,"line":1,"distance":3097,"i_long":106.951283,"time":3,"station_id":"CUK"},{"station_name":"Klenderbaru","i_long":106.939679,"line":1,"transit":false,"station_id":"KLDB","distance":1385,"is_transit":false,"i_lat":-6.217455,"time":8},{"time":1,"is_transit":false,"distance":1305,"i_lat":-6.215568,"i_long":106.922662,"transit":false,"line":1,"station_id":"BUA","station_name":"Buaran"},{"i_long":106.899548,"distance":3100,"station_id":"KLD","i_lat":-6.2135,"line":1,"time":2,"is_transit":false,"transit":false,"station_name":"Klender"},{"station_id":"JNG","i_lat":-6.215091,"is_transit":false,"station_name":"Jatinegara","i_long":106.86807400000001,"transit":false,"line":1,"time":3,"distance":3395},{"time":2,"line":1,"station_name":"Matraman","transit":false,"is_transit":false,"station_id":"MTR","i_long":106.858896,"distance":1377,"i_lat":-6.212485},{"station_name":"Manggarai","distance":1275,"line":2,"i_lat":-6.209883,"transit":true,"station_id":"MRI","is_transit":true,"time":2,"i_long":106.84912},{"transit":false,"station_name":"Cikini","time":4,"station_id":"CKI","i_lat":-6.198556,"i_long":106.840169,"line":2,"is_transit":false,"distance":1590},{"time":3,"transit":false,"is_transit":false,"station_id":"GDD","station_name":"Gondangdia","i_long":106.832183,"line":2,"i_lat":-6.186295,"distance":1750},{"distance":2015,"is_transit":false,"i_lat":-6.166716,"i_long":106.828284,"transit":false,"station_name":"Juanda","station_id":"JUA","time":4,"line":2},{"distance":1149,"time":2,"is_transit":false,"transit":false,"station_id":"SW","i_long":106.827103,"i_lat":-6.160725,"line":2,"station_name":"Sawah Besar"},{"transit":false,"i_long":106.82482,"station_name":"Manggabesar","time":2,"station_id":"MGB","line":2,"is_transit":false,"distance":906,"i_lat":-6.149769},{"is_transit":false,"i_long":106.820901,"line":2,"distance":1080,"transit":false,"i_lat":-6.141205,"time":2,"station_name":"Jayakarta","station_id":"JAY"},{"i_long":106.812439,"transit":true,"line":2,"is_transit":true,"distance":1264,"i_lat":-6.137569,"time":4,"station_id":"JAKK","station_name":"Jakarta Kota"},{"i_lat":-6.132549,"station_name":"Kampung Bandan","station_id":"KPB","time":3,"transit":true,"distance":1364,"is_transit":true,"i_long":106.826365,"line":4},{"time":9,"is_transit":false,"i_long":106.79867,"distance":4102,"station_name":"Angke","transit":false,"station_id":"AK","i_lat":-6.144674,"line":1},{"time":4,"distance":1230,"transit":true,"station_name":"Duri","i_long":106.800832,"is_transit":true,"line":1,"station_id":"DU","i_lat":-6.155215},{"i_lat":-6.162021,"is_transit":false,"i_long":106.788277,"time":3,"line":5,"transit":false,"distance":1700,"station_name":"Grogol","station_id":"GGL"},{"i_lat":-6.161433,"station_name":"Pesing","is_transit":false,"time":2,"i_long":106.771379,"distance":2036,"transit":false,"line":5,"station_id":"PSG"},{"i_lat":-6.1587309999999995,"time":2,"station_name":"Taman Kota","distance":1614,"station_id":"TKO","transit":false,"i_long":106.756522,"is_transit":false,"line":5},{"distance":2334,"line":5,"station_name":"Bojongindah","time":2,"is_transit":false,"transit":false,"i_lat":-6.159876,"station_id":"BOI","i_long":106.737035}],[{"station_name":"Cikarang","i_lat":-6.2553149999999995,"station_id":"CKR","time":0,"distance":0,"i_long":107.144613,"is_transit":false,"transit":false,"line":1},{"station_name":"Metland Telaga Murni","station_id":"TLM","line":1,"i_lat":-6.262938,"is_transit":false,"transit":false,"distance":3689,"time":4,"i_long":107.093313},{"is_transit":false,"station_name":"Cibitung","time":2,"line":1,"i_long":107.083084,"distance":2800,"station_id":"CIT","i_lat":-6.261877,"transit":false},{"transit":false,"distance":3420,"time":3,"station_id":"TB","is_transit":false,"i_lat":-6.258864,"line":1,"station_name":"Tambun","i_long":107.055722},{"time":7,"i_long":107.016735,"station_name":"Bekasi Timur","is_transit":false,"line":1,"transit":false,"distance":4460,"station_id":"BKST","i_lat":-6.248029},{"station_id":"BKS","transit":false,"station_name":"Bekasi","i_lat":-6.236616,"is_transit":false,"time":2,"line":1,"i_long":106.997013,"distance":2368},{"distance":2520,"transit":false,"is_transit":false,"station_name":"Kranji","i_lat":-6.224515,"time":4,"station_id":"KRI","i_long":106.977657,"line":1},{"distance":3097,"station_name":"Cakung","i_long":106.951283,"time":3,"line":1,"station_id":"CUK","transit":false,"is_transit":false,"i_lat":-6.219053},{"i_long":106.939679,"transit":false,"line":1,"distance":1385,"i_lat":-6.217455,"time":8,"is_transit":false,"station_id":"KLDB","station_name":"Klenderbaru"},{"station_id":"BUA","line":1,"i_lat":-6.215568,"station_name":"Buaran","time":1,"distance":1305,"i_long":106.922662,"transit":false,"is_transit":false},{"station_name":"Klender","distance":3100,"station_id":"KLD","i_long":106.899548,"time":2,"transit":false,"i_lat":-6.2135,"line":1,"is_transit":false},{"station_name":"Jatinegara","i_lat":-6.215091,"transit":true,"station_id":"JNG","is_transit":true,"line":1,"time":3,"i_long":106.86807400000001,"distance":3395},{"time":2,"line":11,"distance":1236,"transit":false,"station_id":"POK","is_transit":false,"i_long":106.861737,"i_lat":-6.209188,"station_name":"Pondok Jati"},{"i_lat":-6.193792,"station_name":"Kramat","i_long":106.855437,"line":11,"transit":false,"distance":1829,"time":2,"station_id":"KMT","is_transit":false},{"station_name":"Gang Sentiong","distance":973,"is_transit":false,"line":11,"i_lat":-6.185975,"transit":false,"station_id":"GST","i_long":106.850107,"time":1},{"station_id":"PSE","is_transit":false,"distance":1567,"time":8,"station_name":"Pasar Senen","i_lat":-6.174784,"transit":false,"i_long":106.84368,"line":11},{"station_id":"KMO","i_lat":-6.161728,"distance":1436,"transit":false,"is_transit":false,"i_long":106.839204,"line":11,"station_name":"Kemayoran","time":4},{"i_lat":-6.14505,"line":11,"i_long":106.836569,"distance":1901,"is_transit":false,"station_name":"Rajawali","station_id":"RJW","time":5,"transit":false},{"i_lat":-6.132549,"is_transit":true,"time":3,"distance":1444,"i_long":106.826365,"station_id":"KPB","line":4,"station_name":"Kampung Bandan","transit":true},{"station_name":"Jakarta Kota","station_id":"JAKK","i_long":106.812439,"time":3,"transit":true,"is_transit":true,"line":2,"i_lat":-6.137569,"distance":1364},{"station_id":"JAY","i_long":106.820901,"line":2,"is_transit":false,"station_name":"Jayakarta","i_lat":-6.141205,"time":4,"distance":1264,"transit":false},{"i_long":106.82482,"time":2,"line":2,"transit":false,"is_transit":false,"i_lat":-6.149769,"station_id":"MGB","station_name":"Manggabesar","distance":1080},{"i_long":106.827103,"transit":false,"time":2,"station_name":"Sawah Besar","station_id":"SW","line":2,"is_transit":false,"i_lat":-6.160725,"distance":906},{"transit":false,"station_id":"JUA","distance":1149,"i_long":106.828284,"station_name":"Juanda","line":2,"is_transit":false,"time":2,"i_lat":-6.166716},{"station_name":"Gondangdia","i_lat":-6.186295,"distance":2015,"line":2,"transit":false,"is_transit":false,"time":4,"i_long":106.832183,"station_id":"GDD"},{"time":3,"distance":1750,"i_long":106.840169,"station_id":"CKI","line":2,"is_transit":false,"station_name":"Cikini","transit":false,"i_lat":-6.198556},{"time":4,"is_transit":true,"i_lat":-6.209883,"distance":1590,"line":2,"station_name":"Manggarai","i_long":106.84912,"transit":true,"station_id":"MRI"},{"station_name":"Sudirman","transit":false,"station_id":"SUD","line":1,"time":4,"distance":3186,"is_transit":false,"i_long":106.822649,"i_lat":-6.202263},{"station_name":"Sudirman Baru","distance":280,"i_long":106.819881,"time":1,"transit":false,"station_id":"SUDB","i_lat":-6.201433,"is_transit":false,"line":1},{"distance":471,"line":1,"transit":false,"i_lat":-6.20132,"station_id":"KAT","is_transit":false,"time":1,"i_long":106.816351,"station_name":"Karet"},{"is_transit":false,"time":5,"i_lat":-6.185545,"station_id":"THB","line":1,"i_long":106.811091,"transit":false,"distance":2029,"station_name":"Tanah Abang"},{"i_lat":-6.155215,"time":8,"i_long":106.800832,"line":1,"station_id":"DU","station_name":"Duri","distance":3632,"is_transit":true,"transit":true},{"transit":false,"i_lat":-6.162021,"i_long":106.788277,"is_transit":false,"line":5,"distance":1700,"time":3,"station_id":"GGL","station_name":"Grogol"},{"time":2,"distance":2036,"is_transit":false,"i_long":106.771379,"station_name":"Pesing","station_id":"PSG","transit":false,"i_lat":-6.161433,"line":5},{"transit":false,"line":5,"is_transit":false,"station_id":"TKO","station_name":"Taman Kota","i_long":106.756522,"i_lat":-6.1587309999999995,"time":2,"distance":1614},{"station_name":"Bojongindah","i_lat":-6.159876,"is_transit":false,"transit":false,"station_id":"BOI","distance":2334,"i_long":106.737035,"time":2,"line":5}]]}