{"data":[[{"distance":0,"i_lat":-6.2553149999999995,"station_id":"CKR","line":0,"time":0,"station_name":"Cikarang","i_long":107.144613,"transit":false,"is_transit":false},{"is_transit":false,"transit":false,"station_id":"TLM","time":4,"i_lat":-6.262938,"i_long":107.093313,"distance":3689,"station_name":"Metland Telaga Murni","line":1},{"station_name":"Cibitung","is_transit":false,"distance":2800,"station_id":"CIT","time":2,"transit":false,"i_long":107.083084,"line":0,"i_lat":-6.261877},{"line":1,"station_id":"TB","distance":3420,"i_lat":-6.258864,"time":3,"station_name":"Tambun","is_transit":false,"transit":false,"i_long":107.055722},{"i_long":107.016735,"is_transit":false,"distance":4460,"station_name":"Bekasi Timur","time":7,"station_id":"BKST","transit":false,"line":0,"i_lat":-6.248029},{"time":2,"distance":2368,"i_long":106.997013,"is_transit":false,"line":0,"station_id":"BKS","station_name":"Bekasi","transit":false,"i_lat":-6.236616},{"line":1,"distance":2520,"time":4,"transit":false,"station_id":"KRI","station_name":"Kranji","i_lat":-6.224515,"is_transit":false,"i_long":106.977657},{"time":3,"is_transit":false,"station_name":"Cakung","transit":false,"i_lat":-6.219053,"line":0,"station_id":"CUK","i_long":106.951283,"distance":3097},{"time":8,"i_long":106.939679,"station_id":"KLDB","distance":1385,"i_lat":-6.217455,"is_transit":false,"transit":false,"station_name":"Klenderbaru","line":1},{"station_id":"BUA","distance":1305,"i_lat":-6.215568,"line":0,"transit":false,"is_transit":false,"station_name":"Buaran","i_long":106.922662,"time":1},{"is_transit":false,"station_name":"Klender","line":1,"station_id":"KLD","i_lat":-6.2135,"transit":false,"i_long":106.899548,"distance":3100,"time":2},{"time":3,"line":0,"station_id":"JNG","distance":3395,"is_transit":true,"i_lat":-6.215091,"station_name":"Jatinegara","transit":false,"i_long":106.86807400000001},{"station_name":"Matraman","is_transit":false,"i_lat":-6.212485,"i_long":106.858896,"distance":1377,"station_id":"MTR","transit":false,"line":1,"time":2},{"i_lat":-6.209883,"distance":1275,"i_long":106.84912,"transit":false,"time":2,"line":0,"is_transit":true,"station_id":"MRI","station_name":"Manggarai"},{"transit":false,"distance":3186,"station_name":"Sudirman","is_transit":false,"line":1,"station_id":"SUD","time":4,"i_lat":-6.202263,"i_long":106.822649},{"i_lat":-6.201433,"is_transit":false,"station_id":"SUDB","station_name":"Sudirman Baru","time":1,"transit":false,"i_long":106.819881,"line":1,"distance":280},{"station_name":"Karet","i_long":106.816351,"is_transit":false,"line":1,"distance":471,"station_id":"KAT","time":1,"transit":false,"i_lat":-6.20132},{"station_name":"Tanah Abang","time":5,"i_lat":-6.185545,"station_id":"THB","distance":2029,"i_long":106.811091,"transit":false,"line":1,"is_transit":true},{"i_long":106.800832,"transit":true,"station_id":"DU","is_transit":true,"station_name":"Duri","time":8,"line":1,"i_lat":-6.155215,"distance":3632},{"transit":false,"is_transit":false,"distance":1700,"i_lat":-6.162021,"i_long":106.788277,"station_name":"Grogol","station_id":"GGL","time":3,"line":5},{"transit":false,"i_lat":-6.161433,"is_transit":false,"time":2,"i_long":106.771379,"line":5,"distance":2036,"station_id":"PSG","station_name":"Pesing"}],[{"i_lat":-6.2553149999999995,"station_id":"CKR","station_name":"Cikarang","line":0,"time":0,"distance":0,"is_transit":false,"i_long":107.144613,"transit":false},{"station_name":"Metland Telaga Murni","station_id":"TLM","time":4,"distance":3689,"i_lat":-6.262938,"transit":false,"i_long":107.093313,"is_transit":false,"line":1},{"is_transit":false,"station_id":"CIT","distance":2800,"transit":false,"i_lat":-6.261877,"station_name":"Cibitung","i_long":107.083084,"line":0,"time":2},{"time":3,"is_transit":false,"transit":false,"i_lat":-6.258864,"station_id":"TB","station_name":"Tambun","line":1,"i_long":107.055722,"distance":3420},{"is_transit":false,"station_id":"BKST","line":0,"time":7,"station_name":"Bekasi Timur","distance":4460,"transit":false,"i_lat":-6.248029,"i_long":107.016735},{"line":0,"is_transit":false,"station_name":"Bekasi","i_lat":-6.236616,"transit":false,"time":2,"i_long":106.997013,"distance":2368,"station_id":"BKS"},{"distance":2520,"is_transit":false,"station_name":"Kranji","station_id":"KRI","transit":false,"i_lat":-6.224515,"time":4,"line":1,"i_long":106.977657},{"i_lat":-6.219053,"distance":3097,"station_id":"CUK","time":3,"line":0,"i_long":106.951283,"transit":false,"is_transit":false,"station_name":"Cakung"},{"station_name":"Klenderbaru","time":8,"station_id":"KLDB","transit":false,"line":1,"i_long":106.939679,"is_transit":false,"distance":1385,"i_lat":-6.217455},{"transit":false,"station_id":"BUA","i_lat":-6.215568,"i_long":106.922662,"line":0,"is_transit":false,"distance":1305,"time":1,"station_name":"Buaran"},{"line":1,"station_id":"KLD","station_name":"Klender","distance":3100,"time":2,"transit":false,"is_transit":false,"i_long":106.899548,"i_lat":-6.2135},{"i_long":106.86807400000001,"station_id":"JNG","distance":3395,"i_lat":-6.215091,"is_transit":true,"station_name":"Jatinegara","line":0,"time":3,"transit":true},{"distance":1236,"line":11,"station_name":"Pondok Jati","is_transit":false,"station_id":"POK","transit":false,"i_lat":-6.209188,"i_long":106.861737,"time":2},{"time":2,"distance":1829,"i_long":106.855437,"line":11,"station_id":"KMT","i_lat":-6.193792,"transit":false,"is_transit":false,"station_name":"Kramat"},{"station_name":"Gang Sentiong","i_long":106.850107,"i_lat":-6.185975,"station_id":"GST","time":1,"transit":false,"line":11,"is_transit":false,"distance":973},{"station_id":"PSE","i_lat":-6.174784,"line":11,"station_name":"Pasar Senen","transit":false,"time":8,"i_long":106.84368,"is_transit":false,"distance":1567},{"time":4,"transit":false,"station_name":"Kemayoran","distance":1436,"station_id":"KMO","i_lat":-6.161728,"i_long":106.839204,"line":11,"is_transit":false},{"time":5,"is_transit":false,"station_name":"Rajawali","station_id":"RJW","line":11,"distance":1901,"transit":false,"i_lat":-6.14505,"i_long":106.836569},{"line":0,"time":3,"distance":1444,"station_id":"KPB","is_transit":true,"station_name":"Kampung Bandan","transit":true,"i_lat":-6.132549,"i_long":106.826365},{"station_name":"Angke","i_lat":-6.144674,"distance":4102,"is_transit":false,"time":9,"line":0,"i_long":106.79867,"transit":false,"station_id":"AK"},{"line":1,"i_long":106.800832,"i_lat":-6.155215,"transit":true,"station_name":"Duri","is_transit":true,"time":4,"station_id":"DU","distance":1230},{"transit":false,"time":3,"distance":1700,"line":5,"station_name":"Grogol","i_long":106.788277,"i_lat":-6.162021,"is_transit":false,"station_id":"GGL"},{"station_name":"Pesing","i_lat":-6.161433,"i_long":106.771379,"line":5,"transit":false,"is_transit":false,"distance":2036,"station_id":"PSG","time":2}],[{"i_long":107.144613,"time":0,"station_name":"Cikarang","i_lat":-6.2553149999999995,"line":0,"is_transit":false,"transit":false,"station_id":"CKR","distance":0},{"transit":false,"is_transit":false,"i_long":107.093313,"station_id":"TLM","i_lat":-6.262938,"line":1,"distance":3689,"time":4,"station_name":"Metland Telaga Murni"},{"station_name":"Cibitung","time":2,"distance":2800,"station_id":"CIT","transit":false,"is_transit":false,"i_lat":-6.261877,"i_long":107.083084,"line":0},{"is_transit":false,"distance":3420,"station_name":"Tambun","line":1,"station_id":"TB","i_lat":-6.258864,"transit":false,"i_long":107.055722,"time":3},{"station_name":"Bekasi Timur","transit":false,"line":0,"distance":4460,"i_long":107.016735,"i_lat":-6.248029,"station_id":"BKST","is_transit":false,"time":7},{"i_lat":-6.236616,"i_long":106.997013,"line":0,"is_transit":false,"transit":false,"time":2,"distance":2368,"station_id":"BKS","station_name":"Bekasi"},{"i_lat":-6.224515,"transit":false,"is_transit":false,"i_long":106.977657,"time":4,"station_name":"Kranji","distance":2520,"line":1,"station_id":"KRI"},{"distance":3097,"i_long":106.951283,"time":3,"station_name":"Cakung","is_transit":false,"line":0,"transit":false,"station_id":"CUK","i_lat":-6.219053},{"time":8,"i_lat":-6.217455,"line":1,"distance":1385,"i_long":106.939679,"is_transit":false,"transit":false,"station_id":"KLDB","station_name":"Klenderbaru"},{"station_name":"Buaran","time":1,"i_lat":-6.215568,"line":0,"transit":false,"distance":1305,"is_transit":false,"station_id":"BUA","i_long":106.922662},{"i_lat":-6.2135,"station_name":"Klender","station_id":"KLD","line":1,"time":2,"transit":false,"distance":3100,"i_long":106.899548,"is_transit":false},{"time":3,"transit":false,"i_lat":-6.215091,"line":0,"distance":3395,"is_transit":true,"i_long":106.86807400000001,"station_name":"Jatinegara","station_id":"JNG"},{"transit":false,"i_long":106.858896,"i_lat":-6.212485,"station_name":"Matraman","station_id":"MTR","is_transit":false,"line":1,"time":2,"distance":1377},{"transit":true,"time":2,"i_long":106.84912,"distance":1275,"is_transit":true,"station_name":"Manggarai","i_lat":-6.209883,"line":0,"station_id":"MRI"},{"is_transit":false,"transit":false,"line":0,"time":4,"station_name":"Cikini","distance":1590,"i_lat":-6.198556,"station_id":"CKI","i_long":106.840169},{"i_lat":-6.186295,"time":3,"station_name":"Gondangdia","line":2,"transit":false,"is_transit":false,"distance":1750,"i_long":106.832183,"station_id":"GDD"},{"transit":false,"i_lat":-6.166716,"station_name":"Juanda","is_transit":false,"distance":2015,"i_long":106.828284,"station_id":"JUA","time":4,"line":2},{"station_id":"SW","time":2,"station_name":"Sawah Besar","transit":false,"i_lat":-6.160725,"is_transit":false,"line":2,"distance":1149,"i_long":106.827103},{"line":2,"time":2,"distance":906,"station_id":"MGB","is_transit":false,"transit":false,"i_long":106.82482,"i_lat":-6.149769,"station_name":"Manggabesar"},{"i_lat":-6.141205,"station_id":"JAY","distance":1080,"i_long":106.820901,"station_name":"Jayakarta","transit":false,"time":2,"is_transit":false,"line":7},{"is_transit":true,"transit":true,"station_name":"Jakarta Kota","i_lat":-6.137569,"i_long":106.812439,"distance":1264,"time":4,"line":0,"station_id":"JAKK"},{"is_transit":true,"station_id":"KPB","station_name":"Kampung Bandan","i_long":106.826365,"time":3,"i_lat":-6.132549,"distance":1364,"transit":false,"line":0},{"transit":false,"station_id":"AK","i_long":106.79867,"is_transit":false,"i_lat":-6.144674,"line":0,"station_name":"Angke","time":9,"distance":4102},{"station_name":"Duri","station_id":"DU","distance":1230,"transit":true,"i_long":106.800832,"line":1,"is_transit":true,"time":4,"i_lat":-6.155215},{"station_id":"GGL","time":3,"i_lat":-6.162021,"station_name":"Grogol","transit":false,"line":5,"i_long":106.788277,"distance":1700,"is_transit":false},{"station_id":"PSG","station_name":"Pesing","line":5,"time":2,"distance":2036,"i_lat":-6.161433,"i_long":106.771379,"is_transit":false,"transit":false}],[{"is_transit":false,"time":0,"distance":0,"transit":false,"i_long":107.144613,"line":0,"i_lat":-6.2553149999999995,"station_id":"CKR","station_name":"Cikarang"},{"distance":3689,"station_name":"Metland Telaga Murni","time":4,"line":1,"i_long":107.093313,"transit":false,"i_lat":-6.262938,"station_id":"TLM","is_transit":false},{"station_id":"CIT","i_lat":-6.261877,"is_transit":false,"line":0,"time":2,"i_long":107.083084,"distance":2800,"transit":false,"station_name":"Cibitung"},{"i_long":107.055722,"i_lat":-6.258864,"station_id":"TB","time":3,"distance":3420,"station_name":"Tambun","line":1,"is_transit":false,"transit":false},{"i_lat":-6.248029,"station_id":"BKST","is_transit":false,"time":7,"distance":4460,"transit":false,"i_long":107.016735,"line":0,"station_name":"Bekasi Timur"},{"station_name":"Bekasi","i_lat":-6.236616,"line":0,"transit":false,"i_long":106.997013,"is_transit":false,"distance":2368,"station_id":"BKS","time":2},{"station_id":"KRI","i_lat":-6.224515,"is_transit":false,"distance":2520,"station_name":"Kranji","i_long":106.977657,"time":4,"transit":false,"line":1},{"transit":false,"is_transit":false,"i_long":106.951283,"distance":3097,"line":0,"i_lat":-6.219053,"station_id":"CUK","station_name":"Cakung","time":3},{"distance":1385,"transit":false,"i_long":106.939679,"i_lat":-6.217455,"line":1,"time":8,"station_name":"Klenderbaru","station_id":"KLDB","is_transit":false},{"time":1,"station_id":"BUA","i_lat":-6.215568,"transit":false,"distance":1305,"i_long":106.922662,"is_transit":false,"station_name":"Buaran","line":0},{"is_transit":false,"i_long":106.899548,"time":2,"distance":3100,"station_name":"Klender","station_id":"KLD","line":1,"i_lat":-6.2135,"transit":false},{"distance":3395,"is_transit":true,"i_long":106.86807400000001,"station_id":"JNG","time":3,"station_name":"Jatinegara","line":0,"i_lat":-6.215091,"transit":true},{"station_name":"Pondok Jati","distance":1236,"transit":false,"i_long":106.861737,"time":2,"i_lat":-6.209188,"is_transit":false,"line":11,"station_id":"POK"},{"station_id":"KMT","is_transit":false,"station_name":"Kramat","transit":false,"distance":1829,"time":2,"i_lat":-6.193792,"line":11,"i_long":106.855437},{"time":1,"station_name":"Gang Sentiong","station_id":"GST","transit":false,"distance":973,"is_transit":false,"i_lat":-6.185975,"i_long":106.850107,"line":11},{"transit":false,"i_long":106.84368,"line":11,"time":8,"station_id":"PSE","i_lat":-6.174784,"is_transit":false,"station_name":"Pasar Senen","distance":1567},{"is_transit":false,"distance":1436,"station_name":"Kemayoran","line":11,"time":4,"i_long":106.839204,"i_lat":-6.161728,"transit":false,"station_id":"KMO"},{"is_transit":false,"station_id":"RJW","line":11,"station_name":"Rajawali","i_long":106.836569,"transit":false,"i_lat":-6.14505,"time":5,"distance":1901},{"time":3,"line":0,"station_id":"KPB","distance":1444,"is_transit":true,"transit":true,"station_name":"Kampung Bandan","i_long":106.826365,"i_lat":-6.132549},{"i_lat":-6.137569,"is_transit":true,"i_long":106.812439,"line":0,"station_id":"JAKK","transit":true,"station_name":"Jakarta Kota","time":3,"distance":1364},{"distance":1264,"transit":false,"time":4,"station_id":"JAY","i_long":106.820901,"i_lat":-6.141205,"station_name":"Jayakarta","line":7,"is_transit":false},{"is_transit":false,"station_name":"Manggabesar","time":2,"line":2,"transit":false,"station_id":"MGB","distance":1080,"i_long":106.82482,"i_lat":-6.149769},{"is_transit":false,"distance":906,"line":2,"i_lat":-6.160725,"i_long":106.827103,"station_name":"Sawah Besar","transit":false,"time":2,"station_id":"SW"},{"distance":1149,"station_id":"JUA","is_transit":false,"line":2,"i_lat":-6.166716,"time":2,"station_name":"Juanda","transit":false,"i_long":106.828284},{"distance":2015,"i_lat":-6.186295,"time":4,"i_long":106.832183,"line":2,"is_transit":false,"station_name":"Gondangdia","transit":false,"station_id":"GDD"},{"distance":1750,"transit":false,"station_name":"Cikini","i_long":106.840169,"i_lat":-6.198556,"station_id":"CKI","is_transit":false,"line":0,"time":3},{"i_long":106.84912,"time":4,"line":0,"station_name":"Manggarai","station_id":"MRI","distance":1590,"transit":true,"is_transit":true,"i_lat":-6.209883},{"station_name":"Sudirman","distance":3186,"time":4,"transit":false,"line":1,"is_transit":false,"i_lat":-6.202263,"station_id":"SUD","i_long":106.822649},{"station_name":"Sudirman Baru","i_long":106.819881,"time":1,"distance":280,"i_lat":-6.201433,"line":1,"is_transit":false,"station_id":"SUDB","transit":false},{"i_lat":-6.20132,"is_transit":false,"transit":false,"distance":471,"station_name":"Karet","time":1,"i_long":106.816351,"station_id":"KAT","line":1},{"station_name":"Tanah Abang","is_transit":true,"distance":2029,"i_lat":-6.185545,"time":5,"transit":false,"line":1,"station_id":"THB","i_long":106.811091},{"transit":true,"station_id":"DU","i_lat":-6.155215,"i_long":106.800832,"time":8,"line":1,"distance":3632,"is_transit":true,"station_name":"Duri"},{"i_lat":-6.162021,"station_name":"Grogol","distance":1700,"time":3,"line":5,"station_id":"GGL","is_transit":false,"transit":false,"i_long":106.788277},{"i_long":106.771379,"line":5,"station_id":"PSG","is_transit":false,"station_name":"Pesing","time":2,"distance":2036,"transit":false,"i_lat":-6.161433}]]}