{"data":[[{"transit":false,"i_long":107.144613,"distance":0,"time":0,"is_transit":false,"i_lat":-6.2553149999999995,"station_name":"Cikarang","station_id":"CKR","line":1},{"distance":3689,"transit":false,"station_name":"Metland Telaga Murni","i_long":107.093313,"station_id":"TLM","i_lat":-6.262938,"time":4,"is_transit":false,"line":1},{"i_lat":-6.261877,"line":1,"i_long":107.083084,"time":2,"distance":2800,"station_id":"CIT","is_transit":false,"station_name":"Cibitung","transit":false},{"is_transit":false,"distance":3420,"station_name":"Tambun","transit":false,"station_id":"TB","i_long":107.055722,"time":3,"i_lat":-6.258864,"line":1},{"is_transit":false,"line":1,"station_id":"BKST","i_lat":-6.248029,"transit":false,"i_long":107.016735,"distance":4460,"time":7,"station_name":"Bekasi Timur"},{"i_lat":-6.236616,"i_long":106.997013,"time":2,"line":1,"distance":2368,"station_id":"BKS","transit":false,"station_name":"Bekasi","is_transit":false},{"i_long":106.977657,"line":1,"station_name":"Kranji","distance":2520,"time":4,"station_id":"KRI","is_transit":false,"i_lat":-6.224515,"transit":false},{"station_name":"Cakung","station_id":"CUK","i_lat":-6.219053,"line":1,"is_transit":false,"transit":false,"distance":3097,"time":3,"i_long":106.951283},{"time":8,"station_id":"KLDB","station_name":"Klenderbaru","line":1,"is_transit":false,"transit":false,"i_long":106.939679,"i_lat":-6.217455,"distance":1385},{"time":1,"is_transit":false,"line":1,"distance":1305,"i_long":106.922662,"transit":false,"station_id":"BUA","i_lat":-6.215568,"station_name":"Buaran"},{"time":2,"line":1,"i_lat":-6.2135,"station_name":"Klender","is_transit":false,"i_long":106.899548,"distance":3100,"transit":false,"station_id":"KLD"},{"i_lat":-6.215091,"distance":3395,"station_name":"Jatinegara","transit":true,"is_transit":true,"i_long":106.86807400000001,"time":3,"station_id":"JNG","line":1},{"line":11,"station_name":"Pondok Jati","i_long":106.861737,"i_lat":-6.209188,"time":2,"is_transit":false,"station_id":"POK","transit":false,"distance":1236},{"station_name":"Kramat","time":2,"line":11,"is_transit":false,"station_id":"KMT","transit":false,"distance":1829,"i_long":106.855437,"i_lat":-6.193792},{"distance":973,"time":1,"station_name":"Gang Sentiong","i_lat":-6.185975,"i_long":106.850107,"station_id":"GST","line":11,"is_transit":false,"transit":false},{"station_id":"PSE","distance":1567,"station_name":"Pasar Senen","is_transit":false,"transit":false,"i_lat":-6.174784,"time":8,"i_long":106.84368,"line":11},{"line":11,"time":4,"transit":false,"station_name":"Kemayoran","i_long":106.839204,"distance":1436,"is_transit":false,"station_id":"KMO","i_lat":-6.161728},{"station_id":"RJW","station_name":"Rajawali","i_long":106.836569,"time":5,"is_transit":false,"transit":false,"distance":1901,"i_lat":-6.14505,"line":11},{"distance":1444,"transit":false,"i_long":106.826365,"line":4,"station_name":"Kampung Bandan","is_transit":false,"i_lat":-6.132549,"station_id":"KPB","time":3}],[{"i_long":107.144613,"station_id":"CKR","time":0,"station_name":"Cikarang","transit":false,"line":1,"distance":0,"i_lat":-6.2553149999999995,"is_transit":false},{"i_long":107.093313,"line":1,"station_name":"Metland Telaga Murni","i_lat":-6.262938,"transit":false,"is_transit":false,"distance":3689,"time":4,"station_id":"TLM"},{"transit":false,"i_lat":-6.261877,"distance":2800,"station_name":"Cibitung","is_transit":false,"time":2,"i_long":107.083084,"station_id":"CIT","line":1},{"transit":false,"i_long":107.055722,"line":1,"station_name":"Tambun","distance":3420,"time":3,"is_transit":false,"i_lat":-6.258864,"station_id":"TB"},{"station_id":"BKST","distance":4460,"i_long":107.016735,"i_lat":-6.248029,"station_name":"Bekasi Timur","is_transit":false,"time":7,"transit":false,"line":1},{"i_long":106.997013,"line":1,"i_lat":-6.236616,"is_transit":false,"time":2,"transit":false,"station_name":"Bekasi","distance":2368,"station_id":"BKS"},{"distance":2520,"i_lat":-6.224515,"line":1,"time":4,"station_id":"KRI","transit":false,"is_transit":false,"station_name":"Kranji","i_long":106.977657},{"i_long":106.951283,"time":3,"station_id":"CUK","transit":false,"i_lat":-6.219053,"distance":3097,"line":1,"is_transit":false,"station_name":"Cakung"},{"i_long":106.939679,"distance":1385,"time":8,"transit":false,"line":1,"station_id":"KLDB","station_name":"Klenderbaru","i_lat":-6.217455,"is_transit":false},{"distance":1305,"station_name":"Buaran","i_long":106.922662,"line":1,"time":1,"station_id":"BUA","transit":false,"is_transit":false,"i_lat":-6.215568},{"station_name":"Klender","time":2,"i_lat":-6.2135,"distance":3100,"transit":false,"i_long":106.899548,"is_transit":false,"station_id":"KLD","line":1},{"transit":false,"i_long":106.86807400000001,"station_name":"Jatinegara","distance":3395,"time":3,"i_lat":-6.215091,"station_id":"JNG","line":1,"is_transit":false},{"line":1,"station_name":"Matraman","transit":false,"time":2,"i_lat":-6.212485,"station_id":"MTR","i_long":106.858896,"distance":1377,"is_transit":false},{"i_lat":-6.209883,"is_transit":false,"transit":false,"line":2,"distance":1275,"i_long":106.84912,"time":2,"station_name":"Manggarai","station_id":"MRI"},{"i_lat":-6.202263,"time":4,"is_transit":false,"i_long":106.822649,"distance":3186,"station_name":"Sudirman","transit":false,"line":1,"station_id":"SUD"},{"station_name":"Sudirman Baru","i_lat":-6.201433,"time":1,"i_long":106.819881,"transit":false,"line":1,"station_id":"SUDB","distance":280,"is_transit":false},{"time":1,"station_id":"KAT","station_name":"Karet","transit":false,"distance":471,"line":1,"is_transit":false,"i_lat":-6.20132,"i_long":106.816351},{"is_transit":false,"line":1,"distance":2029,"transit":false,"station_id":"THB","station_name":"Tanah Abang","i_lat":-6.185545,"i_long":106.811091,"time":5},{"is_transit":false,"i_lat":-6.155215,"line":1,"i_long":106.800832,"station_id":"DU","station_name":"Duri","transit":false,"distance":3632,"time":8},{"station_name":"Angke","distance":1230,"i_lat":-6.144674,"station_id":"AK","line":1,"is_transit":false,"transit":false,"i_long":106.79867,"time":4},{"line":4,"distance":4102,"time":9,"station_id":"KPB","station_name":"Kampung Bandan","is_transit":false,"transit":false,"i_lat":-6.132549,"i_long":106.826365}],[{"is_transit":false,"transit":false,"line":1,"i_long":107.144613,"station_name":"Cikarang","distance":0,"i_lat":-6.2553149999999995,"time":0,"station_id":"CKR"},{"time":4,"transit":false,"distance":3689,"i_lat":-6.262938,"station_name":"Metland Telaga Murni","is_transit":false,"line":1,"station_id":"TLM","i_long":107.093313},{"is_transit":false,"station_name":"Cibitung","transit":false,"i_lat":-6.261877,"i_long":107.083084,"line":1,"time":2,"distance":2800,"station_id":"CIT"},{"is_transit":false,"i_long":107.055722,"line":1,"station_name":"Tambun","distance":3420,"i_lat":-6.258864,"time":3,"transit":false,"station_id":"TB"},{"station_name":"Bekasi Timur","is_transit":false,"line":1,"station_id":"BKST","i_lat":-6.248029,"i_long":107.016735,"time":7,"distance":4460,"transit":false},{"transit":false,"time":2,"is_transit":false,"station_id":"BKS","i_long":106.997013,"station_name":"Bekasi","i_lat":-6.236616,"distance":2368,"line":1},{"station_id":"KRI","i_long":106.977657,"i_lat":-6.224515,"station_name":"Kranji","line":1,"distance":2520,"time":4,"transit":false,"is_transit":false},{"station_id":"CUK","line":1,"station_name":"Cakung","transit":false,"i_long":106.951283,"time":3,"is_transit":false,"i_lat":-6.219053,"distance":3097},{"station_name":"Klenderbaru","is_transit":false,"i_lat":-6.217455,"line":1,"station_id":"KLDB","time":8,"distance":1385,"i_long":106.939679,"transit":false},{"is_transit":false,"time":1,"station_id":"BUA","distance":1305,"i_long":106.922662,"station_name":"Buaran","transit":false,"i_lat":-6.215568,"line":1},{"transit":false,"line":1,"station_id":"KLD","time":2,"i_long":106.899548,"i_lat":-6.2135,"station_name":"Klender","is_transit":false,"distance":3100},{"station_id":"JNG","distance":3395,"station_name":"Jatinegara","is_transit":false,"time":3,"i_long":106.86807400000001,"transit":false,"i_lat":-6.215091,"line":1},{"line":1,"i_lat":-6.212485,"time":2,"distance":1377,"station_name":"Matraman","transit":false,"i_long":106.858896,"station_id":"MTR","is_transit":false},{"transit":true,"i_long":106.84912,"line":2,"time":2,"station_name":"Manggarai","distance":1275,"is_transit":true,"station_id":"MRI","i_lat":-6.209883},{"line":2,"i_long":106.840169,"station_name":"Cikini","station_id":"CKI","transit":false,"distance":1590,"time":4,"is_transit":false,"i_lat":-6.198556},{"i_long":106.832183,"transit":false,"distance":1750,"i_lat":-6.186295,"line":2,"station_name":"Gondangdia","is_transit":false,"station_id":"GDD","time":3},{"distance":2015,"time":4,"transit":false,"is_transit":false,"station_name":"Juanda","station_id":"JUA","i_lat":-6.166716,"i_long":106.828284,"line":2},{"line":2,"time":2,"transit":false,"is_transit":false,"station_id":"SW","station_name":"Sawah Besar","i_long":106.827103,"distance":1149,"i_lat":-6.160725},{"transit":false,"i_long":106.82482,"i_lat":-6.149769,"is_transit":false,"line":2,"station_id":"MGB","distance":906,"time":2,"station_name":"Manggabesar"},{"station_id":"JAY","i_lat":-6.141205,"transit":false,"is_transit":false,"distance":1080,"i_long":106.820901,"line":2,"time":2,"station_name":"Jayakarta"},{"transit":true,"station_id":"JAKK","distance":1264,"station_name":"Jakarta Kota","time":4,"i_long":106.812439,"i_lat":-6.137569,"line":2,"is_transit":true},{"distance":1364,"time":3,"transit":false,"is_transit":false,"i_lat":-6.132549,"i_long":106.826365,"station_name":"Kampung Bandan","line":4,"station_id":"KPB"}]]}