{"data":[[{"i_long":107.144613,"time":0,"transit":false,"i_lat":-6.2553149999999995,"station_id":"CKR","distance":0,"is_transit":false,"station_name":"Cikarang","line":1},{"station_name":"Metland Telaga Murni","line":1,"i_long":107.093313,"time":4,"transit":false,"i_lat":-6.262938,"is_transit":false,"station_id":"TLM","distance":3689},{"station_id":"CIT","station_name":"Cibitung","i_lat":-6.261877,"time":2,"transit":false,"distance":2800,"i_long":107.083084,"line":1,"is_transit":false},{"line":1,"is_transit":false,"station_id":"TB","time":3,"transit":false,"station_name":"Tambun","i_lat":-6.258864,"distance":3420,"i_long":107.055722},{"line":1,"distance":4460,"station_name":"Bekasi Timur","i_lat":-6.248029,"transit":false,"station_id":"BKST","is_transit":false,"i_long":107.016735,"time":7},{"i_lat":-6.236616,"distance":2368,"transit":false,"i_long":106.997013,"is_transit":false,"time":2,"line":1,"station_name":"Bekasi","station_id":"BKS"},{"transit":false,"station_name":"Kranji","is_transit":false,"station_id":"KRI","time":4,"distance":2520,"i_lat":-6.224515,"i_long":106.977657,"line":1},{"i_lat":-6.219053,"station_id":"CUK","transit":false,"station_name":"Cakung","is_transit":false,"time":3,"distance":3097,"i_long":106.951283,"line":1},{"i_lat":-6.217455,"distance":1385,"transit":false,"station_id":"KLDB","station_name":"Klenderbaru","is_transit":false,"i_long":106.939679,"time":8,"line":1},{"i_long":106.922662,"transit":false,"is_transit":false,"distance":1305,"station_name":"Buaran","time":1,"i_lat":-6.215568,"station_id":"BUA","line":1},{"station_id":"KLD","transit":false,"is_transit":false,"i_lat":-6.2135,"station_name":"Klender","distance":3100,"time":2,"i_long":106.899548,"line":1},{"is_transit":false,"i_lat":-6.215091,"distance":3395,"i_long":106.86807400000001,"station_name":"Jatinegara","transit":false,"station_id":"JNG","time":3,"line":1},{"station_name":"Matraman","i_long":106.858896,"line":1,"is_transit":false,"i_lat":-6.212485,"transit":false,"distance":1377,"time":2,"station_id":"MTR"},{"station_id":"MRI","line":2,"i_long":106.84912,"i_lat":-6.209883,"distance":1275,"transit":false,"station_name":"Manggarai","is_transit":false,"time":2},{"station_name":"Sudirman","is_transit":false,"transit":false,"station_id":"SUD","line":1,"time":4,"distance":3186,"i_long":106.822649,"i_lat":-6.202263},{"i_long":106.819881,"station_id":"SUDB","transit":false,"time":1,"station_name":"Sudirman Baru","is_transit":false,"distance":280,"i_lat":-6.201433,"line":1},{"is_transit":false,"transit":false,"station_id":"KAT","station_name":"Karet","line":1,"time":1,"i_lat":-6.20132,"i_long":106.816351,"distance":471},{"transit":false,"distance":2029,"station_id":"THB","time":5,"i_long":106.811091,"station_name":"Tanah Abang","is_transit":false,"i_lat":-6.185545,"line":1},{"station_name":"Duri","distance":3632,"i_lat":-6.155215,"time":8,"i_long":106.800832,"station_id":"DU","is_transit":false,"transit":false,"line":1}],[{"station_id":"CKR","line":1,"transit":false,"station_name":"Cikarang","is_transit":false,"i_lat":-6.2553149999999995,"i_long":107.144613,"time":0,"distance":0},{"distance":3689,"transit":false,"station_id":"TLM","time":4,"i_long":107.093313,"station_name":"Metland Telaga Murni","line":1,"is_transit":false,"i_lat":-6.262938},{"station_id":"CIT","i_long":107.083084,"is_transit":false,"station_name":"Cibitung","transit":false,"time":2,"distance":2800,"i_lat":-6.261877,"line":1},{"transit":false,"station_name":"Tambun","station_id":"TB","is_transit":false,"time":3,"i_lat":-6.258864,"i_long":107.055722,"line":1,"distance":3420},{"station_id":"BKST","i_long":107.016735,"i_lat":-6.248029,"transit":false,"station_name":"Bekasi Timur","is_transit":false,"time":7,"line":1,"distance":4460},{"line":1,"distance":2368,"is_transit":false,"i_long":106.997013,"transit":false,"station_id":"BKS","i_lat":-6.236616,"time":2,"station_name":"Bekasi"},{"i_long":106.977657,"transit":false,"station_id":"KRI","line":1,"time":4,"distance":2520,"i_lat":-6.224515,"station_name":"Kranji","is_transit":false},{"line":1,"distance":3097,"time":3,"i_lat":-6.219053,"station_name":"Cakung","station_id":"CUK","is_transit":false,"transit":false,"i_long":106.951283},{"station_id":"KLDB","i_long":106.939679,"i_lat":-6.217455,"transit":false,"is_transit":false,"time":8,"station_name":"Klenderbaru","distance":1385,"line":1},{"i_long":106.922662,"station_name":"Buaran","line":1,"time":1,"distance":1305,"transit":false,"station_id":"BUA","is_transit":false,"i_lat":-6.215568},{"time":2,"i_long":106.899548,"is_transit":false,"distance":3100,"station_id":"KLD","i_lat":-6.2135,"line":1,"station_name":"Klender","transit":false},{"i_long":106.86807400000001,"line":1,"time":3,"station_name":"Jatinegara","i_lat":-6.215091,"is_transit":true,"distance":3395,"station_id":"JNG","transit":true},{"transit":false,"distance":1236,"line":11,"is_transit":false,"time":2,"i_long":106.861737,"station_id":"POK","i_lat":-6.209188,"station_name":"Pondok Jati"},{"i_lat":-6.193792,"i_long":106.855437,"station_name":"Kramat","line":11,"transit":false,"distance":1829,"station_id":"KMT","is_transit":false,"time":2},{"station_name":"Gang Sentiong","time":1,"station_id":"GST","transit":false,"distance":973,"i_lat":-6.185975,"i_long":106.850107,"line":11,"is_transit":false},{"time":8,"i_long":106.84368,"i_lat":-6.174784,"station_name":"Pasar Senen","distance":1567,"line":11,"station_id":"PSE","is_transit":false,"transit":false},{"i_long":106.839204,"distance":1436,"line":11,"station_id":"KMO","i_lat":-6.161728,"is_transit":false,"transit":false,"station_name":"Kemayoran","time":4},{"i_long":106.836569,"station_name":"Rajawali","is_transit":false,"transit":false,"time":5,"distance":1901,"i_lat":-6.14505,"line":11,"station_id":"RJW"},{"distance":1444,"i_lat":-6.132549,"time":3,"is_transit":true,"line":4,"i_long":106.826365,"transit":true,"station_id":"KPB","station_name":"Kampung Bandan"},{"time":9,"transit":false,"i_lat":-6.144674,"i_long":106.79867,"station_id":"AK","line":1,"is_transit":false,"station_name":"Angke","distance":4102},{"time":4,"i_lat":-6.155215,"line":1,"station_id":"DU","distance":1230,"i_long":106.800832,"is_transit":false,"transit":false,"station_name":"Duri"}],[{"station_name":"Cikarang","is_transit":false,"i_lat":-6.2553149999999995,"distance":0,"station_id":"CKR","transit":false,"line":1,"time":0,"i_long":107.144613},{"is_transit":false,"time":4,"distance":3689,"i_lat":-6.262938,"line":1,"station_name":"Metland Telaga Murni","transit":false,"i_long":107.093313,"station_id":"TLM"},{"time":2,"i_long":107.083084,"station_name":"Cibitung","transit":false,"is_transit":false,"line":1,"distance":2800,"i_lat":-6.261877,"station_id":"CIT"},{"station_name":"Tambun","i_lat":-6.258864,"time":3,"transit":false,"distance":3420,"is_transit":false,"station_id":"TB","line":1,"i_long":107.055722},{"station_name":"Bekasi Timur","i_long":107.016735,"time":7,"distance":4460,"transit":false,"i_lat":-6.248029,"line":1,"station_id":"BKST","is_transit":false},{"i_long":106.997013,"line":1,"station_name":"Bekasi","distance":2368,"transit":false,"station_id":"BKS","is_transit":false,"time":2,"i_lat":-6.236616},{"transit":false,"i_lat":-6.224515,"station_name":"Kranji","i_long":106.977657,"station_id":"KRI","distance":2520,"line":1,"is_transit":false,"time":4},{"time":3,"transit":false,"station_id":"CUK","distance":3097,"i_long":106.951283,"is_transit":false,"station_name":"Cakung","i_lat":-6.219053,"line":1},{"station_name":"Klenderbaru","i_lat":-6.217455,"distance":1385,"station_id":"KLDB","is_transit":false,"line":1,"transit":false,"i_long":106.939679,"time":8},{"line":1,"time":1,"distance":1305,"station_id":"BUA","i_lat":-6.215568,"is_transit":false,"transit":false,"station_name":"Buaran","i_long":106.922662},{"is_transit":false,"transit":false,"time":2,"station_id":"KLD","distance":3100,"i_long":106.899548,"station_name":"Klender","line":1,"i_lat":-6.2135},{"i_long":106.86807400000001,"line":1,"time":3,"station_id":"JNG","transit":false,"distance":3395,"is_transit":false,"station_name":"Jatinegara","i_lat":-6.215091},{"i_long":106.858896,"transit":false,"station_name":"Matraman","is_transit":false,"line":1,"i_lat":-6.212485,"time":2,"station_id":"MTR","distance":1377},{"station_id":"MRI","time":2,"line":2,"transit":true,"i_long":106.84912,"station_name":"Manggarai","is_transit":true,"i_lat":-6.209883,"distance":1275},{"is_transit":false,"station_name":"Cikini","i_lat":-6.198556,"distance":1590,"time":4,"i_long":106.840169,"station_id":"CKI","transit":false,"line":2},{"station_id":"GDD","distance":1750,"station_name":"Gondangdia","time":3,"i_lat":-6.186295,"transit":false,"is_transit":false,"line":2,"i_long":106.832183},{"is_transit":false,"i_long":106.828284,"station_id":"JUA","distance":2015,"i_lat":-6.166716,"transit":false,"time":4,"line":2,"station_name":"Juanda"},{"transit":false,"line":2,"i_long":106.827103,"i_lat":-6.160725,"distance":1149,"station_name":"Sawah Besar","time":2,"is_transit":false,"station_id":"SW"},{"is_transit":false,"line":2,"i_lat":-6.149769,"time":2,"i_long":106.82482,"station_id":"MGB","station_name":"Manggabesar","transit":false,"distance":906},{"station_id":"JAY","i_lat":-6.141205,"transit":false,"station_name":"Jayakarta","is_transit":false,"distance":1080,"time":2,"line":2,"i_long":106.820901},{"transit":true,"station_id":"JAKK","distance":1264,"station_name":"Jakarta Kota","i_long":106.812439,"i_lat":-6.137569,"is_transit":true,"line":2,"time":4},{"i_lat":-6.132549,"transit":true,"line":4,"time":3,"is_transit":true,"i_long":106.826365,"distance":1364,"station_name":"Kampung Bandan","station_id":"KPB"},{"i_long":106.79867,"station_id":"AK","i_lat":-6.144674,"line":1,"is_transit":false,"time":9,"distance":4102,"transit":false,"station_name":"Angke"},{"station_id":"DU","is_transit":false,"station_name":"Duri","line":1,"time":4,"transit":false,"i_lat":-6.155215,"distance":1230,"i_long":106.800832}],[{"time":0,"i_lat":-6.2553149999999995,"transit":false,"station_id":"CKR","i_long":107.144613,"line":1,"distance":0,"station_name":"Cikarang","is_transit":false},{"time":4,"station_name":"Metland Telaga Murni","is_transit":false,"line":1,"distance":3689,"i_long":107.093313,"station_id":"TLM","transit":false,"i_lat":-6.262938},{"line":1,"time":2,"transit":false,"i_long":107.083084,"station_id":"CIT","station_name":"Cibitung","is_transit":false,"i_lat":-6.261877,"distance":2800},{"transit":false,"i_long":107.055722,"station_id":"TB","is_transit":false,"i_lat":-6.258864,"distance":3420,"time":3,"line":1,"station_name":"Tambun"},{"is_transit":false,"station_name":"Bekasi Timur","time":7,"station_id":"BKST","i_long":107.016735,"i_lat":-6.248029,"transit":false,"distance":4460,"line":1},{"is_transit":false,"time":2,"i_lat":-6.236616,"line":1,"distance":2368,"i_long":106.997013,"station_name":"Bekasi","transit":false,"station_id":"BKS"},{"i_lat":-6.224515,"is_transit":false,"station_id":"KRI","distance":2520,"i_long":106.977657,"time":4,"line":1,"station_name":"Kranji","transit":false},{"i_long":106.951283,"i_lat":-6.219053,"distance":3097,"line":1,"time":3,"is_transit":false,"station_name":"Cakung","station_id":"CUK","transit":false},{"time":8,"is_transit":false,"i_lat":-6.217455,"transit":false,"i_long":106.939679,"station_id":"KLDB","distance":1385,"station_name":"Klenderbaru","line":1},{"i_long":106.922662,"distance":1305,"line":1,"i_lat":-6.215568,"time":1,"is_transit":false,"station_id":"BUA","transit":false,"station_name":"Buaran"},{"time":2,"is_transit":false,"station_name":"Klender","i_lat":-6.2135,"station_id":"KLD","transit":false,"i_long":106.899548,"line":1,"distance":3100},{"is_transit":true,"station_name":"Jatinegara","distance":3395,"i_lat":-6.215091,"i_long":106.86807400000001,"station_id":"JNG","time":3,"line":1,"transit":true},{"time":2,"station_name":"Pondok Jati","i_lat":-6.209188,"line":11,"distance":1236,"station_id":"POK","is_transit":false,"transit":false,"i_long":106.861737},{"i_long":106.855437,"line":11,"i_lat":-6.193792,"time":2,"station_name":"Kramat","station_id":"KMT","transit":false,"distance":1829,"is_transit":false},{"distance":973,"is_transit":false,"transit":false,"line":11,"i_lat":-6.185975,"station_id":"GST","station_name":"Gang Sentiong","i_long":106.850107,"time":1},{"station_id":"PSE","distance":1567,"line":11,"is_transit":false,"station_name":"Pasar Senen","time":8,"i_lat":-6.174784,"i_long":106.84368,"transit":false},{"distance":1436,"time":4,"is_transit":false,"i_long":106.839204,"line":11,"station_id":"KMO","transit":false,"station_name":"Kemayoran","i_lat":-6.161728},{"station_id":"RJW","time":5,"i_long":106.836569,"transit":false,"line":11,"is_transit":false,"station_name":"Rajawali","distance":1901,"i_lat":-6.14505},{"station_id":"KPB","i_lat":-6.132549,"time":3,"station_name":"Kampung Bandan","transit":true,"distance":1444,"is_transit":true,"line":4,"i_long":106.826365},{"station_id":"JAKK","station_name":"Jakarta Kota","time":3,"line":2,"is_transit":true,"transit":true,"distance":1364,"i_lat":-6.137569,"i_long":106.812439},{"distance":1264,"transit":false,"time":4,"i_long":106.820901,"station_id":"JAY","i_lat":-6.141205,"is_transit":false,"line":2,"station_name":"Jayakarta"},{"is_transit":false,"distance":1080,"station_id":"MGB","i_lat":-6.149769,"line":2,"transit":false,"i_long":106.82482,"time":2,"station_name":"Manggabesar"},{"distance":906,"station_id":"SW","transit":false,"i_lat":-6.160725,"i_long":106.827103,"time":2,"line":2,"station_name":"Sawah Besar","is_transit":false},{"distance":1149,"i_long":106.828284,"transit":false,"time":2,"station_id":"JUA","station_name":"Juanda","i_lat":-6.166716,"is_transit":false,"line":2},{"line":2,"time":4,"distance":2015,"station_id":"GDD","i_lat":-6.186295,"is_transit":false,"transit":false,"station_name":"Gondangdia","i_long":106.832183},{"is_transit":false,"line":2,"i_lat":-6.198556,"time":3,"distance":1750,"station_name":"Cikini","station_id":"CKI","transit":false,"i_long":106.840169},{"transit":true,"is_transit":true,"station_id":"MRI","i_lat":-6.209883,"i_long":106.84912,"distance":1590,"time":4,"station_name":"Manggarai","line":2},{"i_long":106.822649,"transit":false,"line":1,"distance":3186,"is_transit":false,"station_id":"SUD","i_lat":-6.202263,"time":4,"station_name":"Sudirman"},{"is_transit":false,"distance":280,"station_name":"Sudirman Baru","i_long":106.819881,"transit":false,"station_id":"SUDB","i_lat":-6.201433,"time":1,"line":1},{"station_id":"KAT","is_transit":false,"station_name":"Karet","time":1,"transit":false,"distance":471,"i_lat":-6.20132,"i_long":106.816351,"line":1},{"transit":false,"i_long":106.811091,"station_id":"THB","distance":2029,"time":5,"station_name":"Tanah Abang","is_transit":false,"i_lat":-6.185545,"line":1},{"station_name":"Duri","distance":3632,"i_lat":-6.155215,"station_id":"DU","is_transit":false,"transit":false,"line":1,"i_long":106.800832,"time":8}]]}