{"data":[[{"station_name":"Cikarang","station_id":"CKR","i_lat":-6.2553149999999995,"is_transit":false,"line":1,"i_long":107.144613,"time":0,"transit":false,"distance":0},{"transit":false,"distance":3689,"is_transit":false,"line":1,"time":4,"station_id":"TLM","i_lat":-6.262938,"station_name":"Metland Telaga Murni","i_long":107.093313},{"i_lat":-6.261877,"line":1,"is_transit":false,"transit":false,"station_name":"Cibitung","distance":2800,"station_id":"CIT","time":2,"i_long":107.083084},{"station_id":"TB","is_transit":false,"station_name":"Tambun","i_long":107.055722,"distance":3420,"transit":false,"time":3,"line":1,"i_lat":-6.258864},{"station_id":"BKST","i_lat":-6.248029,"is_transit":false,"station_name":"Bekasi Timur","line":1,"distance":4460,"time":7,"transit":false,"i_long":107.016735},{"i_long":106.997013,"time":2,"i_lat":-6.236616,"station_id":"BKS","station_name":"Bekasi","transit":false,"distance":2368,"is_transit":false,"line":1},{"time":4,"transit":false,"station_id":"KRI","i_long":106.977657,"distance":2520,"station_name":"Kranji","i_lat":-6.224515,"is_transit":false,"line":1},{"line":1,"station_id":"CUK","station_name":"Cakung","time":3,"transit":false,"is_transit":false,"distance":3097,"i_lat":-6.219053,"i_long":106.951283},{"line":1,"station_id":"KLDB","i_lat":-6.217455,"i_long":106.939679,"time":8,"distance":1385,"is_transit":false,"station_name":"Klenderbaru","transit":false},{"station_id":"BUA","station_name":"Buaran","time":1,"i_long":106.922662,"i_lat":-6.215568,"line":1,"distance":1305,"transit":false,"is_transit":false},{"line":1,"distance":3100,"station_name":"Klender","is_transit":false,"i_lat":-6.2135,"transit":false,"time":2,"station_id":"KLD","i_long":106.899548},{"distance":3395,"time":3,"i_long":106.86807400000001,"line":1,"station_name":"Jatinegara","transit":false,"i_lat":-6.215091,"station_id":"JNG","is_transit":false},{"station_name":"Matraman","station_id":"MTR","i_long":106.858896,"line":1,"is_transit":false,"time":2,"transit":false,"distance":1377,"i_lat":-6.212485},{"station_name":"Manggarai","is_transit":false,"distance":1275,"station_id":"MRI","i_long":106.84912,"i_lat":-6.209883,"transit":false,"time":2,"line":2},{"transit":false,"line":1,"is_transit":false,"i_long":106.822649,"station_id":"SUD","i_lat":-6.202263,"station_name":"Sudirman","time":4,"distance":3186},{"i_lat":-6.201433,"distance":280,"station_id":"SUDB","transit":false,"time":1,"i_long":106.819881,"is_transit":false,"line":1,"station_name":"Sudirman Baru"},{"time":1,"is_transit":false,"i_long":106.816351,"distance":471,"transit":false,"station_name":"Karet","station_id":"KAT","i_lat":-6.20132,"line":1},{"station_id":"THB","i_long":106.811091,"station_name":"Tanah Abang","time":5,"distance":2029,"i_lat":-6.185545,"line":1,"is_transit":true,"transit":true},{"i_long":106.79689,"line":6,"is_transit":false,"transit":false,"i_lat":-6.207404,"station_name":"Palmerah","station_id":"PLM","time":6,"distance":3191},{"station_id":"KBY","time":7,"i_long":106.780334,"distance":3737,"line":6,"i_lat":-6.237242,"transit":false,"is_transit":false,"station_name":"Kebayoran"},{"distance":6218,"i_lat":-6.276362,"transit":false,"i_long":106.74273,"is_transit":false,"station_id":"PDJ","time":8,"line":6,"station_name":"Pondokranji"},{"i_lat":-6.288927,"distance":2179,"i_long":106.728916,"line":6,"station_name":"Jurangmangu","time":3,"transit":false,"station_id":"JMU","is_transit":false},{"time":4,"i_long":106.712277,"distance":1994,"line":6,"i_lat":-6.296963,"station_name":"Sudimara","station_id":"SDM","transit":false,"is_transit":false}],[{"station_id":"CKR","i_long":107.144613,"station_name":"Cikarang","time":0,"line":1,"i_lat":-6.2553149999999995,"transit":false,"distance":0,"is_transit":false},{"i_long":107.093313,"distance":3689,"time":4,"station_name":"Metland Telaga Murni","station_id":"TLM","transit":false,"is_transit":false,"i_lat":-6.262938,"line":1},{"is_transit":false,"station_name":"Cibitung","station_id":"CIT","transit":false,"distance":2800,"i_lat":-6.261877,"line":1,"i_long":107.083084,"time":2},{"station_name":"Tambun","i_long":107.055722,"line":1,"distance":3420,"is_transit":false,"transit":false,"time":3,"station_id":"TB","i_lat":-6.258864},{"line":1,"is_transit":false,"distance":4460,"station_id":"BKST","time":7,"i_long":107.016735,"station_name":"Bekasi Timur","i_lat":-6.248029,"transit":false},{"station_id":"BKS","distance":2368,"station_name":"Bekasi","time":2,"is_transit":false,"i_lat":-6.236616,"line":1,"transit":false,"i_long":106.997013},{"distance":2520,"transit":false,"station_name":"Kranji","i_lat":-6.224515,"time":4,"station_id":"KRI","i_long":106.977657,"is_transit":false,"line":1},{"is_transit":false,"line":1,"station_name":"Cakung","transit":false,"distance":3097,"station_id":"CUK","time":3,"i_lat":-6.219053,"i_long":106.951283},{"station_id":"KLDB","i_lat":-6.217455,"line":1,"is_transit":false,"transit":false,"distance":1385,"station_name":"Klenderbaru","i_long":106.939679,"time":8},{"distance":1305,"station_name":"Buaran","i_lat":-6.215568,"i_long":106.922662,"is_transit":false,"transit":false,"time":1,"line":1,"station_id":"BUA"},{"distance":3100,"station_id":"KLD","i_long":106.899548,"station_name":"Klender","transit":false,"i_lat":-6.2135,"line":1,"time":2,"is_transit":false},{"transit":true,"line":1,"time":3,"station_id":"JNG","i_lat":-6.215091,"is_transit":true,"distance":3395,"i_long":106.86807400000001,"station_name":"Jatinegara"},{"is_transit":false,"transit":false,"i_long":106.861737,"station_name":"Pondok Jati","time":2,"line":11,"station_id":"POK","i_lat":-6.209188,"distance":1236},{"distance":1829,"i_lat":-6.193792,"is_transit":false,"i_long":106.855437,"station_id":"KMT","time":2,"station_name":"Kramat","line":11,"transit":false},{"is_transit":false,"i_long":106.850107,"station_id":"GST","station_name":"Gang Sentiong","distance":973,"line":11,"transit":false,"time":1,"i_lat":-6.185975},{"is_transit":false,"i_lat":-6.174784,"i_long":106.84368,"transit":false,"line":11,"distance":1567,"station_id":"PSE","time":8,"station_name":"Pasar Senen"},{"station_name":"Kemayoran","time":4,"i_lat":-6.161728,"line":11,"station_id":"KMO","transit":false,"distance":1436,"i_long":106.839204,"is_transit":false},{"transit":false,"distance":1901,"line":11,"station_name":"Rajawali","i_long":106.836569,"time":5,"i_lat":-6.14505,"station_id":"RJW","is_transit":false},{"line":4,"transit":true,"station_id":"KPB","station_name":"Kampung Bandan","distance":1444,"is_transit":true,"i_lat":-6.132549,"time":3,"i_long":106.826365},{"is_transit":false,"station_name":"Angke","time":9,"line":1,"i_lat":-6.144674,"station_id":"AK","i_long":106.79867,"distance":4102,"transit":false},{"is_transit":false,"station_name":"Duri","station_id":"DU","i_long":106.800832,"i_lat":-6.155215,"time":4,"line":1,"transit":false,"distance":1230},{"transit":true,"station_name":"Tanah Abang","i_long":106.811091,"distance":3632,"time":8,"is_transit":true,"i_lat":-6.185545,"line":1,"station_id":"THB"},{"station_id":"PLM","is_transit":false,"transit":false,"i_long":106.79689,"time":6,"station_name":"Palmerah","distance":3191,"i_lat":-6.207404,"line":6},{"i_lat":-6.237242,"transit":false,"station_name":"Kebayoran","station_id":"KBY","i_long":106.780334,"line":6,"is_transit":false,"distance":3737,"time":7},{"time":8,"i_lat":-6.276362,"distance":6218,"line":6,"i_long":106.74273,"is_transit":false,"station_name":"Pondokranji","transit":false,"station_id":"PDJ"},{"i_long":106.728916,"line":6,"is_transit":false,"station_id":"JMU","i_lat":-6.288927,"distance":2179,"transit":false,"station_name":"Jurangmangu","time":3},{"station_name":"Sudimara","station_id":"SDM","i_lat":-6.296963,"line":6,"time":4,"is_transit":false,"distance":1994,"transit":false,"i_long":106.712277}],[{"i_lat":-6.2553149999999995,"transit":false,"is_transit":false,"station_id":"CKR","line":1,"station_name":"Cikarang","distance":0,"time":0,"i_long":107.144613},{"station_id":"TLM","transit":false,"time":4,"station_name":"Metland Telaga Murni","line":1,"i_lat":-6.262938,"is_transit":false,"distance":3689,"i_long":107.093313},{"time":2,"line":1,"distance":2800,"i_lat":-6.261877,"is_transit":false,"i_long":107.083084,"station_name":"Cibitung","transit":false,"station_id":"CIT"},{"station_name":"Tambun","time":3,"i_lat":-6.258864,"i_long":107.055722,"station_id":"TB","transit":false,"line":1,"is_transit":false,"distance":3420},{"transit":false,"i_long":107.016735,"station_name":"Bekasi Timur","distance":4460,"time":7,"station_id":"BKST","is_transit":false,"i_lat":-6.248029,"line":1},{"station_id":"BKS","time":2,"distance":2368,"station_name":"Bekasi","is_transit":false,"i_long":106.997013,"line":1,"i_lat":-6.236616,"transit":false},{"transit":false,"time":4,"line":1,"i_long":106.977657,"is_transit":false,"distance":2520,"station_name":"Kranji","i_lat":-6.224515,"station_id":"KRI"},{"line":1,"transit":false,"is_transit":false,"station_name":"Cakung","time":3,"i_lat":-6.219053,"station_id":"CUK","distance":3097,"i_long":106.951283},{"station_name":"Klenderbaru","line":1,"transit":false,"is_transit":false,"station_id":"KLDB","distance":1385,"time":8,"i_lat":-6.217455,"i_long":106.939679},{"transit":false,"distance":1305,"station_id":"BUA","i_lat":-6.215568,"line":1,"is_transit":false,"station_name":"Buaran","i_long":106.922662,"time":1},{"is_transit":false,"station_id":"KLD","station_name":"Klender","time":2,"line":1,"i_lat":-6.2135,"transit":false,"distance":3100,"i_long":106.899548},{"station_name":"Jatinegara","station_id":"JNG","time":3,"i_lat":-6.215091,"distance":3395,"transit":false,"i_long":106.86807400000001,"is_transit":false,"line":1},{"time":2,"i_long":106.858896,"station_name":"Matraman","transit":false,"distance":1377,"i_lat":-6.212485,"line":1,"station_id":"MTR","is_transit":false},{"i_long":106.84912,"line":2,"time":2,"i_lat":-6.209883,"distance":1275,"station_name":"Manggarai","transit":true,"is_transit":true,"station_id":"MRI"},{"i_lat":-6.198556,"station_id":"CKI","distance":1590,"is_transit":false,"i_long":106.840169,"station_name":"Cikini","time":4,"transit":false,"line":2},{"station_name":"Gondangdia","distance":1750,"transit":false,"time":3,"i_long":106.832183,"i_lat":-6.186295,"line":2,"station_id":"GDD","is_transit":false},{"i_lat":-6.166716,"station_id":"JUA","i_long":106.828284,"transit":false,"is_transit":false,"distance":2015,"time":4,"line":2,"station_name":"Juanda"},{"station_name":"Sawah Besar","station_id":"SW","i_long":106.827103,"is_transit":false,"line":2,"i_lat":-6.160725,"transit":false,"distance":1149,"time":2},{"i_lat":-6.149769,"transit":false,"station_id":"MGB","line":2,"time":2,"is_transit":false,"station_name":"Manggabesar","distance":906,"i_long":106.82482},{"line":2,"station_name":"Jayakarta","distance":1080,"transit":false,"i_long":106.820901,"time":2,"i_lat":-6.141205,"station_id":"JAY","is_transit":false},{"is_transit":true,"distance":1264,"station_name":"Jakarta Kota","i_lat":-6.137569,"i_long":106.812439,"transit":true,"line":2,"station_id":"JAKK","time":4},{"distance":1364,"time":3,"station_name":"Kampung Bandan","is_transit":true,"station_id":"KPB","transit":true,"i_lat":-6.132549,"i_long":106.826365,"line":4},{"transit":false,"is_transit":false,"distance":4102,"time":9,"i_lat":-6.144674,"i_long":106.79867,"line":1,"station_name":"Angke","station_id":"AK"},{"i_lat":-6.155215,"i_long":106.800832,"line":1,"station_name":"Duri","distance":1230,"time":4,"station_id":"DU","is_transit":false,"transit":false},{"time":8,"is_transit":true,"i_lat":-6.185545,"i_long":106.811091,"station_name":"Tanah Abang","distance":3632,"line":1,"transit":true,"station_id":"THB"},{"time":6,"i_lat":-6.207404,"station_name":"Palmerah","station_id":"PLM","distance":3191,"transit":false,"is_transit":false,"i_long":106.79689,"line":6},{"transit":false,"station_name":"Kebayoran","station_id":"KBY","line":6,"i_long":106.780334,"distance":3737,"is_transit":false,"time":7,"i_lat":-6.237242},{"station_name":"Pondokranji","time":8,"i_lat":-6.276362,"i_long":106.74273,"distance":6218,"line":6,"station_id":"PDJ","is_transit":false,"transit":false},{"is_transit":false,"station_name":"Jurangmangu","transit":false,"i_lat":-6.288927,"i_long":106.728916,"time":3,"line":6,"distance":2179,"station_id":"JMU"},{"station_id":"SDM","is_transit":false,"distance":1994,"i_long":106.712277,"station_name":"Sudimara","time":4,"line":6,"transit":false,"i_lat":-6.296963}],[{"station_id":"CKR","distance":0,"line":1,"i_lat":-6.2553149999999995,"transit":false,"is_transit":false,"station_name":"Cikarang","time":0,"i_long":107.144613},{"time":4,"distance":3689,"transit":false,"line":1,"station_id":"TLM","is_transit":false,"i_long":107.093313,"station_name":"Metland Telaga Murni","i_lat":-6.262938},{"i_long":107.083084,"transit":false,"distance":2800,"station_id":"CIT","is_transit":false,"station_name":"Cibitung","line":1,"time":2,"i_lat":-6.261877},{"time":3,"distance":3420,"station_id":"TB","transit":false,"i_lat":-6.258864,"i_long":107.055722,"station_name":"Tambun","line":1,"is_transit":false},{"i_long":107.016735,"station_name":"Bekasi Timur","i_lat":-6.248029,"time":7,"line":1,"station_id":"BKST","distance":4460,"is_transit":false,"transit":false},{"distance":2368,"station_name":"Bekasi","is_transit":false,"line":1,"i_lat":-6.236616,"transit":false,"station_id":"BKS","time":2,"i_long":106.997013},{"i_long":106.977657,"line":1,"i_lat":-6.224515,"time":4,"station_name":"Kranji","distance":2520,"transit":false,"is_transit":false,"station_id":"KRI"},{"distance":3097,"is_transit":false,"transit":false,"i_long":106.951283,"i_lat":-6.219053,"time":3,"line":1,"station_name":"Cakung","station_id":"CUK"},{"distance":1385,"transit":false,"line":1,"i_lat":-6.217455,"time":8,"is_transit":false,"i_long":106.939679,"station_name":"Klenderbaru","station_id":"KLDB"},{"i_long":106.922662,"station_name":"Buaran","station_id":"BUA","transit":false,"time":1,"i_lat":-6.215568,"is_transit":false,"distance":1305,"line":1},{"distance":3100,"is_transit":false,"i_lat":-6.2135,"i_long":106.899548,"line":1,"station_id":"KLD","time":2,"station_name":"Klender","transit":false},{"distance":3395,"i_lat":-6.215091,"i_long":106.86807400000001,"time":3,"station_id":"JNG","line":1,"transit":true,"is_transit":true,"station_name":"Jatinegara"},{"is_transit":false,"transit":false,"line":11,"station_name":"Pondok Jati","station_id":"POK","distance":1236,"time":2,"i_lat":-6.209188,"i_long":106.861737},{"time":2,"line":11,"distance":1829,"is_transit":false,"i_long":106.855437,"transit":false,"i_lat":-6.193792,"station_name":"Kramat","station_id":"KMT"},{"station_name":"Gang Sentiong","time":1,"line":11,"transit":false,"i_lat":-6.185975,"distance":973,"is_transit":false,"i_long":106.850107,"station_id":"GST"},{"station_name":"Pasar Senen","station_id":"PSE","distance":1567,"time":8,"is_transit":false,"i_long":106.84368,"i_lat":-6.174784,"line":11,"transit":false},{"distance":1436,"transit":false,"station_name":"Kemayoran","line":11,"station_id":"KMO","time":4,"is_transit":false,"i_lat":-6.161728,"i_long":106.839204},{"i_lat":-6.14505,"station_id":"RJW","i_long":106.836569,"distance":1901,"transit":false,"is_transit":false,"time":5,"station_name":"Rajawali","line":11},{"station_id":"KPB","distance":1444,"is_transit":true,"i_long":106.826365,"station_name":"Kampung Bandan","i_lat":-6.132549,"transit":true,"line":4,"time":3},{"transit":true,"i_lat":-6.137569,"line":2,"is_transit":true,"i_long":106.812439,"station_name":"Jakarta Kota","station_id":"JAKK","distance":1364,"time":3},{"i_long":106.820901,"station_name":"Jayakarta","station_id":"JAY","distance":1264,"i_lat":-6.141205,"line":2,"is_transit":false,"time":4,"transit":false},{"distance":1080,"i_long":106.82482,"i_lat":-6.149769,"time":2,"station_id":"MGB","line":2,"is_transit":false,"station_name":"Manggabesar","transit":false},{"time":2,"i_long":106.827103,"station_name":"Sawah Besar","transit":false,"distance":906,"i_lat":-6.160725,"is_transit":false,"station_id":"SW","line":2},{"transit":false,"station_name":"Juanda","i_lat":-6.166716,"station_id":"JUA","is_transit":false,"i_long":106.828284,"line":2,"distance":1149,"time":2},{"is_transit":false,"station_name":"Gondangdia","distance":2015,"transit":false,"time":4,"i_long":106.832183,"station_id":"GDD","line":2,"i_lat":-6.186295},{"station_id":"CKI","i_lat":-6.198556,"station_name":"Cikini","time":3,"is_transit":false,"distance":1750,"i_long":106.840169,"transit":false,"line":2},{"transit":true,"i_long":106.84912,"i_lat":-6.209883,"station_id":"MRI","station_name":"Manggarai","is_transit":true,"distance":1590,"time":4,"line":2},{"station_id":"SUD","is_transit":false,"i_lat":-6.202263,"station_name":"Sudirman","distance":3186,"i_long":106.822649,"transit":false,"time":4,"line":1},{"time":1,"i_long":106.819881,"line":1,"distance":280,"transit":false,"is_transit":false,"i_lat":-6.201433,"station_name":"Sudirman Baru","station_id":"SUDB"},{"is_transit":false,"distance":471,"line":1,"i_lat":-6.20132,"station_name":"Karet","i_long":106.816351,"time":1,"station_id":"KAT","transit":false},{"station_name":"Tanah Abang","is_transit":true,"i_lat":-6.185545,"i_long":106.811091,"distance":2029,"transit":true,"time":5,"line":1,"station_id":"THB"},{"transit":false,"is_transit":false,"i_long":106.79689,"i_lat":-6.207404,"distance":3191,"station_name":"Palmerah","station_id":"PLM","time":6,"line":6},{"i_long":106.780334,"transit":false,"distance":3737,"station_name":"Kebayoran","line":6,"i_lat":-6.237242,"station_id":"KBY","is_transit":false,"time":7},{"i_lat":-6.276362,"distance":6218,"time":8,"station_name":"Pondokranji","is_transit":false,"i_long":106.74273,"line":6,"station_id":"PDJ","transit":false},{"distance":2179,"is_transit":false,"i_long":106.728916,"transit":false,"station_id":"JMU","station_name":"Jurangmangu","line":6,"i_lat":-6.288927,"time":3},{"distance":1994,"station_name":"Sudimara","station_id":"SDM","time":4,"i_lat":-6.296963,"transit":false,"i_long":106.712277,"line":6,"is_transit":false}]]}