{"data":[[{"line":1,"time":0,"is_transit":false,"station_id":"CKR","i_lat":-6.2553149999999995,"i_long":107.144613,"distance":0,"station_name":"Cikarang","transit":false},{"is_transit":false,"transit":false,"station_name":"Metland Telaga Murni","i_long":107.093313,"distance":3689,"time":4,"station_id":"TLM","i_lat":-6.262938,"line":1},{"line":1,"station_id":"CIT","station_name":"Cibitung","time":2,"i_long":107.083084,"is_transit":false,"distance":2800,"transit":false,"i_lat":-6.261877},{"distance":3420,"time":3,"i_long":107.055722,"line":1,"station_name":"Tambun","station_id":"TB","i_lat":-6.258864,"transit":false,"is_transit":false},{"station_name":"Bekasi Timur","transit":false,"line":1,"i_long":107.016735,"distance":4460,"station_id":"BKST","is_transit":false,"i_lat":-6.248029,"time":7},{"is_transit":false,"i_lat":-6.236616,"transit":false,"distance":2368,"i_long":106.997013,"line":1,"time":2,"station_id":"BKS","station_name":"Bekasi"},{"time":4,"i_lat":-6.224515,"i_long":106.977657,"transit":false,"station_id":"KRI","is_transit":false,"station_name":"Kranji","distance":2520,"line":1},{"i_lat":-6.219053,"station_id":"CUK","station_name":"Cakung","i_long":106.951283,"is_transit":false,"line":1,"time":3,"distance":3097,"transit":false},{"line":1,"i_lat":-6.217455,"distance":1385,"time":8,"transit":false,"is_transit":false,"station_id":"KLDB","i_long":106.939679,"station_name":"Klenderbaru"},{"time":1,"i_long":106.922662,"line":1,"distance":1305,"is_transit":false,"station_name":"Buaran","i_lat":-6.215568,"transit":false,"station_id":"BUA"},{"distance":3100,"i_lat":-6.2135,"time":2,"station_name":"Klender","line":1,"i_long":106.899548,"station_id":"KLD","is_transit":false,"transit":false},{"transit":false,"i_lat":-6.215091,"station_id":"JNG","i_long":106.86807400000001,"is_transit":false,"distance":3395,"line":1,"station_name":"Jatinegara","time":3},{"station_name":"Matraman","time":2,"station_id":"MTR","distance":1377,"is_transit":false,"transit":false,"i_lat":-6.212485,"i_long":106.858896,"line":1},{"transit":false,"i_lat":-6.209883,"distance":1275,"i_long":106.84912,"line":2,"time":2,"station_id":"MRI","station_name":"Manggarai","is_transit":false},{"transit":false,"station_id":"SUD","time":4,"i_lat":-6.202263,"is_transit":false,"i_long":106.822649,"line":1,"station_name":"Sudirman","distance":3186},{"i_long":106.819881,"transit":false,"i_lat":-6.201433,"station_name":"Sudirman Baru","station_id":"SUDB","distance":280,"time":1,"is_transit":false,"line":1},{"station_id":"KAT","i_lat":-6.20132,"transit":false,"is_transit":false,"distance":471,"i_long":106.816351,"line":1,"time":1,"station_name":"Karet"},{"transit":false,"i_long":106.811091,"distance":2029,"is_transit":false,"i_lat":-6.185545,"time":5,"station_name":"Tanah Abang","line":1,"station_id":"THB"},{"station_id":"DU","i_lat":-6.155215,"station_name":"Duri","line":1,"time":8,"is_transit":true,"transit":true,"distance":3632,"i_long":106.800832},{"is_transit":false,"station_id":"GGL","station_name":"Grogol","i_long":106.788277,"line":5,"distance":1700,"transit":false,"time":3,"i_lat":-6.162021},{"transit":false,"i_long":106.771379,"station_name":"Pesing","is_transit":false,"i_lat":-6.161433,"station_id":"PSG","line":5,"distance":2036,"time":2},{"i_long":106.756522,"station_id":"TKO","line":5,"distance":1614,"i_lat":-6.1587309999999995,"time":2,"station_name":"Taman Kota","transit":false,"is_transit":false},{"time":2,"i_lat":-6.159876,"distance":2334,"is_transit":false,"i_long":106.737035,"transit":false,"station_id":"BOI","line":5,"station_name":"Bojongindah"},{"i_lat":-6.162758,"line":5,"time":4,"transit":false,"i_long":106.723064,"is_transit":false,"distance":1152,"station_id":"RW","station_name":"Rawa Buaya"},{"i_long":106.701612,"station_id":"KDS","is_transit":false,"distance":2504,"transit":false,"line":5,"time":3,"station_name":"Kalideres","i_lat":-6.166068},{"station_id":"PI","time":3,"distance":2548,"is_transit":false,"station_name":"Poris","i_lat":-6.169933,"transit":false,"i_long":106.679458,"line":5},{"time":3,"distance":1834,"is_transit":false,"station_id":"BPR","transit":false,"i_long":106.665036,"station_name":"Batuceper","line":5,"i_lat":-6.171811},{"i_long":106.64657,"distance":2028,"line":5,"i_lat":-6.17331,"is_transit":false,"transit":false,"time":3,"station_id":"TTI","station_name":"Tanah Tinggi"},{"distance":1547,"station_id":"TNG","time":3,"line":5,"station_name":"Tangerang","i_lat":-6.176583,"i_long":106.632761,"is_transit":false,"transit":false}],[{"is_transit":false,"station_name":"Cikarang","time":0,"line":1,"station_id":"CKR","transit":false,"i_lat":-6.2553149999999995,"i_long":107.144613,"distance":0},{"transit":false,"i_lat":-6.262938,"is_transit":false,"i_long":107.093313,"time":4,"station_name":"Metland Telaga Murni","distance":3689,"line":1,"station_id":"TLM"},{"distance":2800,"is_transit":false,"i_lat":-6.261877,"transit":false,"line":1,"time":2,"station_name":"Cibitung","station_id":"CIT","i_long":107.083084},{"transit":false,"i_long":107.055722,"line":1,"time":3,"i_lat":-6.258864,"station_name":"Tambun","is_transit":false,"station_id":"TB","distance":3420},{"i_lat":-6.248029,"transit":false,"station_id":"BKST","time":7,"station_name":"Bekasi Timur","is_transit":false,"line":1,"distance":4460,"i_long":107.016735},{"line":1,"time":2,"is_transit":false,"station_name":"Bekasi","distance":2368,"i_long":106.997013,"i_lat":-6.236616,"station_id":"BKS","transit":false},{"is_transit":false,"i_long":106.977657,"distance":2520,"station_id":"KRI","transit":false,"i_lat":-6.224515,"station_name":"Kranji","line":1,"time":4},{"distance":3097,"transit":false,"i_lat":-6.219053,"i_long":106.951283,"station_id":"CUK","line":1,"time":3,"is_transit":false,"station_name":"Cakung"},{"line":1,"i_lat":-6.217455,"station_name":"Klenderbaru","station_id":"KLDB","time":8,"distance":1385,"is_transit":false,"transit":false,"i_long":106.939679},{"time":1,"i_lat":-6.215568,"station_name":"Buaran","i_long":106.922662,"line":1,"distance":1305,"transit":false,"is_transit":false,"station_id":"BUA"},{"is_transit":false,"transit":false,"line":1,"i_long":106.899548,"station_id":"KLD","i_lat":-6.2135,"time":2,"distance":3100,"station_name":"Klender"},{"is_transit":true,"i_lat":-6.215091,"i_long":106.86807400000001,"station_id":"JNG","line":1,"distance":3395,"transit":true,"station_name":"Jatinegara","time":3},{"is_transit":false,"station_id":"POK","time":2,"distance":1236,"station_name":"Pondok Jati","line":11,"transit":false,"i_lat":-6.209188,"i_long":106.861737},{"station_name":"Kramat","line":11,"time":2,"is_transit":false,"i_long":106.855437,"station_id":"KMT","transit":false,"i_lat":-6.193792,"distance":1829},{"time":1,"distance":973,"i_lat":-6.185975,"i_long":106.850107,"is_transit":false,"transit":false,"line":11,"station_name":"Gang Sentiong","station_id":"GST"},{"distance":1567,"station_name":"Pasar Senen","i_lat":-6.174784,"line":11,"time":8,"is_transit":false,"i_long":106.84368,"station_id":"PSE","transit":false},{"station_id":"KMO","is_transit":false,"station_name":"Kemayoran","i_long":106.839204,"time":4,"line":11,"i_lat":-6.161728,"distance":1436,"transit":false},{"station_name":"Rajawali","i_lat":-6.14505,"time":5,"i_long":106.836569,"is_transit":false,"distance":1901,"station_id":"RJW","line":11,"transit":false},{"station_id":"KPB","transit":true,"i_long":106.826365,"time":3,"i_lat":-6.132549,"distance":1444,"is_transit":true,"station_name":"Kampung Bandan","line":4},{"station_id":"AK","i_long":106.79867,"is_transit":false,"time":9,"i_lat":-6.144674,"line":1,"station_name":"Angke","distance":4102,"transit":false},{"station_id":"DU","is_transit":true,"station_name":"Duri","i_lat":-6.155215,"i_long":106.800832,"time":4,"distance":1230,"line":1,"transit":true},{"line":5,"time":3,"is_transit":false,"distance":1700,"station_name":"Grogol","i_long":106.788277,"transit":false,"i_lat":-6.162021,"station_id":"GGL"},{"i_long":106.771379,"station_id":"PSG","line":5,"transit":false,"i_lat":-6.161433,"distance":2036,"station_name":"Pesing","time":2,"is_transit":false},{"distance":1614,"station_id":"TKO","line":5,"is_transit":false,"transit":false,"i_lat":-6.1587309999999995,"time":2,"station_name":"Taman Kota","i_long":106.756522},{"distance":2334,"is_transit":false,"station_name":"Bojongindah","i_long":106.737035,"station_id":"BOI","line":5,"i_lat":-6.159876,"transit":false,"time":2},{"transit":false,"time":4,"is_transit":false,"distance":1152,"station_name":"Rawa Buaya","station_id":"RW","i_long":106.723064,"line":5,"i_lat":-6.162758},{"station_id":"KDS","time":3,"is_transit":false,"station_name":"Kalideres","i_lat":-6.166068,"transit":false,"line":5,"distance":2504,"i_long":106.701612},{"i_long":106.679458,"station_id":"PI","line":5,"i_lat":-6.169933,"transit":false,"time":3,"is_transit":false,"station_name":"Poris","distance":2548},{"i_long":106.665036,"line":5,"is_transit":false,"distance":1834,"station_name":"Batuceper","transit":false,"time":3,"station_id":"BPR","i_lat":-6.171811},{"i_long":106.64657,"transit":false,"station_name":"Tanah Tinggi","i_lat":-6.17331,"station_id":"TTI","distance":2028,"is_transit":false,"time":3,"line":5},{"station_id":"TNG","i_lat":-6.176583,"is_transit":false,"transit":false,"time":3,"i_long":106.632761,"distance":1547,"station_name":"Tangerang","line":5}],[{"line":1,"i_long":107.144613,"is_transit":false,"distance":0,"station_id":"CKR","station_name":"Cikarang","i_lat":-6.2553149999999995,"transit":false,"time":0},{"time":4,"i_lat":-6.262938,"transit":false,"distance":3689,"station_id":"TLM","line":1,"i_long":107.093313,"is_transit":false,"station_name":"Metland Telaga Murni"},{"line":1,"station_id":"CIT","distance":2800,"transit":false,"is_transit":false,"station_name":"Cibitung","i_lat":-6.261877,"i_long":107.083084,"time":2},{"line":1,"station_id":"TB","time":3,"transit":false,"is_transit":false,"distance":3420,"station_name":"Tambun","i_lat":-6.258864,"i_long":107.055722},{"line":1,"i_long":107.016735,"station_id":"BKST","is_transit":false,"i_lat":-6.248029,"distance":4460,"station_name":"Bekasi Timur","transit":false,"time":7},{"distance":2368,"station_id":"BKS","i_lat":-6.236616,"station_name":"Bekasi","transit":false,"time":2,"is_transit":false,"i_long":106.997013,"line":1},{"station_name":"Kranji","station_id":"KRI","i_long":106.977657,"time":4,"transit":false,"distance":2520,"line":1,"i_lat":-6.224515,"is_transit":false},{"distance":3097,"is_transit":false,"station_id":"CUK","line":1,"i_lat":-6.219053,"transit":false,"i_long":106.951283,"time":3,"station_name":"Cakung"},{"line":1,"i_lat":-6.217455,"station_id":"KLDB","transit":false,"distance":1385,"station_name":"Klenderbaru","time":8,"i_long":106.939679,"is_transit":false},{"station_id":"BUA","station_name":"Buaran","time":1,"transit":false,"i_lat":-6.215568,"i_long":106.922662,"is_transit":false,"line":1,"distance":1305},{"is_transit":false,"time":2,"station_id":"KLD","distance":3100,"transit":false,"station_name":"Klender","line":1,"i_long":106.899548,"i_lat":-6.2135},{"i_lat":-6.215091,"i_long":106.86807400000001,"is_transit":false,"line":1,"transit":false,"time":3,"station_name":"Jatinegara","station_id":"JNG","distance":3395},{"i_lat":-6.212485,"is_transit":false,"i_long":106.858896,"line":1,"distance":1377,"station_id":"MTR","time":2,"transit":false,"station_name":"Matraman"},{"time":2,"distance":1275,"is_transit":true,"station_id":"MRI","station_name":"Manggarai","transit":true,"i_long":106.84912,"line":2,"i_lat":-6.209883},{"station_id":"CKI","transit":false,"distance":1590,"line":2,"time":4,"station_name":"Cikini","i_long":106.840169,"i_lat":-6.198556,"is_transit":false},{"line":2,"is_transit":false,"time":3,"i_lat":-6.186295,"station_name":"Gondangdia","station_id":"GDD","distance":1750,"transit":false,"i_long":106.832183},{"i_long":106.828284,"distance":2015,"transit":false,"station_name":"Juanda","is_transit":false,"line":2,"time":4,"i_lat":-6.166716,"station_id":"JUA"},{"i_lat":-6.160725,"i_long":106.827103,"distance":1149,"line":2,"is_transit":false,"time":2,"station_id":"SW","station_name":"Sawah Besar","transit":false},{"transit":false,"i_long":106.82482,"is_transit":false,"line":2,"distance":906,"station_name":"Manggabesar","i_lat":-6.149769,"station_id":"MGB","time":2},{"time":2,"i_long":106.820901,"station_name":"Jayakarta","station_id":"JAY","line":2,"distance":1080,"is_transit":false,"transit":false,"i_lat":-6.141205},{"station_id":"JAKK","is_transit":true,"i_long":106.812439,"time":4,"transit":true,"line":2,"i_lat":-6.137569,"station_name":"Jakarta Kota","distance":1264},{"station_name":"Kampung Bandan","transit":true,"line":4,"time":3,"station_id":"KPB","i_lat":-6.132549,"i_long":106.826365,"is_transit":true,"distance":1364},{"i_lat":-6.144674,"station_id":"AK","transit":false,"line":1,"distance":4102,"time":9,"is_transit":false,"station_name":"Angke","i_long":106.79867},{"i_long":106.800832,"time":4,"distance":1230,"is_transit":true,"line":1,"station_name":"Duri","transit":true,"i_lat":-6.155215,"station_id":"DU"},{"line":5,"is_transit":false,"distance":1700,"time":3,"station_id":"GGL","i_lat":-6.162021,"i_long":106.788277,"transit":false,"station_name":"Grogol"},{"i_long":106.771379,"time":2,"station_id":"PSG","i_lat":-6.161433,"station_name":"Pesing","distance":2036,"transit":false,"is_transit":false,"line":5},{"is_transit":false,"time":2,"i_lat":-6.1587309999999995,"line":5,"i_long":106.756522,"station_name":"Taman Kota","station_id":"TKO","distance":1614,"transit":false},{"i_long":106.737035,"station_name":"Bojongindah","line":5,"transit":false,"time":2,"distance":2334,"station_id":"BOI","is_transit":false,"i_lat":-6.159876},{"station_name":"Rawa Buaya","distance":1152,"time":4,"line":5,"i_lat":-6.162758,"i_long":106.723064,"is_transit":false,"transit":false,"station_id":"RW"},{"is_transit":false,"i_lat":-6.166068,"time":3,"line":5,"i_long":106.701612,"station_id":"KDS","distance":2504,"transit":false,"station_name":"Kalideres"},{"station_id":"PI","time":3,"i_lat":-6.169933,"distance":2548,"is_transit":false,"transit":false,"station_name":"Poris","line":5,"i_long":106.679458},{"i_lat":-6.171811,"is_transit":false,"i_long":106.665036,"line":5,"station_name":"Batuceper","station_id":"BPR","time":3,"distance":1834,"transit":false},{"station_name":"Tanah Tinggi","line":5,"transit":false,"is_transit":false,"station_id":"TTI","i_lat":-6.17331,"i_long":106.64657,"time":3,"distance":2028},{"i_long":106.632761,"transit":false,"time":3,"line":5,"station_name":"Tangerang","i_lat":-6.176583,"station_id":"TNG","distance":1547,"is_transit":false}],[{"is_transit":false,"i_long":107.144613,"time":0,"line":1,"station_id":"CKR","distance":0,"transit":false,"i_lat":-6.2553149999999995,"station_name":"Cikarang"},{"transit":false,"station_id":"TLM","station_name":"Metland Telaga Murni","is_transit":false,"distance":3689,"i_long":107.093313,"time":4,"line":1,"i_lat":-6.262938},{"line":1,"transit":false,"station_id":"CIT","station_name":"Cibitung","is_transit":false,"i_long":107.083084,"time":2,"distance":2800,"i_lat":-6.261877},{"distance":3420,"station_id":"TB","is_transit":false,"i_long":107.055722,"line":1,"station_name":"Tambun","transit":false,"i_lat":-6.258864,"time":3},{"time":7,"distance":4460,"transit":false,"i_long":107.016735,"line":1,"station_id":"BKST","i_lat":-6.248029,"is_transit":false,"station_name":"Bekasi Timur"},{"line":1,"is_transit":false,"distance":2368,"transit":false,"i_lat":-6.236616,"time":2,"i_long":106.997013,"station_id":"BKS","station_name":"Bekasi"},{"line":1,"distance":2520,"station_id":"KRI","transit":false,"station_name":"Kranji","i_long":106.977657,"time":4,"i_lat":-6.224515,"is_transit":false},{"station_id":"CUK","is_transit":false,"transit":false,"i_lat":-6.219053,"station_name":"Cakung","i_long":106.951283,"time":3,"line":1,"distance":3097},{"transit":false,"i_long":106.939679,"time":8,"distance":1385,"station_name":"Klenderbaru","i_lat":-6.217455,"station_id":"KLDB","is_transit":false,"line":1},{"i_long":106.922662,"station_name":"Buaran","line":1,"time":1,"is_transit":false,"station_id":"BUA","distance":1305,"transit":false,"i_lat":-6.215568},{"station_id":"KLD","line":1,"is_transit":false,"i_lat":-6.2135,"distance":3100,"station_name":"Klender","transit":false,"i_long":106.899548,"time":2},{"time":3,"is_transit":true,"i_long":106.86807400000001,"line":1,"transit":true,"distance":3395,"station_name":"Jatinegara","station_id":"JNG","i_lat":-6.215091},{"transit":false,"station_name":"Pondok Jati","i_lat":-6.209188,"distance":1236,"line":11,"is_transit":false,"station_id":"POK","i_long":106.861737,"time":2},{"transit":false,"station_name":"Kramat","is_transit":false,"i_lat":-6.193792,"line":11,"time":2,"i_long":106.855437,"distance":1829,"station_id":"KMT"},{"i_lat":-6.185975,"transit":false,"distance":973,"time":1,"station_id":"GST","is_transit":false,"station_name":"Gang Sentiong","i_long":106.850107,"line":11},{"time":8,"station_id":"PSE","transit":false,"line":11,"i_long":106.84368,"station_name":"Pasar Senen","distance":1567,"is_transit":false,"i_lat":-6.174784},{"distance":1436,"i_long":106.839204,"line":11,"i_lat":-6.161728,"is_transit":false,"station_id":"KMO","transit":false,"station_name":"Kemayoran","time":4},{"station_id":"RJW","i_lat":-6.14505,"time":5,"line":11,"is_transit":false,"transit":false,"station_name":"Rajawali","distance":1901,"i_long":106.836569},{"station_id":"KPB","i_long":106.826365,"is_transit":true,"transit":true,"distance":1444,"i_lat":-6.132549,"line":4,"station_name":"Kampung Bandan","time":3},{"station_name":"Jakarta Kota","i_long":106.812439,"station_id":"JAKK","transit":true,"time":3,"line":2,"is_transit":true,"distance":1364,"i_lat":-6.137569},{"distance":1264,"transit":false,"station_name":"Jayakarta","i_long":106.820901,"time":4,"is_transit":false,"station_id":"JAY","i_lat":-6.141205,"line":2},{"i_lat":-6.149769,"i_long":106.82482,"station_name":"Manggabesar","distance":1080,"time":2,"is_transit":false,"station_id":"MGB","transit":false,"line":2},{"is_transit":false,"line":2,"station_name":"Sawah Besar","station_id":"SW","distance":906,"i_long":106.827103,"i_lat":-6.160725,"time":2,"transit":false},{"transit":false,"time":2,"distance":1149,"i_long":106.828284,"station_name":"Juanda","is_transit":false,"line":2,"station_id":"JUA","i_lat":-6.166716},{"i_lat":-6.186295,"distance":2015,"station_name":"Gondangdia","time":4,"station_id":"GDD","is_transit":false,"transit":false,"i_long":106.832183,"line":2},{"i_long":106.840169,"distance":1750,"time":3,"station_name":"Cikini","station_id":"CKI","i_lat":-6.198556,"transit":false,"is_transit":false,"line":2},{"transit":true,"i_lat":-6.209883,"line":2,"station_name":"Manggarai","i_long":106.84912,"time":4,"is_transit":true,"distance":1590,"station_id":"MRI"},{"line":1,"is_transit":false,"i_lat":-6.202263,"transit":false,"time":4,"distance":3186,"station_id":"SUD","station_name":"Sudirman","i_long":106.822649},{"line":1,"i_lat":-6.201433,"transit":false,"i_long":106.819881,"is_transit":false,"distance":280,"station_name":"Sudirman Baru","time":1,"station_id":"SUDB"},{"station_name":"Karet","i_lat":-6.20132,"i_long":106.816351,"distance":471,"time":1,"station_id":"KAT","transit":false,"is_transit":false,"line":1},{"line":1,"i_lat":-6.185545,"is_transit":false,"i_long":106.811091,"station_id":"THB","transit":false,"station_name":"Tanah Abang","time":5,"distance":2029},{"station_id":"DU","i_lat":-6.155215,"line":1,"station_name":"Duri","time":8,"i_long":106.800832,"distance":3632,"is_transit":true,"transit":true},{"distance":1700,"time":3,"station_id":"GGL","transit":false,"i_long":106.788277,"station_name":"Grogol","line":5,"i_lat":-6.162021,"is_transit":false},{"i_long":106.771379,"transit":false,"i_lat":-6.161433,"station_name":"Pesing","distance":2036,"station_id":"PSG","time":2,"is_transit":false,"line":5},{"station_name":"Taman Kota","i_lat":-6.1587309999999995,"time":2,"station_id":"TKO","i_long":106.756522,"distance":1614,"is_transit":false,"transit":false,"line":5},{"i_long":106.737035,"transit":false,"is_transit":false,"i_lat":-6.159876,"line":5,"station_name":"Bojongindah","station_id":"BOI","distance":2334,"time":2},{"time":4,"i_lat":-6.162758,"line":5,"station_name":"Rawa Buaya","is_transit":false,"i_long":106.723064,"distance":1152,"transit":false,"station_id":"RW"},{"station_name":"Kalideres","station_id":"KDS","time":3,"i_long":106.701612,"i_lat":-6.166068,"distance":2504,"transit":false,"line":5,"is_transit":false},{"i_long":106.679458,"distance":2548,"station_name":"Poris","line":5,"is_transit":false,"time":3,"i_lat":-6.169933,"transit":false,"station_id":"PI"},{"is_transit":false,"distance":1834,"station_id":"BPR","line":5,"i_long":106.665036,"station_name":"Batuceper","time":3,"i_lat":-6.171811,"transit":false},{"time":3,"station_id":"TTI","i_long":106.64657,"line":5,"i_lat":-6.17331,"distance":2028,"is_transit":false,"transit":false,"station_name":"Tanah Tinggi"},{"i_long":106.632761,"i_lat":-6.176583,"station_id":"TNG","distance":1547,"time":3,"transit":false,"station_name":"Tangerang","is_transit":false,"line":5}]]}