{"data":[[{"station_name":"Cikarang","i_long":107.144613,"distance":0,"i_lat":-6.2553149999999995,"line":1,"transit":false,"time":0,"station_id":"CKR","is_transit":false},{"distance":3689,"transit":false,"station_id":"TLM","line":1,"station_name":"Metland Telaga Murni","i_lat":-6.262938,"time":4,"is_transit":false,"i_long":107.093313},{"i_lat":-6.261877,"transit":false,"time":2,"station_name":"Cibitung","station_id":"CIT","i_long":107.083084,"is_transit":false,"line":1,"distance":2800},{"transit":false,"time":3,"distance":3420,"station_name":"Tambun","station_id":"TB","i_lat":-6.258864,"i_long":107.055722,"is_transit":false,"line":1},{"is_transit":false,"station_id":"BKST","line":1,"time":7,"i_long":107.016735,"transit":false,"i_lat":-6.248029,"distance":4460,"station_name":"Bekasi Timur"},{"transit":false,"time":2,"i_lat":-6.236616,"line":1,"station_name":"Bekasi","is_transit":false,"distance":2368,"station_id":"BKS","i_long":106.997013},{"is_transit":false,"line":1,"time":4,"station_name":"Kranji","distance":2520,"station_id":"KRI","transit":false,"i_long":106.977657,"i_lat":-6.224515},{"station_name":"Cakung","i_long":106.951283,"transit":false,"distance":3097,"time":3,"i_lat":-6.219053,"is_transit":false,"station_id":"CUK","line":1},{"transit":false,"station_id":"KLDB","station_name":"Klenderbaru","i_lat":-6.217455,"line":1,"time":8,"i_long":106.939679,"distance":1385,"is_transit":false},{"i_lat":-6.215568,"station_id":"BUA","is_transit":false,"transit":false,"i_long":106.922662,"distance":1305,"time":1,"station_name":"Buaran","line":1},{"station_name":"Klender","i_lat":-6.2135,"station_id":"KLD","distance":3100,"time":2,"is_transit":false,"i_long":106.899548,"line":1,"transit":false},{"is_transit":false,"station_id":"JNG","transit":false,"time":3,"i_long":106.86807400000001,"line":1,"station_name":"Jatinegara","i_lat":-6.215091,"distance":3395},{"i_lat":-6.212485,"time":2,"station_name":"Matraman","distance":1377,"station_id":"MTR","line":1,"is_transit":false,"transit":false,"i_long":106.858896},{"time":2,"is_transit":false,"distance":1275,"line":2,"station_name":"Manggarai","station_id":"MRI","transit":false,"i_lat":-6.209883,"i_long":106.84912},{"i_long":106.822649,"transit":false,"line":1,"time":4,"station_name":"Sudirman","is_transit":false,"station_id":"SUD","i_lat":-6.202263,"distance":3186},{"line":1,"is_transit":false,"transit":false,"time":1,"distance":280,"station_id":"SUDB","i_lat":-6.201433,"i_long":106.819881,"station_name":"Sudirman Baru"},{"distance":471,"i_lat":-6.20132,"station_id":"KAT","i_long":106.816351,"line":1,"is_transit":false,"transit":false,"time":1,"station_name":"Karet"},{"i_long":106.811091,"transit":false,"line":1,"i_lat":-6.185545,"time":5,"station_id":"THB","is_transit":false,"distance":2029,"station_name":"Tanah Abang"},{"distance":3632,"time":8,"i_lat":-6.155215,"i_long":106.800832,"is_transit":true,"station_id":"DU","station_name":"Duri","transit":true,"line":1},{"transit":false,"i_long":106.788277,"station_name":"Grogol","is_transit":false,"distance":1700,"line":5,"station_id":"GGL","time":3,"i_lat":-6.162021},{"is_transit":false,"distance":2036,"station_name":"Pesing","station_id":"PSG","time":2,"i_long":106.771379,"transit":false,"line":5,"i_lat":-6.161433},{"station_id":"TKO","time":2,"i_long":106.756522,"transit":false,"is_transit":false,"i_lat":-6.1587309999999995,"line":5,"distance":1614,"station_name":"Taman Kota"},{"distance":2334,"station_id":"BOI","i_lat":-6.159876,"i_long":106.737035,"transit":false,"time":2,"station_name":"Bojongindah","is_transit":false,"line":5},{"time":4,"transit":false,"distance":1152,"station_id":"RW","station_name":"Rawa Buaya","i_lat":-6.162758,"is_transit":false,"line":5,"i_long":106.723064}],[{"transit":false,"time":0,"line":1,"station_id":"CKR","distance":0,"i_lat":-6.2553149999999995,"station_name":"Cikarang","i_long":107.144613,"is_transit":false},{"transit":false,"i_long":107.093313,"time":4,"station_name":"Metland Telaga Murni","is_transit":false,"line":1,"distance":3689,"station_id":"TLM","i_lat":-6.262938},{"time":2,"is_transit":false,"distance":2800,"station_id":"CIT","line":1,"i_lat":-6.261877,"station_name":"Cibitung","i_long":107.083084,"transit":false},{"is_transit":false,"line":1,"time":3,"i_lat":-6.258864,"transit":false,"distance":3420,"station_name":"Tambun","station_id":"TB","i_long":107.055722},{"transit":false,"station_id":"BKST","station_name":"Bekasi Timur","is_transit":false,"i_long":107.016735,"line":1,"time":7,"distance":4460,"i_lat":-6.248029},{"i_long":106.997013,"station_id":"BKS","distance":2368,"line":1,"transit":false,"is_transit":false,"i_lat":-6.236616,"time":2,"station_name":"Bekasi"},{"i_lat":-6.224515,"distance":2520,"station_id":"KRI","i_long":106.977657,"station_name":"Kranji","time":4,"line":1,"is_transit":false,"transit":false},{"i_lat":-6.219053,"time":3,"transit":false,"station_id":"CUK","i_long":106.951283,"is_transit":false,"line":1,"station_name":"Cakung","distance":3097},{"transit":false,"line":1,"is_transit":false,"i_lat":-6.217455,"time":8,"station_name":"Klenderbaru","distance":1385,"i_long":106.939679,"station_id":"KLDB"},{"i_long":106.922662,"time":1,"station_name":"Buaran","distance":1305,"i_lat":-6.215568,"line":1,"is_transit":false,"station_id":"BUA","transit":false},{"i_long":106.899548,"station_name":"Klender","distance":3100,"i_lat":-6.2135,"is_transit":false,"station_id":"KLD","line":1,"transit":false,"time":2},{"distance":3395,"station_id":"JNG","i_lat":-6.215091,"i_long":106.86807400000001,"transit":true,"line":1,"time":3,"station_name":"Jatinegara","is_transit":true},{"is_transit":false,"distance":1236,"i_long":106.861737,"i_lat":-6.209188,"time":2,"station_id":"POK","station_name":"Pondok Jati","transit":false,"line":11},{"station_name":"Kramat","station_id":"KMT","time":2,"distance":1829,"i_lat":-6.193792,"transit":false,"line":11,"is_transit":false,"i_long":106.855437},{"station_name":"Gang Sentiong","transit":false,"station_id":"GST","time":1,"is_transit":false,"distance":973,"i_lat":-6.185975,"i_long":106.850107,"line":11},{"is_transit":false,"station_id":"PSE","i_lat":-6.174784,"station_name":"Pasar Senen","transit":false,"line":11,"time":8,"distance":1567,"i_long":106.84368},{"i_long":106.839204,"i_lat":-6.161728,"station_id":"KMO","transit":false,"line":11,"is_transit":false,"distance":1436,"station_name":"Kemayoran","time":4},{"transit":false,"station_name":"Rajawali","time":5,"line":11,"i_lat":-6.14505,"is_transit":false,"i_long":106.836569,"distance":1901,"station_id":"RJW"},{"line":4,"station_id":"KPB","transit":true,"i_lat":-6.132549,"is_transit":true,"i_long":106.826365,"time":3,"distance":1444,"station_name":"Kampung Bandan"},{"line":1,"is_transit":false,"time":9,"station_id":"AK","transit":false,"distance":4102,"i_long":106.79867,"station_name":"Angke","i_lat":-6.144674},{"distance":1230,"i_long":106.800832,"transit":true,"time":4,"station_id":"DU","line":1,"is_transit":true,"station_name":"Duri","i_lat":-6.155215},{"distance":1700,"i_lat":-6.162021,"transit":false,"is_transit":false,"time":3,"i_long":106.788277,"station_id":"GGL","station_name":"Grogol","line":5},{"i_long":106.771379,"station_name":"Pesing","distance":2036,"station_id":"PSG","i_lat":-6.161433,"is_transit":false,"line":5,"time":2,"transit":false},{"transit":false,"time":2,"station_name":"Taman Kota","i_long":106.756522,"is_transit":false,"distance":1614,"station_id":"TKO","i_lat":-6.1587309999999995,"line":5},{"transit":false,"is_transit":false,"line":5,"time":2,"station_name":"Bojongindah","i_lat":-6.159876,"i_long":106.737035,"station_id":"BOI","distance":2334},{"time":4,"i_lat":-6.162758,"line":5,"distance":1152,"station_name":"Rawa Buaya","is_transit":false,"i_long":106.723064,"transit":false,"station_id":"RW"}],[{"station_id":"CKR","transit":false,"time":0,"line":1,"station_name":"Cikarang","i_long":107.144613,"is_transit":false,"distance":0,"i_lat":-6.2553149999999995},{"i_lat":-6.262938,"transit":false,"i_long":107.093313,"is_transit":false,"time":4,"line":1,"station_id":"TLM","station_name":"Metland Telaga Murni","distance":3689},{"station_name":"Cibitung","transit":false,"i_lat":-6.261877,"time":2,"station_id":"CIT","distance":2800,"i_long":107.083084,"line":1,"is_transit":false},{"i_long":107.055722,"station_id":"TB","time":3,"line":1,"distance":3420,"station_name":"Tambun","is_transit":false,"i_lat":-6.258864,"transit":false},{"i_lat":-6.248029,"transit":false,"time":7,"station_name":"Bekasi Timur","line":1,"i_long":107.016735,"is_transit":false,"distance":4460,"station_id":"BKST"},{"line":1,"time":2,"station_id":"BKS","distance":2368,"station_name":"Bekasi","is_transit":false,"i_lat":-6.236616,"transit":false,"i_long":106.997013},{"station_name":"Kranji","time":4,"station_id":"KRI","i_long":106.977657,"distance":2520,"transit":false,"is_transit":false,"line":1,"i_lat":-6.224515},{"is_transit":false,"time":3,"i_lat":-6.219053,"line":1,"station_id":"CUK","i_long":106.951283,"transit":false,"distance":3097,"station_name":"Cakung"},{"station_id":"KLDB","time":8,"station_name":"Klenderbaru","is_transit":false,"i_long":106.939679,"line":1,"i_lat":-6.217455,"distance":1385,"transit":false},{"distance":1305,"line":1,"i_lat":-6.215568,"i_long":106.922662,"transit":false,"time":1,"station_id":"BUA","station_name":"Buaran","is_transit":false},{"station_name":"Klender","is_transit":false,"i_long":106.899548,"line":1,"time":2,"station_id":"KLD","i_lat":-6.2135,"distance":3100,"transit":false},{"is_transit":false,"i_long":106.86807400000001,"distance":3395,"time":3,"station_name":"Jatinegara","station_id":"JNG","transit":false,"i_lat":-6.215091,"line":1},{"station_name":"Matraman","is_transit":false,"i_lat":-6.212485,"distance":1377,"i_long":106.858896,"line":1,"station_id":"MTR","time":2,"transit":false},{"station_id":"MRI","line":2,"time":2,"i_lat":-6.209883,"i_long":106.84912,"distance":1275,"transit":true,"is_transit":true,"station_name":"Manggarai"},{"time":4,"is_transit":false,"i_long":106.840169,"line":2,"distance":1590,"i_lat":-6.198556,"transit":false,"station_name":"Cikini","station_id":"CKI"},{"station_id":"GDD","is_transit":false,"distance":1750,"i_long":106.832183,"transit":false,"line":2,"station_name":"Gondangdia","time":3,"i_lat":-6.186295},{"i_lat":-6.166716,"distance":2015,"time":4,"line":2,"transit":false,"station_name":"Juanda","is_transit":false,"station_id":"JUA","i_long":106.828284},{"i_long":106.827103,"i_lat":-6.160725,"station_name":"Sawah Besar","line":2,"station_id":"SW","transit":false,"time":2,"is_transit":false,"distance":1149},{"station_name":"Manggabesar","is_transit":false,"i_lat":-6.149769,"time":2,"transit":false,"i_long":106.82482,"line":2,"distance":906,"station_id":"MGB"},{"distance":1080,"is_transit":false,"transit":false,"i_long":106.820901,"station_id":"JAY","time":2,"station_name":"Jayakarta","line":2,"i_lat":-6.141205},{"distance":1264,"i_long":106.812439,"is_transit":true,"line":2,"transit":true,"i_lat":-6.137569,"station_id":"JAKK","station_name":"Jakarta Kota","time":4},{"i_long":106.826365,"transit":true,"i_lat":-6.132549,"line":4,"station_id":"KPB","time":3,"distance":1364,"is_transit":true,"station_name":"Kampung Bandan"},{"station_name":"Angke","station_id":"AK","line":1,"is_transit":false,"i_lat":-6.144674,"i_long":106.79867,"transit":false,"time":9,"distance":4102},{"is_transit":true,"distance":1230,"station_name":"Duri","line":1,"i_lat":-6.155215,"time":4,"transit":true,"station_id":"DU","i_long":106.800832},{"line":5,"transit":false,"station_id":"GGL","station_name":"Grogol","i_lat":-6.162021,"time":3,"i_long":106.788277,"distance":1700,"is_transit":false},{"transit":false,"distance":2036,"i_long":106.771379,"is_transit":false,"station_id":"PSG","line":5,"station_name":"Pesing","i_lat":-6.161433,"time":2},{"i_long":106.756522,"line":5,"station_id":"TKO","time":2,"distance":1614,"is_transit":false,"i_lat":-6.1587309999999995,"transit":false,"station_name":"Taman Kota"},{"station_name":"Bojongindah","line":5,"distance":2334,"is_transit":false,"station_id":"BOI","i_long":106.737035,"time":2,"transit":false,"i_lat":-6.159876},{"distance":1152,"i_long":106.723064,"is_transit":false,"i_lat":-6.162758,"station_name":"Rawa Buaya","line":5,"time":4,"transit":false,"station_id":"RW"}],[{"distance":0,"time":0,"transit":false,"station_id":"CKR","i_long":107.144613,"line":1,"station_name":"Cikarang","is_transit":false,"i_lat":-6.2553149999999995},{"station_id":"TLM","station_name":"Metland Telaga Murni","transit":false,"time":4,"line":1,"is_transit":false,"i_lat":-6.262938,"i_long":107.093313,"distance":3689},{"transit":false,"line":1,"station_name":"Cibitung","is_transit":false,"i_lat":-6.261877,"time":2,"i_long":107.083084,"station_id":"CIT","distance":2800},{"time":3,"line":1,"i_lat":-6.258864,"station_id":"TB","station_name":"Tambun","transit":false,"is_transit":false,"i_long":107.055722,"distance":3420},{"station_name":"Bekasi Timur","distance":4460,"i_long":107.016735,"transit":false,"is_transit":false,"i_lat":-6.248029,"time":7,"line":1,"station_id":"BKST"},{"transit":false,"line":1,"i_long":106.997013,"is_transit":false,"distance":2368,"time":2,"station_name":"Bekasi","i_lat":-6.236616,"station_id":"BKS"},{"is_transit":false,"time":4,"distance":2520,"line":1,"station_name":"Kranji","i_lat":-6.224515,"station_id":"KRI","i_long":106.977657,"transit":false},{"station_name":"Cakung","is_transit":false,"transit":false,"station_id":"CUK","line":1,"i_long":106.951283,"i_lat":-6.219053,"time":3,"distance":3097},{"line":1,"transit":false,"station_id":"KLDB","time":8,"is_transit":false,"station_name":"Klenderbaru","i_lat":-6.217455,"i_long":106.939679,"distance":1385},{"is_transit":false,"station_name":"Buaran","i_lat":-6.215568,"line":1,"station_id":"BUA","i_long":106.922662,"distance":1305,"time":1,"transit":false},{"i_lat":-6.2135,"time":2,"transit":false,"station_name":"Klender","is_transit":false,"distance":3100,"station_id":"KLD","i_long":106.899548,"line":1},{"line":1,"i_long":106.86807400000001,"time":3,"i_lat":-6.215091,"distance":3395,"is_transit":true,"station_id":"JNG","station_name":"Jatinegara","transit":true},{"i_lat":-6.209188,"time":2,"transit":false,"i_long":106.861737,"station_id":"POK","station_name":"Pondok Jati","line":11,"is_transit":false,"distance":1236},{"station_id":"KMT","station_name":"Kramat","is_transit":false,"line":11,"transit":false,"time":2,"distance":1829,"i_lat":-6.193792,"i_long":106.855437},{"is_transit":false,"line":11,"i_lat":-6.185975,"station_id":"GST","distance":973,"i_long":106.850107,"time":1,"transit":false,"station_name":"Gang Sentiong"},{"station_id":"PSE","station_name":"Pasar Senen","is_transit":false,"time":8,"i_lat":-6.174784,"i_long":106.84368,"distance":1567,"line":11,"transit":false},{"station_id":"KMO","station_name":"Kemayoran","i_long":106.839204,"i_lat":-6.161728,"line":11,"time":4,"is_transit":false,"distance":1436,"transit":false},{"distance":1901,"station_id":"RJW","time":5,"line":11,"transit":false,"is_transit":false,"i_lat":-6.14505,"i_long":106.836569,"station_name":"Rajawali"},{"i_lat":-6.132549,"transit":true,"line":4,"station_name":"Kampung Bandan","i_long":106.826365,"station_id":"KPB","is_transit":true,"time":3,"distance":1444},{"line":2,"time":3,"i_lat":-6.137569,"station_name":"Jakarta Kota","i_long":106.812439,"transit":true,"station_id":"JAKK","is_transit":true,"distance":1364},{"i_long":106.820901,"line":2,"is_transit":false,"i_lat":-6.141205,"transit":false,"distance":1264,"station_id":"JAY","time":4,"station_name":"Jayakarta"},{"transit":false,"i_long":106.82482,"station_name":"Manggabesar","i_lat":-6.149769,"is_transit":false,"station_id":"MGB","line":2,"time":2,"distance":1080},{"distance":906,"station_id":"SW","station_name":"Sawah Besar","i_lat":-6.160725,"time":2,"is_transit":false,"i_long":106.827103,"line":2,"transit":false},{"i_lat":-6.166716,"station_id":"JUA","station_name":"Juanda","time":2,"is_transit":false,"distance":1149,"i_long":106.828284,"transit":false,"line":2},{"line":2,"time":4,"i_lat":-6.186295,"station_name":"Gondangdia","i_long":106.832183,"transit":false,"is_transit":false,"distance":2015,"station_id":"GDD"},{"transit":false,"is_transit":false,"distance":1750,"i_lat":-6.198556,"station_id":"CKI","i_long":106.840169,"line":2,"station_name":"Cikini","time":3},{"distance":1590,"time":4,"i_lat":-6.209883,"i_long":106.84912,"line":2,"transit":true,"is_transit":true,"station_id":"MRI","station_name":"Manggarai"},{"is_transit":false,"line":1,"distance":3186,"station_id":"SUD","i_long":106.822649,"i_lat":-6.202263,"transit":false,"station_name":"Sudirman","time":4},{"transit":false,"time":1,"station_name":"Sudirman Baru","is_transit":false,"distance":280,"i_lat":-6.201433,"station_id":"SUDB","i_long":106.819881,"line":1},{"i_long":106.816351,"line":1,"time":1,"i_lat":-6.20132,"transit":false,"station_name":"Karet","is_transit":false,"distance":471,"station_id":"KAT"},{"time":5,"i_long":106.811091,"transit":false,"station_name":"Tanah Abang","is_transit":false,"i_lat":-6.185545,"line":1,"station_id":"THB","distance":2029},{"line":1,"i_lat":-6.155215,"station_id":"DU","i_long":106.800832,"transit":true,"station_name":"Duri","is_transit":true,"distance":3632,"time":8},{"distance":1700,"time":3,"station_name":"Grogol","i_long":106.788277,"is_transit":false,"station_id":"GGL","transit":false,"i_lat":-6.162021,"line":5},{"time":2,"transit":false,"station_name":"Pesing","station_id":"PSG","is_transit":false,"i_lat":-6.161433,"distance":2036,"i_long":106.771379,"line":5},{"station_id":"TKO","transit":false,"is_transit":false,"line":5,"i_long":106.756522,"i_lat":-6.1587309999999995,"time":2,"station_name":"Taman Kota","distance":1614},{"station_id":"BOI","transit":false,"i_lat":-6.159876,"station_name":"Bojongindah","time":2,"i_long":106.737035,"is_transit":false,"distance":2334,"line":5},{"is_transit":false,"transit":false,"station_name":"Rawa Buaya","time":4,"line":5,"i_lat":-6.162758,"distance":1152,"station_id":"RW","i_long":106.723064}]]}