{"data":[[{"distance":0,"i_lat":-6.2553149999999995,"station_id":"CKR","is_transit":false,"transit":false,"line":1,"i_long":107.144613,"station_name":"Cikarang","time":0},{"station_id":"TLM","transit":false,"is_transit":false,"station_name":"Metland Telaga Murni","distance":3689,"i_long":107.093313,"time":4,"i_lat":-6.262938,"line":1},{"is_transit":false,"station_id":"CIT","transit":false,"i_lat":-6.261877,"time":2,"i_long":107.083084,"line":1,"distance":2800,"station_name":"Cibitung"},{"is_transit":false,"time":3,"station_name":"Tambun","i_long":107.055722,"station_id":"TB","transit":false,"distance":3420,"i_lat":-6.258864,"line":1},{"station_id":"BKST","i_lat":-6.248029,"line":1,"is_transit":false,"transit":false,"distance":4460,"station_name":"Bekasi Timur","i_long":107.016735,"time":7},{"i_lat":-6.236616,"transit":false,"line":1,"station_name":"Bekasi","is_transit":false,"time":2,"distance":2368,"station_id":"BKS","i_long":106.997013},{"distance":2520,"transit":false,"line":1,"time":4,"station_id":"KRI","i_lat":-6.224515,"i_long":106.977657,"station_name":"Kranji","is_transit":false},{"transit":false,"i_lat":-6.219053,"is_transit":false,"station_name":"Cakung","time":3,"station_id":"CUK","line":1,"distance":3097,"i_long":106.951283},{"i_lat":-6.217455,"transit":false,"time":8,"is_transit":false,"station_id":"KLDB","distance":1385,"station_name":"Klenderbaru","i_long":106.939679,"line":1},{"i_long":106.922662,"is_transit":false,"station_id":"BUA","i_lat":-6.215568,"line":1,"distance":1305,"station_name":"Buaran","time":1,"transit":false},{"station_id":"KLD","station_name":"Klender","time":2,"i_long":106.899548,"i_lat":-6.2135,"is_transit":false,"transit":false,"distance":3100,"line":1},{"station_id":"JNG","i_long":106.86807400000001,"station_name":"Jatinegara","distance":3395,"is_transit":false,"i_lat":-6.215091,"time":3,"transit":false,"line":1},{"is_transit":false,"i_long":106.858896,"time":2,"station_name":"Matraman","distance":1377,"transit":false,"i_lat":-6.212485,"station_id":"MTR","line":1},{"station_name":"Manggarai","transit":true,"station_id":"MRI","line":2,"distance":1275,"is_transit":true,"time":2,"i_lat":-6.209883,"i_long":106.84912},{"transit":false,"is_transit":false,"station_id":"CKI","i_long":106.840169,"line":2,"distance":1590,"i_lat":-6.198556,"time":4,"station_name":"Cikini"},{"station_name":"Gondangdia","transit":false,"is_transit":false,"distance":1750,"i_lat":-6.186295,"i_long":106.832183,"line":2,"time":3,"station_id":"GDD"},{"station_id":"JUA","line":2,"i_long":106.828284,"time":4,"i_lat":-6.166716,"distance":2015,"station_name":"Juanda","transit":false,"is_transit":false},{"station_id":"SW","distance":1149,"i_long":106.827103,"i_lat":-6.160725,"transit":false,"time":2,"is_transit":false,"line":2,"station_name":"Sawah Besar"}],[{"time":0,"transit":false,"station_name":"Cikarang","i_lat":-6.2553149999999995,"station_id":"CKR","i_long":107.144613,"is_transit":false,"line":1,"distance":0},{"transit":false,"i_lat":-6.262938,"i_long":107.093313,"line":1,"is_transit":false,"time":4,"distance":3689,"station_id":"TLM","station_name":"Metland Telaga Murni"},{"station_name":"Cibitung","i_long":107.083084,"is_transit":false,"station_id":"CIT","time":2,"distance":2800,"i_lat":-6.261877,"line":1,"transit":false},{"i_long":107.055722,"i_lat":-6.258864,"station_id":"TB","distance":3420,"station_name":"Tambun","is_transit":false,"time":3,"transit":false,"line":1},{"distance":4460,"i_long":107.016735,"is_transit":false,"station_name":"Bekasi Timur","transit":false,"line":1,"station_id":"BKST","i_lat":-6.248029,"time":7},{"is_transit":false,"station_id":"BKS","time":2,"station_name":"Bekasi","transit":false,"distance":2368,"line":1,"i_long":106.997013,"i_lat":-6.236616},{"transit":false,"station_name":"Kranji","i_lat":-6.224515,"line":1,"distance":2520,"time":4,"station_id":"KRI","is_transit":false,"i_long":106.977657},{"i_long":106.951283,"is_transit":false,"transit":false,"station_name":"Cakung","distance":3097,"line":1,"station_id":"CUK","i_lat":-6.219053,"time":3},{"time":8,"i_long":106.939679,"station_id":"KLDB","i_lat":-6.217455,"is_transit":false,"station_name":"Klenderbaru","line":1,"distance":1385,"transit":false},{"station_name":"Buaran","is_transit":false,"station_id":"BUA","line":1,"i_lat":-6.215568,"distance":1305,"i_long":106.922662,"time":1,"transit":false},{"station_id":"KLD","station_name":"Klender","i_long":106.899548,"line":1,"transit":false,"is_transit":false,"time":2,"distance":3100,"i_lat":-6.2135},{"line":1,"station_name":"Jatinegara","i_long":106.86807400000001,"transit":true,"distance":3395,"is_transit":true,"i_lat":-6.215091,"time":3,"station_id":"JNG"},{"i_lat":-6.209188,"station_id":"POK","is_transit":false,"i_long":106.861737,"transit":false,"station_name":"Pondok Jati","distance":1236,"time":2,"line":11},{"i_long":106.855437,"station_id":"KMT","transit":false,"is_transit":false,"distance":1829,"station_name":"Kramat","i_lat":-6.193792,"line":11,"time":2},{"distance":973,"time":1,"i_long":106.850107,"station_id":"GST","transit":false,"station_name":"Gang Sentiong","i_lat":-6.185975,"line":11,"is_transit":false},{"time":8,"transit":false,"station_name":"Pasar Senen","station_id":"PSE","i_lat":-6.174784,"i_long":106.84368,"line":11,"distance":1567,"is_transit":false},{"time":4,"station_id":"KMO","i_long":106.839204,"station_name":"Kemayoran","i_lat":-6.161728,"distance":1436,"transit":false,"line":11,"is_transit":false},{"time":5,"line":11,"i_long":106.836569,"transit":false,"station_name":"Rajawali","station_id":"RJW","is_transit":false,"distance":1901,"i_lat":-6.14505},{"distance":1444,"is_transit":true,"station_id":"KPB","transit":true,"station_name":"Kampung Bandan","i_lat":-6.132549,"time":3,"i_long":106.826365,"line":4},{"station_name":"Jakarta Kota","line":2,"time":3,"is_transit":true,"transit":true,"i_long":106.812439,"station_id":"JAKK","distance":1364,"i_lat":-6.137569},{"station_id":"JAY","line":2,"transit":false,"i_long":106.820901,"station_name":"Jayakarta","time":4,"i_lat":-6.141205,"distance":1264,"is_transit":false},{"station_id":"MGB","station_name":"Manggabesar","transit":false,"distance":1080,"is_transit":false,"time":2,"i_lat":-6.149769,"i_long":106.82482,"line":2},{"time":2,"transit":false,"distance":906,"station_id":"SW","station_name":"Sawah Besar","line":2,"i_long":106.827103,"i_lat":-6.160725,"is_transit":false}],[{"i_long":107.144613,"is_transit":false,"i_lat":-6.2553149999999995,"time":0,"distance":0,"transit":false,"station_name":"Cikarang","line":1,"station_id":"CKR"},{"distance":3689,"i_lat":-6.262938,"station_id":"TLM","is_transit":false,"i_long":107.093313,"line":1,"station_name":"Metland Telaga Murni","transit":false,"time":4},{"distance":2800,"station_id":"CIT","i_lat":-6.261877,"transit":false,"time":2,"station_name":"Cibitung","i_long":107.083084,"is_transit":false,"line":1},{"station_id":"TB","transit":false,"is_transit":false,"station_name":"Tambun","i_long":107.055722,"line":1,"distance":3420,"i_lat":-6.258864,"time":3},{"time":7,"distance":4460,"station_name":"Bekasi Timur","station_id":"BKST","transit":false,"i_long":107.016735,"line":1,"is_transit":false,"i_lat":-6.248029},{"station_name":"Bekasi","is_transit":false,"i_lat":-6.236616,"transit":false,"station_id":"BKS","distance":2368,"i_long":106.997013,"time":2,"line":1},{"transit":false,"i_lat":-6.224515,"i_long":106.977657,"is_transit":false,"line":1,"time":4,"station_id":"KRI","distance":2520,"station_name":"Kranji"},{"line":1,"station_id":"CUK","station_name":"Cakung","distance":3097,"time":3,"i_long":106.951283,"transit":false,"is_transit":false,"i_lat":-6.219053},{"line":1,"time":8,"station_name":"Klenderbaru","i_long":106.939679,"i_lat":-6.217455,"distance":1385,"is_transit":false,"station_id":"KLDB","transit":false},{"i_long":106.922662,"station_name":"Buaran","line":1,"distance":1305,"i_lat":-6.215568,"is_transit":false,"transit":false,"time":1,"station_id":"BUA"},{"time":2,"transit":false,"i_long":106.899548,"i_lat":-6.2135,"station_id":"KLD","station_name":"Klender","line":1,"distance":3100,"is_transit":false},{"i_lat":-6.215091,"i_long":106.86807400000001,"line":1,"transit":false,"is_transit":false,"time":3,"station_name":"Jatinegara","distance":3395,"station_id":"JNG"},{"station_name":"Matraman","distance":1377,"is_transit":false,"time":2,"station_id":"MTR","line":1,"i_long":106.858896,"i_lat":-6.212485,"transit":false},{"i_lat":-6.209883,"station_id":"MRI","transit":false,"i_long":106.84912,"line":2,"is_transit":false,"time":2,"station_name":"Manggarai","distance":1275},{"station_name":"Sudirman","i_lat":-6.202263,"line":1,"time":4,"transit":false,"is_transit":false,"distance":3186,"station_id":"SUD","i_long":106.822649},{"station_name":"Sudirman Baru","i_lat":-6.201433,"line":1,"distance":280,"time":1,"transit":false,"i_long":106.819881,"is_transit":false,"station_id":"SUDB"},{"time":1,"station_id":"KAT","distance":471,"station_name":"Karet","line":1,"i_long":106.816351,"i_lat":-6.20132,"transit":false,"is_transit":false},{"line":1,"distance":2029,"station_name":"Tanah Abang","is_transit":false,"time":5,"station_id":"THB","i_lat":-6.185545,"i_long":106.811091,"transit":false},{"i_lat":-6.155215,"transit":false,"is_transit":false,"time":8,"distance":3632,"station_name":"Duri","i_long":106.800832,"station_id":"DU","line":1},{"distance":1230,"station_id":"AK","time":4,"i_long":106.79867,"line":1,"is_transit":false,"station_name":"Angke","i_lat":-6.144674,"transit":false},{"i_long":106.826365,"distance":4102,"time":9,"station_name":"Kampung Bandan","station_id":"KPB","line":4,"transit":true,"i_lat":-6.132549,"is_transit":true},{"transit":true,"time":3,"station_id":"JAKK","i_lat":-6.137569,"distance":1364,"station_name":"Jakarta Kota","i_long":106.812439,"line":2,"is_transit":true},{"transit":false,"i_lat":-6.141205,"line":2,"is_transit":false,"distance":1264,"station_name":"Jayakarta","i_long":106.820901,"station_id":"JAY","time":4},{"line":2,"station_id":"MGB","is_transit":false,"distance":1080,"time":2,"station_name":"Manggabesar","transit":false,"i_lat":-6.149769,"i_long":106.82482},{"station_name":"Sawah Besar","time":2,"station_id":"SW","line":2,"i_lat":-6.160725,"transit":false,"is_transit":false,"distance":906,"i_long":106.827103}],[{"distance":0,"station_name":"Cikarang","transit":false,"time":0,"station_id":"CKR","is_transit":false,"i_lat":-6.2553149999999995,"i_long":107.144613,"line":1},{"line":1,"time":4,"i_long":107.093313,"transit":false,"is_transit":false,"i_lat":-6.262938,"station_id":"TLM","station_name":"Metland Telaga Murni","distance":3689},{"time":2,"station_id":"CIT","line":1,"i_long":107.083084,"transit":false,"station_name":"Cibitung","i_lat":-6.261877,"is_transit":false,"distance":2800},{"transit":false,"i_long":107.055722,"line":1,"distance":3420,"station_name":"Tambun","is_transit":false,"i_lat":-6.258864,"station_id":"TB","time":3},{"station_name":"Bekasi Timur","i_long":107.016735,"transit":false,"is_transit":false,"line":1,"i_lat":-6.248029,"time":7,"station_id":"BKST","distance":4460},{"i_lat":-6.236616,"distance":2368,"is_transit":false,"line":1,"transit":false,"station_id":"BKS","station_name":"Bekasi","time":2,"i_long":106.997013},{"i_long":106.977657,"station_id":"KRI","station_name":"Kranji","i_lat":-6.224515,"time":4,"is_transit":false,"distance":2520,"line":1,"transit":false},{"i_lat":-6.219053,"station_name":"Cakung","distance":3097,"is_transit":false,"i_long":106.951283,"line":1,"time":3,"station_id":"CUK","transit":false},{"i_long":106.939679,"station_name":"Klenderbaru","time":8,"transit":false,"i_lat":-6.217455,"line":1,"station_id":"KLDB","distance":1385,"is_transit":false},{"distance":1305,"station_name":"Buaran","i_long":106.922662,"time":1,"is_transit":false,"i_lat":-6.215568,"station_id":"BUA","transit":false,"line":1},{"station_id":"KLD","i_long":106.899548,"is_transit":false,"station_name":"Klender","distance":3100,"transit":false,"time":2,"i_lat":-6.2135,"line":1},{"station_id":"JNG","line":1,"distance":3395,"transit":true,"i_lat":-6.215091,"station_name":"Jatinegara","time":3,"i_long":106.86807400000001,"is_transit":true},{"distance":1236,"transit":false,"i_lat":-6.209188,"line":11,"i_long":106.861737,"station_id":"POK","station_name":"Pondok Jati","is_transit":false,"time":2},{"i_long":106.855437,"i_lat":-6.193792,"time":2,"is_transit":false,"station_id":"KMT","transit":false,"station_name":"Kramat","line":11,"distance":1829},{"i_lat":-6.185975,"i_long":106.850107,"line":11,"distance":973,"transit":false,"station_id":"GST","is_transit":false,"time":1,"station_name":"Gang Sentiong"},{"station_id":"PSE","is_transit":false,"i_long":106.84368,"line":11,"time":8,"transit":false,"i_lat":-6.174784,"distance":1567,"station_name":"Pasar Senen"},{"i_lat":-6.161728,"distance":1436,"station_id":"KMO","time":4,"is_transit":false,"station_name":"Kemayoran","i_long":106.839204,"transit":false,"line":11},{"is_transit":false,"i_long":106.836569,"distance":1901,"station_name":"Rajawali","station_id":"RJW","line":11,"time":5,"transit":false,"i_lat":-6.14505},{"station_name":"Kampung Bandan","station_id":"KPB","transit":true,"i_long":106.826365,"time":3,"line":4,"is_transit":true,"distance":1444,"i_lat":-6.132549},{"station_id":"AK","transit":false,"is_transit":false,"i_long":106.79867,"line":1,"distance":4102,"station_name":"Angke","time":9,"i_lat":-6.144674},{"time":4,"station_id":"DU","transit":false,"station_name":"Duri","distance":1230,"i_lat":-6.155215,"is_transit":false,"i_long":106.800832,"line":1},{"transit":false,"station_id":"THB","is_transit":false,"station_name":"Tanah Abang","time":8,"distance":3632,"i_lat":-6.185545,"i_long":106.811091,"line":1},{"distance":2029,"i_lat":-6.20132,"is_transit":false,"time":5,"line":1,"transit":false,"i_long":106.816351,"station_id":"KAT","station_name":"Karet"},{"line":1,"transit":false,"station_name":"Sudirman Baru","i_lat":-6.201433,"time":1,"i_long":106.819881,"is_transit":false,"distance":471,"station_id":"SUDB"},{"i_long":106.822649,"is_transit":false,"distance":280,"line":1,"station_name":"Sudirman","i_lat":-6.202263,"transit":false,"time":1,"station_id":"SUD"},{"i_long":106.84912,"distance":3186,"station_id":"MRI","station_name":"Manggarai","transit":true,"time":4,"line":2,"is_transit":true,"i_lat":-6.209883},{"distance":1590,"line":2,"i_long":106.840169,"transit":false,"station_name":"Cikini","i_lat":-6.198556,"station_id":"CKI","is_transit":false,"time":4},{"is_transit":false,"line":2,"distance":1750,"station_id":"GDD","transit":false,"i_long":106.832183,"time":3,"i_lat":-6.186295,"station_name":"Gondangdia"},{"distance":2015,"transit":false,"i_long":106.828284,"i_lat":-6.166716,"station_name":"Juanda","is_transit":false,"line":2,"time":4,"station_id":"JUA"},{"is_transit":false,"line":2,"distance":1149,"i_long":106.827103,"station_name":"Sawah Besar","i_lat":-6.160725,"station_id":"SW","time":2,"transit":false}]]}