{"data":[[{"is_transit":false,"distance":0,"station_id":"CKR","line":1,"i_lat":-6.2553149999999995,"i_long":107.144613,"transit":false,"time":0,"station_name":"Cikarang"},{"transit":false,"is_transit":false,"time":4,"station_id":"TLM","i_long":107.093313,"distance":3689,"station_name":"Metland Telaga Murni","line":1,"i_lat":-6.262938},{"i_lat":-6.261877,"is_transit":false,"time":2,"station_id":"CIT","transit":false,"i_long":107.083084,"line":1,"distance":2800,"station_name":"Cibitung"},{"is_transit":false,"time":3,"transit":false,"i_long":107.055722,"line":1,"distance":3420,"station_id":"TB","i_lat":-6.258864,"station_name":"Tambun"},{"station_id":"BKST","station_name":"Bekasi Timur","line":1,"i_lat":-6.248029,"distance":4460,"transit":false,"is_transit":false,"i_long":107.016735,"time":7},{"transit":false,"is_transit":false,"i_lat":-6.236616,"line":1,"distance":2368,"station_name":"Bekasi","time":2,"i_long":106.997013,"station_id":"BKS"},{"line":1,"is_transit":false,"station_id":"KRI","distance":2520,"i_lat":-6.224515,"station_name":"Kranji","i_long":106.977657,"time":4,"transit":false},{"i_lat":-6.219053,"time":3,"i_long":106.951283,"is_transit":false,"line":1,"distance":3097,"station_id":"CUK","station_name":"Cakung","transit":false},{"i_lat":-6.217455,"is_transit":false,"i_long":106.939679,"station_name":"Klenderbaru","time":8,"distance":1385,"station_id":"KLDB","line":1,"transit":false},{"station_id":"BUA","transit":false,"station_name":"Buaran","time":1,"is_transit":false,"line":1,"distance":1305,"i_lat":-6.215568,"i_long":106.922662},{"station_name":"Klender","station_id":"KLD","distance":3100,"line":1,"i_lat":-6.2135,"time":2,"is_transit":false,"transit":false,"i_long":106.899548},{"station_id":"JNG","line":1,"is_transit":false,"time":3,"distance":3395,"i_long":106.86807400000001,"transit":false,"i_lat":-6.215091,"station_name":"Jatinegara"},{"station_name":"Matraman","distance":1377,"station_id":"MTR","is_transit":false,"i_long":106.858896,"transit":false,"line":1,"time":2,"i_lat":-6.212485},{"distance":1275,"i_long":106.84912,"station_name":"Manggarai","time":2,"transit":false,"station_id":"MRI","i_lat":-6.209883,"is_transit":false,"line":2},{"transit":false,"is_transit":false,"time":4,"station_name":"Sudirman","i_lat":-6.202263,"line":1,"distance":3186,"i_long":106.822649,"station_id":"SUD"},{"distance":280,"transit":false,"station_id":"SUDB","station_name":"Sudirman Baru","line":1,"i_long":106.819881,"time":1,"is_transit":false,"i_lat":-6.201433},{"is_transit":false,"transit":false,"i_long":106.816351,"distance":471,"line":1,"station_name":"Karet","i_lat":-6.20132,"time":1,"station_id":"KAT"},{"transit":true,"is_transit":true,"distance":2029,"station_id":"THB","station_name":"Tanah Abang","line":1,"time":5,"i_lat":-6.185545,"i_long":106.811091},{"i_long":106.79689,"station_name":"Palmerah","transit":false,"time":6,"is_transit":false,"station_id":"PLM","distance":3191,"line":6,"i_lat":-6.207404},{"station_name":"Kebayoran","station_id":"KBY","distance":3737,"i_long":106.780334,"i_lat":-6.237242,"time":7,"line":6,"transit":false,"is_transit":false},{"transit":false,"line":6,"station_id":"PDJ","is_transit":false,"station_name":"Pondokranji","i_lat":-6.276362,"i_long":106.74273,"distance":6218,"time":8},{"transit":false,"line":6,"is_transit":false,"time":3,"i_long":106.728916,"station_name":"Jurangmangu","i_lat":-6.288927,"distance":2179,"station_id":"JMU"},{"i_long":106.712277,"is_transit":false,"transit":false,"station_name":"Sudimara","time":4,"distance":1994,"station_id":"SDM","line":6,"i_lat":-6.296963},{"line":6,"time":6,"station_name":"Rawa Buntu","station_id":"RU","i_lat":-6.314823,"i_long":106.675475,"transit":false,"distance":4566,"is_transit":false},{"i_lat":-6.319871,"i_long":106.66566,"distance":2413,"line":6,"is_transit":false,"station_id":"SRP","transit":false,"station_name":"Serpong","time":4},{"transit":false,"station_name":"Cisauk","time":4,"is_transit":false,"station_id":"CSK","i_long":106.640411,"line":3,"distance":1784,"i_lat":-6.32484},{"time":4,"station_name":"Cicayur","distance":2519,"i_lat":-6.329547,"line":3,"is_transit":false,"transit":false,"station_id":"CC","i_long":106.617853},{"i_lat":-6.3441410000000005,"station_name":"Parung Panjang","transit":false,"is_transit":false,"line":6,"i_long":106.568863,"time":8,"station_id":"PRP","distance":5968}],[{"station_id":"CKR","is_transit":false,"station_name":"Cikarang","distance":0,"line":1,"i_lat":-6.2553149999999995,"time":0,"i_long":107.144613,"transit":false},{"is_transit":false,"station_id":"TLM","i_lat":-6.262938,"line":1,"transit":false,"station_name":"Metland Telaga Murni","i_long":107.093313,"time":4,"distance":3689},{"line":1,"station_name":"Cibitung","station_id":"CIT","is_transit":false,"time":2,"distance":2800,"i_lat":-6.261877,"transit":false,"i_long":107.083084},{"i_long":107.055722,"time":3,"transit":false,"station_name":"Tambun","distance":3420,"line":1,"station_id":"TB","is_transit":false,"i_lat":-6.258864},{"i_long":107.016735,"i_lat":-6.248029,"transit":false,"station_name":"Bekasi Timur","time":7,"distance":4460,"station_id":"BKST","line":1,"is_transit":false},{"i_long":106.997013,"line":1,"transit":false,"station_name":"Bekasi","station_id":"BKS","time":2,"is_transit":false,"i_lat":-6.236616,"distance":2368},{"time":4,"transit":false,"station_name":"Kranji","station_id":"KRI","i_long":106.977657,"distance":2520,"line":1,"i_lat":-6.224515,"is_transit":false},{"transit":false,"station_name":"Cakung","station_id":"CUK","i_lat":-6.219053,"i_long":106.951283,"line":1,"is_transit":false,"time":3,"distance":3097},{"i_lat":-6.217455,"time":8,"station_id":"KLDB","distance":1385,"line":1,"is_transit":false,"i_long":106.939679,"transit":false,"station_name":"Klenderbaru"},{"station_name":"Buaran","line":1,"i_long":106.922662,"distance":1305,"time":1,"i_lat":-6.215568,"station_id":"BUA","transit":false,"is_transit":false},{"time":2,"station_name":"Klender","i_long":106.899548,"distance":3100,"line":1,"transit":false,"station_id":"KLD","i_lat":-6.2135,"is_transit":false},{"station_name":"Jatinegara","is_transit":true,"time":3,"i_lat":-6.215091,"station_id":"JNG","line":1,"distance":3395,"i_long":106.86807400000001,"transit":true},{"transit":false,"time":2,"line":11,"station_name":"Pondok Jati","station_id":"POK","i_long":106.861737,"is_transit":false,"i_lat":-6.209188,"distance":1236},{"is_transit":false,"time":2,"station_id":"KMT","transit":false,"line":11,"station_name":"Kramat","distance":1829,"i_lat":-6.193792,"i_long":106.855437},{"distance":973,"transit":false,"is_transit":false,"i_long":106.850107,"line":11,"i_lat":-6.185975,"station_name":"Gang Sentiong","station_id":"GST","time":1},{"station_name":"Pasar Senen","i_long":106.84368,"i_lat":-6.174784,"line":11,"transit":false,"station_id":"PSE","is_transit":false,"time":8,"distance":1567},{"station_id":"KMO","is_transit":false,"distance":1436,"i_long":106.839204,"station_name":"Kemayoran","line":11,"time":4,"transit":false,"i_lat":-6.161728},{"is_transit":false,"i_long":106.836569,"transit":false,"station_id":"RJW","distance":1901,"i_lat":-6.14505,"line":11,"station_name":"Rajawali","time":5},{"time":3,"is_transit":true,"distance":1444,"station_id":"KPB","i_lat":-6.132549,"i_long":106.826365,"station_name":"Kampung Bandan","line":4,"transit":true},{"station_id":"AK","is_transit":false,"transit":false,"i_lat":-6.144674,"line":1,"distance":4102,"time":9,"i_long":106.79867,"station_name":"Angke"},{"station_name":"Duri","is_transit":false,"line":1,"time":4,"distance":1230,"transit":false,"i_long":106.800832,"station_id":"DU","i_lat":-6.155215},{"is_transit":true,"station_id":"THB","station_name":"Tanah Abang","time":8,"i_long":106.811091,"transit":true,"line":1,"distance":3632,"i_lat":-6.185545},{"transit":false,"i_lat":-6.207404,"station_name":"Palmerah","time":6,"is_transit":false,"line":6,"station_id":"PLM","distance":3191,"i_long":106.79689},{"station_name":"Kebayoran","is_transit":false,"i_long":106.780334,"distance":3737,"transit":false,"station_id":"KBY","line":6,"i_lat":-6.237242,"time":7},{"distance":6218,"station_name":"Pondokranji","station_id":"PDJ","time":8,"is_transit":false,"line":6,"transit":false,"i_long":106.74273,"i_lat":-6.276362},{"station_name":"Jurangmangu","i_lat":-6.288927,"time":3,"i_long":106.728916,"transit":false,"distance":2179,"line":6,"station_id":"JMU","is_transit":false},{"i_long":106.712277,"is_transit":false,"time":4,"station_id":"SDM","i_lat":-6.296963,"transit":false,"distance":1994,"line":6,"station_name":"Sudimara"},{"i_lat":-6.314823,"time":6,"station_id":"RU","i_long":106.675475,"is_transit":false,"transit":false,"line":6,"station_name":"Rawa Buntu","distance":4566},{"distance":2413,"i_lat":-6.319871,"transit":false,"time":4,"line":6,"is_transit":false,"i_long":106.66566,"station_name":"Serpong","station_id":"SRP"},{"is_transit":false,"i_lat":-6.32484,"time":4,"transit":false,"line":3,"station_name":"Cisauk","distance":1784,"i_long":106.640411,"station_id":"CSK"},{"is_transit":false,"i_lat":-6.329547,"time":4,"i_long":106.617853,"station_name":"Cicayur","station_id":"CC","transit":false,"distance":2519,"line":3},{"i_long":106.568863,"transit":false,"station_name":"Parung Panjang","station_id":"PRP","is_transit":false,"distance":5968,"time":8,"line":6,"i_lat":-6.3441410000000005}],[{"transit":false,"station_name":"Cikarang","is_transit":false,"time":0,"i_long":107.144613,"line":1,"distance":0,"i_lat":-6.2553149999999995,"station_id":"CKR"},{"time":4,"transit":false,"i_lat":-6.262938,"distance":3689,"i_long":107.093313,"station_id":"TLM","line":1,"is_transit":false,"station_name":"Metland Telaga Murni"},{"transit":false,"i_long":107.083084,"is_transit":false,"station_name":"Cibitung","station_id":"CIT","line":1,"time":2,"distance":2800,"i_lat":-6.261877},{"station_name":"Tambun","transit":false,"station_id":"TB","time":3,"distance":3420,"i_lat":-6.258864,"is_transit":false,"i_long":107.055722,"line":1},{"is_transit":false,"station_name":"Bekasi Timur","distance":4460,"i_lat":-6.248029,"station_id":"BKST","i_long":107.016735,"time":7,"line":1,"transit":false},{"station_id":"BKS","i_long":106.997013,"is_transit":false,"time":2,"distance":2368,"i_lat":-6.236616,"station_name":"Bekasi","transit":false,"line":1},{"time":4,"station_name":"Kranji","distance":2520,"transit":false,"line":1,"station_id":"KRI","i_lat":-6.224515,"i_long":106.977657,"is_transit":false},{"station_name":"Cakung","is_transit":false,"station_id":"CUK","line":1,"distance":3097,"i_lat":-6.219053,"i_long":106.951283,"time":3,"transit":false},{"station_id":"KLDB","is_transit":false,"time":8,"i_long":106.939679,"line":1,"i_lat":-6.217455,"station_name":"Klenderbaru","distance":1385,"transit":false},{"line":1,"station_name":"Buaran","distance":1305,"station_id":"BUA","time":1,"i_long":106.922662,"transit":false,"is_transit":false,"i_lat":-6.215568},{"station_name":"Klender","line":1,"station_id":"KLD","distance":3100,"i_long":106.899548,"is_transit":false,"transit":false,"i_lat":-6.2135,"time":2},{"transit":false,"station_name":"Jatinegara","time":3,"is_transit":false,"line":1,"i_lat":-6.215091,"station_id":"JNG","distance":3395,"i_long":106.86807400000001},{"distance":1377,"line":1,"time":2,"i_lat":-6.212485,"station_name":"Matraman","i_long":106.858896,"is_transit":false,"transit":false,"station_id":"MTR"},{"time":2,"line":2,"station_name":"Manggarai","distance":1275,"is_transit":true,"i_lat":-6.209883,"transit":true,"station_id":"MRI","i_long":106.84912},{"station_id":"CKI","transit":false,"distance":1590,"time":4,"i_lat":-6.198556,"station_name":"Cikini","line":2,"is_transit":false,"i_long":106.840169},{"i_long":106.832183,"station_id":"GDD","time":3,"station_name":"Gondangdia","is_transit":false,"line":2,"transit":false,"distance":1750,"i_lat":-6.186295},{"distance":2015,"line":2,"station_id":"JUA","time":4,"is_transit":false,"i_long":106.828284,"i_lat":-6.166716,"transit":false,"station_name":"Juanda"},{"is_transit":false,"transit":false,"station_name":"Sawah Besar","time":2,"i_long":106.827103,"i_lat":-6.160725,"station_id":"SW","line":2,"distance":1149},{"distance":906,"is_transit":false,"station_name":"Manggabesar","line":2,"station_id":"MGB","transit":false,"time":2,"i_lat":-6.149769,"i_long":106.82482},{"station_id":"JAY","distance":1080,"time":2,"i_lat":-6.141205,"is_transit":false,"i_long":106.820901,"transit":false,"station_name":"Jayakarta","line":2},{"is_transit":true,"line":2,"distance":1264,"station_id":"JAKK","i_lat":-6.137569,"i_long":106.812439,"time":4,"transit":true,"station_name":"Jakarta Kota"},{"i_lat":-6.132549,"transit":true,"i_long":106.826365,"station_id":"KPB","distance":1364,"line":4,"is_transit":true,"time":3,"station_name":"Kampung Bandan"},{"line":1,"time":9,"i_long":106.79867,"transit":false,"i_lat":-6.144674,"station_name":"Angke","distance":4102,"station_id":"AK","is_transit":false},{"distance":1230,"station_id":"DU","i_long":106.800832,"i_lat":-6.155215,"transit":false,"is_transit":false,"line":1,"station_name":"Duri","time":4},{"station_id":"THB","distance":3632,"line":1,"transit":true,"time":8,"is_transit":true,"i_lat":-6.185545,"station_name":"Tanah Abang","i_long":106.811091},{"i_long":106.79689,"station_id":"PLM","is_transit":false,"distance":3191,"time":6,"line":6,"transit":false,"i_lat":-6.207404,"station_name":"Palmerah"},{"transit":false,"i_lat":-6.237242,"line":6,"station_name":"Kebayoran","station_id":"KBY","i_long":106.780334,"distance":3737,"is_transit":false,"time":7},{"i_long":106.74273,"transit":false,"station_name":"Pondokranji","distance":6218,"line":6,"is_transit":false,"i_lat":-6.276362,"time":8,"station_id":"PDJ"},{"line":6,"station_name":"Jurangmangu","station_id":"JMU","transit":false,"time":3,"distance":2179,"is_transit":false,"i_lat":-6.288927,"i_long":106.728916},{"transit":false,"station_name":"Sudimara","is_transit":false,"time":4,"distance":1994,"station_id":"SDM","i_lat":-6.296963,"i_long":106.712277,"line":6},{"transit":false,"line":6,"is_transit":false,"time":6,"distance":4566,"i_long":106.675475,"i_lat":-6.314823,"station_id":"RU","station_name":"Rawa Buntu"},{"distance":2413,"transit":false,"station_id":"SRP","i_long":106.66566,"station_name":"Serpong","i_lat":-6.319871,"is_transit":false,"line":6,"time":4},{"distance":1784,"line":3,"station_name":"Cisauk","station_id":"CSK","is_transit":false,"i_lat":-6.32484,"time":4,"transit":false,"i_long":106.640411},{"station_name":"Cicayur","i_lat":-6.329547,"transit":false,"is_transit":false,"time":4,"line":3,"distance":2519,"i_long":106.617853,"station_id":"CC"},{"i_long":106.568863,"line":6,"station_name":"Parung Panjang","station_id":"PRP","transit":false,"is_transit":false,"distance":5968,"time":8,"i_lat":-6.3441410000000005}],[{"i_lat":-6.2553149999999995,"distance":0,"time":0,"i_long":107.144613,"line":1,"transit":false,"station_id":"CKR","station_name":"Cikarang","is_transit":false},{"is_transit":false,"transit":false,"i_long":107.093313,"station_name":"Metland Telaga Murni","station_id":"TLM","distance":3689,"line":1,"time":4,"i_lat":-6.262938},{"station_name":"Cibitung","station_id":"CIT","distance":2800,"time":2,"i_lat":-6.261877,"line":1,"is_transit":false,"i_long":107.083084,"transit":false},{"is_transit":false,"station_name":"Tambun","time":3,"line":1,"transit":false,"station_id":"TB","i_lat":-6.258864,"i_long":107.055722,"distance":3420},{"station_id":"BKST","station_name":"Bekasi Timur","time":7,"is_transit":false,"distance":4460,"i_lat":-6.248029,"i_long":107.016735,"transit":false,"line":1},{"line":1,"station_name":"Bekasi","transit":false,"is_transit":false,"station_id":"BKS","time":2,"i_lat":-6.236616,"i_long":106.997013,"distance":2368},{"is_transit":false,"station_id":"KRI","time":4,"station_name":"Kranji","transit":false,"distance":2520,"line":1,"i_long":106.977657,"i_lat":-6.224515},{"station_id":"CUK","is_transit":false,"distance":3097,"transit":false,"time":3,"line":1,"station_name":"Cakung","i_lat":-6.219053,"i_long":106.951283},{"station_name":"Klenderbaru","is_transit":false,"transit":false,"distance":1385,"station_id":"KLDB","i_lat":-6.217455,"i_long":106.939679,"time":8,"line":1},{"distance":1305,"station_name":"Buaran","time":1,"i_lat":-6.215568,"i_long":106.922662,"line":1,"is_transit":false,"station_id":"BUA","transit":false},{"i_lat":-6.2135,"distance":3100,"time":2,"station_id":"KLD","i_long":106.899548,"station_name":"Klender","transit":false,"is_transit":false,"line":1},{"transit":true,"station_name":"Jatinegara","distance":3395,"time":3,"line":1,"station_id":"JNG","i_long":106.86807400000001,"i_lat":-6.215091,"is_transit":true},{"i_long":106.861737,"line":11,"station_name":"Pondok Jati","is_transit":false,"station_id":"POK","time":2,"distance":1236,"i_lat":-6.209188,"transit":false},{"station_name":"Kramat","is_transit":false,"i_lat":-6.193792,"time":2,"station_id":"KMT","distance":1829,"line":11,"transit":false,"i_long":106.855437},{"line":11,"station_id":"GST","station_name":"Gang Sentiong","i_long":106.850107,"is_transit":false,"i_lat":-6.185975,"transit":false,"time":1,"distance":973},{"station_id":"PSE","is_transit":false,"distance":1567,"i_lat":-6.174784,"time":8,"station_name":"Pasar Senen","i_long":106.84368,"transit":false,"line":11},{"is_transit":false,"time":4,"i_lat":-6.161728,"i_long":106.839204,"line":11,"station_name":"Kemayoran","distance":1436,"transit":false,"station_id":"KMO"},{"is_transit":false,"time":5,"transit":false,"i_lat":-6.14505,"i_long":106.836569,"line":11,"station_name":"Rajawali","distance":1901,"station_id":"RJW"},{"i_lat":-6.132549,"transit":true,"station_id":"KPB","distance":1444,"is_transit":true,"station_name":"Kampung Bandan","i_long":106.826365,"line":4,"time":3},{"i_lat":-6.137569,"i_long":106.812439,"distance":1364,"station_id":"JAKK","transit":true,"is_transit":true,"station_name":"Jakarta Kota","line":2,"time":3},{"time":4,"line":2,"i_long":106.820901,"transit":false,"station_id":"JAY","is_transit":false,"i_lat":-6.141205,"distance":1264,"station_name":"Jayakarta"},{"i_lat":-6.149769,"line":2,"station_name":"Manggabesar","time":2,"transit":false,"station_id":"MGB","distance":1080,"is_transit":false,"i_long":106.82482},{"station_name":"Sawah Besar","time":2,"i_lat":-6.160725,"line":2,"distance":906,"i_long":106.827103,"transit":false,"station_id":"SW","is_transit":false},{"line":2,"transit":false,"station_id":"JUA","distance":1149,"is_transit":false,"time":2,"station_name":"Juanda","i_lat":-6.166716,"i_long":106.828284},{"transit":false,"i_long":106.832183,"time":4,"is_transit":false,"i_lat":-6.186295,"line":2,"distance":2015,"station_name":"Gondangdia","station_id":"GDD"},{"is_transit":false,"distance":1750,"line":2,"station_id":"CKI","i_lat":-6.198556,"station_name":"Cikini","time":3,"transit":false,"i_long":106.840169},{"is_transit":true,"distance":1590,"i_lat":-6.209883,"station_id":"MRI","station_name":"Manggarai","i_long":106.84912,"time":4,"line":2,"transit":true},{"transit":false,"i_lat":-6.202263,"station_id":"SUD","time":4,"station_name":"Sudirman","i_long":106.822649,"line":1,"distance":3186,"is_transit":false},{"i_lat":-6.201433,"distance":280,"line":1,"i_long":106.819881,"station_name":"Sudirman Baru","time":1,"transit":false,"is_transit":false,"station_id":"SUDB"},{"line":1,"station_name":"Karet","station_id":"KAT","is_transit":false,"time":1,"transit":false,"i_lat":-6.20132,"i_long":106.816351,"distance":471},{"i_long":106.811091,"line":1,"station_id":"THB","i_lat":-6.185545,"distance":2029,"is_transit":true,"station_name":"Tanah Abang","time":5,"transit":true},{"i_long":106.79689,"station_name":"Palmerah","i_lat":-6.207404,"transit":false,"is_transit":false,"time":6,"station_id":"PLM","distance":3191,"line":6},{"i_long":106.780334,"station_name":"Kebayoran","station_id":"KBY","line":6,"i_lat":-6.237242,"is_transit":false,"time":7,"transit":false,"distance":3737},{"transit":false,"station_name":"Pondokranji","i_long":106.74273,"station_id":"PDJ","is_transit":false,"time":8,"distance":6218,"i_lat":-6.276362,"line":6},{"distance":2179,"transit":false,"i_lat":-6.288927,"is_transit":false,"station_id":"JMU","time":3,"i_long":106.728916,"line":6,"station_name":"Jurangmangu"},{"i_lat":-6.296963,"line":6,"is_transit":false,"transit":false,"distance":1994,"i_long":106.712277,"station_id":"SDM","station_name":"Sudimara","time":4},{"i_long":106.675475,"station_id":"RU","i_lat":-6.314823,"station_name":"Rawa Buntu","transit":false,"is_transit":false,"line":6,"distance":4566,"time":6},{"is_transit":false,"i_long":106.66566,"line":6,"station_name":"Serpong","transit":false,"station_id":"SRP","distance":2413,"time":4,"i_lat":-6.319871},{"is_transit":false,"transit":false,"line":3,"time":4,"distance":1784,"station_id":"CSK","i_lat":-6.32484,"i_long":106.640411,"station_name":"Cisauk"},{"station_name":"Cicayur","time":4,"i_long":106.617853,"i_lat":-6.329547,"transit":false,"is_transit":false,"station_id":"CC","distance":2519,"line":3},{"transit":false,"time":8,"station_name":"Parung Panjang","i_long":106.568863,"is_transit":false,"distance":5968,"i_lat":-6.3441410000000005,"line":6,"station_id":"PRP"}]]}