{"data":[[{"station_id":"CKR","transit":false,"station_name":"Cikarang","is_transit":false,"time":0,"i_lat":-6.2553149999999995,"line":0,"i_long":107.144613,"distance":0},{"distance":3689,"transit":false,"i_lat":-6.262938,"time":4,"line":1,"station_name":"Metland Telaga Murni","is_transit":false,"station_id":"TLM","i_long":107.093313},{"line":0,"station_id":"CIT","is_transit":false,"distance":2800,"transit":false,"time":2,"i_long":107.083084,"i_lat":-6.261877,"station_name":"Cibitung"},{"time":3,"transit":false,"distance":3420,"i_long":107.055722,"is_transit":false,"station_id":"TB","line":1,"station_name":"Tambun","i_lat":-6.258864},{"is_transit":false,"transit":false,"i_lat":-6.248029,"i_long":107.016735,"time":7,"line":0,"distance":4460,"station_id":"BKST","station_name":"Bekasi Timur"},{"i_lat":-6.236616,"station_name":"Bekasi","i_long":106.997013,"transit":false,"station_id":"BKS","is_transit":false,"distance":2368,"time":2,"line":0},{"is_transit":false,"transit":false,"i_long":106.977657,"i_lat":-6.224515,"station_name":"Kranji","station_id":"KRI","time":4,"distance":2520,"line":1},{"station_id":"CUK","i_lat":-6.219053,"i_long":106.951283,"transit":false,"time":3,"station_name":"Cakung","is_transit":false,"distance":3097,"line":0},{"i_long":106.939679,"is_transit":false,"line":1,"transit":false,"station_id":"KLDB","station_name":"Klenderbaru","distance":1385,"time":8,"i_lat":-6.217455},{"distance":1305,"line":0,"station_name":"Buaran","is_transit":false,"i_lat":-6.215568,"time":1,"i_long":106.922662,"transit":false,"station_id":"BUA"},{"is_transit":false,"line":1,"distance":3100,"time":2,"i_long":106.899548,"station_id":"KLD","transit":false,"i_lat":-6.2135,"station_name":"Klender"},{"distance":3395,"i_long":106.86807400000001,"is_transit":true,"time":3,"i_lat":-6.215091,"line":0,"station_id":"JNG","station_name":"Jatinegara","transit":false},{"transit":false,"i_lat":-6.212485,"station_name":"Matraman","is_transit":false,"distance":1377,"station_id":"MTR","i_long":106.858896,"line":1,"time":2},{"time":2,"transit":false,"line":0,"i_long":106.84912,"distance":1275,"station_name":"Manggarai","i_lat":-6.209883,"is_transit":true,"station_id":"MRI"},{"i_lat":-6.202263,"station_id":"SUD","time":4,"distance":3186,"is_transit":false,"i_long":106.822649,"line":1,"station_name":"Sudirman","transit":false},{"i_long":106.819881,"time":1,"transit":false,"station_name":"Sudirman Baru","distance":280,"is_transit":false,"station_id":"SUDB","line":1,"i_lat":-6.201433},{"time":1,"transit":false,"i_lat":-6.20132,"is_transit":false,"line":1,"station_name":"Karet","station_id":"KAT","i_long":106.816351,"distance":471},{"time":5,"station_name":"Tanah Abang","transit":false,"i_lat":-6.185545,"station_id":"THB","line":1,"i_long":106.811091,"is_transit":true,"distance":2029},{"time":8,"station_name":"Duri","distance":3632,"transit":true,"line":1,"i_lat":-6.155215,"i_long":106.800832,"is_transit":true,"station_id":"DU"},{"station_id":"GGL","i_long":106.788277,"is_transit":false,"time":3,"i_lat":-6.162021,"line":5,"distance":1700,"station_name":"Grogol","transit":false},{"time":2,"distance":2036,"is_transit":false,"transit":false,"station_id":"PSG","i_lat":-6.161433,"line":5,"station_name":"Pesing","i_long":106.771379},{"i_long":106.756522,"line":5,"i_lat":-6.1587309999999995,"station_id":"TKO","station_name":"Taman Kota","is_transit":false,"time":2,"distance":1614,"transit":false},{"station_id":"BOI","time":2,"station_name":"Bojongindah","distance":2334,"transit":false,"i_lat":-6.159876,"is_transit":false,"i_long":106.737035,"line":0},{"time":4,"station_name":"Rawa Buaya","is_transit":false,"distance":1152,"station_id":"RW","i_long":106.723064,"transit":false,"line":5,"i_lat":-6.162758},{"distance":2504,"i_long":106.701612,"station_name":"Kalideres","transit":false,"line":5,"time":3,"station_id":"KDS","is_transit":false,"i_lat":-6.166068},{"transit":false,"i_lat":-6.169933,"i_long":106.679458,"line":5,"station_name":"Poris","time":3,"is_transit":false,"distance":2548,"station_id":"PI"},{"time":3,"station_name":"Batuceper","station_id":"BPR","transit":false,"is_transit":false,"distance":1834,"i_long":106.665036,"i_lat":-6.171811,"line":0},{"line":5,"i_lat":-6.17331,"station_name":"Tanah Tinggi","distance":2028,"station_id":"TTI","i_long":106.64657,"is_transit":false,"time":3,"transit":false},{"i_lat":-6.176583,"i_long":106.632761,"transit":false,"line":5,"distance":1547,"time":3,"station_id":"TNG","station_name":"Tangerang","is_transit":false}],[{"transit":false,"station_name":"Cikarang","is_transit":false,"i_lat":-6.2553149999999995,"distance":0,"station_id":"CKR","time":0,"i_long":107.144613,"line":0},{"station_id":"TLM","i_long":107.093313,"distance":3689,"transit":false,"is_transit":false,"i_lat":-6.262938,"station_name":"Metland Telaga Murni","line":1,"time":4},{"is_transit":false,"i_lat":-6.261877,"line":0,"distance":2800,"transit":false,"time":2,"i_long":107.083084,"station_name":"Cibitung","station_id":"CIT"},{"station_name":"Tambun","time":3,"station_id":"TB","distance":3420,"i_lat":-6.258864,"transit":false,"line":1,"i_long":107.055722,"is_transit":false},{"distance":4460,"i_long":107.016735,"time":7,"station_id":"BKST","is_transit":false,"transit":false,"line":0,"station_name":"Bekasi Timur","i_lat":-6.248029},{"distance":2368,"station_id":"BKS","time":2,"station_name":"Bekasi","i_lat":-6.236616,"i_long":106.997013,"is_transit":false,"line":0,"transit":false},{"station_id":"KRI","distance":2520,"transit":false,"time":4,"i_long":106.977657,"is_transit":false,"station_name":"Kranji","line":1,"i_lat":-6.224515},{"i_lat":-6.219053,"station_id":"CUK","i_long":106.951283,"is_transit":false,"distance":3097,"line":0,"station_name":"Cakung","time":3,"transit":false},{"station_id":"KLDB","is_transit":false,"i_long":106.939679,"station_name":"Klenderbaru","transit":false,"i_lat":-6.217455,"line":1,"distance":1385,"time":8},{"is_transit":false,"station_id":"BUA","time":1,"distance":1305,"transit":false,"i_lat":-6.215568,"station_name":"Buaran","line":0,"i_long":106.922662},{"time":2,"i_lat":-6.2135,"station_id":"KLD","station_name":"Klender","i_long":106.899548,"distance":3100,"transit":false,"is_transit":false,"line":1},{"transit":true,"line":0,"time":3,"i_lat":-6.215091,"station_name":"Jatinegara","is_transit":true,"distance":3395,"station_id":"JNG","i_long":106.86807400000001},{"time":2,"distance":1236,"transit":false,"station_id":"POK","i_long":106.861737,"is_transit":false,"line":11,"station_name":"Pondok Jati","i_lat":-6.209188},{"i_lat":-6.193792,"time":2,"station_id":"KMT","station_name":"Kramat","is_transit":false,"distance":1829,"line":11,"transit":false,"i_long":106.855437},{"time":1,"station_id":"GST","distance":973,"station_name":"Gang Sentiong","transit":false,"is_transit":false,"line":11,"i_lat":-6.185975,"i_long":106.850107},{"station_id":"PSE","is_transit":false,"time":8,"distance":1567,"i_long":106.84368,"i_lat":-6.174784,"station_name":"Pasar Senen","line":11,"transit":false},{"i_long":106.839204,"station_name":"Kemayoran","time":4,"distance":1436,"transit":false,"i_lat":-6.161728,"station_id":"KMO","is_transit":false,"line":11},{"i_lat":-6.14505,"station_id":"RJW","i_long":106.836569,"time":5,"line":11,"transit":false,"distance":1901,"is_transit":false,"station_name":"Rajawali"},{"i_lat":-6.132549,"station_name":"Kampung Bandan","is_transit":true,"i_long":106.826365,"line":0,"time":3,"distance":1444,"station_id":"KPB","transit":true},{"station_id":"AK","i_long":106.79867,"is_transit":false,"time":9,"distance":4102,"station_name":"Angke","line":0,"i_lat":-6.144674,"transit":false},{"is_transit":true,"time":4,"line":1,"distance":1230,"station_name":"Duri","i_lat":-6.155215,"station_id":"DU","transit":true,"i_long":106.800832},{"station_name":"Grogol","i_long":106.788277,"time":3,"line":5,"transit":false,"distance":1700,"is_transit":false,"i_lat":-6.162021,"station_id":"GGL"},{"time":2,"station_name":"Pesing","is_transit":false,"i_long":106.771379,"line":5,"i_lat":-6.161433,"station_id":"PSG","distance":2036,"transit":false},{"i_long":106.756522,"station_id":"TKO","is_transit":false,"distance":1614,"i_lat":-6.1587309999999995,"time":2,"line":5,"transit":false,"station_name":"Taman Kota"},{"distance":2334,"transit":false,"i_lat":-6.159876,"station_id":"BOI","station_name":"Bojongindah","is_transit":false,"time":2,"line":0,"i_long":106.737035},{"is_transit":false,"line":5,"distance":1152,"transit":false,"i_lat":-6.162758,"station_name":"Rawa Buaya","station_id":"RW","time":4,"i_long":106.723064},{"i_long":106.701612,"station_id":"KDS","transit":false,"distance":2504,"i_lat":-6.166068,"is_transit":false,"time":3,"station_name":"Kalideres","line":5},{"time":3,"i_lat":-6.169933,"distance":2548,"station_name":"Poris","station_id":"PI","transit":false,"line":5,"is_transit":false,"i_long":106.679458},{"line":0,"station_name":"Batuceper","time":3,"i_lat":-6.171811,"distance":1834,"is_transit":false,"i_long":106.665036,"transit":false,"station_id":"BPR"},{"is_transit":false,"i_long":106.64657,"station_name":"Tanah Tinggi","station_id":"TTI","distance":2028,"line":5,"time":3,"i_lat":-6.17331,"transit":false},{"transit":false,"is_transit":false,"i_long":106.632761,"distance":1547,"i_lat":-6.176583,"time":3,"line":5,"station_name":"Tangerang","station_id":"TNG"}],[{"station_name":"Cikarang","i_long":107.144613,"transit":false,"time":0,"distance":0,"line":0,"is_transit":false,"i_lat":-6.2553149999999995,"station_id":"CKR"},{"line":1,"station_name":"Metland Telaga Murni","i_lat":-6.262938,"distance":3689,"time":4,"station_id":"TLM","transit":false,"i_long":107.093313,"is_transit":false},{"station_name":"Cibitung","station_id":"CIT","is_transit":false,"time":2,"transit":false,"line":0,"i_lat":-6.261877,"i_long":107.083084,"distance":2800},{"transit":false,"line":1,"station_id":"TB","i_lat":-6.258864,"time":3,"distance":3420,"i_long":107.055722,"is_transit":false,"station_name":"Tambun"},{"is_transit":false,"transit":false,"distance":4460,"i_long":107.016735,"line":0,"i_lat":-6.248029,"station_id":"BKST","station_name":"Bekasi Timur","time":7},{"station_id":"BKS","is_transit":false,"time":2,"distance":2368,"i_lat":-6.236616,"transit":false,"station_name":"Bekasi","i_long":106.997013,"line":0},{"station_name":"Kranji","transit":false,"distance":2520,"i_long":106.977657,"is_transit":false,"line":1,"i_lat":-6.224515,"time":4,"station_id":"KRI"},{"station_id":"CUK","station_name":"Cakung","transit":false,"i_long":106.951283,"time":3,"distance":3097,"is_transit":false,"line":0,"i_lat":-6.219053},{"station_id":"KLDB","distance":1385,"is_transit":false,"transit":false,"i_long":106.939679,"station_name":"Klenderbaru","time":8,"line":1,"i_lat":-6.217455},{"station_name":"Buaran","transit":false,"is_transit":false,"station_id":"BUA","time":1,"distance":1305,"i_lat":-6.215568,"i_long":106.922662,"line":0},{"station_id":"KLD","distance":3100,"i_long":106.899548,"station_name":"Klender","is_transit":false,"transit":false,"i_lat":-6.2135,"line":1,"time":2},{"i_lat":-6.215091,"is_transit":true,"transit":false,"time":3,"station_name":"Jatinegara","distance":3395,"i_long":106.86807400000001,"line":0,"station_id":"JNG"},{"transit":false,"line":1,"station_name":"Matraman","i_long":106.858896,"time":2,"station_id":"MTR","is_transit":false,"distance":1377,"i_lat":-6.212485},{"i_long":106.84912,"station_id":"MRI","time":2,"i_lat":-6.209883,"line":0,"is_transit":true,"distance":1275,"station_name":"Manggarai","transit":true},{"distance":1590,"is_transit":false,"i_long":106.840169,"transit":false,"station_name":"Cikini","station_id":"CKI","time":4,"i_lat":-6.198556,"line":0},{"station_name":"Gondangdia","distance":1750,"time":3,"i_lat":-6.186295,"i_long":106.832183,"is_transit":false,"station_id":"GDD","line":2,"transit":false},{"i_long":106.828284,"station_id":"JUA","time":4,"is_transit":false,"i_lat":-6.166716,"line":2,"station_name":"Juanda","transit":false,"distance":2015},{"station_id":"SW","distance":1149,"transit":false,"time":2,"station_name":"Sawah Besar","line":2,"i_long":106.827103,"is_transit":false,"i_lat":-6.160725},{"station_name":"Manggabesar","distance":906,"station_id":"MGB","i_long":106.82482,"line":2,"transit":false,"time":2,"is_transit":false,"i_lat":-6.149769},{"line":7,"time":2,"i_long":106.820901,"transit":false,"station_id":"JAY","station_name":"Jayakarta","distance":1080,"i_lat":-6.141205,"is_transit":false},{"station_name":"Jakarta Kota","i_long":106.812439,"is_transit":true,"station_id":"JAKK","i_lat":-6.137569,"transit":true,"distance":1264,"line":0,"time":4},{"time":3,"line":0,"is_transit":true,"transit":false,"station_name":"Kampung Bandan","i_lat":-6.132549,"station_id":"KPB","distance":1364,"i_long":106.826365},{"distance":4102,"line":0,"i_long":106.79867,"transit":false,"station_name":"Angke","station_id":"AK","time":9,"is_transit":false,"i_lat":-6.144674},{"distance":1230,"line":1,"time":4,"transit":true,"is_transit":true,"i_lat":-6.155215,"i_long":106.800832,"station_id":"DU","station_name":"Duri"},{"i_lat":-6.162021,"time":3,"station_name":"Grogol","i_long":106.788277,"station_id":"GGL","line":5,"is_transit":false,"distance":1700,"transit":false},{"station_id":"PSG","i_long":106.771379,"time":2,"station_name":"Pesing","transit":false,"distance":2036,"i_lat":-6.161433,"is_transit":false,"line":5},{"transit":false,"station_name":"Taman Kota","station_id":"TKO","i_long":106.756522,"line":5,"i_lat":-6.1587309999999995,"is_transit":false,"distance":1614,"time":2},{"i_lat":-6.159876,"time":2,"station_id":"BOI","line":0,"is_transit":false,"distance":2334,"i_long":106.737035,"station_name":"Bojongindah","transit":false},{"time":4,"i_lat":-6.162758,"station_name":"Rawa Buaya","is_transit":false,"transit":false,"i_long":106.723064,"distance":1152,"station_id":"RW","line":5},{"line":5,"station_name":"Kalideres","station_id":"KDS","time":3,"distance":2504,"transit":false,"is_transit":false,"i_lat":-6.166068,"i_long":106.701612},{"is_transit":false,"time":3,"station_id":"PI","station_name":"Poris","transit":false,"i_long":106.679458,"line":5,"distance":2548,"i_lat":-6.169933},{"station_id":"BPR","transit":false,"is_transit":false,"i_lat":-6.171811,"distance":1834,"line":0,"time":3,"station_name":"Batuceper","i_long":106.665036},{"distance":2028,"is_transit":false,"station_id":"TTI","time":3,"line":5,"i_lat":-6.17331,"station_name":"Tanah Tinggi","i_long":106.64657,"transit":false},{"station_name":"Tangerang","i_long":106.632761,"transit":false,"line":5,"time":3,"is_transit":false,"distance":1547,"station_id":"TNG","i_lat":-6.176583}],[{"i_lat":-6.2553149999999995,"is_transit":false,"transit":false,"i_long":107.144613,"distance":0,"station_name":"Cikarang","station_id":"CKR","line":0,"time":0},{"station_id":"TLM","is_transit":false,"transit":false,"line":1,"distance":3689,"i_long":107.093313,"station_name":"Metland Telaga Murni","i_lat":-6.262938,"time":4},{"time":2,"distance":2800,"transit":false,"station_name":"Cibitung","i_long":107.083084,"line":0,"station_id":"CIT","is_transit":false,"i_lat":-6.261877},{"station_id":"TB","i_long":107.055722,"station_name":"Tambun","is_transit":false,"i_lat":-6.258864,"line":1,"transit":false,"distance":3420,"time":3},{"distance":4460,"station_id":"BKST","transit":false,"line":0,"i_long":107.016735,"is_transit":false,"time":7,"station_name":"Bekasi Timur","i_lat":-6.248029},{"transit":false,"line":0,"station_id":"BKS","station_name":"Bekasi","distance":2368,"time":2,"i_lat":-6.236616,"i_long":106.997013,"is_transit":false},{"line":1,"station_id":"KRI","transit":false,"station_name":"Kranji","is_transit":false,"time":4,"distance":2520,"i_lat":-6.224515,"i_long":106.977657},{"i_long":106.951283,"line":0,"distance":3097,"time":3,"station_name":"Cakung","is_transit":false,"transit":false,"station_id":"CUK","i_lat":-6.219053},{"i_lat":-6.217455,"i_long":106.939679,"station_name":"Klenderbaru","is_transit":false,"transit":false,"distance":1385,"time":8,"line":1,"station_id":"KLDB"},{"transit":false,"i_lat":-6.215568,"is_transit":false,"distance":1305,"i_long":106.922662,"line":0,"station_name":"Buaran","time":1,"station_id":"BUA"},{"transit":false,"station_id":"KLD","time":2,"distance":3100,"i_lat":-6.2135,"is_transit":false,"i_long":106.899548,"station_name":"Klender","line":1},{"is_transit":true,"distance":3395,"line":0,"station_id":"JNG","time":3,"i_lat":-6.215091,"station_name":"Jatinegara","transit":true,"i_long":106.86807400000001},{"transit":false,"distance":1236,"is_transit":false,"time":2,"station_id":"POK","i_long":106.861737,"line":11,"i_lat":-6.209188,"station_name":"Pondok Jati"},{"station_id":"KMT","line":11,"station_name":"Kramat","i_lat":-6.193792,"is_transit":false,"time":2,"distance":1829,"i_long":106.855437,"transit":false},{"is_transit":false,"line":11,"i_lat":-6.185975,"station_id":"GST","time":1,"distance":973,"i_long":106.850107,"station_name":"Gang Sentiong","transit":false},{"i_lat":-6.174784,"i_long":106.84368,"station_name":"Pasar Senen","distance":1567,"is_transit":false,"station_id":"PSE","time":8,"transit":false,"line":11},{"i_long":106.839204,"time":4,"station_name":"Kemayoran","i_lat":-6.161728,"line":11,"is_transit":false,"station_id":"KMO","transit":false,"distance":1436},{"is_transit":false,"time":5,"i_lat":-6.14505,"station_id":"RJW","line":11,"station_name":"Rajawali","transit":false,"i_long":106.836569,"distance":1901},{"line":0,"is_transit":true,"i_long":106.826365,"time":3,"transit":true,"i_lat":-6.132549,"station_id":"KPB","station_name":"Kampung Bandan","distance":1444},{"time":3,"is_transit":true,"line":0,"station_id":"JAKK","station_name":"Jakarta Kota","transit":true,"i_lat":-6.137569,"distance":1364,"i_long":106.812439},{"i_long":106.820901,"station_id":"JAY","station_name":"Jayakarta","time":4,"is_transit":false,"distance":1264,"i_lat":-6.141205,"line":7,"transit":false},{"station_name":"Manggabesar","is_transit":false,"line":2,"station_id":"MGB","i_lat":-6.149769,"i_long":106.82482,"time":2,"transit":false,"distance":1080},{"station_name":"Sawah Besar","i_long":106.827103,"is_transit":false,"station_id":"SW","time":2,"transit":false,"i_lat":-6.160725,"distance":906,"line":2},{"i_lat":-6.166716,"i_long":106.828284,"station_id":"JUA","line":2,"station_name":"Juanda","is_transit":false,"transit":false,"distance":1149,"time":2},{"transit":false,"station_name":"Gondangdia","time":4,"i_long":106.832183,"is_transit":false,"distance":2015,"i_lat":-6.186295,"line":2,"station_id":"GDD"},{"station_name":"Cikini","time":3,"transit":false,"station_id":"CKI","i_long":106.840169,"line":0,"is_transit":false,"distance":1750,"i_lat":-6.198556},{"distance":1590,"time":4,"i_long":106.84912,"station_name":"Manggarai","is_transit":true,"line":0,"station_id":"MRI","i_lat":-6.209883,"transit":true},{"line":1,"station_id":"SUD","time":4,"distance":3186,"transit":false,"i_lat":-6.202263,"is_transit":false,"i_long":106.822649,"station_name":"Sudirman"},{"i_lat":-6.201433,"line":1,"station_id":"SUDB","station_name":"Sudirman Baru","i_long":106.819881,"time":1,"is_transit":false,"transit":false,"distance":280},{"distance":471,"station_name":"Karet","time":1,"i_lat":-6.20132,"transit":false,"i_long":106.816351,"is_transit":false,"station_id":"KAT","line":1},{"distance":2029,"i_lat":-6.185545,"station_id":"THB","transit":false,"line":1,"is_transit":true,"station_name":"Tanah Abang","time":5,"i_long":106.811091},{"station_name":"Duri","i_lat":-6.155215,"is_transit":true,"transit":true,"line":1,"time":8,"distance":3632,"i_long":106.800832,"station_id":"DU"},{"time":3,"station_name":"Grogol","station_id":"GGL","is_transit":false,"i_lat":-6.162021,"i_long":106.788277,"distance":1700,"transit":false,"line":5},{"i_lat":-6.161433,"station_id":"PSG","i_long":106.771379,"time":2,"station_name":"Pesing","distance":2036,"transit":false,"line":5,"is_transit":false},{"station_id":"TKO","i_lat":-6.1587309999999995,"station_name":"Taman Kota","time":2,"line":5,"i_long":106.756522,"is_transit":false,"distance":1614,"transit":false},{"is_transit":false,"line":0,"transit":false,"station_id":"BOI","i_long":106.737035,"time":2,"station_name":"Bojongindah","distance":2334,"i_lat":-6.159876},{"line":5,"transit":false,"i_lat":-6.162758,"is_transit":false,"i_long":106.723064,"distance":1152,"station_id":"RW","station_name":"Rawa Buaya","time":4},{"time":3,"is_transit":false,"transit":false,"station_id":"KDS","i_lat":-6.166068,"line":5,"distance":2504,"station_name":"Kalideres","i_long":106.701612},{"transit":false,"i_lat":-6.169933,"is_transit":false,"station_id":"PI","station_name":"Poris","time":3,"distance":2548,"line":5,"i_long":106.679458},{"time":3,"station_id":"BPR","station_name":"Batuceper","is_transit":false,"transit":false,"distance":1834,"line":0,"i_lat":-6.171811,"i_long":106.665036},{"station_name":"Tanah Tinggi","distance":2028,"transit":false,"is_transit":false,"station_id":"TTI","time":3,"i_long":106.64657,"i_lat":-6.17331,"line":5},{"transit":false,"time":3,"line":5,"is_transit":false,"distance":1547,"i_long":106.632761,"i_lat":-6.176583,"station_name":"Tangerang","station_id":"TNG"}]]}