{"data":[[{"station_id":"CKR","is_transit":false,"station_name":"Cikarang","line":1,"time":0,"i_long":107.144613,"transit":false,"i_lat":-6.2553149999999995,"distance":0},{"station_name":"Metland Telaga Murni","time":4,"line":1,"is_transit":false,"i_long":107.093313,"transit":false,"distance":3689,"station_id":"TLM","i_lat":-6.262938},{"line":1,"station_id":"CIT","is_transit":false,"i_lat":-6.261877,"station_name":"Cibitung","transit":false,"distance":2800,"time":2,"i_long":107.083084},{"is_transit":false,"station_id":"TB","transit":false,"i_lat":-6.258864,"distance":3420,"i_long":107.055722,"time":3,"station_name":"Tambun","line":1},{"distance":4460,"station_id":"BKST","is_transit":false,"time":7,"station_name":"Bekasi Timur","i_lat":-6.248029,"line":1,"i_long":107.016735,"transit":false},{"i_long":106.997013,"is_transit":false,"transit":false,"station_id":"BKS","distance":2368,"line":1,"i_lat":-6.236616,"station_name":"Bekasi","time":2},{"station_name":"Kranji","is_transit":false,"station_id":"KRI","transit":false,"distance":2520,"i_lat":-6.224515,"line":1,"time":4,"i_long":106.977657},{"transit":false,"time":3,"i_lat":-6.219053,"is_transit":false,"station_id":"CUK","i_long":106.951283,"line":1,"station_name":"Cakung","distance":3097},{"i_long":106.939679,"distance":1385,"is_transit":false,"time":8,"transit":false,"i_lat":-6.217455,"station_id":"KLDB","station_name":"Klenderbaru","line":1},{"is_transit":false,"distance":1305,"i_long":106.922662,"station_name":"Buaran","station_id":"BUA","time":1,"line":1,"transit":false,"i_lat":-6.215568},{"transit":false,"station_name":"Klender","i_long":106.899548,"i_lat":-6.2135,"line":1,"station_id":"KLD","is_transit":false,"distance":3100,"time":2},{"time":3,"line":1,"is_transit":false,"i_long":106.86807400000001,"station_id":"JNG","station_name":"Jatinegara","i_lat":-6.215091,"transit":false,"distance":3395},{"station_name":"Matraman","distance":1377,"time":2,"is_transit":false,"station_id":"MTR","i_long":106.858896,"line":1,"transit":false,"i_lat":-6.212485},{"station_name":"Manggarai","i_long":106.84912,"i_lat":-6.209883,"station_id":"MRI","distance":1275,"transit":false,"is_transit":false,"time":2,"line":2},{"station_id":"SUD","transit":false,"station_name":"Sudirman","is_transit":false,"i_lat":-6.202263,"line":1,"distance":3186,"time":4,"i_long":106.822649},{"is_transit":false,"transit":false,"i_lat":-6.201433,"time":1,"station_name":"Sudirman Baru","station_id":"SUDB","line":1,"distance":280,"i_long":106.819881},{"i_long":106.816351,"time":1,"transit":false,"is_transit":false,"station_name":"Karet","distance":471,"i_lat":-6.20132,"station_id":"KAT","line":1},{"time":5,"station_name":"Tanah Abang","line":1,"is_transit":true,"i_lat":-6.185545,"station_id":"THB","transit":true,"i_long":106.811091,"distance":2029},{"distance":3191,"station_name":"Palmerah","time":6,"line":6,"station_id":"PLM","transit":false,"i_lat":-6.207404,"i_long":106.79689,"is_transit":false},{"is_transit":false,"i_lat":-6.237242,"transit":false,"i_long":106.780334,"line":6,"time":7,"station_name":"Kebayoran","station_id":"KBY","distance":3737},{"is_transit":false,"station_name":"Pondokranji","line":6,"transit":false,"station_id":"PDJ","time":8,"distance":6218,"i_lat":-6.276362,"i_long":106.74273},{"transit":false,"station_id":"JMU","distance":2179,"i_long":106.728916,"line":6,"is_transit":false,"i_lat":-6.288927,"station_name":"Jurangmangu","time":3},{"time":4,"i_lat":-6.296963,"station_name":"Sudimara","is_transit":false,"distance":1994,"i_long":106.712277,"line":6,"station_id":"SDM","transit":false},{"transit":false,"i_long":106.675475,"is_transit":false,"i_lat":-6.314823,"station_id":"RU","distance":4566,"line":6,"time":6,"station_name":"Rawa Buntu"},{"transit":false,"i_lat":-6.319871,"time":4,"station_id":"SRP","i_long":106.66566,"station_name":"Serpong","line":6,"is_transit":false,"distance":2413},{"station_name":"Cisauk","i_long":106.640411,"is_transit":false,"time":4,"line":3,"i_lat":-6.32484,"station_id":"CSK","transit":false,"distance":1784},{"transit":false,"distance":2519,"is_transit":false,"time":4,"i_long":106.617853,"i_lat":-6.329547,"station_name":"Cicayur","line":3,"station_id":"CC"}],[{"line":1,"transit":false,"time":0,"station_name":"Cikarang","i_long":107.144613,"station_id":"CKR","is_transit":false,"i_lat":-6.2553149999999995,"distance":0},{"station_name":"Metland Telaga Murni","i_lat":-6.262938,"transit":false,"time":4,"distance":3689,"i_long":107.093313,"line":1,"is_transit":false,"station_id":"TLM"},{"time":2,"station_name":"Cibitung","line":1,"i_long":107.083084,"transit":false,"station_id":"CIT","is_transit":false,"i_lat":-6.261877,"distance":2800},{"transit":false,"station_name":"Tambun","station_id":"TB","i_long":107.055722,"is_transit":false,"time":3,"distance":3420,"i_lat":-6.258864,"line":1},{"i_long":107.016735,"distance":4460,"time":7,"i_lat":-6.248029,"line":1,"station_id":"BKST","station_name":"Bekasi Timur","is_transit":false,"transit":false},{"station_id":"BKS","i_lat":-6.236616,"is_transit":false,"distance":2368,"transit":false,"line":1,"i_long":106.997013,"time":2,"station_name":"Bekasi"},{"station_name":"Kranji","i_long":106.977657,"time":4,"transit":false,"station_id":"KRI","i_lat":-6.224515,"is_transit":false,"line":1,"distance":2520},{"distance":3097,"station_id":"CUK","station_name":"Cakung","i_lat":-6.219053,"line":1,"i_long":106.951283,"transit":false,"is_transit":false,"time":3},{"time":8,"station_name":"Klenderbaru","distance":1385,"is_transit":false,"i_lat":-6.217455,"transit":false,"i_long":106.939679,"station_id":"KLDB","line":1},{"distance":1305,"is_transit":false,"transit":false,"line":1,"station_name":"Buaran","i_long":106.922662,"i_lat":-6.215568,"station_id":"BUA","time":1},{"i_lat":-6.2135,"i_long":106.899548,"time":2,"distance":3100,"station_name":"Klender","line":1,"is_transit":false,"station_id":"KLD","transit":false},{"station_id":"JNG","time":3,"station_name":"Jatinegara","i_lat":-6.215091,"i_long":106.86807400000001,"distance":3395,"line":1,"is_transit":true,"transit":true},{"station_name":"Pondok Jati","distance":1236,"i_lat":-6.209188,"i_long":106.861737,"line":11,"is_transit":false,"transit":false,"time":2,"station_id":"POK"},{"station_name":"Kramat","transit":false,"distance":1829,"i_long":106.855437,"i_lat":-6.193792,"time":2,"station_id":"KMT","is_transit":false,"line":11},{"time":1,"i_lat":-6.185975,"line":11,"i_long":106.850107,"station_id":"GST","is_transit":false,"station_name":"Gang Sentiong","transit":false,"distance":973},{"time":8,"line":11,"is_transit":false,"distance":1567,"station_name":"Pasar Senen","i_lat":-6.174784,"i_long":106.84368,"transit":false,"station_id":"PSE"},{"time":4,"station_name":"Kemayoran","line":11,"i_long":106.839204,"i_lat":-6.161728,"distance":1436,"station_id":"KMO","transit":false,"is_transit":false},{"time":5,"distance":1901,"station_id":"RJW","line":11,"transit":false,"i_lat":-6.14505,"i_long":106.836569,"station_name":"Rajawali","is_transit":false},{"station_name":"Kampung Bandan","station_id":"KPB","line":4,"transit":true,"is_transit":true,"distance":1444,"i_long":106.826365,"time":3,"i_lat":-6.132549},{"i_lat":-6.144674,"i_long":106.79867,"line":1,"station_id":"AK","is_transit":false,"time":9,"distance":4102,"station_name":"Angke","transit":false},{"i_lat":-6.155215,"line":1,"is_transit":false,"station_id":"DU","i_long":106.800832,"transit":false,"distance":1230,"time":4,"station_name":"Duri"},{"line":1,"distance":3632,"transit":true,"i_lat":-6.185545,"station_id":"THB","is_transit":true,"station_name":"Tanah Abang","i_long":106.811091,"time":8},{"station_id":"PLM","time":6,"station_name":"Palmerah","line":6,"i_long":106.79689,"transit":false,"is_transit":false,"distance":3191,"i_lat":-6.207404},{"time":7,"i_lat":-6.237242,"i_long":106.780334,"station_id":"KBY","transit":false,"is_transit":false,"line":6,"distance":3737,"station_name":"Kebayoran"},{"station_id":"PDJ","distance":6218,"time":8,"i_lat":-6.276362,"transit":false,"line":6,"station_name":"Pondokranji","is_transit":false,"i_long":106.74273},{"line":6,"station_name":"Jurangmangu","transit":false,"station_id":"JMU","distance":2179,"i_long":106.728916,"is_transit":false,"time":3,"i_lat":-6.288927},{"time":4,"is_transit":false,"transit":false,"distance":1994,"station_id":"SDM","station_name":"Sudimara","i_long":106.712277,"i_lat":-6.296963,"line":6},{"i_long":106.675475,"is_transit":false,"line":6,"transit":false,"station_id":"RU","i_lat":-6.314823,"time":6,"station_name":"Rawa Buntu","distance":4566},{"transit":false,"i_long":106.66566,"station_name":"Serpong","i_lat":-6.319871,"line":6,"time":4,"station_id":"SRP","is_transit":false,"distance":2413},{"is_transit":false,"station_id":"CSK","line":3,"station_name":"Cisauk","transit":false,"i_lat":-6.32484,"time":4,"distance":1784,"i_long":106.640411},{"i_lat":-6.329547,"time":4,"transit":false,"station_id":"CC","distance":2519,"station_name":"Cicayur","line":3,"is_transit":false,"i_long":106.617853}],[{"line":1,"distance":0,"is_transit":false,"i_lat":-6.2553149999999995,"i_long":107.144613,"transit":false,"station_name":"Cikarang","station_id":"CKR","time":0},{"is_transit":false,"i_long":107.093313,"time":4,"i_lat":-6.262938,"station_id":"TLM","transit":false,"distance":3689,"line":1,"station_name":"Metland Telaga Murni"},{"distance":2800,"i_long":107.083084,"transit":false,"time":2,"line":1,"station_id":"CIT","station_name":"Cibitung","i_lat":-6.261877,"is_transit":false},{"is_transit":false,"distance":3420,"time":3,"i_long":107.055722,"i_lat":-6.258864,"station_name":"Tambun","transit":false,"station_id":"TB","line":1},{"transit":false,"time":7,"station_id":"BKST","station_name":"Bekasi Timur","line":1,"i_lat":-6.248029,"i_long":107.016735,"is_transit":false,"distance":4460},{"station_id":"BKS","station_name":"Bekasi","time":2,"i_lat":-6.236616,"i_long":106.997013,"distance":2368,"transit":false,"is_transit":false,"line":1},{"is_transit":false,"time":4,"station_id":"KRI","line":1,"transit":false,"station_name":"Kranji","i_lat":-6.224515,"i_long":106.977657,"distance":2520},{"station_name":"Cakung","i_long":106.951283,"station_id":"CUK","time":3,"line":1,"i_lat":-6.219053,"transit":false,"is_transit":false,"distance":3097},{"distance":1385,"time":8,"station_name":"Klenderbaru","i_lat":-6.217455,"transit":false,"station_id":"KLDB","i_long":106.939679,"line":1,"is_transit":false},{"station_id":"BUA","is_transit":false,"time":1,"station_name":"Buaran","i_lat":-6.215568,"i_long":106.922662,"line":1,"transit":false,"distance":1305},{"transit":false,"time":2,"i_long":106.899548,"line":1,"distance":3100,"i_lat":-6.2135,"is_transit":false,"station_id":"KLD","station_name":"Klender"},{"line":1,"is_transit":false,"station_id":"JNG","time":3,"i_lat":-6.215091,"station_name":"Jatinegara","distance":3395,"i_long":106.86807400000001,"transit":false},{"distance":1377,"station_id":"MTR","station_name":"Matraman","time":2,"transit":false,"is_transit":false,"i_lat":-6.212485,"i_long":106.858896,"line":1},{"transit":true,"is_transit":true,"time":2,"station_id":"MRI","i_lat":-6.209883,"i_long":106.84912,"station_name":"Manggarai","line":2,"distance":1275},{"distance":1590,"i_long":106.840169,"transit":false,"station_id":"CKI","line":2,"is_transit":false,"time":4,"station_name":"Cikini","i_lat":-6.198556},{"i_lat":-6.186295,"line":2,"station_id":"GDD","station_name":"Gondangdia","i_long":106.832183,"is_transit":false,"transit":false,"distance":1750,"time":3},{"station_id":"JUA","distance":2015,"i_long":106.828284,"time":4,"i_lat":-6.166716,"line":2,"station_name":"Juanda","transit":false,"is_transit":false},{"station_name":"Sawah Besar","transit":false,"is_transit":false,"station_id":"SW","time":2,"distance":1149,"i_long":106.827103,"line":2,"i_lat":-6.160725},{"i_long":106.82482,"time":2,"line":2,"distance":906,"is_transit":false,"station_id":"MGB","transit":false,"station_name":"Manggabesar","i_lat":-6.149769},{"station_id":"JAY","is_transit":false,"i_long":106.820901,"time":2,"i_lat":-6.141205,"line":2,"distance":1080,"transit":false,"station_name":"Jayakarta"},{"i_lat":-6.137569,"time":4,"station_id":"JAKK","is_transit":true,"line":2,"i_long":106.812439,"transit":true,"distance":1264,"station_name":"Jakarta Kota"},{"i_lat":-6.132549,"distance":1364,"i_long":106.826365,"transit":true,"time":3,"station_id":"KPB","line":4,"is_transit":true,"station_name":"Kampung Bandan"},{"i_long":106.79867,"time":9,"transit":false,"distance":4102,"line":1,"i_lat":-6.144674,"is_transit":false,"station_id":"AK","station_name":"Angke"},{"i_lat":-6.155215,"distance":1230,"time":4,"transit":false,"station_id":"DU","i_long":106.800832,"station_name":"Duri","is_transit":false,"line":1},{"i_lat":-6.185545,"time":8,"i_long":106.811091,"is_transit":true,"station_id":"THB","line":1,"transit":true,"distance":3632,"station_name":"Tanah Abang"},{"i_lat":-6.207404,"i_long":106.79689,"station_name":"Palmerah","line":6,"distance":3191,"station_id":"PLM","transit":false,"is_transit":false,"time":6},{"distance":3737,"line":6,"i_lat":-6.237242,"transit":false,"is_transit":false,"i_long":106.780334,"station_name":"Kebayoran","station_id":"KBY","time":7},{"line":6,"station_name":"Pondokranji","distance":6218,"i_long":106.74273,"transit":false,"station_id":"PDJ","is_transit":false,"time":8,"i_lat":-6.276362},{"time":3,"distance":2179,"i_lat":-6.288927,"i_long":106.728916,"transit":false,"station_name":"Jurangmangu","line":6,"station_id":"JMU","is_transit":false},{"transit":false,"distance":1994,"is_transit":false,"line":6,"time":4,"station_id":"SDM","station_name":"Sudimara","i_lat":-6.296963,"i_long":106.712277},{"time":6,"i_lat":-6.314823,"station_id":"RU","i_long":106.675475,"is_transit":false,"distance":4566,"line":6,"station_name":"Rawa Buntu","transit":false},{"i_long":106.66566,"station_id":"SRP","i_lat":-6.319871,"time":4,"line":6,"station_name":"Serpong","transit":false,"is_transit":false,"distance":2413},{"i_long":106.640411,"transit":false,"is_transit":false,"distance":1784,"station_id":"CSK","station_name":"Cisauk","time":4,"i_lat":-6.32484,"line":3},{"time":4,"line":3,"transit":false,"station_name":"Cicayur","distance":2519,"station_id":"CC","i_long":106.617853,"is_transit":false,"i_lat":-6.329547}],[{"station_name":"Cikarang","line":1,"transit":false,"is_transit":false,"i_lat":-6.2553149999999995,"i_long":107.144613,"time":0,"station_id":"CKR","distance":0},{"i_lat":-6.262938,"is_transit":false,"transit":false,"i_long":107.093313,"distance":3689,"station_id":"TLM","line":1,"station_name":"Metland Telaga Murni","time":4},{"transit":false,"station_name":"Cibitung","i_long":107.083084,"time":2,"station_id":"CIT","is_transit":false,"distance":2800,"line":1,"i_lat":-6.261877},{"station_id":"TB","i_long":107.055722,"i_lat":-6.258864,"time":3,"transit":false,"distance":3420,"station_name":"Tambun","is_transit":false,"line":1},{"distance":4460,"i_lat":-6.248029,"i_long":107.016735,"station_name":"Bekasi Timur","line":1,"is_transit":false,"transit":false,"station_id":"BKST","time":7},{"station_id":"BKS","is_transit":false,"transit":false,"i_lat":-6.236616,"i_long":106.997013,"line":1,"time":2,"distance":2368,"station_name":"Bekasi"},{"distance":2520,"time":4,"station_id":"KRI","station_name":"Kranji","is_transit":false,"i_long":106.977657,"line":1,"transit":false,"i_lat":-6.224515},{"time":3,"i_lat":-6.219053,"transit":false,"distance":3097,"is_transit":false,"station_name":"Cakung","i_long":106.951283,"station_id":"CUK","line":1},{"station_id":"KLDB","is_transit":false,"time":8,"station_name":"Klenderbaru","distance":1385,"transit":false,"i_long":106.939679,"i_lat":-6.217455,"line":1},{"i_long":106.922662,"station_id":"BUA","i_lat":-6.215568,"line":1,"station_name":"Buaran","distance":1305,"transit":false,"time":1,"is_transit":false},{"i_lat":-6.2135,"station_name":"Klender","line":1,"transit":false,"time":2,"distance":3100,"i_long":106.899548,"is_transit":false,"station_id":"KLD"},{"station_id":"JNG","time":3,"distance":3395,"i_long":106.86807400000001,"transit":true,"i_lat":-6.215091,"is_transit":true,"station_name":"Jatinegara","line":1},{"time":2,"distance":1236,"line":11,"station_id":"POK","i_long":106.861737,"i_lat":-6.209188,"transit":false,"is_transit":false,"station_name":"Pondok Jati"},{"transit":false,"station_id":"KMT","distance":1829,"is_transit":false,"i_lat":-6.193792,"time":2,"station_name":"Kramat","i_long":106.855437,"line":11},{"is_transit":false,"distance":973,"station_name":"Gang Sentiong","i_lat":-6.185975,"station_id":"GST","i_long":106.850107,"transit":false,"time":1,"line":11},{"time":8,"transit":false,"line":11,"station_name":"Pasar Senen","station_id":"PSE","i_long":106.84368,"is_transit":false,"i_lat":-6.174784,"distance":1567},{"distance":1436,"is_transit":false,"i_long":106.839204,"transit":false,"i_lat":-6.161728,"station_id":"KMO","station_name":"Kemayoran","line":11,"time":4},{"station_id":"RJW","line":11,"time":5,"distance":1901,"i_long":106.836569,"transit":false,"i_lat":-6.14505,"station_name":"Rajawali","is_transit":false},{"station_name":"Kampung Bandan","transit":true,"is_transit":true,"time":3,"distance":1444,"i_lat":-6.132549,"line":4,"i_long":106.826365,"station_id":"KPB"},{"is_transit":true,"i_lat":-6.137569,"transit":true,"line":2,"time":3,"station_name":"Jakarta Kota","station_id":"JAKK","i_long":106.812439,"distance":1364},{"time":4,"i_long":106.820901,"line":2,"station_id":"JAY","station_name":"Jayakarta","distance":1264,"is_transit":false,"i_lat":-6.141205,"transit":false},{"station_name":"Manggabesar","line":2,"transit":false,"station_id":"MGB","i_lat":-6.149769,"distance":1080,"time":2,"i_long":106.82482,"is_transit":false},{"station_name":"Sawah Besar","distance":906,"i_lat":-6.160725,"station_id":"SW","line":2,"transit":false,"i_long":106.827103,"time":2,"is_transit":false},{"i_lat":-6.166716,"station_name":"Juanda","transit":false,"is_transit":false,"time":2,"i_long":106.828284,"station_id":"JUA","distance":1149,"line":2},{"time":4,"is_transit":false,"transit":false,"line":2,"station_id":"GDD","distance":2015,"i_lat":-6.186295,"station_name":"Gondangdia","i_long":106.832183},{"i_lat":-6.198556,"transit":false,"distance":1750,"i_long":106.840169,"station_name":"Cikini","is_transit":false,"time":3,"station_id":"CKI","line":2},{"i_lat":-6.209883,"time":4,"station_name":"Manggarai","transit":true,"station_id":"MRI","line":2,"distance":1590,"i_long":106.84912,"is_transit":true},{"station_id":"SUD","i_lat":-6.202263,"station_name":"Sudirman","time":4,"distance":3186,"transit":false,"i_long":106.822649,"is_transit":false,"line":1},{"i_long":106.819881,"is_transit":false,"station_name":"Sudirman Baru","station_id":"SUDB","i_lat":-6.201433,"line":1,"transit":false,"distance":280,"time":1},{"i_long":106.816351,"i_lat":-6.20132,"distance":471,"line":1,"is_transit":false,"station_id":"KAT","time":1,"transit":false,"station_name":"Karet"},{"line":1,"distance":2029,"station_id":"THB","station_name":"Tanah Abang","i_long":106.811091,"time":5,"i_lat":-6.185545,"transit":true,"is_transit":true},{"station_id":"PLM","station_name":"Palmerah","distance":3191,"i_lat":-6.207404,"transit":false,"i_long":106.79689,"is_transit":false,"time":6,"line":6},{"distance":3737,"station_name":"Kebayoran","line":6,"station_id":"KBY","is_transit":false,"i_lat":-6.237242,"i_long":106.780334,"transit":false,"time":7},{"time":8,"transit":false,"is_transit":false,"i_lat":-6.276362,"i_long":106.74273,"station_name":"Pondokranji","line":6,"distance":6218,"station_id":"PDJ"},{"distance":2179,"transit":false,"i_long":106.728916,"station_name":"Jurangmangu","i_lat":-6.288927,"station_id":"JMU","line":6,"is_transit":false,"time":3},{"transit":false,"station_name":"Sudimara","time":4,"distance":1994,"i_lat":-6.296963,"line":6,"i_long":106.712277,"is_transit":false,"station_id":"SDM"},{"transit":false,"i_long":106.675475,"distance":4566,"is_transit":false,"i_lat":-6.314823,"station_name":"Rawa Buntu","line":6,"station_id":"RU","time":6},{"is_transit":false,"station_name":"Serpong","line":6,"station_id":"SRP","distance":2413,"i_long":106.66566,"transit":false,"time":4,"i_lat":-6.319871},{"line":3,"i_lat":-6.32484,"transit":false,"station_name":"Cisauk","is_transit":false,"i_long":106.640411,"distance":1784,"station_id":"CSK","time":4},{"distance":2519,"line":3,"time":4,"station_name":"Cicayur","is_transit":false,"i_lat":-6.329547,"transit":false,"i_long":106.617853,"station_id":"CC"}]]}