{"data":[[{"line":3,"time":0,"distance":0,"i_long":106.411216,"is_transit":false,"station_id":"CKY","transit":false,"station_name":"Cikoya","i_lat":-6.33561},{"station_id":"TGS","distance":2651,"station_name":"Tigaraksa","i_lat":-6.328533,"time":3,"line":6,"is_transit":false,"i_long":106.425991,"transit":false},{"is_transit":false,"station_name":"Tenjo","distance":2974,"station_id":"TEJ","transit":false,"time":5,"i_lat":-6.327251,"i_long":106.460812,"line":6},{"line":0,"i_long":106.491338,"distance":3902,"is_transit":false,"i_lat":-6.338021,"station_id":"DAR","transit":false,"station_name":"Daru","time":5},{"is_transit":false,"station_name":"Cilejit","station_id":"CJT","transit":false,"time":6,"i_long":106.508482,"distance":2675,"line":3,"i_lat":-6.354349},{"transit":false,"time":9,"i_long":106.568863,"station_id":"PRP","distance":7025,"i_lat":-6.3441410000000005,"station_name":"Parung Panjang","is_transit":false,"line":6},{"is_transit":false,"distance":5968,"time":8,"station_id":"CC","i_long":106.617853,"line":3,"transit":false,"station_name":"Cicayur","i_lat":-6.329547},{"distance":2519,"line":3,"i_lat":-6.32484,"station_id":"CSK","station_name":"Cisauk","i_long":106.640411,"transit":false,"is_transit":false,"time":4},{"i_lat":-6.319871,"distance":1784,"transit":false,"station_id":"SRP","station_name":"Serpong","is_transit":false,"time":4,"i_long":106.66566,"line":6},{"transit":false,"i_lat":-6.314823,"line":6,"is_transit":false,"i_long":106.675475,"time":4,"distance":2413,"station_name":"Rawa Buntu","station_id":"RU"},{"distance":4566,"time":6,"i_lat":-6.296963,"i_long":106.712277,"station_name":"Sudimara","station_id":"SDM","transit":false,"line":6,"is_transit":false},{"station_name":"Jurangmangu","station_id":"JMU","time":4,"is_transit":false,"i_long":106.728916,"transit":false,"i_lat":-6.288927,"line":6,"distance":1994},{"is_transit":false,"station_name":"Pondokranji","time":3,"transit":false,"i_lat":-6.276362,"i_long":106.74273,"line":6,"station_id":"PDJ","distance":2179},{"time":8,"transit":false,"line":6,"station_id":"KBY","is_transit":false,"i_lat":-6.237242,"distance":6218,"station_name":"Kebayoran","i_long":106.780334},{"is_transit":false,"i_lat":-6.207404,"line":6,"distance":3737,"time":7,"i_long":106.79689,"station_name":"Palmerah","station_id":"PLM","transit":false},{"line":1,"station_name":"Tanah Abang","time":6,"i_lat":-6.185545,"i_long":106.811091,"station_id":"THB","distance":3191,"transit":true,"is_transit":true},{"transit":true,"distance":3632,"station_name":"Duri","time":8,"i_long":106.800832,"i_lat":-6.155215,"station_id":"DU","is_transit":true,"line":1},{"line":5,"station_id":"GGL","distance":1700,"transit":false,"is_transit":false,"i_long":106.788277,"station_name":"Grogol","i_lat":-6.162021,"time":3},{"distance":2036,"i_lat":-6.161433,"i_long":106.771379,"transit":false,"station_name":"Pesing","line":5,"time":2,"station_id":"PSG","is_transit":false},{"time":2,"i_long":106.756522,"i_lat":-6.1587309999999995,"is_transit":false,"transit":false,"distance":1614,"station_name":"Taman Kota","station_id":"TKO","line":5},{"line":5,"station_id":"BOI","station_name":"Bojongindah","transit":false,"i_lat":-6.159876,"is_transit":false,"i_long":106.737035,"distance":2334,"time":2},{"transit":false,"station_id":"RW","distance":1152,"station_name":"Rawa Buaya","is_transit":false,"time":4,"i_lat":-6.162758,"line":5,"i_long":106.723064},{"i_long":106.701612,"is_transit":false,"time":3,"station_id":"KDS","i_lat":-6.166068,"transit":false,"line":5,"distance":2504,"station_name":"Kalideres"},{"station_id":"PI","is_transit":false,"transit":false,"time":3,"i_long":106.679458,"station_name":"Poris","distance":2548,"line":5,"i_lat":-6.169933},{"is_transit":false,"station_id":"BPR","transit":false,"station_name":"Batuceper","distance":1834,"time":3,"i_long":106.665036,"line":5,"i_lat":-6.171811},{"line":5,"is_transit":false,"station_id":"TTI","i_lat":-6.17331,"distance":2028,"transit":false,"station_name":"Tanah Tinggi","i_long":106.64657,"time":3}],[{"line":3,"station_id":"CKY","time":0,"is_transit":false,"station_name":"Cikoya","distance":0,"transit":false,"i_lat":-6.33561,"i_long":106.411216},{"i_lat":-6.328533,"distance":2651,"station_name":"Tigaraksa","line":6,"time":3,"is_transit":false,"station_id":"TGS","transit":false,"i_long":106.425991},{"transit":false,"is_transit":false,"line":6,"station_name":"Tenjo","distance":2974,"time":5,"station_id":"TEJ","i_long":106.460812,"i_lat":-6.327251},{"i_lat":-6.338021,"distance":3902,"time":5,"is_transit":false,"i_long":106.491338,"line":0,"transit":false,"station_id":"DAR","station_name":"Daru"},{"i_lat":-6.354349,"is_transit":false,"station_name":"Cilejit","line":3,"station_id":"CJT","distance":2675,"i_long":106.508482,"time":6,"transit":false},{"time":9,"is_transit":false,"i_lat":-6.3441410000000005,"distance":7025,"i_long":106.568863,"station_id":"PRP","line":6,"transit":false,"station_name":"Parung Panjang"},{"distance":5968,"station_id":"CC","transit":false,"station_name":"Cicayur","i_long":106.617853,"is_transit":false,"i_lat":-6.329547,"line":3,"time":8},{"is_transit":false,"station_name":"Cisauk","i_lat":-6.32484,"distance":2519,"station_id":"CSK","transit":false,"time":4,"i_long":106.640411,"line":3},{"line":6,"station_id":"SRP","station_name":"Serpong","transit":false,"time":4,"i_lat":-6.319871,"distance":1784,"i_long":106.66566,"is_transit":false},{"station_id":"RU","distance":2413,"transit":false,"time":4,"station_name":"Rawa Buntu","i_long":106.675475,"i_lat":-6.314823,"line":6,"is_transit":false},{"transit":false,"time":6,"is_transit":false,"line":6,"i_lat":-6.296963,"station_name":"Sudimara","distance":4566,"i_long":106.712277,"station_id":"SDM"},{"station_name":"Jurangmangu","transit":false,"station_id":"JMU","distance":1994,"time":4,"line":6,"is_transit":false,"i_lat":-6.288927,"i_long":106.728916},{"distance":2179,"is_transit":false,"i_long":106.74273,"station_id":"PDJ","station_name":"Pondokranji","transit":false,"line":6,"i_lat":-6.276362,"time":3},{"time":8,"i_lat":-6.237242,"i_long":106.780334,"is_transit":false,"line":6,"transit":false,"distance":6218,"station_id":"KBY","station_name":"Kebayoran"},{"station_id":"PLM","distance":3737,"time":7,"line":6,"station_name":"Palmerah","transit":false,"i_lat":-6.207404,"i_long":106.79689,"is_transit":false},{"distance":3191,"station_name":"Tanah Abang","time":6,"station_id":"THB","transit":true,"i_lat":-6.185545,"i_long":106.811091,"is_transit":true,"line":1},{"distance":2029,"is_transit":false,"station_name":"Karet","time":5,"line":1,"transit":false,"i_long":106.816351,"i_lat":-6.20132,"station_id":"KAT"},{"transit":false,"line":1,"time":1,"is_transit":false,"station_id":"SUDB","station_name":"Sudirman Baru","i_lat":-6.201433,"distance":471,"i_long":106.819881},{"time":1,"i_lat":-6.202263,"station_id":"SUD","line":1,"i_long":106.822649,"station_name":"Sudirman","distance":280,"is_transit":false,"transit":false},{"transit":true,"is_transit":true,"i_lat":-6.209883,"distance":3186,"station_name":"Manggarai","station_id":"MRI","i_long":106.84912,"line":2,"time":4},{"transit":false,"i_lat":-6.198556,"station_id":"CKI","is_transit":false,"i_long":106.840169,"time":4,"distance":1590,"line":2,"station_name":"Cikini"},{"i_long":106.832183,"distance":1750,"time":3,"is_transit":false,"station_id":"GDD","line":2,"transit":false,"station_name":"Gondangdia","i_lat":-6.186295},{"is_transit":false,"station_name":"Juanda","time":4,"i_lat":-6.166716,"i_long":106.828284,"distance":2015,"transit":false,"line":2,"station_id":"JUA"},{"i_lat":-6.160725,"line":2,"distance":1149,"is_transit":false,"station_id":"SW","transit":false,"station_name":"Sawah Besar","time":2,"i_long":106.827103},{"time":2,"transit":false,"station_name":"Manggabesar","i_lat":-6.149769,"i_long":106.82482,"station_id":"MGB","line":2,"distance":906,"is_transit":false},{"time":2,"transit":false,"distance":1080,"i_lat":-6.141205,"station_name":"Jayakarta","i_long":106.820901,"is_transit":false,"station_id":"JAY","line":2},{"i_long":106.812439,"station_name":"Jakarta Kota","line":2,"i_lat":-6.137569,"distance":1264,"station_id":"JAKK","is_transit":true,"transit":true,"time":4},{"station_name":"Kampung Bandan","transit":true,"station_id":"KPB","time":3,"line":4,"distance":1364,"i_lat":-6.132549,"is_transit":true,"i_long":106.826365},{"line":1,"is_transit":false,"distance":4102,"station_id":"AK","station_name":"Angke","transit":false,"time":9,"i_lat":-6.144674,"i_long":106.79867},{"distance":1230,"i_long":106.800832,"is_transit":true,"time":4,"station_name":"Duri","station_id":"DU","transit":true,"i_lat":-6.155215,"line":1},{"is_transit":false,"time":3,"station_id":"GGL","i_long":106.788277,"station_name":"Grogol","line":5,"distance":1700,"transit":false,"i_lat":-6.162021},{"station_name":"Pesing","line":5,"i_long":106.771379,"transit":false,"is_transit":false,"time":2,"i_lat":-6.161433,"distance":2036,"station_id":"PSG"},{"i_long":106.756522,"station_name":"Taman Kota","i_lat":-6.1587309999999995,"transit":false,"is_transit":false,"station_id":"TKO","time":2,"line":5,"distance":1614},{"transit":false,"station_name":"Bojongindah","i_long":106.737035,"station_id":"BOI","i_lat":-6.159876,"distance":2334,"is_transit":false,"time":2,"line":5},{"distance":1152,"i_lat":-6.162758,"transit":false,"station_name":"Rawa Buaya","station_id":"RW","time":4,"i_long":106.723064,"line":5,"is_transit":false},{"time":3,"distance":2504,"line":5,"transit":false,"is_transit":false,"i_lat":-6.166068,"i_long":106.701612,"station_id":"KDS","station_name":"Kalideres"},{"i_lat":-6.169933,"station_name":"Poris","time":3,"line":5,"i_long":106.679458,"transit":false,"station_id":"PI","is_transit":false,"distance":2548},{"is_transit":false,"transit":false,"distance":1834,"i_lat":-6.171811,"station_name":"Batuceper","time":3,"i_long":106.665036,"station_id":"BPR","line":5},{"line":5,"station_id":"TTI","i_lat":-6.17331,"time":3,"transit":false,"is_transit":false,"distance":2028,"i_long":106.64657,"station_name":"Tanah Tinggi"}],[{"station_name":"Cikoya","transit":false,"i_long":106.411216,"time":0,"i_lat":-6.33561,"is_transit":false,"line":3,"distance":0,"station_id":"CKY"},{"i_long":106.425991,"transit":false,"time":3,"distance":2651,"line":6,"station_name":"Tigaraksa","station_id":"TGS","is_transit":false,"i_lat":-6.328533},{"station_name":"Tenjo","line":6,"i_long":106.460812,"distance":2974,"transit":false,"station_id":"TEJ","time":5,"i_lat":-6.327251,"is_transit":false},{"station_id":"DAR","transit":false,"i_long":106.491338,"line":0,"is_transit":false,"distance":3902,"i_lat":-6.338021,"station_name":"Daru","time":5},{"i_long":106.508482,"line":3,"station_id":"CJT","is_transit":false,"time":6,"i_lat":-6.354349,"station_name":"Cilejit","distance":2675,"transit":false},{"i_lat":-6.3441410000000005,"transit":false,"station_name":"Parung Panjang","i_long":106.568863,"distance":7025,"station_id":"PRP","line":6,"is_transit":false,"time":9},{"i_long":106.617853,"line":3,"station_id":"CC","transit":false,"station_name":"Cicayur","time":8,"is_transit":false,"i_lat":-6.329547,"distance":5968},{"time":4,"distance":2519,"transit":false,"is_transit":false,"station_name":"Cisauk","station_id":"CSK","line":3,"i_lat":-6.32484,"i_long":106.640411},{"station_name":"Serpong","i_lat":-6.319871,"is_transit":false,"transit":false,"station_id":"SRP","distance":1784,"time":4,"i_long":106.66566,"line":6},{"station_id":"RU","distance":2413,"transit":false,"i_lat":-6.314823,"line":6,"station_name":"Rawa Buntu","is_transit":false,"i_long":106.675475,"time":4},{"time":6,"i_long":106.712277,"distance":4566,"is_transit":false,"line":6,"station_id":"SDM","transit":false,"station_name":"Sudimara","i_lat":-6.296963},{"station_name":"Jurangmangu","distance":1994,"i_long":106.728916,"station_id":"JMU","line":6,"transit":false,"time":4,"i_lat":-6.288927,"is_transit":false},{"i_long":106.74273,"station_id":"PDJ","is_transit":false,"time":3,"station_name":"Pondokranji","line":6,"distance":2179,"transit":false,"i_lat":-6.276362},{"i_long":106.780334,"time":8,"station_id":"KBY","is_transit":false,"station_name":"Kebayoran","distance":6218,"transit":false,"line":6,"i_lat":-6.237242},{"line":6,"time":7,"distance":3737,"i_lat":-6.207404,"transit":false,"i_long":106.79689,"station_id":"PLM","station_name":"Palmerah","is_transit":false},{"transit":true,"i_lat":-6.185545,"station_id":"THB","is_transit":true,"time":6,"i_long":106.811091,"line":1,"distance":3191,"station_name":"Tanah Abang"},{"is_transit":false,"station_name":"Karet","i_long":106.816351,"station_id":"KAT","transit":false,"distance":2029,"time":5,"i_lat":-6.20132,"line":1},{"i_lat":-6.201433,"station_id":"SUDB","distance":471,"station_name":"Sudirman Baru","time":1,"transit":false,"is_transit":false,"i_long":106.819881,"line":1},{"time":1,"transit":false,"distance":280,"station_id":"SUD","line":1,"is_transit":false,"station_name":"Sudirman","i_lat":-6.202263,"i_long":106.822649},{"i_lat":-6.209883,"distance":3186,"is_transit":false,"time":4,"i_long":106.84912,"station_name":"Manggarai","station_id":"MRI","line":2,"transit":false},{"transit":false,"station_id":"MTR","distance":1275,"time":2,"i_long":106.858896,"line":1,"station_name":"Matraman","is_transit":false,"i_lat":-6.212485},{"i_lat":-6.215091,"distance":1377,"i_long":106.86807400000001,"time":8,"transit":true,"station_id":"JNG","station_name":"Jatinegara","line":1,"is_transit":true},{"i_long":106.861737,"line":11,"i_lat":-6.209188,"distance":1236,"time":2,"transit":false,"is_transit":false,"station_id":"POK","station_name":"Pondok Jati"},{"station_name":"Kramat","distance":1829,"i_lat":-6.193792,"time":2,"station_id":"KMT","transit":false,"is_transit":false,"i_long":106.855437,"line":11},{"line":11,"i_long":106.850107,"station_id":"GST","i_lat":-6.185975,"is_transit":false,"time":1,"station_name":"Gang Sentiong","transit":false,"distance":973},{"is_transit":false,"i_long":106.84368,"station_id":"PSE","i_lat":-6.174784,"time":8,"line":11,"transit":false,"station_name":"Pasar Senen","distance":1567},{"station_name":"Kemayoran","i_lat":-6.161728,"i_long":106.839204,"distance":1436,"is_transit":false,"transit":false,"line":11,"station_id":"KMO","time":4},{"time":5,"is_transit":false,"i_long":106.836569,"distance":1901,"station_name":"Rajawali","i_lat":-6.14505,"line":11,"station_id":"RJW","transit":false},{"station_id":"KPB","time":3,"i_lat":-6.132549,"i_long":106.826365,"is_transit":true,"line":4,"distance":1444,"station_name":"Kampung Bandan","transit":true},{"line":1,"distance":4102,"is_transit":false,"time":9,"i_long":106.79867,"station_name":"Angke","transit":false,"i_lat":-6.144674,"station_id":"AK"},{"station_name":"Duri","line":1,"is_transit":true,"distance":1230,"station_id":"DU","transit":true,"time":4,"i_long":106.800832,"i_lat":-6.155215},{"i_lat":-6.162021,"is_transit":false,"time":3,"line":5,"station_id":"GGL","station_name":"Grogol","i_long":106.788277,"distance":1700,"transit":false},{"transit":false,"line":5,"station_name":"Pesing","time":2,"i_lat":-6.161433,"i_long":106.771379,"station_id":"PSG","distance":2036,"is_transit":false},{"distance":1614,"station_id":"TKO","is_transit":false,"station_name":"Taman Kota","time":2,"i_lat":-6.1587309999999995,"line":5,"i_long":106.756522,"transit":false},{"station_id":"BOI","distance":2334,"station_name":"Bojongindah","time":2,"i_lat":-6.159876,"i_long":106.737035,"line":5,"transit":false,"is_transit":false},{"is_transit":false,"station_name":"Rawa Buaya","time":4,"i_long":106.723064,"line":5,"distance":1152,"transit":false,"station_id":"RW","i_lat":-6.162758},{"i_long":106.701612,"station_id":"KDS","station_name":"Kalideres","transit":false,"is_transit":false,"line":5,"distance":2504,"i_lat":-6.166068,"time":3},{"station_name":"Poris","distance":2548,"station_id":"PI","time":3,"is_transit":false,"line":5,"i_long":106.679458,"i_lat":-6.169933,"transit":false},{"i_lat":-6.171811,"i_long":106.665036,"station_id":"BPR","transit":false,"is_transit":false,"line":5,"distance":1834,"time":3,"station_name":"Batuceper"},{"line":5,"station_name":"Tanah Tinggi","i_lat":-6.17331,"is_transit":false,"transit":false,"time":3,"i_long":106.64657,"station_id":"TTI","distance":2028}]]}