{"data":[[{"is_transit":false,"station_name":"Cikoya","station_id":"CKY","i_lat":-6.33561,"i_long":106.411216,"time":0,"distance":0,"line":0,"transit":false},{"time":3,"station_name":"Tigaraksa","is_transit":false,"transit":false,"i_lat":-6.328533,"distance":2651,"line":6,"i_long":106.425991,"station_id":"TGS"},{"station_name":"Tenjo","time":5,"transit":false,"station_id":"TEJ","i_long":106.460812,"is_transit":false,"line":6,"i_lat":-6.327251,"distance":2974},{"is_transit":false,"time":5,"i_long":106.491338,"line":0,"transit":false,"i_lat":-6.338021,"distance":3902,"station_name":"Daru","station_id":"DAR"},{"line":0,"is_transit":false,"station_id":"CJT","time":6,"distance":2675,"transit":false,"i_long":106.508482,"station_name":"Cilejit","i_lat":-6.354349},{"transit":false,"station_id":"PRP","i_lat":-6.3441410000000005,"distance":7025,"i_long":106.568863,"line":6,"is_transit":false,"time":9,"station_name":"Parung Panjang"},{"time":8,"distance":5968,"i_long":106.617853,"station_id":"CC","transit":false,"i_lat":-6.329547,"is_transit":false,"station_name":"Cicayur","line":0},{"time":4,"station_id":"CSK","distance":2519,"i_lat":-6.32484,"station_name":"Cisauk","is_transit":false,"transit":false,"line":0,"i_long":106.640411},{"i_long":106.66566,"is_transit":false,"station_id":"SRP","distance":1784,"station_name":"Serpong","transit":false,"i_lat":-6.319871,"line":6,"time":4},{"i_long":106.675475,"station_name":"Rawa Buntu","distance":2413,"transit":false,"time":4,"line":6,"is_transit":false,"station_id":"RU","i_lat":-6.314823},{"is_transit":false,"i_lat":-6.296963,"station_id":"SDM","distance":4566,"i_long":106.712277,"line":6,"time":6,"transit":false,"station_name":"Sudimara"},{"distance":1994,"i_lat":-6.288927,"is_transit":false,"station_id":"JMU","i_long":106.728916,"line":6,"station_name":"Jurangmangu","transit":false,"time":4},{"is_transit":false,"station_name":"Pondokranji","i_lat":-6.276362,"transit":false,"i_long":106.74273,"line":6,"time":3,"distance":2179,"station_id":"PDJ"},{"time":8,"is_transit":false,"transit":false,"i_long":106.780334,"i_lat":-6.237242,"line":6,"station_name":"Kebayoran","distance":6218,"station_id":"KBY"},{"distance":3737,"station_name":"Palmerah","line":6,"station_id":"PLM","is_transit":false,"transit":false,"i_lat":-6.207404,"i_long":106.79689,"time":7},{"i_lat":-6.185545,"distance":3191,"transit":true,"station_name":"Tanah Abang","time":6,"is_transit":true,"station_id":"THB","i_long":106.811091,"line":1},{"station_name":"Karet","line":1,"distance":2029,"transit":false,"time":5,"is_transit":false,"station_id":"KAT","i_long":106.816351,"i_lat":-6.20132},{"time":1,"transit":false,"distance":471,"station_id":"SUDB","station_name":"Sudirman Baru","is_transit":false,"i_lat":-6.201433,"i_long":106.819881,"line":1},{"is_transit":false,"distance":280,"time":1,"station_id":"SUD","line":1,"i_lat":-6.202263,"station_name":"Sudirman","i_long":106.822649,"transit":false},{"is_transit":true,"line":0,"station_name":"Manggarai","i_lat":-6.209883,"i_long":106.84912,"time":4,"transit":true,"station_id":"MRI","distance":3186},{"time":4,"station_name":"Tebet","distance":2610,"station_id":"TEB","transit":false,"i_lat":-6.226659,"is_transit":false,"line":2,"i_long":106.857948},{"is_transit":false,"time":2,"transit":false,"distance":1230,"i_lat":-6.242512,"station_id":"CW","i_long":106.856607,"line":0,"station_name":"Cawang"},{"line":0,"i_long":106.85449,"is_transit":false,"distance":1546,"time":3,"station_id":"DRN","station_name":"Duren Kalibata","transit":false,"i_lat":-6.255332},{"transit":false,"i_lat":-6.263214,"is_transit":false,"station_id":"PSMB","i_long":106.851577,"distance":824,"line":2,"time":2,"station_name":"Pasar Minggu Baru"},{"is_transit":false,"station_id":"PSM","time":2,"transit":false,"i_long":106.843999,"line":2,"i_lat":-6.2842400000000005,"distance":2380,"station_name":"Pasar Minggu"}],[{"is_transit":false,"distance":0,"station_id":"CKY","line":0,"station_name":"Cikoya","i_lat":-6.33561,"transit":false,"time":0,"i_long":106.411216},{"line":6,"transit":false,"i_long":106.425991,"is_transit":false,"distance":2651,"station_name":"Tigaraksa","station_id":"TGS","time":3,"i_lat":-6.328533},{"station_id":"TEJ","time":5,"line":6,"station_name":"Tenjo","distance":2974,"i_lat":-6.327251,"is_transit":false,"transit":false,"i_long":106.460812},{"station_name":"Daru","time":5,"line":0,"station_id":"DAR","transit":false,"i_lat":-6.338021,"is_transit":false,"i_long":106.491338,"distance":3902},{"distance":2675,"station_name":"Cilejit","i_lat":-6.354349,"is_transit":false,"station_id":"CJT","i_long":106.508482,"line":0,"time":6,"transit":false},{"station_name":"Parung Panjang","station_id":"PRP","is_transit":false,"i_lat":-6.3441410000000005,"time":9,"i_long":106.568863,"distance":7025,"transit":false,"line":6},{"station_id":"CC","station_name":"Cicayur","time":8,"is_transit":false,"transit":false,"i_lat":-6.329547,"distance":5968,"line":0,"i_long":106.617853},{"station_id":"CSK","distance":2519,"is_transit":false,"transit":false,"time":4,"station_name":"Cisauk","i_lat":-6.32484,"line":0,"i_long":106.640411},{"transit":false,"i_lat":-6.319871,"i_long":106.66566,"is_transit":false,"station_id":"SRP","time":4,"line":6,"station_name":"Serpong","distance":1784},{"station_id":"RU","transit":false,"time":4,"is_transit":false,"station_name":"Rawa Buntu","line":6,"i_long":106.675475,"distance":2413,"i_lat":-6.314823},{"time":6,"station_name":"Sudimara","line":6,"distance":4566,"station_id":"SDM","i_long":106.712277,"i_lat":-6.296963,"is_transit":false,"transit":false},{"station_id":"JMU","line":6,"transit":false,"time":4,"station_name":"Jurangmangu","distance":1994,"i_long":106.728916,"i_lat":-6.288927,"is_transit":false},{"transit":false,"station_name":"Pondokranji","time":3,"i_lat":-6.276362,"i_long":106.74273,"line":6,"is_transit":false,"station_id":"PDJ","distance":2179},{"i_lat":-6.237242,"i_long":106.780334,"line":6,"transit":false,"station_id":"KBY","distance":6218,"is_transit":false,"time":8,"station_name":"Kebayoran"},{"i_lat":-6.207404,"station_name":"Palmerah","station_id":"PLM","i_long":106.79689,"is_transit":false,"transit":false,"distance":3737,"time":7,"line":6},{"station_name":"Tanah Abang","i_lat":-6.185545,"i_long":106.811091,"line":1,"distance":3191,"is_transit":true,"time":6,"station_id":"THB","transit":true},{"line":1,"i_lat":-6.155215,"i_long":106.800832,"time":8,"transit":true,"station_name":"Duri","distance":3632,"is_transit":true,"station_id":"DU"},{"station_id":"AK","line":0,"is_transit":false,"station_name":"Angke","transit":false,"distance":1230,"i_lat":-6.144674,"time":4,"i_long":106.79867},{"station_id":"KPB","i_long":106.826365,"time":9,"distance":4102,"is_transit":true,"transit":false,"line":0,"station_name":"Kampung Bandan","i_lat":-6.132549},{"station_id":"JAKK","transit":true,"i_lat":-6.137569,"station_name":"Jakarta Kota","line":0,"is_transit":true,"time":3,"i_long":106.812439,"distance":1364},{"station_name":"Jayakarta","line":7,"i_lat":-6.141205,"time":4,"is_transit":false,"distance":1264,"transit":false,"i_long":106.820901,"station_id":"JAY"},{"station_name":"Manggabesar","transit":false,"station_id":"MGB","i_lat":-6.149769,"time":2,"is_transit":false,"distance":1080,"line":2,"i_long":106.82482},{"is_transit":false,"distance":906,"i_lat":-6.160725,"station_id":"SW","transit":false,"i_long":106.827103,"time":2,"line":2,"station_name":"Sawah Besar"},{"transit":false,"is_transit":false,"i_lat":-6.166716,"line":2,"station_name":"Juanda","station_id":"JUA","i_long":106.828284,"distance":1149,"time":2},{"i_long":106.832183,"time":4,"distance":2015,"line":2,"is_transit":false,"transit":false,"station_id":"GDD","i_lat":-6.186295,"station_name":"Gondangdia"},{"station_id":"CKI","distance":1750,"line":0,"station_name":"Cikini","i_long":106.840169,"time":3,"transit":false,"i_lat":-6.198556,"is_transit":false},{"line":0,"i_long":106.84912,"station_id":"MRI","transit":true,"station_name":"Manggarai","is_transit":true,"time":4,"i_lat":-6.209883,"distance":1590},{"is_transit":false,"distance":2610,"i_long":106.857948,"time":4,"station_name":"Tebet","transit":false,"station_id":"TEB","i_lat":-6.226659,"line":2},{"line":0,"is_transit":false,"time":2,"distance":1230,"station_name":"Cawang","transit":false,"i_long":106.856607,"station_id":"CW","i_lat":-6.242512},{"i_long":106.85449,"station_id":"DRN","line":0,"transit":false,"distance":1546,"station_name":"Duren Kalibata","is_transit":false,"time":3,"i_lat":-6.255332},{"is_transit":false,"distance":824,"transit":false,"i_lat":-6.263214,"line":2,"time":2,"station_id":"PSMB","station_name":"Pasar Minggu Baru","i_long":106.851577},{"is_transit":false,"station_name":"Pasar Minggu","distance":2380,"i_long":106.843999,"line":2,"i_lat":-6.2842400000000005,"station_id":"PSM","time":2,"transit":false}],[{"is_transit":false,"i_lat":-6.33561,"line":0,"i_long":106.411216,"time":0,"distance":0,"station_name":"Cikoya","transit":false,"station_id":"CKY"},{"station_id":"TGS","is_transit":false,"station_name":"Tigaraksa","i_lat":-6.328533,"i_long":106.425991,"transit":false,"distance":2651,"line":6,"time":3},{"distance":2974,"line":6,"station_name":"Tenjo","i_long":106.460812,"i_lat":-6.327251,"transit":false,"is_transit":false,"station_id":"TEJ","time":5},{"transit":false,"i_lat":-6.338021,"station_id":"DAR","is_transit":false,"time":5,"station_name":"Daru","i_long":106.491338,"line":0,"distance":3902},{"station_id":"CJT","time":6,"distance":2675,"is_transit":false,"transit":false,"i_lat":-6.354349,"station_name":"Cilejit","i_long":106.508482,"line":0},{"station_id":"PRP","time":9,"distance":7025,"i_lat":-6.3441410000000005,"is_transit":false,"transit":false,"station_name":"Parung Panjang","line":6,"i_long":106.568863},{"i_lat":-6.329547,"distance":5968,"i_long":106.617853,"line":0,"time":8,"is_transit":false,"station_name":"Cicayur","transit":false,"station_id":"CC"},{"transit":false,"is_transit":false,"time":4,"station_id":"CSK","station_name":"Cisauk","distance":2519,"line":0,"i_lat":-6.32484,"i_long":106.640411},{"transit":false,"station_name":"Serpong","i_lat":-6.319871,"line":6,"station_id":"SRP","distance":1784,"is_transit":false,"i_long":106.66566,"time":4},{"time":4,"is_transit":false,"i_lat":-6.314823,"station_name":"Rawa Buntu","i_long":106.675475,"station_id":"RU","transit":false,"line":6,"distance":2413},{"distance":4566,"line":6,"station_id":"SDM","transit":false,"i_lat":-6.296963,"is_transit":false,"time":6,"i_long":106.712277,"station_name":"Sudimara"},{"i_long":106.728916,"transit":false,"station_name":"Jurangmangu","station_id":"JMU","line":6,"distance":1994,"time":4,"is_transit":false,"i_lat":-6.288927},{"distance":2179,"station_name":"Pondokranji","i_long":106.74273,"line":6,"i_lat":-6.276362,"station_id":"PDJ","is_transit":false,"transit":false,"time":3},{"transit":false,"i_long":106.780334,"station_id":"KBY","time":8,"i_lat":-6.237242,"line":6,"station_name":"Kebayoran","distance":6218,"is_transit":false},{"time":7,"station_id":"PLM","station_name":"Palmerah","i_lat":-6.207404,"transit":false,"distance":3737,"is_transit":false,"i_long":106.79689,"line":6},{"time":6,"transit":true,"line":1,"distance":3191,"i_lat":-6.185545,"station_id":"THB","i_long":106.811091,"is_transit":true,"station_name":"Tanah Abang"},{"station_name":"Duri","i_lat":-6.155215,"transit":true,"station_id":"DU","is_transit":true,"distance":3632,"i_long":106.800832,"line":1,"time":8},{"station_id":"AK","line":0,"transit":false,"time":4,"i_lat":-6.144674,"i_long":106.79867,"distance":1230,"station_name":"Angke","is_transit":false},{"is_transit":true,"station_name":"Kampung Bandan","distance":4102,"transit":true,"line":0,"i_lat":-6.132549,"time":9,"station_id":"KPB","i_long":106.826365},{"is_transit":false,"i_long":106.836569,"distance":1444,"i_lat":-6.14505,"line":11,"time":3,"transit":false,"station_id":"RJW","station_name":"Rajawali"},{"station_id":"KMO","line":11,"transit":false,"i_lat":-6.161728,"is_transit":false,"distance":1901,"time":5,"station_name":"Kemayoran","i_long":106.839204},{"i_lat":-6.174784,"i_long":106.84368,"is_transit":false,"line":11,"time":4,"transit":false,"distance":1436,"station_id":"PSE","station_name":"Pasar Senen"},{"station_name":"Gang Sentiong","is_transit":false,"i_lat":-6.185975,"time":8,"line":11,"distance":1567,"transit":false,"station_id":"GST","i_long":106.850107},{"station_id":"KMT","i_lat":-6.193792,"transit":false,"i_long":106.855437,"distance":973,"time":1,"station_name":"Kramat","line":11,"is_transit":false},{"i_long":106.861737,"station_id":"POK","line":11,"time":2,"transit":false,"station_name":"Pondok Jati","is_transit":false,"i_lat":-6.209188,"distance":1829},{"is_transit":true,"i_long":106.86807400000001,"transit":true,"distance":1236,"station_id":"JNG","line":0,"station_name":"Jatinegara","i_lat":-6.215091,"time":9},{"time":2,"station_name":"Matraman","line":1,"i_lat":-6.212485,"station_id":"MTR","transit":false,"is_transit":false,"distance":1377,"i_long":106.858896},{"line":0,"station_id":"MRI","transit":true,"i_lat":-6.209883,"time":2,"station_name":"Manggarai","i_long":106.84912,"distance":1275,"is_transit":true},{"station_id":"TEB","station_name":"Tebet","i_long":106.857948,"is_transit":false,"i_lat":-6.226659,"line":2,"distance":2610,"time":4,"transit":false},{"transit":false,"i_long":106.856607,"is_transit":false,"distance":1230,"line":0,"time":2,"i_lat":-6.242512,"station_name":"Cawang","station_id":"CW"},{"station_id":"DRN","i_long":106.85449,"station_name":"Duren Kalibata","distance":1546,"line":0,"transit":false,"i_lat":-6.255332,"is_transit":false,"time":3},{"i_long":106.851577,"is_transit":false,"i_lat":-6.263214,"distance":824,"transit":false,"station_id":"PSMB","time":2,"station_name":"Pasar Minggu Baru","line":2},{"i_long":106.843999,"is_transit":false,"station_name":"Pasar Minggu","transit":false,"station_id":"PSM","i_lat":-6.2842400000000005,"time":2,"distance":2380,"line":2}]]}