{"data":[[{"station_name":"Cikoya","line":0,"time":0,"i_lat":-6.33561,"distance":0,"station_id":"CKY","is_transit":false,"i_long":106.411216,"transit":false},{"line":6,"station_name":"Tigaraksa","time":3,"is_transit":false,"station_id":"TGS","i_lat":-6.328533,"distance":2651,"transit":false,"i_long":106.425991},{"time":5,"is_transit":false,"i_lat":-6.327251,"distance":2974,"station_id":"TEJ","transit":false,"i_long":106.460812,"station_name":"Tenjo","line":6},{"is_transit":false,"time":5,"station_id":"DAR","station_name":"Daru","distance":3902,"i_lat":-6.338021,"i_long":106.491338,"transit":false,"line":0},{"time":6,"station_name":"Cilejit","distance":2675,"transit":false,"i_long":106.508482,"i_lat":-6.354349,"line":0,"station_id":"CJT","is_transit":false},{"is_transit":false,"line":6,"station_id":"PRP","station_name":"Parung Panjang","distance":7025,"i_lat":-6.3441410000000005,"i_long":106.568863,"time":9,"transit":false},{"is_transit":false,"i_lat":-6.329547,"i_long":106.617853,"station_name":"Cicayur","distance":5968,"station_id":"CC","line":0,"transit":false,"time":8},{"transit":false,"i_lat":-6.32484,"line":0,"i_long":106.640411,"is_transit":false,"station_name":"Cisauk","time":4,"distance":2519,"station_id":"CSK"},{"station_id":"SRP","transit":false,"distance":1784,"time":4,"is_transit":false,"station_name":"Serpong","i_lat":-6.319871,"i_long":106.66566,"line":6},{"station_name":"Rawa Buntu","is_transit":false,"transit":false,"i_lat":-6.314823,"time":4,"line":6,"station_id":"RU","i_long":106.675475,"distance":2413},{"distance":4566,"line":6,"station_name":"Sudimara","time":6,"is_transit":false,"station_id":"SDM","i_long":106.712277,"transit":false,"i_lat":-6.296963},{"line":6,"is_transit":false,"time":4,"i_lat":-6.288927,"station_id":"JMU","distance":1994,"i_long":106.728916,"station_name":"Jurangmangu","transit":false},{"station_id":"PDJ","line":6,"i_lat":-6.276362,"transit":false,"distance":2179,"i_long":106.74273,"station_name":"Pondokranji","is_transit":false,"time":3},{"distance":6218,"is_transit":false,"i_lat":-6.237242,"time":8,"station_id":"KBY","i_long":106.780334,"transit":false,"station_name":"Kebayoran","line":6},{"i_lat":-6.207404,"station_name":"Palmerah","time":7,"is_transit":false,"i_long":106.79689,"station_id":"PLM","line":6,"distance":3737,"transit":false},{"station_id":"THB","is_transit":true,"i_lat":-6.185545,"transit":true,"distance":3191,"station_name":"Tanah Abang","time":6,"i_long":106.811091,"line":1},{"time":8,"distance":3632,"station_id":"DU","i_long":106.800832,"is_transit":true,"i_lat":-6.155215,"transit":true,"line":1,"station_name":"Duri"},{"i_lat":-6.144674,"transit":false,"i_long":106.79867,"time":4,"distance":1230,"station_id":"AK","station_name":"Angke","is_transit":false,"line":0},{"transit":true,"distance":4102,"is_transit":true,"time":9,"station_name":"Kampung Bandan","i_lat":-6.132549,"station_id":"KPB","i_long":106.826365,"line":0},{"line":11,"station_id":"RJW","is_transit":false,"station_name":"Rajawali","time":3,"transit":false,"distance":1444,"i_long":106.836569,"i_lat":-6.14505},{"transit":false,"i_lat":-6.161728,"distance":1901,"station_id":"KMO","is_transit":false,"i_long":106.839204,"line":11,"station_name":"Kemayoran","time":5}],[{"station_id":"CKY","station_name":"Cikoya","time":0,"i_long":106.411216,"is_transit":false,"line":0,"transit":false,"distance":0,"i_lat":-6.33561},{"distance":2651,"station_id":"TGS","station_name":"Tigaraksa","transit":false,"line":6,"i_lat":-6.328533,"i_long":106.425991,"is_transit":false,"time":3},{"is_transit":false,"station_name":"Tenjo","transit":false,"time":5,"station_id":"TEJ","i_long":106.460812,"i_lat":-6.327251,"distance":2974,"line":6},{"i_lat":-6.338021,"i_long":106.491338,"line":0,"station_name":"Daru","transit":false,"time":5,"station_id":"DAR","is_transit":false,"distance":3902},{"time":6,"line":0,"is_transit":false,"station_id":"CJT","i_lat":-6.354349,"i_long":106.508482,"distance":2675,"station_name":"Cilejit","transit":false},{"station_id":"PRP","time":9,"is_transit":false,"i_lat":-6.3441410000000005,"i_long":106.568863,"station_name":"Parung Panjang","distance":7025,"transit":false,"line":6},{"line":0,"station_name":"Cicayur","distance":5968,"transit":false,"is_transit":false,"i_long":106.617853,"i_lat":-6.329547,"time":8,"station_id":"CC"},{"is_transit":false,"transit":false,"time":4,"station_name":"Cisauk","station_id":"CSK","line":0,"distance":2519,"i_long":106.640411,"i_lat":-6.32484},{"station_name":"Serpong","transit":false,"is_transit":false,"station_id":"SRP","i_lat":-6.319871,"time":4,"distance":1784,"i_long":106.66566,"line":6},{"line":6,"station_name":"Rawa Buntu","transit":false,"distance":2413,"i_long":106.675475,"time":4,"is_transit":false,"i_lat":-6.314823,"station_id":"RU"},{"time":6,"distance":4566,"is_transit":false,"station_id":"SDM","i_long":106.712277,"i_lat":-6.296963,"transit":false,"station_name":"Sudimara","line":6},{"i_lat":-6.288927,"is_transit":false,"transit":false,"station_name":"Jurangmangu","distance":1994,"time":4,"i_long":106.728916,"station_id":"JMU","line":6},{"station_id":"PDJ","distance":2179,"time":3,"i_long":106.74273,"transit":false,"i_lat":-6.276362,"line":6,"is_transit":false,"station_name":"Pondokranji"},{"is_transit":false,"line":6,"station_name":"Kebayoran","distance":6218,"station_id":"KBY","time":8,"i_lat":-6.237242,"i_long":106.780334,"transit":false},{"line":6,"station_name":"Palmerah","station_id":"PLM","transit":false,"distance":3737,"is_transit":false,"i_long":106.79689,"i_lat":-6.207404,"time":7},{"station_name":"Tanah Abang","time":6,"is_transit":true,"station_id":"THB","i_lat":-6.185545,"i_long":106.811091,"transit":true,"line":1,"distance":3191},{"line":1,"time":5,"transit":false,"station_id":"KAT","i_long":106.816351,"i_lat":-6.20132,"station_name":"Karet","distance":2029,"is_transit":false},{"i_long":106.819881,"i_lat":-6.201433,"station_name":"Sudirman Baru","time":1,"is_transit":false,"station_id":"SUDB","transit":false,"distance":471,"line":1},{"station_name":"Sudirman","time":1,"i_long":106.822649,"distance":280,"transit":false,"station_id":"SUD","i_lat":-6.202263,"is_transit":false,"line":1},{"transit":false,"line":0,"i_lat":-6.209883,"station_name":"Manggarai","distance":3186,"is_transit":true,"i_long":106.84912,"time":4,"station_id":"MRI"},{"i_long":106.858896,"line":1,"time":2,"distance":1275,"i_lat":-6.212485,"is_transit":false,"station_name":"Matraman","station_id":"MTR","transit":false},{"i_long":106.86807400000001,"distance":1377,"time":8,"is_transit":true,"station_name":"Jatinegara","i_lat":-6.215091,"line":0,"transit":true,"station_id":"JNG"},{"is_transit":false,"i_long":106.861737,"station_name":"Pondok Jati","line":11,"station_id":"POK","time":2,"distance":1236,"transit":false,"i_lat":-6.209188},{"distance":1829,"time":2,"is_transit":false,"station_name":"Kramat","station_id":"KMT","transit":false,"i_lat":-6.193792,"line":11,"i_long":106.855437},{"station_id":"GST","i_lat":-6.185975,"i_long":106.850107,"time":1,"distance":973,"is_transit":false,"station_name":"Gang Sentiong","transit":false,"line":11},{"distance":1567,"i_lat":-6.174784,"time":8,"is_transit":false,"transit":false,"i_long":106.84368,"line":11,"station_name":"Pasar Senen","station_id":"PSE"},{"distance":1436,"time":4,"i_lat":-6.161728,"is_transit":false,"line":11,"transit":false,"station_id":"KMO","i_long":106.839204,"station_name":"Kemayoran"}],[{"i_lat":-6.33561,"i_long":106.411216,"time":0,"station_name":"Cikoya","line":0,"distance":0,"is_transit":false,"station_id":"CKY","transit":false},{"is_transit":false,"station_name":"Tigaraksa","transit":false,"i_lat":-6.328533,"time":3,"distance":2651,"station_id":"TGS","line":6,"i_long":106.425991},{"is_transit":false,"i_long":106.460812,"station_id":"TEJ","transit":false,"line":6,"i_lat":-6.327251,"distance":2974,"station_name":"Tenjo","time":5},{"station_name":"Daru","distance":3902,"is_transit":false,"i_lat":-6.338021,"station_id":"DAR","i_long":106.491338,"time":5,"line":0,"transit":false},{"is_transit":false,"station_id":"CJT","distance":2675,"i_long":106.508482,"time":6,"line":0,"station_name":"Cilejit","transit":false,"i_lat":-6.354349},{"i_long":106.568863,"i_lat":-6.3441410000000005,"line":6,"time":9,"station_name":"Parung Panjang","distance":7025,"station_id":"PRP","transit":false,"is_transit":false},{"station_name":"Cicayur","time":8,"transit":false,"line":0,"i_lat":-6.329547,"distance":5968,"is_transit":false,"station_id":"CC","i_long":106.617853},{"line":0,"i_lat":-6.32484,"station_id":"CSK","is_transit":false,"time":4,"transit":false,"station_name":"Cisauk","i_long":106.640411,"distance":2519},{"time":4,"transit":false,"is_transit":false,"i_lat":-6.319871,"station_name":"Serpong","i_long":106.66566,"distance":1784,"line":6,"station_id":"SRP"},{"station_name":"Rawa Buntu","line":6,"is_transit":false,"station_id":"RU","transit":false,"i_lat":-6.314823,"time":4,"distance":2413,"i_long":106.675475},{"station_name":"Sudimara","time":6,"distance":4566,"is_transit":false,"station_id":"SDM","i_lat":-6.296963,"line":6,"transit":false,"i_long":106.712277},{"transit":false,"is_transit":false,"distance":1994,"i_lat":-6.288927,"station_name":"Jurangmangu","time":4,"line":6,"i_long":106.728916,"station_id":"JMU"},{"transit":false,"station_name":"Pondokranji","is_transit":false,"i_lat":-6.276362,"station_id":"PDJ","line":6,"distance":2179,"i_long":106.74273,"time":3},{"i_long":106.780334,"line":6,"distance":6218,"station_id":"KBY","is_transit":false,"i_lat":-6.237242,"station_name":"Kebayoran","transit":false,"time":8},{"transit":false,"i_lat":-6.207404,"station_name":"Palmerah","distance":3737,"is_transit":false,"i_long":106.79689,"line":6,"time":7,"station_id":"PLM"},{"is_transit":true,"transit":true,"i_long":106.811091,"distance":3191,"station_name":"Tanah Abang","station_id":"THB","time":6,"line":1,"i_lat":-6.185545},{"station_name":"Karet","distance":2029,"is_transit":false,"line":1,"i_long":106.816351,"transit":false,"station_id":"KAT","time":5,"i_lat":-6.20132},{"i_lat":-6.201433,"time":1,"station_name":"Sudirman Baru","is_transit":false,"distance":471,"station_id":"SUDB","transit":false,"i_long":106.819881,"line":1},{"transit":false,"distance":280,"station_id":"SUD","i_long":106.822649,"i_lat":-6.202263,"station_name":"Sudirman","time":1,"is_transit":false,"line":1},{"i_long":106.84912,"line":0,"i_lat":-6.209883,"station_id":"MRI","distance":3186,"time":4,"is_transit":true,"station_name":"Manggarai","transit":true},{"transit":false,"station_name":"Cikini","time":4,"distance":1590,"i_lat":-6.198556,"line":0,"is_transit":false,"i_long":106.840169,"station_id":"CKI"},{"time":3,"distance":1750,"is_transit":false,"station_id":"GDD","line":2,"i_lat":-6.186295,"transit":false,"i_long":106.832183,"station_name":"Gondangdia"},{"transit":false,"time":4,"is_transit":false,"station_id":"JUA","station_name":"Juanda","distance":2015,"i_lat":-6.166716,"i_long":106.828284,"line":2},{"station_id":"SW","i_long":106.827103,"i_lat":-6.160725,"time":2,"line":2,"is_transit":false,"transit":false,"distance":1149,"station_name":"Sawah Besar"},{"station_id":"MGB","i_long":106.82482,"i_lat":-6.149769,"station_name":"Manggabesar","is_transit":false,"line":2,"transit":false,"time":2,"distance":906},{"i_long":106.820901,"i_lat":-6.141205,"station_name":"Jayakarta","distance":1080,"is_transit":false,"transit":false,"time":2,"line":7,"station_id":"JAY"},{"station_name":"Jakarta Kota","i_long":106.812439,"is_transit":true,"station_id":"JAKK","i_lat":-6.137569,"time":4,"line":0,"transit":true,"distance":1264},{"station_name":"Kampung Bandan","transit":true,"is_transit":true,"station_id":"KPB","i_lat":-6.132549,"time":3,"distance":1364,"line":0,"i_long":106.826365},{"time":3,"station_name":"Rajawali","i_lat":-6.14505,"line":11,"station_id":"RJW","i_long":106.836569,"distance":1444,"is_transit":false,"transit":false},{"time":5,"i_lat":-6.161728,"line":11,"transit":false,"is_transit":false,"station_id":"KMO","station_name":"Kemayoran","i_long":106.839204,"distance":1901}],[{"transit":false,"i_lat":-6.33561,"distance":0,"station_name":"Cikoya","time":0,"line":0,"station_id":"CKY","i_long":106.411216,"is_transit":false},{"is_transit":false,"transit":false,"station_name":"Tigaraksa","time":3,"i_lat":-6.328533,"i_long":106.425991,"station_id":"TGS","line":6,"distance":2651},{"distance":2974,"is_transit":false,"station_id":"TEJ","station_name":"Tenjo","transit":false,"i_long":106.460812,"line":6,"i_lat":-6.327251,"time":5},{"line":0,"station_name":"Daru","time":5,"is_transit":false,"station_id":"DAR","transit":false,"distance":3902,"i_lat":-6.338021,"i_long":106.491338},{"station_name":"Cilejit","time":6,"station_id":"CJT","line":0,"is_transit":false,"i_long":106.508482,"distance":2675,"i_lat":-6.354349,"transit":false},{"line":6,"station_id":"PRP","transit":false,"i_long":106.568863,"distance":7025,"station_name":"Parung Panjang","i_lat":-6.3441410000000005,"time":9,"is_transit":false},{"station_id":"CC","is_transit":false,"time":8,"line":0,"i_lat":-6.329547,"transit":false,"station_name":"Cicayur","distance":5968,"i_long":106.617853},{"i_long":106.640411,"time":4,"i_lat":-6.32484,"station_name":"Cisauk","distance":2519,"is_transit":false,"line":0,"transit":false,"station_id":"CSK"},{"station_name":"Serpong","distance":1784,"transit":false,"i_lat":-6.319871,"station_id":"SRP","i_long":106.66566,"time":4,"is_transit":false,"line":6},{"distance":2413,"is_transit":false,"i_long":106.675475,"station_name":"Rawa Buntu","transit":false,"station_id":"RU","line":6,"time":4,"i_lat":-6.314823},{"line":6,"i_lat":-6.296963,"is_transit":false,"station_name":"Sudimara","station_id":"SDM","distance":4566,"time":6,"transit":false,"i_long":106.712277},{"i_lat":-6.288927,"station_id":"JMU","line":6,"time":4,"distance":1994,"i_long":106.728916,"station_name":"Jurangmangu","is_transit":false,"transit":false},{"distance":2179,"is_transit":false,"transit":false,"station_name":"Pondokranji","line":6,"station_id":"PDJ","i_lat":-6.276362,"time":3,"i_long":106.74273},{"time":8,"station_name":"Kebayoran","line":6,"distance":6218,"transit":false,"is_transit":false,"station_id":"KBY","i_lat":-6.237242,"i_long":106.780334},{"line":6,"i_long":106.79689,"time":7,"station_id":"PLM","station_name":"Palmerah","transit":false,"is_transit":false,"i_lat":-6.207404,"distance":3737},{"distance":3191,"i_lat":-6.185545,"line":1,"time":6,"station_id":"THB","i_long":106.811091,"transit":true,"station_name":"Tanah Abang","is_transit":true},{"is_transit":true,"time":8,"station_id":"DU","station_name":"Duri","i_lat":-6.155215,"distance":3632,"transit":true,"i_long":106.800832,"line":1},{"station_id":"AK","i_lat":-6.144674,"time":4,"distance":1230,"transit":false,"i_long":106.79867,"station_name":"Angke","line":0,"is_transit":false},{"i_lat":-6.132549,"line":0,"station_name":"Kampung Bandan","time":9,"is_transit":true,"transit":false,"distance":4102,"station_id":"KPB","i_long":106.826365},{"distance":1364,"station_id":"JAKK","transit":true,"station_name":"Jakarta Kota","line":0,"time":3,"is_transit":true,"i_lat":-6.137569,"i_long":106.812439},{"line":7,"transit":false,"i_long":106.820901,"station_name":"Jayakarta","time":4,"distance":1264,"is_transit":false,"i_lat":-6.141205,"station_id":"JAY"},{"i_lat":-6.149769,"line":2,"station_id":"MGB","station_name":"Manggabesar","distance":1080,"i_long":106.82482,"transit":false,"time":2,"is_transit":false},{"transit":false,"line":2,"i_long":106.827103,"station_id":"SW","i_lat":-6.160725,"station_name":"Sawah Besar","time":2,"distance":906,"is_transit":false},{"station_id":"JUA","i_long":106.828284,"time":2,"transit":false,"line":2,"i_lat":-6.166716,"distance":1149,"station_name":"Juanda","is_transit":false},{"i_lat":-6.186295,"distance":2015,"is_transit":false,"transit":false,"station_id":"GDD","i_long":106.832183,"line":2,"station_name":"Gondangdia","time":4},{"distance":1750,"line":0,"station_name":"Cikini","i_lat":-6.198556,"station_id":"CKI","transit":false,"i_long":106.840169,"is_transit":false,"time":3},{"distance":1590,"line":0,"station_name":"Manggarai","time":4,"i_long":106.84912,"is_transit":true,"i_lat":-6.209883,"station_id":"MRI","transit":true},{"line":1,"time":2,"is_transit":false,"i_long":106.858896,"station_id":"MTR","distance":1275,"i_lat":-6.212485,"station_name":"Matraman","transit":false},{"distance":1377,"station_name":"Jatinegara","is_transit":true,"transit":true,"station_id":"JNG","i_lat":-6.215091,"i_long":106.86807400000001,"time":8,"line":0},{"station_name":"Pondok Jati","is_transit":false,"station_id":"POK","i_lat":-6.209188,"time":2,"transit":false,"i_long":106.861737,"line":11,"distance":1236},{"line":11,"distance":1829,"i_long":106.855437,"station_name":"Kramat","time":2,"station_id":"KMT","i_lat":-6.193792,"is_transit":false,"transit":false},{"time":1,"is_transit":false,"station_id":"GST","distance":973,"station_name":"Gang Sentiong","i_long":106.850107,"line":11,"transit":false,"i_lat":-6.185975},{"time":8,"distance":1567,"i_lat":-6.174784,"line":11,"station_name":"Pasar Senen","i_long":106.84368,"is_transit":false,"station_id":"PSE","transit":false},{"i_long":106.839204,"line":11,"time":4,"station_id":"KMO","transit":false,"distance":1436,"i_lat":-6.161728,"station_name":"Kemayoran","is_transit":false}]]}