{"data":[[{"i_lat":-6.33561,"station_name":"Cikoya","i_long":106.411216,"is_transit":false,"distance":0,"transit":false,"time":0,"station_id":"CKY","line":3},{"distance":2651,"transit":false,"station_id":"TGS","i_lat":-6.328533,"i_long":106.425991,"line":6,"time":3,"station_name":"Tigaraksa","is_transit":false},{"is_transit":false,"i_lat":-6.327251,"line":6,"distance":2974,"transit":false,"station_name":"Tenjo","time":5,"i_long":106.460812,"station_id":"TEJ"},{"i_lat":-6.338021,"time":5,"station_name":"Daru","distance":3902,"transit":false,"is_transit":false,"station_id":"DAR","line":0,"i_long":106.491338},{"station_id":"CJT","time":6,"line":3,"is_transit":false,"station_name":"Cilejit","transit":false,"i_lat":-6.354349,"distance":2675,"i_long":106.508482},{"line":6,"station_id":"PRP","distance":7025,"i_long":106.568863,"transit":false,"is_transit":false,"i_lat":-6.3441410000000005,"time":9,"station_name":"Parung Panjang"},{"i_lat":-6.329547,"line":3,"time":8,"distance":5968,"station_name":"Cicayur","station_id":"CC","transit":false,"i_long":106.617853,"is_transit":false},{"transit":false,"time":4,"line":3,"is_transit":false,"i_lat":-6.32484,"station_id":"CSK","i_long":106.640411,"station_name":"Cisauk","distance":2519},{"is_transit":false,"i_lat":-6.319871,"distance":1784,"station_name":"Serpong","line":6,"time":4,"transit":false,"station_id":"SRP","i_long":106.66566},{"transit":false,"i_long":106.675475,"line":6,"distance":2413,"station_id":"RU","station_name":"Rawa Buntu","i_lat":-6.314823,"is_transit":false,"time":4},{"i_lat":-6.296963,"is_transit":false,"distance":4566,"time":6,"station_id":"SDM","i_long":106.712277,"line":6,"station_name":"Sudimara","transit":false},{"time":4,"is_transit":false,"transit":false,"station_name":"Jurangmangu","i_lat":-6.288927,"i_long":106.728916,"station_id":"JMU","line":6,"distance":1994},{"station_name":"Pondokranji","line":6,"distance":2179,"station_id":"PDJ","is_transit":false,"i_lat":-6.276362,"time":3,"i_long":106.74273,"transit":false},{"station_name":"Kebayoran","is_transit":false,"time":8,"station_id":"KBY","i_lat":-6.237242,"line":6,"i_long":106.780334,"transit":false,"distance":6218},{"station_id":"PLM","i_long":106.79689,"i_lat":-6.207404,"line":6,"station_name":"Palmerah","distance":3737,"time":7,"transit":false,"is_transit":false},{"line":1,"station_name":"Tanah Abang","time":6,"station_id":"THB","is_transit":true,"i_lat":-6.185545,"distance":3191,"transit":true,"i_long":106.811091},{"line":1,"is_transit":false,"time":5,"distance":2029,"station_id":"KAT","transit":false,"i_lat":-6.20132,"station_name":"Karet","i_long":106.816351},{"line":1,"transit":false,"station_name":"Sudirman Baru","i_long":106.819881,"station_id":"SUDB","i_lat":-6.201433,"time":1,"distance":471,"is_transit":false},{"line":1,"transit":false,"station_name":"Sudirman","is_transit":false,"time":1,"i_lat":-6.202263,"station_id":"SUD","distance":280,"i_long":106.822649},{"time":4,"distance":3186,"station_id":"MRI","line":2,"is_transit":true,"station_name":"Manggarai","i_long":106.84912,"transit":true,"i_lat":-6.209883},{"is_transit":false,"distance":1590,"time":4,"station_id":"CKI","line":2,"station_name":"Cikini","i_lat":-6.198556,"transit":false,"i_long":106.840169},{"distance":1750,"i_long":106.832183,"transit":false,"station_name":"Gondangdia","i_lat":-6.186295,"line":2,"is_transit":false,"time":3,"station_id":"GDD"},{"i_long":106.828284,"station_name":"Juanda","distance":2015,"i_lat":-6.166716,"station_id":"JUA","line":2,"is_transit":false,"transit":false,"time":4}],[{"distance":0,"i_lat":-6.33561,"is_transit":false,"station_name":"Cikoya","i_long":106.411216,"time":0,"line":3,"transit":false,"station_id":"CKY"},{"station_name":"Tigaraksa","i_long":106.425991,"i_lat":-6.328533,"line":6,"station_id":"TGS","transit":false,"is_transit":false,"time":3,"distance":2651},{"transit":false,"is_transit":false,"time":5,"distance":2974,"line":6,"station_name":"Tenjo","station_id":"TEJ","i_lat":-6.327251,"i_long":106.460812},{"i_lat":-6.338021,"transit":false,"station_name":"Daru","station_id":"DAR","distance":3902,"is_transit":false,"line":0,"time":5,"i_long":106.491338},{"distance":2675,"is_transit":false,"i_lat":-6.354349,"line":3,"station_name":"Cilejit","transit":false,"i_long":106.508482,"station_id":"CJT","time":6},{"time":9,"i_long":106.568863,"station_id":"PRP","line":6,"transit":false,"distance":7025,"is_transit":false,"i_lat":-6.3441410000000005,"station_name":"Parung Panjang"},{"distance":5968,"i_long":106.617853,"transit":false,"station_id":"CC","i_lat":-6.329547,"is_transit":false,"station_name":"Cicayur","time":8,"line":3},{"station_name":"Cisauk","station_id":"CSK","transit":false,"time":4,"line":3,"distance":2519,"is_transit":false,"i_lat":-6.32484,"i_long":106.640411},{"i_long":106.66566,"distance":1784,"transit":false,"time":4,"line":6,"i_lat":-6.319871,"is_transit":false,"station_name":"Serpong","station_id":"SRP"},{"i_long":106.675475,"distance":2413,"transit":false,"station_id":"RU","i_lat":-6.314823,"station_name":"Rawa Buntu","line":6,"is_transit":false,"time":4},{"time":6,"is_transit":false,"i_long":106.712277,"line":6,"transit":false,"station_id":"SDM","i_lat":-6.296963,"station_name":"Sudimara","distance":4566},{"i_lat":-6.288927,"station_id":"JMU","is_transit":false,"line":6,"i_long":106.728916,"distance":1994,"transit":false,"station_name":"Jurangmangu","time":4},{"station_name":"Pondokranji","station_id":"PDJ","i_lat":-6.276362,"distance":2179,"is_transit":false,"time":3,"line":6,"i_long":106.74273,"transit":false},{"i_long":106.780334,"station_id":"KBY","time":8,"transit":false,"station_name":"Kebayoran","is_transit":false,"distance":6218,"i_lat":-6.237242,"line":6},{"distance":3737,"is_transit":false,"station_name":"Palmerah","i_long":106.79689,"transit":false,"time":7,"i_lat":-6.207404,"station_id":"PLM","line":6},{"transit":true,"station_name":"Tanah Abang","station_id":"THB","i_lat":-6.185545,"is_transit":true,"time":6,"distance":3191,"line":1,"i_long":106.811091},{"distance":3632,"is_transit":false,"line":1,"transit":false,"station_name":"Duri","time":8,"station_id":"DU","i_long":106.800832,"i_lat":-6.155215},{"station_name":"Angke","i_long":106.79867,"i_lat":-6.144674,"line":1,"distance":1230,"station_id":"AK","transit":false,"is_transit":false,"time":4},{"i_lat":-6.132549,"is_transit":true,"i_long":106.826365,"transit":true,"station_name":"Kampung Bandan","time":9,"distance":4102,"line":4,"station_id":"KPB"},{"station_name":"Jakarta Kota","line":2,"i_lat":-6.137569,"is_transit":true,"i_long":106.812439,"transit":true,"distance":1364,"station_id":"JAKK","time":3},{"time":4,"i_lat":-6.141205,"line":2,"distance":1264,"station_name":"Jayakarta","is_transit":false,"station_id":"JAY","i_long":106.820901,"transit":false},{"station_name":"Manggabesar","transit":false,"time":2,"line":2,"i_lat":-6.149769,"station_id":"MGB","i_long":106.82482,"is_transit":false,"distance":1080},{"station_id":"SW","is_transit":false,"i_lat":-6.160725,"station_name":"Sawah Besar","i_long":106.827103,"transit":false,"line":2,"distance":906,"time":2},{"station_name":"Juanda","is_transit":false,"time":2,"transit":false,"station_id":"JUA","i_long":106.828284,"distance":1149,"line":2,"i_lat":-6.166716}],[{"time":0,"transit":false,"is_transit":false,"i_lat":-6.33561,"i_long":106.411216,"line":3,"station_name":"Cikoya","distance":0,"station_id":"CKY"},{"i_long":106.425991,"distance":2651,"is_transit":false,"station_id":"TGS","line":6,"transit":false,"time":3,"i_lat":-6.328533,"station_name":"Tigaraksa"},{"line":6,"i_lat":-6.327251,"is_transit":false,"i_long":106.460812,"station_name":"Tenjo","distance":2974,"transit":false,"time":5,"station_id":"TEJ"},{"transit":false,"distance":3902,"station_name":"Daru","time":5,"i_lat":-6.338021,"is_transit":false,"station_id":"DAR","i_long":106.491338,"line":0},{"is_transit":false,"transit":false,"i_long":106.508482,"line":3,"station_id":"CJT","distance":2675,"station_name":"Cilejit","time":6,"i_lat":-6.354349},{"distance":7025,"station_id":"PRP","time":9,"i_lat":-6.3441410000000005,"line":6,"transit":false,"i_long":106.568863,"is_transit":false,"station_name":"Parung Panjang"},{"i_lat":-6.329547,"distance":5968,"transit":false,"is_transit":false,"station_name":"Cicayur","line":3,"i_long":106.617853,"time":8,"station_id":"CC"},{"station_id":"CSK","line":3,"i_lat":-6.32484,"distance":2519,"station_name":"Cisauk","i_long":106.640411,"is_transit":false,"transit":false,"time":4},{"i_long":106.66566,"station_id":"SRP","station_name":"Serpong","time":4,"transit":false,"i_lat":-6.319871,"is_transit":false,"line":6,"distance":1784},{"transit":false,"station_name":"Rawa Buntu","is_transit":false,"station_id":"RU","line":6,"time":4,"i_lat":-6.314823,"distance":2413,"i_long":106.675475},{"line":6,"transit":false,"i_long":106.712277,"time":6,"distance":4566,"station_name":"Sudimara","is_transit":false,"station_id":"SDM","i_lat":-6.296963},{"transit":false,"time":4,"distance":1994,"line":6,"station_name":"Jurangmangu","i_long":106.728916,"station_id":"JMU","is_transit":false,"i_lat":-6.288927},{"distance":2179,"time":3,"is_transit":false,"line":6,"station_id":"PDJ","station_name":"Pondokranji","i_lat":-6.276362,"i_long":106.74273,"transit":false},{"line":6,"distance":6218,"i_long":106.780334,"station_name":"Kebayoran","i_lat":-6.237242,"is_transit":false,"transit":false,"time":8,"station_id":"KBY"},{"station_name":"Palmerah","station_id":"PLM","is_transit":false,"distance":3737,"transit":false,"i_long":106.79689,"i_lat":-6.207404,"time":7,"line":6},{"i_long":106.811091,"time":6,"transit":true,"station_name":"Tanah Abang","i_lat":-6.185545,"station_id":"THB","distance":3191,"is_transit":true,"line":1},{"transit":false,"line":1,"station_name":"Duri","station_id":"DU","distance":3632,"time":8,"i_lat":-6.155215,"i_long":106.800832,"is_transit":false},{"station_id":"AK","transit":false,"time":4,"is_transit":false,"i_long":106.79867,"station_name":"Angke","line":1,"i_lat":-6.144674,"distance":1230},{"distance":4102,"is_transit":true,"i_lat":-6.132549,"time":9,"station_name":"Kampung Bandan","transit":true,"station_id":"KPB","i_long":106.826365,"line":4},{"time":3,"station_name":"Rajawali","i_lat":-6.14505,"distance":1444,"station_id":"RJW","i_long":106.836569,"is_transit":false,"line":11,"transit":false},{"transit":false,"station_id":"KMO","i_lat":-6.161728,"is_transit":false,"i_long":106.839204,"station_name":"Kemayoran","line":11,"time":5,"distance":1901},{"time":4,"distance":1436,"line":11,"is_transit":false,"station_name":"Pasar Senen","transit":false,"station_id":"PSE","i_lat":-6.174784,"i_long":106.84368},{"line":11,"station_id":"GST","time":8,"i_long":106.850107,"i_lat":-6.185975,"station_name":"Gang Sentiong","transit":false,"distance":1567,"is_transit":false},{"transit":false,"i_lat":-6.193792,"is_transit":false,"line":11,"time":1,"i_long":106.855437,"station_name":"Kramat","distance":973,"station_id":"KMT"},{"station_id":"POK","transit":false,"distance":1829,"is_transit":false,"i_long":106.861737,"line":11,"station_name":"Pondok Jati","i_lat":-6.209188,"time":2},{"is_transit":true,"time":9,"i_long":106.86807400000001,"station_name":"Jatinegara","distance":1236,"station_id":"JNG","line":1,"transit":true,"i_lat":-6.215091},{"i_lat":-6.212485,"i_long":106.858896,"distance":1377,"transit":false,"is_transit":false,"station_name":"Matraman","time":2,"station_id":"MTR","line":1},{"distance":1275,"station_id":"MRI","i_lat":-6.209883,"is_transit":true,"transit":true,"time":2,"i_long":106.84912,"station_name":"Manggarai","line":2},{"distance":1590,"time":4,"i_long":106.840169,"transit":false,"station_id":"CKI","line":2,"station_name":"Cikini","i_lat":-6.198556,"is_transit":false},{"transit":false,"is_transit":false,"i_long":106.832183,"distance":1750,"time":3,"station_id":"GDD","i_lat":-6.186295,"line":2,"station_name":"Gondangdia"},{"time":4,"transit":false,"station_id":"JUA","station_name":"Juanda","line":2,"distance":2015,"is_transit":false,"i_lat":-6.166716,"i_long":106.828284}],[{"distance":0,"time":0,"station_name":"Cikoya","is_transit":false,"i_lat":-6.33561,"transit":false,"station_id":"CKY","i_long":106.411216,"line":3},{"station_name":"Tigaraksa","station_id":"TGS","i_lat":-6.328533,"line":6,"is_transit":false,"i_long":106.425991,"distance":2651,"time":3,"transit":false},{"station_id":"TEJ","distance":2974,"line":6,"is_transit":false,"i_long":106.460812,"time":5,"i_lat":-6.327251,"station_name":"Tenjo","transit":false},{"time":5,"distance":3902,"is_transit":false,"station_name":"Daru","i_long":106.491338,"i_lat":-6.338021,"station_id":"DAR","transit":false,"line":0},{"transit":false,"i_long":106.508482,"time":6,"distance":2675,"i_lat":-6.354349,"station_name":"Cilejit","is_transit":false,"line":3,"station_id":"CJT"},{"transit":false,"is_transit":false,"i_lat":-6.3441410000000005,"i_long":106.568863,"distance":7025,"time":9,"line":6,"station_id":"PRP","station_name":"Parung Panjang"},{"i_lat":-6.329547,"i_long":106.617853,"line":3,"station_name":"Cicayur","station_id":"CC","distance":5968,"transit":false,"is_transit":false,"time":8},{"is_transit":false,"time":4,"i_lat":-6.32484,"i_long":106.640411,"transit":false,"station_id":"CSK","line":3,"distance":2519,"station_name":"Cisauk"},{"i_long":106.66566,"transit":false,"distance":1784,"time":4,"is_transit":false,"i_lat":-6.319871,"station_id":"SRP","line":6,"station_name":"Serpong"},{"line":6,"distance":2413,"transit":false,"is_transit":false,"i_lat":-6.314823,"station_name":"Rawa Buntu","time":4,"i_long":106.675475,"station_id":"RU"},{"station_id":"SDM","i_lat":-6.296963,"line":6,"station_name":"Sudimara","is_transit":false,"time":6,"i_long":106.712277,"distance":4566,"transit":false},{"station_name":"Jurangmangu","time":4,"i_long":106.728916,"distance":1994,"station_id":"JMU","is_transit":false,"i_lat":-6.288927,"transit":false,"line":6},{"i_lat":-6.276362,"is_transit":false,"transit":false,"distance":2179,"station_name":"Pondokranji","station_id":"PDJ","i_long":106.74273,"line":6,"time":3},{"station_id":"KBY","is_transit":false,"line":6,"distance":6218,"transit":false,"station_name":"Kebayoran","i_long":106.780334,"i_lat":-6.237242,"time":8},{"transit":false,"i_lat":-6.207404,"time":7,"is_transit":false,"station_name":"Palmerah","i_long":106.79689,"station_id":"PLM","distance":3737,"line":6},{"is_transit":true,"station_id":"THB","line":1,"distance":3191,"time":6,"station_name":"Tanah Abang","i_long":106.811091,"transit":true,"i_lat":-6.185545},{"i_lat":-6.20132,"i_long":106.816351,"line":1,"is_transit":false,"transit":false,"station_name":"Karet","time":5,"distance":2029,"station_id":"KAT"},{"line":1,"time":1,"distance":471,"station_id":"SUDB","is_transit":false,"transit":false,"station_name":"Sudirman Baru","i_lat":-6.201433,"i_long":106.819881},{"i_lat":-6.202263,"time":1,"distance":280,"line":1,"station_id":"SUD","station_name":"Sudirman","transit":false,"is_transit":false,"i_long":106.822649},{"station_id":"MRI","i_lat":-6.209883,"transit":false,"is_transit":false,"time":4,"i_long":106.84912,"line":2,"distance":3186,"station_name":"Manggarai"},{"station_id":"MTR","distance":1275,"transit":false,"is_transit":false,"i_long":106.858896,"station_name":"Matraman","i_lat":-6.212485,"line":1,"time":2},{"distance":1377,"station_name":"Jatinegara","transit":true,"is_transit":true,"station_id":"JNG","i_long":106.86807400000001,"line":1,"i_lat":-6.215091,"time":8},{"station_name":"Pondok Jati","transit":false,"i_long":106.861737,"distance":1236,"i_lat":-6.209188,"time":2,"is_transit":false,"station_id":"POK","line":11},{"line":11,"transit":false,"is_transit":false,"distance":1829,"i_long":106.855437,"i_lat":-6.193792,"station_name":"Kramat","station_id":"KMT","time":2},{"i_long":106.850107,"station_id":"GST","i_lat":-6.185975,"distance":973,"station_name":"Gang Sentiong","is_transit":false,"transit":false,"time":1,"line":11},{"i_long":106.84368,"i_lat":-6.174784,"station_id":"PSE","is_transit":false,"line":11,"distance":1567,"station_name":"Pasar Senen","transit":false,"time":8},{"time":4,"transit":false,"station_id":"KMO","line":11,"station_name":"Kemayoran","i_lat":-6.161728,"i_long":106.839204,"distance":1436,"is_transit":false},{"i_lat":-6.14505,"station_id":"RJW","i_long":106.836569,"distance":1901,"station_name":"Rajawali","line":11,"is_transit":false,"time":5,"transit":false},{"i_long":106.826365,"transit":true,"line":4,"is_transit":true,"station_name":"Kampung Bandan","i_lat":-6.132549,"distance":1444,"station_id":"KPB","time":3},{"transit":true,"station_id":"JAKK","i_lat":-6.137569,"distance":1364,"i_long":106.812439,"time":3,"is_transit":true,"station_name":"Jakarta Kota","line":2},{"station_name":"Jayakarta","line":2,"transit":false,"is_transit":false,"station_id":"JAY","i_lat":-6.141205,"time":4,"distance":1264,"i_long":106.820901},{"is_transit":false,"time":2,"distance":1080,"line":2,"station_id":"MGB","station_name":"Manggabesar","transit":false,"i_lat":-6.149769,"i_long":106.82482},{"station_name":"Sawah Besar","distance":906,"i_lat":-6.160725,"station_id":"SW","transit":false,"is_transit":false,"i_long":106.827103,"line":2,"time":2},{"station_name":"Juanda","is_transit":false,"station_id":"JUA","transit":false,"i_long":106.828284,"time":2,"distance":1149,"i_lat":-6.166716,"line":2}]]}