{"data":[[{"station_id":"CKY","is_transit":false,"time":0,"transit":false,"i_lat":-6.33561,"line":3,"i_long":106.411216,"distance":0,"station_name":"Cikoya"},{"station_id":"TGS","transit":false,"i_long":106.425991,"i_lat":-6.328533,"is_transit":false,"time":3,"station_name":"Tigaraksa","line":6,"distance":2651},{"time":5,"station_id":"TEJ","distance":2974,"i_lat":-6.327251,"line":6,"i_long":106.460812,"is_transit":false,"transit":false,"station_name":"Tenjo"},{"i_lat":-6.338021,"transit":false,"time":5,"distance":3902,"station_id":"DAR","line":0,"is_transit":false,"i_long":106.491338,"station_name":"Daru"},{"station_id":"CJT","i_long":106.508482,"time":6,"transit":false,"station_name":"Cilejit","i_lat":-6.354349,"is_transit":false,"line":3,"distance":2675},{"distance":7025,"station_id":"PRP","i_lat":-6.3441410000000005,"line":6,"station_name":"Parung Panjang","time":9,"is_transit":false,"i_long":106.568863,"transit":false},{"time":8,"i_long":106.617853,"i_lat":-6.329547,"transit":false,"station_id":"CC","line":3,"station_name":"Cicayur","distance":5968,"is_transit":false},{"i_long":106.640411,"time":4,"transit":false,"station_name":"Cisauk","is_transit":false,"line":3,"station_id":"CSK","distance":2519,"i_lat":-6.32484},{"time":4,"distance":1784,"station_id":"SRP","transit":false,"is_transit":false,"i_long":106.66566,"line":6,"station_name":"Serpong","i_lat":-6.319871},{"station_name":"Rawa Buntu","is_transit":false,"i_long":106.675475,"line":6,"distance":2413,"i_lat":-6.314823,"station_id":"RU","time":4,"transit":false},{"i_lat":-6.296963,"distance":4566,"station_id":"SDM","station_name":"Sudimara","is_transit":false,"i_long":106.712277,"line":6,"time":6,"transit":false},{"transit":false,"i_lat":-6.288927,"line":6,"time":4,"is_transit":false,"i_long":106.728916,"station_name":"Jurangmangu","distance":1994,"station_id":"JMU"},{"i_lat":-6.276362,"i_long":106.74273,"station_id":"PDJ","distance":2179,"is_transit":false,"station_name":"Pondokranji","line":6,"transit":false,"time":3},{"time":8,"station_name":"Kebayoran","station_id":"KBY","i_long":106.780334,"transit":false,"distance":6218,"is_transit":false,"i_lat":-6.237242,"line":6},{"line":6,"i_lat":-6.207404,"is_transit":false,"i_long":106.79689,"transit":false,"time":7,"distance":3737,"station_id":"PLM","station_name":"Palmerah"},{"line":1,"transit":true,"is_transit":true,"time":6,"station_id":"THB","station_name":"Tanah Abang","distance":3191,"i_lat":-6.185545,"i_long":106.811091},{"station_id":"DU","station_name":"Duri","time":8,"line":1,"transit":false,"distance":3632,"is_transit":false,"i_lat":-6.155215,"i_long":106.800832},{"station_id":"AK","is_transit":false,"i_lat":-6.144674,"transit":false,"time":4,"line":1,"i_long":106.79867,"station_name":"Angke","distance":1230}],[{"station_id":"CKY","i_lat":-6.33561,"is_transit":false,"transit":false,"distance":0,"time":0,"line":3,"i_long":106.411216,"station_name":"Cikoya"},{"transit":false,"i_lat":-6.328533,"station_name":"Tigaraksa","time":3,"distance":2651,"station_id":"TGS","i_long":106.425991,"is_transit":false,"line":6},{"i_long":106.460812,"transit":false,"station_name":"Tenjo","distance":2974,"time":5,"station_id":"TEJ","is_transit":false,"i_lat":-6.327251,"line":6},{"distance":3902,"line":0,"i_lat":-6.338021,"station_id":"DAR","i_long":106.491338,"transit":false,"is_transit":false,"time":5,"station_name":"Daru"},{"i_long":106.508482,"distance":2675,"time":6,"transit":false,"station_id":"CJT","line":3,"is_transit":false,"i_lat":-6.354349,"station_name":"Cilejit"},{"is_transit":false,"station_id":"PRP","i_lat":-6.3441410000000005,"line":6,"station_name":"Parung Panjang","time":9,"i_long":106.568863,"distance":7025,"transit":false},{"station_id":"CC","distance":5968,"is_transit":false,"i_lat":-6.329547,"line":3,"station_name":"Cicayur","time":8,"i_long":106.617853,"transit":false},{"transit":false,"i_lat":-6.32484,"i_long":106.640411,"time":4,"station_name":"Cisauk","distance":2519,"station_id":"CSK","is_transit":false,"line":3},{"i_lat":-6.319871,"line":6,"is_transit":false,"i_long":106.66566,"station_name":"Serpong","transit":false,"time":4,"distance":1784,"station_id":"SRP"},{"i_lat":-6.314823,"time":4,"station_name":"Rawa Buntu","transit":false,"station_id":"RU","is_transit":false,"distance":2413,"line":6,"i_long":106.675475},{"station_id":"SDM","is_transit":false,"i_long":106.712277,"distance":4566,"line":6,"i_lat":-6.296963,"transit":false,"time":6,"station_name":"Sudimara"},{"i_lat":-6.288927,"transit":false,"station_name":"Jurangmangu","i_long":106.728916,"time":4,"line":6,"station_id":"JMU","is_transit":false,"distance":1994},{"distance":2179,"station_id":"PDJ","is_transit":false,"transit":false,"line":6,"time":3,"station_name":"Pondokranji","i_long":106.74273,"i_lat":-6.276362},{"transit":false,"station_name":"Kebayoran","i_long":106.780334,"is_transit":false,"distance":6218,"i_lat":-6.237242,"line":6,"time":8,"station_id":"KBY"},{"station_name":"Palmerah","time":7,"transit":false,"line":6,"station_id":"PLM","is_transit":false,"distance":3737,"i_lat":-6.207404,"i_long":106.79689},{"station_name":"Tanah Abang","is_transit":true,"station_id":"THB","line":1,"i_lat":-6.185545,"distance":3191,"transit":true,"i_long":106.811091,"time":6},{"line":1,"station_id":"KAT","is_transit":false,"transit":false,"distance":2029,"i_lat":-6.20132,"time":5,"i_long":106.816351,"station_name":"Karet"},{"transit":false,"line":1,"station_id":"SUDB","is_transit":false,"time":1,"i_long":106.819881,"i_lat":-6.201433,"station_name":"Sudirman Baru","distance":471},{"distance":280,"station_id":"SUD","line":1,"station_name":"Sudirman","transit":false,"is_transit":false,"i_long":106.822649,"i_lat":-6.202263,"time":1},{"station_id":"MRI","is_transit":true,"line":2,"transit":true,"station_name":"Manggarai","i_lat":-6.209883,"time":4,"distance":3186,"i_long":106.84912},{"station_id":"CKI","distance":1590,"i_long":106.840169,"station_name":"Cikini","is_transit":false,"transit":false,"time":4,"i_lat":-6.198556,"line":2},{"time":3,"station_name":"Gondangdia","station_id":"GDD","line":2,"i_long":106.832183,"transit":false,"distance":1750,"is_transit":false,"i_lat":-6.186295},{"station_name":"Juanda","line":2,"time":4,"is_transit":false,"transit":false,"i_lat":-6.166716,"distance":2015,"station_id":"JUA","i_long":106.828284},{"time":2,"i_lat":-6.160725,"distance":1149,"line":2,"is_transit":false,"station_name":"Sawah Besar","station_id":"SW","i_long":106.827103,"transit":false},{"i_lat":-6.149769,"time":2,"station_id":"MGB","transit":false,"distance":906,"station_name":"Manggabesar","i_long":106.82482,"line":2,"is_transit":false},{"time":2,"i_long":106.820901,"station_name":"Jayakarta","distance":1080,"is_transit":false,"i_lat":-6.141205,"transit":false,"station_id":"JAY","line":2},{"i_long":106.812439,"is_transit":true,"transit":true,"distance":1264,"i_lat":-6.137569,"line":2,"time":4,"station_name":"Jakarta Kota","station_id":"JAKK"},{"station_name":"Kampung Bandan","i_long":106.826365,"i_lat":-6.132549,"station_id":"KPB","distance":1364,"transit":true,"is_transit":true,"line":4,"time":3},{"line":1,"i_lat":-6.144674,"time":9,"is_transit":false,"station_id":"AK","distance":4102,"station_name":"Angke","i_long":106.79867,"transit":false}],[{"is_transit":false,"transit":false,"station_name":"Cikoya","i_long":106.411216,"line":3,"station_id":"CKY","i_lat":-6.33561,"distance":0,"time":0},{"line":6,"time":3,"is_transit":false,"transit":false,"station_name":"Tigaraksa","i_lat":-6.328533,"distance":2651,"station_id":"TGS","i_long":106.425991},{"station_name":"Tenjo","i_long":106.460812,"i_lat":-6.327251,"line":6,"time":5,"is_transit":false,"transit":false,"distance":2974,"station_id":"TEJ"},{"station_id":"DAR","time":5,"transit":false,"distance":3902,"line":0,"i_long":106.491338,"i_lat":-6.338021,"station_name":"Daru","is_transit":false},{"time":6,"i_lat":-6.354349,"transit":false,"is_transit":false,"station_name":"Cilejit","station_id":"CJT","i_long":106.508482,"line":3,"distance":2675},{"transit":false,"distance":7025,"i_long":106.568863,"i_lat":-6.3441410000000005,"line":6,"station_name":"Parung Panjang","station_id":"PRP","time":9,"is_transit":false},{"transit":false,"station_name":"Cicayur","time":8,"i_long":106.617853,"distance":5968,"is_transit":false,"line":3,"station_id":"CC","i_lat":-6.329547},{"station_id":"CSK","station_name":"Cisauk","i_long":106.640411,"line":3,"i_lat":-6.32484,"transit":false,"distance":2519,"is_transit":false,"time":4},{"station_name":"Serpong","line":6,"time":4,"station_id":"SRP","distance":1784,"is_transit":false,"i_lat":-6.319871,"i_long":106.66566,"transit":false},{"is_transit":false,"i_lat":-6.314823,"line":6,"i_long":106.675475,"transit":false,"time":4,"distance":2413,"station_id":"RU","station_name":"Rawa Buntu"},{"station_name":"Sudimara","transit":false,"distance":4566,"time":6,"station_id":"SDM","is_transit":false,"i_long":106.712277,"line":6,"i_lat":-6.296963},{"distance":1994,"line":6,"time":4,"transit":false,"is_transit":false,"station_name":"Jurangmangu","i_lat":-6.288927,"i_long":106.728916,"station_id":"JMU"},{"is_transit":false,"i_long":106.74273,"time":3,"line":6,"transit":false,"station_name":"Pondokranji","station_id":"PDJ","distance":2179,"i_lat":-6.276362},{"i_long":106.780334,"station_name":"Kebayoran","line":6,"distance":6218,"transit":false,"station_id":"KBY","is_transit":false,"i_lat":-6.237242,"time":8},{"station_name":"Palmerah","is_transit":false,"i_lat":-6.207404,"line":6,"transit":false,"station_id":"PLM","time":7,"i_long":106.79689,"distance":3737},{"i_lat":-6.185545,"i_long":106.811091,"station_name":"Tanah Abang","line":1,"transit":true,"is_transit":true,"station_id":"THB","time":6,"distance":3191},{"line":1,"i_long":106.816351,"i_lat":-6.20132,"distance":2029,"station_id":"KAT","transit":false,"station_name":"Karet","time":5,"is_transit":false},{"station_name":"Sudirman Baru","i_long":106.819881,"line":1,"station_id":"SUDB","distance":471,"i_lat":-6.201433,"is_transit":false,"time":1,"transit":false},{"i_long":106.822649,"station_name":"Sudirman","line":1,"is_transit":false,"distance":280,"time":1,"i_lat":-6.202263,"station_id":"SUD","transit":false},{"distance":3186,"i_lat":-6.209883,"transit":false,"time":4,"station_id":"MRI","is_transit":false,"i_long":106.84912,"station_name":"Manggarai","line":2},{"transit":false,"station_id":"MTR","station_name":"Matraman","line":1,"time":2,"i_long":106.858896,"is_transit":false,"distance":1275,"i_lat":-6.212485},{"station_name":"Jatinegara","distance":1377,"is_transit":true,"i_long":106.86807400000001,"time":8,"line":1,"transit":true,"i_lat":-6.215091,"station_id":"JNG"},{"transit":false,"distance":1236,"station_id":"POK","is_transit":false,"station_name":"Pondok Jati","i_long":106.861737,"time":2,"i_lat":-6.209188,"line":11},{"distance":1829,"transit":false,"station_name":"Kramat","time":2,"station_id":"KMT","is_transit":false,"line":11,"i_lat":-6.193792,"i_long":106.855437},{"distance":973,"line":11,"time":1,"transit":false,"station_name":"Gang Sentiong","station_id":"GST","i_lat":-6.185975,"i_long":106.850107,"is_transit":false},{"i_long":106.84368,"station_id":"PSE","time":8,"transit":false,"station_name":"Pasar Senen","line":11,"distance":1567,"is_transit":false,"i_lat":-6.174784},{"line":11,"is_transit":false,"i_long":106.839204,"transit":false,"time":4,"station_name":"Kemayoran","distance":1436,"station_id":"KMO","i_lat":-6.161728},{"station_id":"RJW","i_long":106.836569,"i_lat":-6.14505,"distance":1901,"station_name":"Rajawali","transit":false,"time":5,"is_transit":false,"line":11},{"i_long":106.826365,"transit":true,"distance":1444,"line":4,"time":3,"station_name":"Kampung Bandan","i_lat":-6.132549,"station_id":"KPB","is_transit":true},{"i_lat":-6.144674,"i_long":106.79867,"transit":false,"station_name":"Angke","time":9,"distance":4102,"station_id":"AK","is_transit":false,"line":1}]]}