{"data":[[{"line":3,"is_transit":false,"i_lat":-6.33561,"station_name":"Cikoya","time":0,"station_id":"CKY","transit":false,"i_long":106.411216,"distance":0},{"is_transit":false,"time":3,"i_lat":-6.328533,"distance":2651,"station_name":"Tigaraksa","transit":false,"i_long":106.425991,"line":6,"station_id":"TGS"},{"line":6,"station_name":"Tenjo","i_long":106.460812,"transit":false,"station_id":"TEJ","is_transit":false,"i_lat":-6.327251,"time":5,"distance":2974},{"time":5,"station_id":"DAR","line":0,"is_transit":false,"i_long":106.491338,"i_lat":-6.338021,"distance":3902,"station_name":"Daru","transit":false},{"distance":2675,"station_id":"CJT","transit":false,"i_lat":-6.354349,"station_name":"Cilejit","is_transit":false,"line":3,"i_long":106.508482,"time":6},{"is_transit":false,"station_id":"PRP","distance":7025,"time":9,"i_lat":-6.3441410000000005,"i_long":106.568863,"line":6,"station_name":"Parung Panjang","transit":false},{"i_lat":-6.329547,"i_long":106.617853,"station_id":"CC","line":3,"time":8,"station_name":"Cicayur","distance":5968,"is_transit":false,"transit":false},{"distance":2519,"station_name":"Cisauk","i_long":106.640411,"is_transit":false,"station_id":"CSK","i_lat":-6.32484,"time":4,"line":3,"transit":false},{"transit":false,"time":4,"i_long":106.66566,"line":6,"distance":1784,"station_id":"SRP","i_lat":-6.319871,"station_name":"Serpong","is_transit":false},{"i_lat":-6.314823,"i_long":106.675475,"distance":2413,"line":6,"is_transit":false,"time":4,"station_id":"RU","station_name":"Rawa Buntu","transit":false},{"transit":false,"i_long":106.712277,"is_transit":false,"line":6,"distance":4566,"station_name":"Sudimara","i_lat":-6.296963,"station_id":"SDM","time":6},{"time":4,"i_long":106.728916,"station_name":"Jurangmangu","station_id":"JMU","line":6,"distance":1994,"is_transit":false,"transit":false,"i_lat":-6.288927},{"station_id":"PDJ","is_transit":false,"i_long":106.74273,"time":3,"transit":false,"line":6,"i_lat":-6.276362,"station_name":"Pondokranji","distance":2179},{"station_name":"Kebayoran","transit":false,"line":6,"time":8,"station_id":"KBY","i_lat":-6.237242,"i_long":106.780334,"is_transit":false,"distance":6218},{"i_lat":-6.207404,"station_id":"PLM","transit":false,"line":6,"distance":3737,"time":7,"is_transit":false,"station_name":"Palmerah","i_long":106.79689},{"i_long":106.811091,"time":6,"distance":3191,"is_transit":true,"line":1,"station_name":"Tanah Abang","transit":true,"i_lat":-6.185545,"station_id":"THB"},{"line":1,"is_transit":false,"distance":2029,"time":5,"station_id":"KAT","i_lat":-6.20132,"i_long":106.816351,"station_name":"Karet","transit":false},{"is_transit":false,"distance":471,"i_long":106.819881,"time":1,"station_name":"Sudirman Baru","transit":false,"station_id":"SUDB","i_lat":-6.201433,"line":1},{"distance":280,"line":1,"station_name":"Sudirman","is_transit":false,"transit":false,"station_id":"SUD","i_long":106.822649,"time":1,"i_lat":-6.202263},{"line":2,"transit":false,"i_lat":-6.209883,"station_name":"Manggarai","time":4,"station_id":"MRI","i_long":106.84912,"is_transit":false,"distance":3186},{"distance":1275,"i_lat":-6.212485,"i_long":106.858896,"time":2,"station_id":"MTR","station_name":"Matraman","line":1,"transit":false,"is_transit":false},{"line":1,"is_transit":false,"i_long":106.86807400000001,"station_id":"JNG","time":8,"distance":1377,"i_lat":-6.215091,"transit":false,"station_name":"Jatinegara"},{"station_name":"Klender","i_lat":-6.2135,"transit":false,"station_id":"KLD","time":3,"distance":3395,"line":1,"is_transit":false,"i_long":106.899548},{"station_name":"Buaran","i_lat":-6.215568,"transit":false,"station_id":"BUA","is_transit":false,"distance":3100,"i_long":106.922662,"line":1,"time":2},{"line":1,"distance":1305,"station_name":"Klenderbaru","station_id":"KLDB","is_transit":false,"i_lat":-6.217455,"i_long":106.939679,"transit":false,"time":1}],[{"time":0,"transit":false,"distance":0,"station_name":"Cikoya","i_long":106.411216,"line":3,"station_id":"CKY","is_transit":false,"i_lat":-6.33561},{"is_transit":false,"station_name":"Tigaraksa","i_lat":-6.328533,"line":6,"station_id":"TGS","transit":false,"distance":2651,"i_long":106.425991,"time":3},{"station_name":"Tenjo","station_id":"TEJ","time":5,"distance":2974,"i_lat":-6.327251,"line":6,"is_transit":false,"transit":false,"i_long":106.460812},{"i_lat":-6.338021,"station_name":"Daru","time":5,"transit":false,"station_id":"DAR","distance":3902,"is_transit":false,"i_long":106.491338,"line":0},{"distance":2675,"line":3,"station_id":"CJT","is_transit":false,"station_name":"Cilejit","time":6,"i_lat":-6.354349,"i_long":106.508482,"transit":false},{"line":6,"station_name":"Parung Panjang","transit":false,"station_id":"PRP","is_transit":false,"time":9,"distance":7025,"i_lat":-6.3441410000000005,"i_long":106.568863},{"is_transit":false,"time":8,"station_id":"CC","i_long":106.617853,"i_lat":-6.329547,"station_name":"Cicayur","transit":false,"distance":5968,"line":3},{"station_name":"Cisauk","is_transit":false,"station_id":"CSK","time":4,"distance":2519,"i_lat":-6.32484,"transit":false,"i_long":106.640411,"line":3},{"i_lat":-6.319871,"i_long":106.66566,"line":6,"distance":1784,"time":4,"station_name":"Serpong","transit":false,"station_id":"SRP","is_transit":false},{"station_id":"RU","time":4,"i_long":106.675475,"distance":2413,"transit":false,"is_transit":false,"station_name":"Rawa Buntu","i_lat":-6.314823,"line":6},{"i_lat":-6.296963,"line":6,"transit":false,"i_long":106.712277,"station_name":"Sudimara","distance":4566,"is_transit":false,"station_id":"SDM","time":6},{"station_name":"Jurangmangu","is_transit":false,"i_lat":-6.288927,"line":6,"time":4,"i_long":106.728916,"station_id":"JMU","transit":false,"distance":1994},{"line":6,"distance":2179,"station_id":"PDJ","is_transit":false,"i_lat":-6.276362,"station_name":"Pondokranji","transit":false,"time":3,"i_long":106.74273},{"is_transit":false,"i_long":106.780334,"station_id":"KBY","line":6,"transit":false,"station_name":"Kebayoran","time":8,"distance":6218,"i_lat":-6.237242},{"station_id":"PLM","station_name":"Palmerah","time":7,"i_lat":-6.207404,"i_long":106.79689,"distance":3737,"is_transit":false,"line":6,"transit":false},{"distance":3191,"station_id":"THB","station_name":"Tanah Abang","i_long":106.811091,"transit":true,"time":6,"line":1,"is_transit":true,"i_lat":-6.185545},{"station_id":"DU","i_lat":-6.155215,"line":1,"transit":false,"station_name":"Duri","is_transit":false,"time":8,"distance":3632,"i_long":106.800832},{"i_lat":-6.144674,"time":4,"distance":1230,"transit":false,"i_long":106.79867,"line":1,"is_transit":false,"station_name":"Angke","station_id":"AK"},{"time":9,"i_lat":-6.132549,"line":4,"station_name":"Kampung Bandan","transit":true,"distance":4102,"is_transit":true,"i_long":106.826365,"station_id":"KPB"},{"station_name":"Rajawali","i_lat":-6.14505,"line":11,"time":3,"station_id":"RJW","i_long":106.836569,"transit":false,"is_transit":false,"distance":1444},{"station_id":"KMO","is_transit":false,"line":11,"i_lat":-6.161728,"transit":false,"i_long":106.839204,"distance":1901,"station_name":"Kemayoran","time":5},{"station_name":"Pasar Senen","transit":false,"is_transit":false,"i_lat":-6.174784,"line":11,"distance":1436,"time":4,"i_long":106.84368,"station_id":"PSE"},{"line":11,"transit":false,"distance":1567,"time":8,"i_long":106.850107,"is_transit":false,"i_lat":-6.185975,"station_name":"Gang Sentiong","station_id":"GST"},{"i_lat":-6.193792,"i_long":106.855437,"station_name":"Kramat","station_id":"KMT","transit":false,"is_transit":false,"line":11,"distance":973,"time":1},{"station_name":"Pondok Jati","transit":false,"is_transit":false,"station_id":"POK","i_long":106.861737,"line":11,"time":2,"distance":1829,"i_lat":-6.209188},{"is_transit":true,"time":9,"i_long":106.86807400000001,"distance":1236,"transit":true,"station_name":"Jatinegara","i_lat":-6.215091,"station_id":"JNG","line":1},{"distance":3395,"station_name":"Klender","i_lat":-6.2135,"transit":false,"is_transit":false,"time":3,"line":1,"i_long":106.899548,"station_id":"KLD"},{"is_transit":false,"station_name":"Buaran","i_lat":-6.215568,"distance":3100,"i_long":106.922662,"transit":false,"line":1,"time":2,"station_id":"BUA"},{"i_lat":-6.217455,"is_transit":false,"transit":false,"station_id":"KLDB","i_long":106.939679,"station_name":"Klenderbaru","distance":1305,"line":1,"time":1}],[{"distance":0,"i_long":106.411216,"line":3,"station_name":"Cikoya","transit":false,"is_transit":false,"time":0,"station_id":"CKY","i_lat":-6.33561},{"station_name":"Tigaraksa","station_id":"TGS","transit":false,"line":6,"is_transit":false,"time":3,"distance":2651,"i_lat":-6.328533,"i_long":106.425991},{"time":5,"i_long":106.460812,"distance":2974,"station_name":"Tenjo","i_lat":-6.327251,"line":6,"station_id":"TEJ","transit":false,"is_transit":false},{"is_transit":false,"time":5,"distance":3902,"line":0,"i_lat":-6.338021,"transit":false,"i_long":106.491338,"station_id":"DAR","station_name":"Daru"},{"line":3,"is_transit":false,"station_name":"Cilejit","i_lat":-6.354349,"i_long":106.508482,"transit":false,"station_id":"CJT","time":6,"distance":2675},{"is_transit":false,"line":6,"transit":false,"time":9,"station_id":"PRP","distance":7025,"i_long":106.568863,"station_name":"Parung Panjang","i_lat":-6.3441410000000005},{"distance":5968,"time":8,"i_long":106.617853,"station_name":"Cicayur","i_lat":-6.329547,"transit":false,"station_id":"CC","is_transit":false,"line":3},{"distance":2519,"transit":false,"i_lat":-6.32484,"is_transit":false,"i_long":106.640411,"station_id":"CSK","line":3,"station_name":"Cisauk","time":4},{"i_lat":-6.319871,"station_id":"SRP","time":4,"is_transit":false,"distance":1784,"transit":false,"i_long":106.66566,"station_name":"Serpong","line":6},{"station_name":"Rawa Buntu","line":6,"station_id":"RU","time":4,"i_lat":-6.314823,"i_long":106.675475,"transit":false,"is_transit":false,"distance":2413},{"i_lat":-6.296963,"station_id":"SDM","distance":4566,"line":6,"station_name":"Sudimara","is_transit":false,"i_long":106.712277,"transit":false,"time":6},{"transit":false,"distance":1994,"i_lat":-6.288927,"station_name":"Jurangmangu","line":6,"time":4,"i_long":106.728916,"station_id":"JMU","is_transit":false},{"station_name":"Pondokranji","station_id":"PDJ","line":6,"i_lat":-6.276362,"transit":false,"is_transit":false,"distance":2179,"time":3,"i_long":106.74273},{"line":6,"distance":6218,"transit":false,"station_id":"KBY","time":8,"is_transit":false,"i_long":106.780334,"i_lat":-6.237242,"station_name":"Kebayoran"},{"transit":false,"time":7,"distance":3737,"line":6,"i_lat":-6.207404,"station_id":"PLM","i_long":106.79689,"station_name":"Palmerah","is_transit":false},{"station_id":"THB","transit":true,"i_lat":-6.185545,"i_long":106.811091,"station_name":"Tanah Abang","is_transit":true,"distance":3191,"line":1,"time":6},{"i_lat":-6.155215,"line":1,"is_transit":false,"station_name":"Duri","distance":3632,"transit":false,"station_id":"DU","time":8,"i_long":106.800832},{"station_id":"AK","time":4,"is_transit":false,"station_name":"Angke","i_lat":-6.144674,"i_long":106.79867,"transit":false,"distance":1230,"line":1},{"station_name":"Kampung Bandan","is_transit":true,"time":9,"distance":4102,"line":4,"i_long":106.826365,"i_lat":-6.132549,"transit":true,"station_id":"KPB"},{"i_lat":-6.137569,"line":2,"i_long":106.812439,"is_transit":true,"station_name":"Jakarta Kota","station_id":"JAKK","time":3,"distance":1364,"transit":true},{"line":2,"station_id":"JAY","time":4,"i_long":106.820901,"is_transit":false,"transit":false,"station_name":"Jayakarta","distance":1264,"i_lat":-6.141205},{"distance":1080,"transit":false,"i_long":106.82482,"station_name":"Manggabesar","station_id":"MGB","is_transit":false,"i_lat":-6.149769,"time":2,"line":2},{"station_id":"SW","transit":false,"is_transit":false,"time":2,"i_lat":-6.160725,"line":2,"distance":906,"i_long":106.827103,"station_name":"Sawah Besar"},{"i_long":106.828284,"station_name":"Juanda","line":2,"time":2,"distance":1149,"is_transit":false,"station_id":"JUA","transit":false,"i_lat":-6.166716},{"distance":2015,"i_lat":-6.186295,"i_long":106.832183,"is_transit":false,"station_name":"Gondangdia","station_id":"GDD","line":2,"time":4,"transit":false},{"distance":1750,"station_name":"Cikini","transit":false,"is_transit":false,"time":3,"i_lat":-6.198556,"i_long":106.840169,"station_id":"CKI","line":2},{"distance":1590,"station_id":"MRI","time":4,"line":2,"i_long":106.84912,"i_lat":-6.209883,"transit":true,"station_name":"Manggarai","is_transit":true},{"distance":1275,"i_long":106.858896,"line":1,"i_lat":-6.212485,"station_name":"Matraman","time":2,"transit":false,"station_id":"MTR","is_transit":false},{"i_long":106.86807400000001,"station_id":"JNG","is_transit":false,"time":8,"distance":1377,"i_lat":-6.215091,"line":1,"station_name":"Jatinegara","transit":false},{"transit":false,"station_name":"Klender","station_id":"KLD","time":3,"i_lat":-6.2135,"is_transit":false,"i_long":106.899548,"line":1,"distance":3395},{"station_id":"BUA","distance":3100,"i_long":106.922662,"i_lat":-6.215568,"line":1,"transit":false,"is_transit":false,"time":2,"station_name":"Buaran"},{"station_name":"Klenderbaru","i_lat":-6.217455,"distance":1305,"i_long":106.939679,"time":1,"transit":false,"station_id":"KLDB","is_transit":false,"line":1}],[{"is_transit":false,"line":3,"time":0,"transit":false,"i_long":106.411216,"distance":0,"i_lat":-6.33561,"station_name":"Cikoya","station_id":"CKY"},{"is_transit":false,"transit":false,"i_long":106.425991,"station_name":"Tigaraksa","time":3,"station_id":"TGS","i_lat":-6.328533,"distance":2651,"line":6},{"station_name":"Tenjo","station_id":"TEJ","is_transit":false,"transit":false,"distance":2974,"i_lat":-6.327251,"i_long":106.460812,"line":6,"time":5},{"i_lat":-6.338021,"station_id":"DAR","time":5,"i_long":106.491338,"is_transit":false,"line":0,"distance":3902,"transit":false,"station_name":"Daru"},{"i_long":106.508482,"station_name":"Cilejit","transit":false,"station_id":"CJT","time":6,"i_lat":-6.354349,"is_transit":false,"distance":2675,"line":3},{"station_id":"PRP","time":9,"i_long":106.568863,"station_name":"Parung Panjang","line":6,"is_transit":false,"i_lat":-6.3441410000000005,"transit":false,"distance":7025},{"is_transit":false,"station_id":"CC","i_long":106.617853,"i_lat":-6.329547,"time":8,"line":3,"station_name":"Cicayur","transit":false,"distance":5968},{"transit":false,"i_long":106.640411,"time":4,"distance":2519,"station_name":"Cisauk","i_lat":-6.32484,"is_transit":false,"line":3,"station_id":"CSK"},{"transit":false,"station_id":"SRP","line":6,"distance":1784,"i_long":106.66566,"time":4,"i_lat":-6.319871,"station_name":"Serpong","is_transit":false},{"line":6,"transit":false,"distance":2413,"i_lat":-6.314823,"station_id":"RU","is_transit":false,"station_name":"Rawa Buntu","i_long":106.675475,"time":4},{"i_long":106.712277,"transit":false,"station_name":"Sudimara","is_transit":false,"line":6,"station_id":"SDM","distance":4566,"time":6,"i_lat":-6.296963},{"station_name":"Jurangmangu","transit":false,"is_transit":false,"station_id":"JMU","i_long":106.728916,"time":4,"line":6,"distance":1994,"i_lat":-6.288927},{"station_name":"Pondokranji","time":3,"is_transit":false,"distance":2179,"line":6,"i_lat":-6.276362,"transit":false,"i_long":106.74273,"station_id":"PDJ"},{"station_name":"Kebayoran","i_long":106.780334,"transit":false,"station_id":"KBY","is_transit":false,"time":8,"line":6,"distance":6218,"i_lat":-6.237242},{"time":7,"i_lat":-6.207404,"distance":3737,"i_long":106.79689,"line":6,"station_id":"PLM","is_transit":false,"station_name":"Palmerah","transit":false},{"station_id":"THB","station_name":"Tanah Abang","distance":3191,"i_lat":-6.185545,"i_long":106.811091,"line":1,"is_transit":true,"time":6,"transit":true},{"station_name":"Karet","i_lat":-6.20132,"transit":false,"line":1,"is_transit":false,"distance":2029,"station_id":"KAT","i_long":106.816351,"time":5},{"line":1,"is_transit":false,"station_name":"Sudirman Baru","i_lat":-6.201433,"transit":false,"station_id":"SUDB","time":1,"distance":471,"i_long":106.819881},{"station_id":"SUD","distance":280,"i_long":106.822649,"transit":false,"is_transit":false,"time":1,"line":1,"i_lat":-6.202263,"station_name":"Sudirman"},{"distance":3186,"i_long":106.84912,"station_name":"Manggarai","transit":true,"is_transit":true,"i_lat":-6.209883,"station_id":"MRI","time":4,"line":2},{"station_id":"CKI","station_name":"Cikini","transit":false,"i_long":106.840169,"time":4,"is_transit":false,"i_lat":-6.198556,"line":2,"distance":1590},{"time":3,"line":2,"i_lat":-6.186295,"i_long":106.832183,"station_name":"Gondangdia","transit":false,"station_id":"GDD","is_transit":false,"distance":1750},{"is_transit":false,"distance":2015,"time":4,"transit":false,"i_long":106.828284,"station_id":"JUA","i_lat":-6.166716,"line":2,"station_name":"Juanda"},{"station_name":"Sawah Besar","is_transit":false,"time":2,"distance":1149,"transit":false,"station_id":"SW","i_lat":-6.160725,"i_long":106.827103,"line":2},{"station_id":"MGB","time":2,"station_name":"Manggabesar","distance":906,"transit":false,"i_long":106.82482,"line":2,"i_lat":-6.149769,"is_transit":false},{"station_id":"JAY","distance":1080,"is_transit":false,"time":2,"i_lat":-6.141205,"i_long":106.820901,"line":2,"station_name":"Jayakarta","transit":false},{"i_lat":-6.137569,"is_transit":true,"station_name":"Jakarta Kota","transit":true,"i_long":106.812439,"distance":1264,"line":2,"time":4,"station_id":"JAKK"},{"i_lat":-6.132549,"transit":true,"time":3,"station_id":"KPB","line":4,"is_transit":true,"station_name":"Kampung Bandan","i_long":106.826365,"distance":1364},{"i_lat":-6.14505,"transit":false,"time":3,"i_long":106.836569,"distance":1444,"station_id":"RJW","is_transit":false,"line":11,"station_name":"Rajawali"},{"station_id":"KMO","line":11,"distance":1901,"transit":false,"station_name":"Kemayoran","i_lat":-6.161728,"is_transit":false,"i_long":106.839204,"time":5},{"station_name":"Pasar Senen","station_id":"PSE","is_transit":false,"transit":false,"i_lat":-6.174784,"i_long":106.84368,"distance":1436,"line":11,"time":4},{"line":11,"is_transit":false,"transit":false,"station_name":"Gang Sentiong","station_id":"GST","time":8,"i_long":106.850107,"i_lat":-6.185975,"distance":1567},{"i_long":106.855437,"time":1,"transit":false,"is_transit":false,"station_id":"KMT","i_lat":-6.193792,"station_name":"Kramat","distance":973,"line":11},{"i_long":106.861737,"station_id":"POK","time":2,"transit":false,"distance":1829,"i_lat":-6.209188,"line":11,"station_name":"Pondok Jati","is_transit":false},{"time":9,"transit":true,"station_name":"Jatinegara","distance":1236,"station_id":"JNG","i_lat":-6.215091,"i_long":106.86807400000001,"line":1,"is_transit":true},{"time":3,"i_lat":-6.2135,"i_long":106.899548,"line":1,"is_transit":false,"station_name":"Klender","distance":3395,"transit":false,"station_id":"KLD"},{"i_lat":-6.215568,"station_id":"BUA","i_long":106.922662,"distance":3100,"station_name":"Buaran","time":2,"line":1,"is_transit":false,"transit":false},{"i_long":106.939679,"i_lat":-6.217455,"station_id":"KLDB","time":1,"transit":false,"line":1,"distance":1305,"station_name":"Klenderbaru","is_transit":false}]]}