{"data":[[{"time":0,"transit":false,"distance":0,"i_lat":-6.33561,"station_name":"Cikoya","station_id":"CKY","is_transit":false,"line":3,"i_long":106.411216},{"line":6,"i_lat":-6.328533,"transit":false,"station_name":"Tigaraksa","i_long":106.425991,"time":3,"distance":2651,"station_id":"TGS","is_transit":false},{"i_lat":-6.327251,"i_long":106.460812,"time":5,"transit":false,"distance":2974,"station_id":"TEJ","is_transit":false,"station_name":"Tenjo","line":6},{"is_transit":false,"distance":3902,"i_lat":-6.338021,"transit":false,"i_long":106.491338,"time":5,"station_name":"Daru","station_id":"DAR","line":0},{"station_name":"Cilejit","is_transit":false,"transit":false,"i_lat":-6.354349,"time":6,"i_long":106.508482,"station_id":"CJT","line":3,"distance":2675},{"time":9,"i_lat":-6.3441410000000005,"line":6,"i_long":106.568863,"station_name":"Parung Panjang","station_id":"PRP","distance":7025,"is_transit":false,"transit":false},{"is_transit":false,"i_lat":-6.329547,"transit":false,"line":3,"station_id":"CC","i_long":106.617853,"time":8,"station_name":"Cicayur","distance":5968},{"distance":2519,"transit":false,"i_lat":-6.32484,"station_id":"CSK","i_long":106.640411,"line":3,"time":4,"station_name":"Cisauk","is_transit":false},{"station_id":"SRP","station_name":"Serpong","i_lat":-6.319871,"i_long":106.66566,"time":4,"distance":1784,"is_transit":false,"transit":false,"line":6},{"distance":2413,"time":4,"station_id":"RU","transit":false,"is_transit":false,"i_lat":-6.314823,"i_long":106.675475,"station_name":"Rawa Buntu","line":6},{"i_long":106.712277,"line":6,"i_lat":-6.296963,"distance":4566,"transit":false,"time":6,"station_id":"SDM","station_name":"Sudimara","is_transit":false},{"i_long":106.728916,"station_name":"Jurangmangu","transit":false,"line":6,"time":4,"is_transit":false,"i_lat":-6.288927,"station_id":"JMU","distance":1994},{"station_id":"PDJ","transit":false,"i_lat":-6.276362,"is_transit":false,"time":3,"i_long":106.74273,"line":6,"station_name":"Pondokranji","distance":2179},{"i_long":106.780334,"is_transit":false,"station_name":"Kebayoran","line":6,"distance":6218,"station_id":"KBY","transit":false,"i_lat":-6.237242,"time":8},{"distance":3737,"station_id":"PLM","is_transit":false,"line":6,"i_lat":-6.207404,"i_long":106.79689,"transit":false,"station_name":"Palmerah","time":7},{"time":6,"station_name":"Tanah Abang","station_id":"THB","i_lat":-6.185545,"transit":true,"is_transit":true,"distance":3191,"i_long":106.811091,"line":1},{"time":8,"i_lat":-6.155215,"distance":3632,"line":1,"transit":true,"i_long":106.800832,"station_name":"Duri","station_id":"DU","is_transit":true},{"transit":false,"distance":1700,"station_name":"Grogol","i_long":106.788277,"line":5,"station_id":"GGL","time":3,"i_lat":-6.162021,"is_transit":false},{"distance":2036,"station_name":"Pesing","time":2,"i_lat":-6.161433,"line":5,"is_transit":false,"transit":false,"i_long":106.771379,"station_id":"PSG"},{"is_transit":false,"line":5,"i_lat":-6.1587309999999995,"transit":false,"distance":1614,"i_long":106.756522,"station_id":"TKO","time":2,"station_name":"Taman Kota"},{"i_long":106.737035,"transit":false,"station_name":"Bojongindah","line":5,"distance":2334,"station_id":"BOI","is_transit":false,"i_lat":-6.159876,"time":2}],[{"time":0,"i_lat":-6.33561,"distance":0,"transit":false,"station_id":"CKY","station_name":"Cikoya","line":3,"is_transit":false,"i_long":106.411216},{"i_long":106.425991,"transit":false,"i_lat":-6.328533,"station_name":"Tigaraksa","station_id":"TGS","is_transit":false,"line":6,"distance":2651,"time":3},{"transit":false,"station_id":"TEJ","time":5,"i_lat":-6.327251,"station_name":"Tenjo","i_long":106.460812,"distance":2974,"line":6,"is_transit":false},{"transit":false,"station_id":"DAR","distance":3902,"i_long":106.491338,"line":0,"time":5,"i_lat":-6.338021,"station_name":"Daru","is_transit":false},{"transit":false,"station_id":"CJT","is_transit":false,"time":6,"distance":2675,"station_name":"Cilejit","i_lat":-6.354349,"line":3,"i_long":106.508482},{"distance":7025,"i_lat":-6.3441410000000005,"station_name":"Parung Panjang","time":9,"i_long":106.568863,"is_transit":false,"line":6,"transit":false,"station_id":"PRP"},{"distance":5968,"time":8,"i_long":106.617853,"transit":false,"station_name":"Cicayur","station_id":"CC","i_lat":-6.329547,"is_transit":false,"line":3},{"is_transit":false,"station_id":"CSK","station_name":"Cisauk","i_lat":-6.32484,"distance":2519,"i_long":106.640411,"line":3,"transit":false,"time":4},{"station_id":"SRP","line":6,"time":4,"i_long":106.66566,"distance":1784,"i_lat":-6.319871,"transit":false,"station_name":"Serpong","is_transit":false},{"station_name":"Rawa Buntu","time":4,"distance":2413,"station_id":"RU","line":6,"is_transit":false,"i_long":106.675475,"transit":false,"i_lat":-6.314823},{"transit":false,"i_long":106.712277,"station_name":"Sudimara","is_transit":false,"time":6,"distance":4566,"station_id":"SDM","line":6,"i_lat":-6.296963},{"station_id":"JMU","i_lat":-6.288927,"is_transit":false,"line":6,"distance":1994,"i_long":106.728916,"transit":false,"station_name":"Jurangmangu","time":4},{"transit":false,"line":6,"distance":2179,"station_name":"Pondokranji","station_id":"PDJ","is_transit":false,"i_lat":-6.276362,"time":3,"i_long":106.74273},{"station_name":"Kebayoran","i_lat":-6.237242,"station_id":"KBY","line":6,"distance":6218,"time":8,"i_long":106.780334,"transit":false,"is_transit":false},{"distance":3737,"station_id":"PLM","is_transit":false,"station_name":"Palmerah","time":7,"i_lat":-6.207404,"i_long":106.79689,"line":6,"transit":false},{"i_long":106.811091,"time":6,"station_name":"Tanah Abang","is_transit":true,"i_lat":-6.185545,"line":1,"distance":3191,"transit":true,"station_id":"THB"},{"i_long":106.816351,"i_lat":-6.20132,"transit":false,"is_transit":false,"station_id":"KAT","station_name":"Karet","line":1,"distance":2029,"time":5},{"i_long":106.819881,"line":1,"station_name":"Sudirman Baru","distance":471,"transit":false,"is_transit":false,"time":1,"station_id":"SUDB","i_lat":-6.201433},{"i_long":106.822649,"line":1,"time":1,"is_transit":false,"station_id":"SUD","transit":false,"station_name":"Sudirman","i_lat":-6.202263,"distance":280},{"is_transit":true,"time":4,"i_lat":-6.209883,"i_long":106.84912,"station_id":"MRI","line":2,"station_name":"Manggarai","distance":3186,"transit":true},{"line":2,"station_name":"Cikini","time":4,"distance":1590,"station_id":"CKI","i_lat":-6.198556,"transit":false,"is_transit":false,"i_long":106.840169},{"line":2,"distance":1750,"time":3,"i_lat":-6.186295,"station_name":"Gondangdia","is_transit":false,"i_long":106.832183,"transit":false,"station_id":"GDD"},{"i_long":106.828284,"station_name":"Juanda","station_id":"JUA","time":4,"line":2,"transit":false,"distance":2015,"is_transit":false,"i_lat":-6.166716},{"i_long":106.827103,"distance":1149,"time":2,"is_transit":false,"station_id":"SW","transit":false,"station_name":"Sawah Besar","i_lat":-6.160725,"line":2},{"i_long":106.82482,"line":2,"is_transit":false,"transit":false,"station_id":"MGB","distance":906,"time":2,"station_name":"Manggabesar","i_lat":-6.149769},{"transit":false,"station_name":"Jayakarta","i_lat":-6.141205,"line":2,"station_id":"JAY","distance":1080,"is_transit":false,"i_long":106.820901,"time":2},{"i_lat":-6.137569,"line":2,"is_transit":true,"transit":true,"distance":1264,"station_id":"JAKK","i_long":106.812439,"station_name":"Jakarta Kota","time":4},{"i_lat":-6.132549,"station_name":"Kampung Bandan","time":3,"station_id":"KPB","line":4,"i_long":106.826365,"transit":true,"distance":1364,"is_transit":true},{"i_long":106.79867,"distance":4102,"time":9,"i_lat":-6.144674,"transit":false,"station_name":"Angke","station_id":"AK","is_transit":false,"line":1},{"distance":1230,"line":1,"station_name":"Duri","station_id":"DU","time":4,"transit":true,"is_transit":true,"i_lat":-6.155215,"i_long":106.800832},{"line":5,"i_long":106.788277,"distance":1700,"station_id":"GGL","is_transit":false,"time":3,"i_lat":-6.162021,"transit":false,"station_name":"Grogol"},{"is_transit":false,"transit":false,"station_id":"PSG","station_name":"Pesing","distance":2036,"i_lat":-6.161433,"line":5,"time":2,"i_long":106.771379},{"transit":false,"time":2,"i_long":106.756522,"station_name":"Taman Kota","i_lat":-6.1587309999999995,"station_id":"TKO","line":5,"distance":1614,"is_transit":false},{"transit":false,"i_lat":-6.159876,"line":5,"time":2,"is_transit":false,"distance":2334,"i_long":106.737035,"station_name":"Bojongindah","station_id":"BOI"}],[{"station_id":"CKY","i_lat":-6.33561,"transit":false,"station_name":"Cikoya","distance":0,"is_transit":false,"time":0,"i_long":106.411216,"line":3},{"time":3,"i_lat":-6.328533,"transit":false,"distance":2651,"station_name":"Tigaraksa","is_transit":false,"line":6,"station_id":"TGS","i_long":106.425991},{"transit":false,"is_transit":false,"line":6,"station_id":"TEJ","station_name":"Tenjo","time":5,"distance":2974,"i_long":106.460812,"i_lat":-6.327251},{"station_name":"Daru","station_id":"DAR","time":5,"is_transit":false,"i_lat":-6.338021,"i_long":106.491338,"line":0,"distance":3902,"transit":false},{"i_long":106.508482,"line":3,"is_transit":false,"distance":2675,"station_name":"Cilejit","transit":false,"i_lat":-6.354349,"station_id":"CJT","time":6},{"line":6,"is_transit":false,"transit":false,"time":9,"station_name":"Parung Panjang","distance":7025,"i_lat":-6.3441410000000005,"station_id":"PRP","i_long":106.568863},{"transit":false,"is_transit":false,"line":3,"station_name":"Cicayur","i_lat":-6.329547,"station_id":"CC","time":8,"i_long":106.617853,"distance":5968},{"transit":false,"is_transit":false,"time":4,"station_name":"Cisauk","i_long":106.640411,"i_lat":-6.32484,"line":3,"distance":2519,"station_id":"CSK"},{"i_lat":-6.319871,"distance":1784,"time":4,"line":6,"transit":false,"station_name":"Serpong","is_transit":false,"i_long":106.66566,"station_id":"SRP"},{"station_id":"RU","transit":false,"is_transit":false,"station_name":"Rawa Buntu","i_lat":-6.314823,"distance":2413,"i_long":106.675475,"line":6,"time":4},{"i_long":106.712277,"distance":4566,"is_transit":false,"transit":false,"station_id":"SDM","station_name":"Sudimara","i_lat":-6.296963,"line":6,"time":6},{"line":6,"i_lat":-6.288927,"transit":false,"station_id":"JMU","distance":1994,"time":4,"station_name":"Jurangmangu","i_long":106.728916,"is_transit":false},{"i_lat":-6.276362,"transit":false,"time":3,"line":6,"station_id":"PDJ","i_long":106.74273,"distance":2179,"is_transit":false,"station_name":"Pondokranji"},{"transit":false,"distance":6218,"is_transit":false,"line":6,"i_lat":-6.237242,"time":8,"station_name":"Kebayoran","station_id":"KBY","i_long":106.780334},{"i_lat":-6.207404,"station_name":"Palmerah","i_long":106.79689,"distance":3737,"time":7,"transit":false,"station_id":"PLM","line":6,"is_transit":false},{"station_name":"Tanah Abang","line":1,"i_lat":-6.185545,"distance":3191,"i_long":106.811091,"transit":true,"station_id":"THB","is_transit":true,"time":6},{"transit":false,"line":1,"station_name":"Karet","station_id":"KAT","i_long":106.816351,"i_lat":-6.20132,"distance":2029,"is_transit":false,"time":5},{"transit":false,"is_transit":false,"station_name":"Sudirman Baru","time":1,"line":1,"distance":471,"i_long":106.819881,"i_lat":-6.201433,"station_id":"SUDB"},{"distance":280,"line":1,"transit":false,"station_name":"Sudirman","time":1,"i_lat":-6.202263,"i_long":106.822649,"station_id":"SUD","is_transit":false},{"is_transit":false,"line":2,"i_long":106.84912,"distance":3186,"time":4,"transit":false,"station_name":"Manggarai","i_lat":-6.209883,"station_id":"MRI"},{"line":1,"transit":false,"i_long":106.858896,"station_id":"MTR","distance":1275,"station_name":"Matraman","time":2,"i_lat":-6.212485,"is_transit":false},{"i_long":106.86807400000001,"line":1,"transit":true,"station_name":"Jatinegara","time":8,"station_id":"JNG","distance":1377,"is_transit":true,"i_lat":-6.215091},{"distance":1236,"time":2,"i_lat":-6.209188,"station_id":"POK","transit":false,"is_transit":false,"station_name":"Pondok Jati","i_long":106.861737,"line":11},{"transit":false,"i_lat":-6.193792,"line":11,"time":2,"station_id":"KMT","distance":1829,"is_transit":false,"station_name":"Kramat","i_long":106.855437},{"is_transit":false,"i_lat":-6.185975,"station_name":"Gang Sentiong","i_long":106.850107,"transit":false,"station_id":"GST","time":1,"line":11,"distance":973},{"transit":false,"time":8,"line":11,"distance":1567,"i_lat":-6.174784,"i_long":106.84368,"station_id":"PSE","station_name":"Pasar Senen","is_transit":false},{"station_name":"Kemayoran","is_transit":false,"i_long":106.839204,"line":11,"i_lat":-6.161728,"transit":false,"distance":1436,"time":4,"station_id":"KMO"},{"line":11,"station_name":"Rajawali","station_id":"RJW","i_lat":-6.14505,"is_transit":false,"i_long":106.836569,"distance":1901,"time":5,"transit":false},{"station_id":"KPB","transit":true,"station_name":"Kampung Bandan","distance":1444,"is_transit":true,"i_lat":-6.132549,"i_long":106.826365,"time":3,"line":4},{"distance":4102,"is_transit":false,"i_lat":-6.144674,"line":1,"station_id":"AK","time":9,"i_long":106.79867,"station_name":"Angke","transit":false},{"i_lat":-6.155215,"station_name":"Duri","time":4,"station_id":"DU","distance":1230,"i_long":106.800832,"line":1,"transit":true,"is_transit":true},{"is_transit":false,"station_name":"Grogol","line":5,"time":3,"station_id":"GGL","i_lat":-6.162021,"distance":1700,"i_long":106.788277,"transit":false},{"transit":false,"station_id":"PSG","i_lat":-6.161433,"distance":2036,"line":5,"time":2,"is_transit":false,"i_long":106.771379,"station_name":"Pesing"},{"line":5,"i_lat":-6.1587309999999995,"i_long":106.756522,"transit":false,"station_name":"Taman Kota","is_transit":false,"station_id":"TKO","time":2,"distance":1614},{"i_lat":-6.159876,"line":5,"station_id":"BOI","time":2,"transit":false,"station_name":"Bojongindah","is_transit":false,"i_long":106.737035,"distance":2334}]]}