{"data":[[{"time":0,"transit":false,"distance":0,"i_lat":-6.33561,"i_long":106.411216,"station_id":"CKY","station_name":"Cikoya","is_transit":false,"line":0},{"line":6,"time":3,"station_name":"Tigaraksa","distance":2651,"i_lat":-6.328533,"i_long":106.425991,"station_id":"TGS","transit":false,"is_transit":false},{"station_id":"TEJ","is_transit":false,"line":6,"transit":false,"station_name":"Tenjo","distance":2974,"i_lat":-6.327251,"time":5,"i_long":106.460812},{"line":0,"station_id":"DAR","station_name":"Daru","i_lat":-6.338021,"is_transit":false,"transit":false,"distance":3902,"i_long":106.491338,"time":5},{"station_name":"Cilejit","transit":false,"is_transit":false,"distance":2675,"i_lat":-6.354349,"i_long":106.508482,"time":6,"station_id":"CJT","line":0},{"i_lat":-6.3441410000000005,"station_id":"PRP","distance":7025,"line":6,"transit":false,"station_name":"Parung Panjang","time":9,"is_transit":false,"i_long":106.568863},{"line":0,"distance":5968,"i_long":106.617853,"station_id":"CC","i_lat":-6.329547,"is_transit":false,"transit":false,"station_name":"Cicayur","time":8},{"distance":2519,"line":0,"station_id":"CSK","i_lat":-6.32484,"transit":false,"i_long":106.640411,"time":4,"station_name":"Cisauk","is_transit":false},{"is_transit":false,"station_id":"SRP","i_long":106.66566,"transit":false,"line":6,"time":4,"station_name":"Serpong","distance":1784,"i_lat":-6.319871},{"distance":2413,"station_name":"Rawa Buntu","time":4,"i_lat":-6.314823,"line":6,"i_long":106.675475,"transit":false,"station_id":"RU","is_transit":false},{"i_long":106.712277,"line":6,"i_lat":-6.296963,"station_name":"Sudimara","time":6,"transit":false,"distance":4566,"station_id":"SDM","is_transit":false},{"station_id":"JMU","i_lat":-6.288927,"station_name":"Jurangmangu","line":6,"is_transit":false,"distance":1994,"time":4,"i_long":106.728916,"transit":false},{"station_name":"Pondokranji","time":3,"line":6,"i_lat":-6.276362,"i_long":106.74273,"station_id":"PDJ","is_transit":false,"transit":false,"distance":2179},{"i_long":106.780334,"line":6,"is_transit":false,"i_lat":-6.237242,"station_name":"Kebayoran","time":8,"transit":false,"distance":6218,"station_id":"KBY"},{"i_lat":-6.207404,"line":6,"station_name":"Palmerah","distance":3737,"transit":false,"i_long":106.79689,"station_id":"PLM","time":7,"is_transit":false},{"distance":3191,"station_id":"THB","transit":true,"line":1,"i_lat":-6.185545,"i_long":106.811091,"station_name":"Tanah Abang","time":6,"is_transit":true},{"is_transit":true,"line":1,"station_id":"DU","transit":false,"distance":3632,"station_name":"Duri","i_lat":-6.155215,"time":8,"i_long":106.800832}],[{"time":0,"transit":false,"i_long":106.411216,"is_transit":false,"distance":0,"line":0,"station_name":"Cikoya","station_id":"CKY","i_lat":-6.33561},{"line":6,"station_name":"Tigaraksa","i_lat":-6.328533,"is_transit":false,"time":3,"station_id":"TGS","distance":2651,"i_long":106.425991,"transit":false},{"transit":false,"distance":2974,"i_lat":-6.327251,"line":6,"is_transit":false,"i_long":106.460812,"station_id":"TEJ","time":5,"station_name":"Tenjo"},{"i_lat":-6.338021,"distance":3902,"i_long":106.491338,"station_name":"Daru","transit":false,"is_transit":false,"station_id":"DAR","time":5,"line":0},{"distance":2675,"i_long":106.508482,"line":0,"station_name":"Cilejit","is_transit":false,"station_id":"CJT","time":6,"i_lat":-6.354349,"transit":false},{"transit":false,"time":9,"i_lat":-6.3441410000000005,"line":6,"is_transit":false,"i_long":106.568863,"distance":7025,"station_id":"PRP","station_name":"Parung Panjang"},{"distance":5968,"transit":false,"i_long":106.617853,"i_lat":-6.329547,"station_name":"Cicayur","line":0,"station_id":"CC","is_transit":false,"time":8},{"transit":false,"i_long":106.640411,"station_name":"Cisauk","station_id":"CSK","time":4,"i_lat":-6.32484,"is_transit":false,"line":0,"distance":2519},{"i_long":106.66566,"station_name":"Serpong","station_id":"SRP","transit":false,"is_transit":false,"time":4,"distance":1784,"i_lat":-6.319871,"line":6},{"time":4,"i_lat":-6.314823,"line":6,"distance":2413,"i_long":106.675475,"station_id":"RU","station_name":"Rawa Buntu","is_transit":false,"transit":false},{"i_long":106.712277,"time":6,"is_transit":false,"station_id":"SDM","station_name":"Sudimara","distance":4566,"i_lat":-6.296963,"line":6,"transit":false},{"distance":1994,"i_long":106.728916,"transit":false,"is_transit":false,"i_lat":-6.288927,"time":4,"station_id":"JMU","line":6,"station_name":"Jurangmangu"},{"is_transit":false,"station_id":"PDJ","i_lat":-6.276362,"station_name":"Pondokranji","i_long":106.74273,"line":6,"time":3,"transit":false,"distance":2179},{"distance":6218,"transit":false,"time":8,"station_name":"Kebayoran","i_lat":-6.237242,"i_long":106.780334,"line":6,"station_id":"KBY","is_transit":false},{"is_transit":false,"i_lat":-6.207404,"station_id":"PLM","distance":3737,"station_name":"Palmerah","time":7,"i_long":106.79689,"line":6,"transit":false},{"is_transit":true,"station_id":"THB","station_name":"Tanah Abang","distance":3191,"time":6,"transit":true,"i_lat":-6.185545,"i_long":106.811091,"line":1},{"time":5,"distance":2029,"transit":false,"station_name":"Karet","i_lat":-6.20132,"i_long":106.816351,"station_id":"KAT","line":1,"is_transit":false},{"station_id":"SUDB","time":1,"distance":471,"station_name":"Sudirman Baru","is_transit":false,"line":1,"i_lat":-6.201433,"i_long":106.819881,"transit":false},{"is_transit":false,"i_long":106.822649,"station_name":"Sudirman","i_lat":-6.202263,"station_id":"SUD","distance":280,"transit":false,"time":1,"line":1},{"distance":3186,"i_lat":-6.209883,"station_name":"Manggarai","station_id":"MRI","line":0,"i_long":106.84912,"transit":true,"is_transit":true,"time":4},{"station_id":"CKI","time":4,"i_lat":-6.198556,"i_long":106.840169,"distance":1590,"line":0,"station_name":"Cikini","transit":false,"is_transit":false},{"i_long":106.832183,"line":2,"transit":false,"is_transit":false,"station_name":"Gondangdia","time":3,"station_id":"GDD","distance":1750,"i_lat":-6.186295},{"station_id":"JUA","time":4,"distance":2015,"line":2,"is_transit":false,"station_name":"Juanda","transit":false,"i_long":106.828284,"i_lat":-6.166716},{"station_name":"Sawah Besar","distance":1149,"transit":false,"is_transit":false,"station_id":"SW","time":2,"i_long":106.827103,"i_lat":-6.160725,"line":2},{"i_long":106.82482,"station_name":"Manggabesar","distance":906,"i_lat":-6.149769,"line":2,"station_id":"MGB","transit":false,"is_transit":false,"time":2},{"i_lat":-6.141205,"station_name":"Jayakarta","time":2,"i_long":106.820901,"station_id":"JAY","is_transit":false,"distance":1080,"transit":false,"line":7},{"distance":1264,"i_long":106.812439,"station_id":"JAKK","line":0,"time":4,"i_lat":-6.137569,"station_name":"Jakarta Kota","transit":true,"is_transit":true},{"transit":false,"station_id":"KPB","i_long":106.826365,"station_name":"Kampung Bandan","distance":1364,"is_transit":true,"line":0,"time":3,"i_lat":-6.132549},{"transit":false,"line":0,"station_name":"Angke","i_lat":-6.144674,"time":9,"distance":4102,"i_long":106.79867,"station_id":"AK","is_transit":false},{"time":4,"transit":false,"station_id":"DU","is_transit":true,"station_name":"Duri","distance":1230,"i_lat":-6.155215,"i_long":106.800832,"line":1}],[{"i_lat":-6.33561,"i_long":106.411216,"station_id":"CKY","distance":0,"line":0,"station_name":"Cikoya","is_transit":false,"time":0,"transit":false},{"time":3,"i_lat":-6.328533,"transit":false,"i_long":106.425991,"station_id":"TGS","station_name":"Tigaraksa","is_transit":false,"distance":2651,"line":6},{"transit":false,"distance":2974,"i_lat":-6.327251,"time":5,"line":6,"is_transit":false,"i_long":106.460812,"station_id":"TEJ","station_name":"Tenjo"},{"i_lat":-6.338021,"station_id":"DAR","is_transit":false,"transit":false,"time":5,"distance":3902,"i_long":106.491338,"station_name":"Daru","line":0},{"is_transit":false,"time":6,"station_name":"Cilejit","transit":false,"i_lat":-6.354349,"i_long":106.508482,"station_id":"CJT","distance":2675,"line":0},{"time":9,"station_name":"Parung Panjang","distance":7025,"i_long":106.568863,"station_id":"PRP","i_lat":-6.3441410000000005,"transit":false,"is_transit":false,"line":6},{"time":8,"i_long":106.617853,"i_lat":-6.329547,"transit":false,"station_id":"CC","station_name":"Cicayur","line":0,"is_transit":false,"distance":5968},{"is_transit":false,"station_name":"Cisauk","i_lat":-6.32484,"station_id":"CSK","distance":2519,"line":0,"time":4,"transit":false,"i_long":106.640411},{"station_name":"Serpong","i_long":106.66566,"time":4,"transit":false,"station_id":"SRP","line":6,"distance":1784,"is_transit":false,"i_lat":-6.319871},{"time":4,"station_id":"RU","i_long":106.675475,"i_lat":-6.314823,"is_transit":false,"line":6,"distance":2413,"station_name":"Rawa Buntu","transit":false},{"is_transit":false,"i_lat":-6.296963,"station_name":"Sudimara","transit":false,"station_id":"SDM","line":6,"i_long":106.712277,"time":6,"distance":4566},{"is_transit":false,"station_name":"Jurangmangu","transit":false,"i_long":106.728916,"station_id":"JMU","time":4,"distance":1994,"i_lat":-6.288927,"line":6},{"station_id":"PDJ","line":6,"is_transit":false,"time":3,"station_name":"Pondokranji","transit":false,"i_long":106.74273,"i_lat":-6.276362,"distance":2179},{"station_id":"KBY","station_name":"Kebayoran","transit":false,"i_lat":-6.237242,"time":8,"distance":6218,"i_long":106.780334,"line":6,"is_transit":false},{"distance":3737,"time":7,"i_lat":-6.207404,"i_long":106.79689,"station_id":"PLM","transit":false,"is_transit":false,"line":6,"station_name":"Palmerah"},{"transit":true,"station_name":"Tanah Abang","time":6,"station_id":"THB","line":1,"i_long":106.811091,"is_transit":true,"distance":3191,"i_lat":-6.185545},{"transit":false,"time":5,"i_lat":-6.20132,"station_id":"KAT","i_long":106.816351,"distance":2029,"station_name":"Karet","is_transit":false,"line":1},{"i_lat":-6.201433,"station_name":"Sudirman Baru","time":1,"distance":471,"line":1,"i_long":106.819881,"is_transit":false,"transit":false,"station_id":"SUDB"},{"line":1,"station_name":"Sudirman","transit":false,"station_id":"SUD","time":1,"i_lat":-6.202263,"distance":280,"is_transit":false,"i_long":106.822649},{"line":0,"is_transit":true,"time":4,"distance":3186,"i_long":106.84912,"transit":false,"i_lat":-6.209883,"station_id":"MRI","station_name":"Manggarai"},{"transit":false,"station_id":"MTR","distance":1275,"is_transit":false,"i_lat":-6.212485,"station_name":"Matraman","time":2,"i_long":106.858896,"line":1},{"distance":1377,"i_long":106.86807400000001,"is_transit":true,"line":0,"time":8,"station_name":"Jatinegara","transit":true,"station_id":"JNG","i_lat":-6.215091},{"transit":false,"station_name":"Pondok Jati","station_id":"POK","time":2,"distance":1236,"is_transit":false,"i_long":106.861737,"line":11,"i_lat":-6.209188},{"transit":false,"station_name":"Kramat","i_long":106.855437,"is_transit":false,"station_id":"KMT","time":2,"i_lat":-6.193792,"line":11,"distance":1829},{"station_id":"GST","line":11,"i_long":106.850107,"i_lat":-6.185975,"distance":973,"transit":false,"is_transit":false,"time":1,"station_name":"Gang Sentiong"},{"transit":false,"is_transit":false,"station_name":"Pasar Senen","i_lat":-6.174784,"time":8,"distance":1567,"i_long":106.84368,"line":11,"station_id":"PSE"},{"i_long":106.839204,"time":4,"station_id":"KMO","transit":false,"distance":1436,"is_transit":false,"station_name":"Kemayoran","i_lat":-6.161728,"line":11},{"distance":1901,"i_lat":-6.14505,"transit":false,"time":5,"i_long":106.836569,"is_transit":false,"line":11,"station_id":"RJW","station_name":"Rajawali"},{"transit":true,"i_long":106.826365,"station_name":"Kampung Bandan","station_id":"KPB","time":3,"distance":1444,"is_transit":true,"line":0,"i_lat":-6.132549},{"station_id":"AK","station_name":"Angke","time":9,"i_long":106.79867,"is_transit":false,"transit":false,"i_lat":-6.144674,"distance":4102,"line":0},{"is_transit":true,"distance":1230,"i_lat":-6.155215,"line":1,"time":4,"i_long":106.800832,"station_id":"DU","station_name":"Duri","transit":false}]]}