{"data":[[{"i_long":106.411216,"i_lat":-6.33561,"line":3,"transit":false,"station_id":"CKY","station_name":"Cikoya","distance":0,"is_transit":false,"time":0},{"distance":2651,"station_name":"Tigaraksa","transit":false,"station_id":"TGS","line":6,"i_lat":-6.328533,"time":3,"is_transit":false,"i_long":106.425991},{"station_name":"Tenjo","is_transit":false,"i_long":106.460812,"time":5,"line":6,"station_id":"TEJ","distance":2974,"i_lat":-6.327251,"transit":false},{"i_long":106.491338,"is_transit":false,"line":0,"distance":3902,"i_lat":-6.338021,"station_name":"Daru","time":5,"transit":false,"station_id":"DAR"},{"station_name":"Cilejit","distance":2675,"i_lat":-6.354349,"station_id":"CJT","line":3,"transit":false,"is_transit":false,"i_long":106.508482,"time":6},{"station_id":"PRP","i_lat":-6.3441410000000005,"i_long":106.568863,"distance":7025,"station_name":"Parung Panjang","line":6,"time":9,"is_transit":false,"transit":false},{"line":3,"is_transit":false,"transit":false,"i_long":106.617853,"station_id":"CC","i_lat":-6.329547,"time":8,"distance":5968,"station_name":"Cicayur"},{"distance":2519,"i_lat":-6.32484,"station_id":"CSK","transit":false,"line":3,"is_transit":false,"station_name":"Cisauk","time":4,"i_long":106.640411},{"time":4,"station_name":"Serpong","i_lat":-6.319871,"distance":1784,"transit":false,"is_transit":false,"station_id":"SRP","i_long":106.66566,"line":6},{"station_name":"Rawa Buntu","is_transit":false,"station_id":"RU","i_lat":-6.314823,"line":6,"transit":false,"distance":2413,"time":4,"i_long":106.675475},{"line":6,"i_lat":-6.296963,"time":6,"i_long":106.712277,"station_name":"Sudimara","is_transit":false,"distance":4566,"station_id":"SDM","transit":false},{"transit":false,"station_name":"Jurangmangu","is_transit":false,"i_lat":-6.288927,"time":4,"distance":1994,"line":6,"i_long":106.728916,"station_id":"JMU"},{"station_name":"Pondokranji","line":6,"distance":2179,"time":3,"i_lat":-6.276362,"station_id":"PDJ","transit":false,"is_transit":false,"i_long":106.74273},{"station_id":"KBY","i_lat":-6.237242,"is_transit":false,"line":6,"i_long":106.780334,"station_name":"Kebayoran","distance":6218,"time":8,"transit":false},{"station_id":"PLM","time":7,"is_transit":false,"distance":3737,"transit":false,"line":6,"i_long":106.79689,"station_name":"Palmerah","i_lat":-6.207404},{"i_long":106.811091,"line":1,"station_id":"THB","time":6,"distance":3191,"is_transit":true,"transit":true,"i_lat":-6.185545,"station_name":"Tanah Abang"},{"transit":true,"is_transit":true,"time":8,"i_lat":-6.155215,"distance":3632,"station_name":"Duri","i_long":106.800832,"station_id":"DU","line":1},{"distance":1700,"transit":false,"i_long":106.788277,"line":5,"station_name":"Grogol","i_lat":-6.162021,"time":3,"is_transit":false,"station_id":"GGL"},{"time":2,"transit":false,"i_lat":-6.161433,"line":5,"is_transit":false,"station_id":"PSG","i_long":106.771379,"station_name":"Pesing","distance":2036},{"station_name":"Taman Kota","is_transit":false,"station_id":"TKO","transit":false,"time":2,"i_lat":-6.1587309999999995,"distance":1614,"i_long":106.756522,"line":5},{"station_id":"BOI","distance":2334,"transit":false,"line":5,"i_long":106.737035,"is_transit":false,"i_lat":-6.159876,"time":2,"station_name":"Bojongindah"},{"station_name":"Rawa Buaya","time":4,"line":5,"i_lat":-6.162758,"distance":1152,"is_transit":false,"transit":false,"station_id":"RW","i_long":106.723064},{"i_long":106.701612,"line":5,"i_lat":-6.166068,"distance":2504,"time":3,"station_name":"Kalideres","transit":false,"is_transit":false,"station_id":"KDS"},{"transit":false,"i_lat":-6.169933,"i_long":106.679458,"time":3,"station_id":"PI","line":5,"is_transit":false,"distance":2548,"station_name":"Poris"},{"station_name":"Batuceper","transit":false,"i_lat":-6.171811,"i_long":106.665036,"station_id":"BPR","is_transit":false,"distance":1834,"time":3,"line":5},{"line":5,"transit":false,"is_transit":false,"station_id":"TTI","distance":2028,"station_name":"Tanah Tinggi","time":3,"i_lat":-6.17331,"i_long":106.64657},{"distance":1547,"time":3,"station_name":"Tangerang","is_transit":false,"line":5,"transit":false,"i_long":106.632761,"station_id":"TNG","i_lat":-6.176583}],[{"i_lat":-6.33561,"i_long":106.411216,"line":3,"time":0,"station_name":"Cikoya","distance":0,"station_id":"CKY","is_transit":false,"transit":false},{"i_lat":-6.328533,"line":6,"transit":false,"distance":2651,"station_name":"Tigaraksa","i_long":106.425991,"is_transit":false,"time":3,"station_id":"TGS"},{"time":5,"transit":false,"station_id":"TEJ","is_transit":false,"i_long":106.460812,"station_name":"Tenjo","line":6,"distance":2974,"i_lat":-6.327251},{"time":5,"is_transit":false,"transit":false,"station_name":"Daru","station_id":"DAR","line":0,"i_lat":-6.338021,"distance":3902,"i_long":106.491338},{"i_long":106.508482,"i_lat":-6.354349,"distance":2675,"station_id":"CJT","line":3,"station_name":"Cilejit","time":6,"transit":false,"is_transit":false},{"time":9,"station_id":"PRP","is_transit":false,"line":6,"i_long":106.568863,"station_name":"Parung Panjang","transit":false,"i_lat":-6.3441410000000005,"distance":7025},{"is_transit":false,"i_lat":-6.329547,"station_name":"Cicayur","line":3,"transit":false,"time":8,"station_id":"CC","distance":5968,"i_long":106.617853},{"time":4,"line":3,"transit":false,"i_long":106.640411,"station_name":"Cisauk","is_transit":false,"station_id":"CSK","distance":2519,"i_lat":-6.32484},{"line":6,"station_name":"Serpong","transit":false,"i_long":106.66566,"is_transit":false,"i_lat":-6.319871,"time":4,"distance":1784,"station_id":"SRP"},{"station_name":"Rawa Buntu","is_transit":false,"station_id":"RU","i_lat":-6.314823,"distance":2413,"i_long":106.675475,"time":4,"line":6,"transit":false},{"is_transit":false,"station_name":"Sudimara","distance":4566,"transit":false,"time":6,"line":6,"station_id":"SDM","i_lat":-6.296963,"i_long":106.712277},{"time":4,"distance":1994,"transit":false,"line":6,"station_name":"Jurangmangu","is_transit":false,"station_id":"JMU","i_lat":-6.288927,"i_long":106.728916},{"i_lat":-6.276362,"station_name":"Pondokranji","line":6,"i_long":106.74273,"distance":2179,"is_transit":false,"time":3,"station_id":"PDJ","transit":false},{"transit":false,"time":8,"line":6,"is_transit":false,"i_lat":-6.237242,"i_long":106.780334,"station_id":"KBY","distance":6218,"station_name":"Kebayoran"},{"i_long":106.79689,"i_lat":-6.207404,"station_name":"Palmerah","is_transit":false,"time":7,"transit":false,"distance":3737,"station_id":"PLM","line":6},{"station_name":"Tanah Abang","time":6,"station_id":"THB","i_long":106.811091,"i_lat":-6.185545,"transit":true,"line":1,"distance":3191,"is_transit":true},{"line":1,"time":5,"distance":2029,"is_transit":false,"station_name":"Karet","i_lat":-6.20132,"station_id":"KAT","i_long":106.816351,"transit":false},{"time":1,"station_name":"Sudirman Baru","is_transit":false,"distance":471,"i_long":106.819881,"station_id":"SUDB","i_lat":-6.201433,"transit":false,"line":1},{"station_name":"Sudirman","station_id":"SUD","line":1,"distance":280,"time":1,"i_lat":-6.202263,"transit":false,"i_long":106.822649,"is_transit":false},{"station_name":"Manggarai","line":2,"transit":true,"i_lat":-6.209883,"distance":3186,"i_long":106.84912,"time":4,"is_transit":true,"station_id":"MRI"},{"i_lat":-6.198556,"line":2,"station_id":"CKI","i_long":106.840169,"station_name":"Cikini","time":4,"distance":1590,"is_transit":false,"transit":false},{"line":2,"station_name":"Gondangdia","transit":false,"distance":1750,"is_transit":false,"i_lat":-6.186295,"station_id":"GDD","time":3,"i_long":106.832183},{"station_id":"JUA","transit":false,"i_lat":-6.166716,"line":2,"time":4,"station_name":"Juanda","is_transit":false,"distance":2015,"i_long":106.828284},{"line":2,"time":2,"station_name":"Sawah Besar","is_transit":false,"transit":false,"station_id":"SW","i_long":106.827103,"distance":1149,"i_lat":-6.160725},{"transit":false,"line":2,"time":2,"distance":906,"station_name":"Manggabesar","station_id":"MGB","is_transit":false,"i_lat":-6.149769,"i_long":106.82482},{"time":2,"station_name":"Jayakarta","distance":1080,"transit":false,"station_id":"JAY","is_transit":false,"i_long":106.820901,"i_lat":-6.141205,"line":2},{"station_name":"Jakarta Kota","transit":true,"station_id":"JAKK","i_lat":-6.137569,"time":4,"line":2,"distance":1264,"is_transit":true,"i_long":106.812439},{"distance":1364,"station_id":"KPB","station_name":"Kampung Bandan","transit":true,"i_long":106.826365,"time":3,"is_transit":true,"line":4,"i_lat":-6.132549},{"is_transit":false,"i_lat":-6.144674,"station_id":"AK","line":1,"distance":4102,"time":9,"station_name":"Angke","transit":false,"i_long":106.79867},{"i_lat":-6.155215,"distance":1230,"i_long":106.800832,"station_name":"Duri","station_id":"DU","line":1,"time":4,"is_transit":true,"transit":true},{"line":5,"distance":1700,"time":3,"is_transit":false,"station_id":"GGL","i_lat":-6.162021,"transit":false,"i_long":106.788277,"station_name":"Grogol"},{"time":2,"line":5,"transit":false,"station_id":"PSG","i_lat":-6.161433,"i_long":106.771379,"station_name":"Pesing","distance":2036,"is_transit":false},{"i_lat":-6.1587309999999995,"station_name":"Taman Kota","distance":1614,"station_id":"TKO","is_transit":false,"line":5,"time":2,"transit":false,"i_long":106.756522},{"station_name":"Bojongindah","time":2,"distance":2334,"i_lat":-6.159876,"transit":false,"is_transit":false,"line":5,"station_id":"BOI","i_long":106.737035},{"station_name":"Rawa Buaya","line":5,"time":4,"i_long":106.723064,"is_transit":false,"i_lat":-6.162758,"transit":false,"distance":1152,"station_id":"RW"},{"transit":false,"time":3,"station_id":"KDS","is_transit":false,"i_lat":-6.166068,"i_long":106.701612,"line":5,"distance":2504,"station_name":"Kalideres"},{"station_id":"PI","i_long":106.679458,"distance":2548,"time":3,"is_transit":false,"line":5,"i_lat":-6.169933,"transit":false,"station_name":"Poris"},{"station_name":"Batuceper","time":3,"line":5,"station_id":"BPR","i_long":106.665036,"is_transit":false,"transit":false,"i_lat":-6.171811,"distance":1834},{"is_transit":false,"i_long":106.64657,"transit":false,"i_lat":-6.17331,"station_name":"Tanah Tinggi","line":5,"time":3,"station_id":"TTI","distance":2028},{"station_id":"TNG","i_long":106.632761,"distance":1547,"time":3,"is_transit":false,"i_lat":-6.176583,"transit":false,"station_name":"Tangerang","line":5}],[{"station_id":"CKY","i_long":106.411216,"station_name":"Cikoya","is_transit":false,"line":3,"i_lat":-6.33561,"distance":0,"time":0,"transit":false},{"distance":2651,"time":3,"transit":false,"station_id":"TGS","i_lat":-6.328533,"i_long":106.425991,"station_name":"Tigaraksa","line":6,"is_transit":false},{"time":5,"distance":2974,"transit":false,"station_name":"Tenjo","is_transit":false,"station_id":"TEJ","i_lat":-6.327251,"i_long":106.460812,"line":6},{"transit":false,"i_long":106.491338,"station_id":"DAR","distance":3902,"time":5,"station_name":"Daru","is_transit":false,"i_lat":-6.338021,"line":0},{"distance":2675,"line":3,"station_name":"Cilejit","is_transit":false,"i_long":106.508482,"station_id":"CJT","time":6,"transit":false,"i_lat":-6.354349},{"i_lat":-6.3441410000000005,"station_id":"PRP","is_transit":false,"distance":7025,"station_name":"Parung Panjang","i_long":106.568863,"time":9,"transit":false,"line":6},{"line":3,"station_name":"Cicayur","transit":false,"station_id":"CC","distance":5968,"i_lat":-6.329547,"is_transit":false,"i_long":106.617853,"time":8},{"distance":2519,"time":4,"i_lat":-6.32484,"line":3,"station_id":"CSK","station_name":"Cisauk","transit":false,"is_transit":false,"i_long":106.640411},{"i_lat":-6.319871,"transit":false,"line":6,"i_long":106.66566,"is_transit":false,"station_name":"Serpong","station_id":"SRP","distance":1784,"time":4},{"time":4,"transit":false,"is_transit":false,"station_id":"RU","station_name":"Rawa Buntu","line":6,"i_lat":-6.314823,"distance":2413,"i_long":106.675475},{"distance":4566,"transit":false,"i_lat":-6.296963,"line":6,"station_id":"SDM","time":6,"station_name":"Sudimara","is_transit":false,"i_long":106.712277},{"distance":1994,"station_id":"JMU","line":6,"transit":false,"i_lat":-6.288927,"station_name":"Jurangmangu","time":4,"i_long":106.728916,"is_transit":false},{"line":6,"time":3,"station_name":"Pondokranji","is_transit":false,"i_lat":-6.276362,"transit":false,"distance":2179,"station_id":"PDJ","i_long":106.74273},{"time":8,"is_transit":false,"transit":false,"station_name":"Kebayoran","i_lat":-6.237242,"distance":6218,"line":6,"i_long":106.780334,"station_id":"KBY"},{"i_long":106.79689,"i_lat":-6.207404,"station_name":"Palmerah","distance":3737,"transit":false,"is_transit":false,"station_id":"PLM","line":6,"time":7},{"station_name":"Tanah Abang","i_long":106.811091,"distance":3191,"station_id":"THB","time":6,"transit":true,"line":1,"i_lat":-6.185545,"is_transit":true},{"line":1,"time":5,"is_transit":false,"i_lat":-6.20132,"transit":false,"i_long":106.816351,"station_id":"KAT","distance":2029,"station_name":"Karet"},{"is_transit":false,"line":1,"distance":471,"station_name":"Sudirman Baru","transit":false,"station_id":"SUDB","i_lat":-6.201433,"time":1,"i_long":106.819881},{"transit":false,"i_lat":-6.202263,"distance":280,"time":1,"line":1,"is_transit":false,"station_id":"SUD","station_name":"Sudirman","i_long":106.822649},{"time":4,"transit":false,"station_id":"MRI","i_long":106.84912,"distance":3186,"is_transit":false,"i_lat":-6.209883,"line":2,"station_name":"Manggarai"},{"i_lat":-6.212485,"station_name":"Matraman","transit":false,"is_transit":false,"i_long":106.858896,"distance":1275,"station_id":"MTR","line":1,"time":2},{"time":8,"distance":1377,"transit":true,"i_lat":-6.215091,"i_long":106.86807400000001,"station_name":"Jatinegara","is_transit":true,"station_id":"JNG","line":1},{"is_transit":false,"station_id":"POK","transit":false,"time":2,"i_long":106.861737,"distance":1236,"line":11,"station_name":"Pondok Jati","i_lat":-6.209188},{"station_id":"KMT","is_transit":false,"line":11,"i_long":106.855437,"transit":false,"i_lat":-6.193792,"station_name":"Kramat","distance":1829,"time":2},{"line":11,"is_transit":false,"station_id":"GST","transit":false,"i_long":106.850107,"i_lat":-6.185975,"distance":973,"station_name":"Gang Sentiong","time":1},{"distance":1567,"is_transit":false,"time":8,"transit":false,"station_name":"Pasar Senen","station_id":"PSE","i_lat":-6.174784,"line":11,"i_long":106.84368},{"station_id":"KMO","line":11,"transit":false,"i_long":106.839204,"distance":1436,"station_name":"Kemayoran","is_transit":false,"i_lat":-6.161728,"time":4},{"station_name":"Rajawali","line":11,"station_id":"RJW","is_transit":false,"distance":1901,"i_long":106.836569,"transit":false,"time":5,"i_lat":-6.14505},{"station_name":"Kampung Bandan","time":3,"is_transit":true,"station_id":"KPB","i_lat":-6.132549,"line":4,"i_long":106.826365,"transit":true,"distance":1444},{"distance":4102,"time":9,"i_lat":-6.144674,"transit":false,"i_long":106.79867,"line":1,"station_name":"Angke","station_id":"AK","is_transit":false},{"i_long":106.800832,"is_transit":true,"line":1,"time":4,"transit":true,"station_name":"Duri","station_id":"DU","i_lat":-6.155215,"distance":1230},{"line":5,"is_transit":false,"station_id":"GGL","transit":false,"i_lat":-6.162021,"i_long":106.788277,"distance":1700,"station_name":"Grogol","time":3},{"time":2,"station_name":"Pesing","i_lat":-6.161433,"transit":false,"is_transit":false,"distance":2036,"i_long":106.771379,"line":5,"station_id":"PSG"},{"is_transit":false,"station_id":"TKO","i_lat":-6.1587309999999995,"distance":1614,"transit":false,"line":5,"time":2,"i_long":106.756522,"station_name":"Taman Kota"},{"time":2,"is_transit":false,"i_long":106.737035,"distance":2334,"transit":false,"station_id":"BOI","i_lat":-6.159876,"line":5,"station_name":"Bojongindah"},{"station_name":"Rawa Buaya","time":4,"i_lat":-6.162758,"line":5,"distance":1152,"transit":false,"i_long":106.723064,"is_transit":false,"station_id":"RW"},{"line":5,"time":3,"is_transit":false,"distance":2504,"station_name":"Kalideres","station_id":"KDS","i_long":106.701612,"i_lat":-6.166068,"transit":false},{"transit":false,"station_id":"PI","line":5,"distance":2548,"i_long":106.679458,"i_lat":-6.169933,"station_name":"Poris","is_transit":false,"time":3},{"transit":false,"i_lat":-6.171811,"i_long":106.665036,"line":5,"is_transit":false,"station_name":"Batuceper","station_id":"BPR","distance":1834,"time":3},{"line":5,"station_name":"Tanah Tinggi","is_transit":false,"station_id":"TTI","i_long":106.64657,"transit":false,"i_lat":-6.17331,"distance":2028,"time":3},{"distance":1547,"i_long":106.632761,"is_transit":false,"line":5,"time":3,"station_name":"Tangerang","transit":false,"station_id":"TNG","i_lat":-6.176583}]]}