{"data":[[{"transit":false,"line":3,"station_name":"Cikoya","station_id":"CKY","time":0,"i_lat":-6.33561,"i_long":106.411216,"is_transit":false,"distance":0},{"time":3,"line":6,"station_id":"TGS","transit":false,"is_transit":false,"station_name":"Tigaraksa","distance":2651,"i_lat":-6.328533,"i_long":106.425991},{"is_transit":false,"distance":2974,"line":6,"station_name":"Tenjo","i_lat":-6.327251,"time":5,"transit":false,"station_id":"TEJ","i_long":106.460812},{"station_name":"Daru","transit":false,"i_lat":-6.338021,"time":5,"distance":3902,"is_transit":false,"line":0,"station_id":"DAR","i_long":106.491338},{"station_name":"Cilejit","time":6,"transit":false,"i_long":106.508482,"line":3,"station_id":"CJT","is_transit":false,"i_lat":-6.354349,"distance":2675},{"station_name":"Parung Panjang","is_transit":false,"station_id":"PRP","line":6,"distance":7025,"i_long":106.568863,"time":9,"transit":false,"i_lat":-6.3441410000000005},{"station_id":"CC","is_transit":false,"line":3,"i_lat":-6.329547,"distance":5968,"i_long":106.617853,"time":8,"station_name":"Cicayur","transit":false},{"station_id":"CSK","transit":false,"i_long":106.640411,"line":3,"time":4,"distance":2519,"is_transit":false,"i_lat":-6.32484,"station_name":"Cisauk"},{"line":6,"i_lat":-6.319871,"is_transit":false,"distance":1784,"transit":false,"station_name":"Serpong","time":4,"station_id":"SRP","i_long":106.66566},{"time":4,"transit":false,"station_id":"RU","is_transit":false,"i_long":106.675475,"line":6,"distance":2413,"i_lat":-6.314823,"station_name":"Rawa Buntu"},{"line":6,"is_transit":false,"distance":4566,"station_name":"Sudimara","transit":false,"i_lat":-6.296963,"i_long":106.712277,"station_id":"SDM","time":6},{"i_lat":-6.288927,"line":6,"transit":false,"distance":1994,"time":4,"station_name":"Jurangmangu","is_transit":false,"station_id":"JMU","i_long":106.728916},{"i_lat":-6.276362,"is_transit":false,"time":3,"station_id":"PDJ","station_name":"Pondokranji","distance":2179,"transit":false,"line":6,"i_long":106.74273},{"i_lat":-6.237242,"station_id":"KBY","distance":6218,"i_long":106.780334,"transit":false,"is_transit":false,"time":8,"station_name":"Kebayoran","line":6},{"station_id":"PLM","distance":3737,"i_lat":-6.207404,"transit":false,"i_long":106.79689,"is_transit":false,"line":6,"time":7,"station_name":"Palmerah"},{"transit":true,"time":6,"is_transit":true,"i_long":106.811091,"line":1,"i_lat":-6.185545,"station_name":"Tanah Abang","station_id":"THB","distance":3191},{"distance":3632,"is_transit":true,"transit":true,"i_lat":-6.155215,"i_long":106.800832,"station_id":"DU","time":8,"station_name":"Duri","line":1},{"i_long":106.788277,"is_transit":false,"distance":1700,"line":5,"transit":false,"time":3,"station_id":"GRG","i_lat":-6.162021,"station_name":"Grogol"},{"transit":false,"is_transit":false,"line":5,"i_long":106.771379,"time":2,"station_id":"PSG","distance":2036,"i_lat":-6.161433,"station_name":"Pesing"},{"time":2,"station_name":"Taman Kota","station_id":"TKO","distance":1614,"transit":false,"line":5,"is_transit":false,"i_lat":-6.1587309999999995,"i_long":106.756522},{"station_name":"Bojongindah","i_long":106.737035,"station_id":"BOI","time":2,"is_transit":false,"distance":2334,"transit":false,"line":5,"i_lat":-6.159876},{"transit":false,"line":5,"i_long":106.723064,"station_name":"Rawa Buaya","distance":1152,"i_lat":-6.162758,"time":4,"is_transit":false,"station_id":"RW"},{"i_long":106.701612,"station_name":"Kalideres","is_transit":false,"transit":false,"distance":2504,"line":5,"i_lat":-6.166068,"time":3,"station_id":"KDS"},{"transit":false,"distance":2548,"i_lat":-6.169933,"is_transit":false,"i_long":106.679458,"line":5,"station_id":"PI","time":3,"station_name":"Poris"},{"station_name":"Batuceper","transit":false,"distance":1834,"time":3,"is_transit":false,"i_long":106.665036,"i_lat":-6.171811,"station_id":"BPR","line":5},{"is_transit":false,"i_long":106.64657,"distance":2028,"station_id":"TTI","i_lat":-6.17331,"station_name":"Tanah Tinggi","time":3,"line":5,"transit":false},{"station_id":"TNG","time":3,"transit":false,"i_long":106.632761,"line":5,"is_transit":false,"station_name":"Tangerang","distance":1547,"i_lat":-6.176583}],[{"station_id":"CKY","station_name":"Cikoya","line":3,"i_long":106.411216,"time":0,"is_transit":false,"i_lat":-6.33561,"transit":false,"distance":0},{"station_name":"Tigaraksa","is_transit":false,"i_lat":-6.328533,"i_long":106.425991,"time":3,"distance":2651,"line":6,"station_id":"TGS","transit":false},{"station_id":"TEJ","line":6,"i_lat":-6.327251,"station_name":"Tenjo","i_long":106.460812,"is_transit":false,"time":5,"transit":false,"distance":2974},{"time":5,"distance":3902,"i_long":106.491338,"is_transit":false,"station_id":"DAR","line":0,"i_lat":-6.338021,"station_name":"Daru","transit":false},{"station_name":"Cilejit","i_lat":-6.354349,"i_long":106.508482,"time":6,"transit":false,"distance":2675,"station_id":"CJT","is_transit":false,"line":3},{"station_name":"Parung Panjang","distance":7025,"i_lat":-6.3441410000000005,"transit":false,"time":9,"is_transit":false,"line":6,"i_long":106.568863,"station_id":"PRP"},{"time":8,"i_lat":-6.329547,"transit":false,"i_long":106.617853,"station_id":"CC","is_transit":false,"line":3,"distance":5968,"station_name":"Cicayur"},{"i_long":106.640411,"i_lat":-6.32484,"distance":2519,"line":3,"is_transit":false,"transit":false,"time":4,"station_name":"Cisauk","station_id":"CSK"},{"station_name":"Serpong","transit":false,"distance":1784,"i_lat":-6.319871,"i_long":106.66566,"is_transit":false,"time":4,"station_id":"SRP","line":6},{"distance":2413,"line":6,"i_long":106.675475,"station_id":"RU","time":4,"station_name":"Rawa Buntu","i_lat":-6.314823,"is_transit":false,"transit":false},{"i_lat":-6.296963,"station_name":"Sudimara","transit":false,"distance":4566,"line":6,"i_long":106.712277,"is_transit":false,"station_id":"SDM","time":6},{"i_long":106.728916,"line":6,"time":4,"i_lat":-6.288927,"station_name":"Jurangmangu","is_transit":false,"distance":1994,"transit":false,"station_id":"JMU"},{"station_id":"PDJ","i_lat":-6.276362,"is_transit":false,"distance":2179,"i_long":106.74273,"station_name":"Pondokranji","time":3,"transit":false,"line":6},{"time":8,"station_name":"Kebayoran","transit":false,"i_lat":-6.237242,"line":6,"distance":6218,"i_long":106.780334,"is_transit":false,"station_id":"KBY"},{"line":6,"time":7,"distance":3737,"i_lat":-6.207404,"station_id":"PLM","station_name":"Palmerah","transit":false,"is_transit":false,"i_long":106.79689},{"station_id":"THB","transit":true,"station_name":"Tanah Abang","distance":3191,"line":1,"i_long":106.811091,"time":6,"i_lat":-6.185545,"is_transit":true},{"i_long":106.816351,"is_transit":false,"line":1,"transit":false,"station_id":"KAT","time":5,"distance":2029,"i_lat":-6.20132,"station_name":"Karet"},{"station_name":"Sudirman Baru","transit":false,"station_id":"SUDB","line":1,"time":1,"distance":471,"i_lat":-6.201433,"i_long":106.819881,"is_transit":false},{"time":1,"line":1,"station_name":"Sudirman","is_transit":false,"transit":false,"distance":280,"i_lat":-6.202263,"station_id":"SUD","i_long":106.822649},{"i_long":106.84912,"is_transit":true,"time":4,"station_id":"MRI","line":2,"station_name":"Manggarai","transit":true,"i_lat":-6.209883,"distance":3186},{"line":2,"transit":false,"station_id":"CKI","i_long":106.840169,"i_lat":-6.198556,"is_transit":false,"distance":1590,"time":4,"station_name":"Cikini"},{"i_lat":-6.186295,"distance":1750,"station_name":"Gondangdia","i_long":106.832183,"transit":false,"is_transit":false,"line":2,"station_id":"GDD","time":3},{"time":4,"station_name":"Juanda","transit":false,"is_transit":false,"distance":2015,"i_long":106.828284,"station_id":"JUA","i_lat":-6.166716,"line":2},{"i_long":106.827103,"time":2,"transit":false,"is_transit":false,"i_lat":-6.160725,"station_id":"SW","distance":1149,"station_name":"Sawah Besar","line":2},{"i_long":106.82482,"distance":906,"transit":false,"is_transit":false,"time":2,"station_name":"Manggabesar","station_id":"MGB","i_lat":-6.149769,"line":2},{"i_lat":-6.141205,"is_transit":false,"i_long":106.820901,"time":2,"station_id":"JAY","station_name":"Jayakarta","distance":1080,"line":2,"transit":false},{"line":2,"time":4,"i_lat":-6.137569,"distance":1264,"station_name":"Jakarta Kota","transit":true,"i_long":106.812439,"is_transit":true,"station_id":"JAKK"},{"distance":1364,"line":4,"time":3,"i_lat":-6.132549,"is_transit":true,"transit":true,"station_name":"Kampung Bandan","i_long":106.826365,"station_id":"KPB"},{"station_id":"AK","i_long":106.79867,"distance":4102,"line":1,"transit":false,"time":9,"i_lat":-6.144674,"is_transit":false,"station_name":"Angke"},{"time":4,"transit":true,"i_lat":-6.155215,"station_id":"DU","station_name":"Duri","distance":1230,"i_long":106.800832,"line":1,"is_transit":true},{"station_name":"Grogol","transit":false,"i_lat":-6.162021,"time":3,"i_long":106.788277,"line":5,"distance":1700,"is_transit":false,"station_id":"GRG"},{"is_transit":false,"line":5,"time":2,"i_lat":-6.161433,"i_long":106.771379,"distance":2036,"station_id":"PSG","station_name":"Pesing","transit":false},{"distance":1614,"i_lat":-6.1587309999999995,"i_long":106.756522,"station_name":"Taman Kota","transit":false,"line":5,"station_id":"TKO","time":2,"is_transit":false},{"station_id":"BOI","is_transit":false,"station_name":"Bojongindah","line":5,"i_lat":-6.159876,"transit":false,"distance":2334,"i_long":106.737035,"time":2},{"transit":false,"line":5,"is_transit":false,"station_id":"RW","time":4,"distance":1152,"i_lat":-6.162758,"i_long":106.723064,"station_name":"Rawa Buaya"},{"line":5,"is_transit":false,"distance":2504,"i_lat":-6.166068,"station_name":"Kalideres","time":3,"station_id":"KDS","transit":false,"i_long":106.701612},{"time":3,"distance":2548,"station_id":"PI","line":5,"i_long":106.679458,"i_lat":-6.169933,"station_name":"Poris","transit":false,"is_transit":false},{"i_long":106.665036,"is_transit":false,"station_id":"BPR","line":5,"time":3,"station_name":"Batuceper","i_lat":-6.171811,"transit":false,"distance":1834},{"station_id":"TTI","i_long":106.64657,"is_transit":false,"time":3,"line":5,"transit":false,"i_lat":-6.17331,"station_name":"Tanah Tinggi","distance":2028},{"is_transit":false,"i_lat":-6.176583,"i_long":106.632761,"distance":1547,"line":5,"station_id":"TNG","station_name":"Tangerang","time":3,"transit":false}],[{"i_long":106.411216,"distance":0,"station_id":"CKY","transit":false,"line":3,"time":0,"i_lat":-6.33561,"is_transit":false,"station_name":"Cikoya"},{"i_lat":-6.328533,"line":6,"is_transit":false,"i_long":106.425991,"station_name":"Tigaraksa","transit":false,"time":3,"station_id":"TGS","distance":2651},{"station_id":"TEJ","time":5,"distance":2974,"i_long":106.460812,"station_name":"Tenjo","is_transit":false,"i_lat":-6.327251,"transit":false,"line":6},{"i_lat":-6.338021,"transit":false,"i_long":106.491338,"station_name":"Daru","is_transit":false,"line":0,"time":5,"distance":3902,"station_id":"DAR"},{"is_transit":false,"station_id":"CJT","line":3,"station_name":"Cilejit","distance":2675,"time":6,"transit":false,"i_lat":-6.354349,"i_long":106.508482},{"time":9,"station_id":"PRP","i_lat":-6.3441410000000005,"transit":false,"station_name":"Parung Panjang","is_transit":false,"distance":7025,"i_long":106.568863,"line":6},{"i_long":106.617853,"line":3,"is_transit":false,"i_lat":-6.329547,"distance":5968,"station_name":"Cicayur","station_id":"CC","transit":false,"time":8},{"is_transit":false,"time":4,"transit":false,"line":3,"i_long":106.640411,"station_name":"Cisauk","distance":2519,"i_lat":-6.32484,"station_id":"CSK"},{"i_long":106.66566,"time":4,"is_transit":false,"line":6,"station_name":"Serpong","station_id":"SRP","i_lat":-6.319871,"transit":false,"distance":1784},{"station_id":"RU","time":4,"station_name":"Rawa Buntu","i_lat":-6.314823,"transit":false,"is_transit":false,"distance":2413,"line":6,"i_long":106.675475},{"transit":false,"is_transit":false,"line":6,"station_name":"Sudimara","i_long":106.712277,"station_id":"SDM","time":6,"distance":4566,"i_lat":-6.296963},{"distance":1994,"time":4,"is_transit":false,"i_lat":-6.288927,"i_long":106.728916,"station_name":"Jurangmangu","station_id":"JMU","transit":false,"line":6},{"line":6,"i_lat":-6.276362,"i_long":106.74273,"time":3,"is_transit":false,"station_id":"PDJ","distance":2179,"transit":false,"station_name":"Pondokranji"},{"i_long":106.780334,"is_transit":false,"transit":false,"line":6,"station_name":"Kebayoran","i_lat":-6.237242,"time":8,"distance":6218,"station_id":"KBY"},{"i_lat":-6.207404,"is_transit":false,"distance":3737,"station_name":"Palmerah","transit":false,"line":6,"time":7,"i_long":106.79689,"station_id":"PLM"},{"transit":true,"time":6,"station_id":"THB","distance":3191,"i_lat":-6.185545,"is_transit":true,"station_name":"Tanah Abang","i_long":106.811091,"line":1},{"transit":false,"i_long":106.816351,"station_name":"Karet","station_id":"KAT","is_transit":false,"line":1,"time":5,"i_lat":-6.20132,"distance":2029},{"time":1,"i_long":106.819881,"station_name":"Sudirman Baru","distance":471,"i_lat":-6.201433,"is_transit":false,"line":1,"station_id":"SUDB","transit":false},{"transit":false,"i_lat":-6.202263,"time":1,"distance":280,"station_name":"Sudirman","line":1,"is_transit":false,"station_id":"SUD","i_long":106.822649},{"i_lat":-6.209883,"transit":false,"line":2,"is_transit":false,"i_long":106.84912,"time":4,"station_id":"MRI","station_name":"Manggarai","distance":3186},{"station_name":"Matraman","i_lat":-6.212485,"transit":false,"station_id":"MTR","time":2,"i_long":106.858896,"is_transit":false,"distance":1275,"line":1},{"line":1,"is_transit":true,"i_lat":-6.215091,"i_long":106.86807400000001,"station_id":"JNG","distance":1377,"station_name":"Jatinegara","time":8,"transit":true},{"i_long":106.861737,"time":2,"i_lat":-6.209188,"line":11,"station_name":"Pondok Jati","is_transit":false,"distance":1236,"transit":false,"station_id":"POK"},{"time":2,"distance":1829,"i_lat":-6.193792,"i_long":106.855437,"is_transit":false,"station_name":"Kramat","station_id":"KMT","transit":false,"line":11},{"station_name":"Gang Sentiong","is_transit":false,"distance":973,"line":11,"i_lat":-6.185975,"i_long":106.850107,"time":1,"station_id":"GST","transit":false},{"i_long":106.84368,"i_lat":-6.174784,"time":8,"transit":false,"distance":1567,"station_name":"Pasar Senen","is_transit":false,"line":11,"station_id":"PSE"},{"i_lat":-6.161728,"time":4,"distance":1436,"transit":false,"station_id":"KMO","i_long":106.839204,"is_transit":false,"line":11,"station_name":"Kemayoran"},{"station_name":"Rajawali","is_transit":false,"time":5,"distance":1901,"i_lat":-6.14505,"line":11,"i_long":106.836569,"station_id":"RJW","transit":false},{"i_long":106.826365,"line":4,"station_name":"Kampung Bandan","station_id":"KPB","time":3,"is_transit":true,"transit":true,"distance":1444,"i_lat":-6.132549},{"time":9,"station_id":"AK","i_lat":-6.144674,"station_name":"Angke","transit":false,"i_long":106.79867,"line":1,"is_transit":false,"distance":4102},{"transit":true,"time":4,"station_id":"DU","i_lat":-6.155215,"line":1,"distance":1230,"is_transit":true,"station_name":"Duri","i_long":106.800832},{"line":5,"time":3,"transit":false,"is_transit":false,"i_long":106.788277,"distance":1700,"i_lat":-6.162021,"station_name":"Grogol","station_id":"GRG"},{"transit":false,"distance":2036,"station_id":"PSG","is_transit":false,"i_lat":-6.161433,"line":5,"i_long":106.771379,"station_name":"Pesing","time":2},{"line":5,"station_id":"TKO","i_long":106.756522,"transit":false,"time":2,"distance":1614,"is_transit":false,"i_lat":-6.1587309999999995,"station_name":"Taman Kota"},{"is_transit":false,"station_id":"BOI","transit":false,"distance":2334,"time":2,"i_long":106.737035,"station_name":"Bojongindah","i_lat":-6.159876,"line":5},{"station_name":"Rawa Buaya","distance":1152,"is_transit":false,"i_lat":-6.162758,"i_long":106.723064,"time":4,"transit":false,"line":5,"station_id":"RW"},{"is_transit":false,"i_long":106.701612,"station_id":"KDS","station_name":"Kalideres","time":3,"i_lat":-6.166068,"distance":2504,"transit":false,"line":5},{"i_long":106.679458,"is_transit":false,"station_id":"PI","line":5,"distance":2548,"time":3,"i_lat":-6.169933,"transit":false,"station_name":"Poris"},{"time":3,"station_name":"Batuceper","transit":false,"i_lat":-6.171811,"station_id":"BPR","distance":1834,"i_long":106.665036,"is_transit":false,"line":5},{"station_id":"TTI","i_lat":-6.17331,"transit":false,"station_name":"Tanah Tinggi","time":3,"is_transit":false,"distance":2028,"i_long":106.64657,"line":5},{"station_name":"Tangerang","is_transit":false,"distance":1547,"transit":false,"station_id":"TNG","line":5,"i_long":106.632761,"time":3,"i_lat":-6.176583}]]}