{"data":[[{"line":0,"transit":false,"time":0,"distance":0,"i_long":106.411216,"is_transit":false,"station_name":"Cikoya","i_lat":-6.33561,"station_id":"CKY"},{"station_name":"Tigaraksa","station_id":"TGS","i_lat":-6.328533,"i_long":106.425991,"distance":2651,"is_transit":false,"transit":false,"line":6,"time":3},{"i_lat":-6.327251,"line":6,"transit":false,"time":5,"station_id":"TEJ","station_name":"Tenjo","i_long":106.460812,"distance":2974,"is_transit":false},{"i_long":106.491338,"is_transit":false,"line":0,"time":5,"distance":3902,"station_name":"Daru","station_id":"DAR","transit":false,"i_lat":-6.338021},{"station_id":"CJT","transit":false,"i_long":106.508482,"distance":2675,"is_transit":false,"line":0,"i_lat":-6.354349,"time":6,"station_name":"Cilejit"},{"station_id":"PRP","line":6,"is_transit":false,"time":9,"i_lat":-6.3441410000000005,"station_name":"Parung Panjang","transit":false,"i_long":106.568863,"distance":7025},{"time":8,"distance":5968,"i_long":106.617853,"transit":false,"station_id":"CC","station_name":"Cicayur","i_lat":-6.329547,"line":0,"is_transit":false},{"i_lat":-6.32484,"station_name":"Cisauk","i_long":106.640411,"distance":2519,"station_id":"CSK","time":4,"transit":false,"line":0,"is_transit":false},{"station_name":"Serpong","i_long":106.66566,"i_lat":-6.319871,"time":4,"distance":1784,"line":6,"station_id":"SRP","transit":false,"is_transit":false},{"i_long":106.675475,"transit":false,"station_id":"RU","distance":2413,"station_name":"Rawa Buntu","i_lat":-6.314823,"is_transit":false,"time":4,"line":6},{"transit":false,"is_transit":false,"distance":4566,"i_long":106.712277,"i_lat":-6.296963,"time":6,"line":6,"station_id":"SDM","station_name":"Sudimara"},{"time":4,"is_transit":false,"station_name":"Jurangmangu","station_id":"JMU","line":6,"distance":1994,"transit":false,"i_lat":-6.288927,"i_long":106.728916},{"line":6,"time":3,"distance":2179,"station_id":"PDJ","is_transit":false,"station_name":"Pondokranji","transit":false,"i_lat":-6.276362,"i_long":106.74273},{"station_name":"Kebayoran","i_lat":-6.237242,"distance":6218,"is_transit":false,"time":8,"line":6,"i_long":106.780334,"transit":false,"station_id":"KBY"},{"line":6,"i_long":106.79689,"i_lat":-6.207404,"transit":false,"station_name":"Palmerah","is_transit":false,"time":7,"station_id":"PLM","distance":3737},{"transit":true,"time":6,"distance":3191,"line":1,"station_name":"Tanah Abang","i_long":106.811091,"i_lat":-6.185545,"is_transit":true,"station_id":"THB"},{"station_name":"Karet","i_lat":-6.20132,"i_long":106.816351,"line":1,"transit":false,"is_transit":false,"distance":2029,"station_id":"KAT","time":5},{"line":1,"station_id":"SUDB","is_transit":false,"time":1,"transit":false,"i_long":106.819881,"distance":471,"station_name":"Sudirman Baru","i_lat":-6.201433},{"line":1,"transit":false,"distance":280,"i_lat":-6.202263,"i_long":106.822649,"time":1,"station_id":"SUD","is_transit":false,"station_name":"Sudirman"},{"i_lat":-6.209883,"station_name":"Manggarai","transit":true,"is_transit":true,"i_long":106.84912,"distance":3186,"station_id":"MRI","line":0,"time":4},{"distance":2610,"time":4,"i_lat":-6.226659,"is_transit":false,"transit":false,"station_id":"TEB","line":2,"i_long":106.857948,"station_name":"Tebet"},{"i_lat":-6.242512,"time":2,"transit":false,"line":0,"station_id":"CW","is_transit":false,"station_name":"Cawang","i_long":106.856607,"distance":1230},{"distance":1546,"transit":false,"line":0,"time":3,"i_long":106.85449,"station_id":"DRN","i_lat":-6.255332,"station_name":"Duren Kalibata","is_transit":false},{"transit":false,"is_transit":false,"station_name":"Pasar Minggu Baru","i_lat":-6.263214,"station_id":"PSMB","i_long":106.851577,"time":2,"line":2,"distance":824},{"is_transit":false,"i_lat":-6.2842400000000005,"distance":2380,"time":2,"transit":false,"i_long":106.843999,"line":2,"station_name":"Pasar Minggu","station_id":"PSM"},{"line":2,"i_lat":-6.3080680000000005,"time":4,"distance":2820,"station_id":"TNT","station_name":"Tanjung Barat","is_transit":false,"transit":false,"i_long":106.838896},{"distance":2671,"i_lat":-6.330363,"is_transit":false,"station_id":"LNA","time":3,"station_name":"Lenteng Agung","line":2,"transit":false,"i_long":106.832616}],[{"distance":0,"station_name":"Cikoya","i_long":106.411216,"line":0,"is_transit":false,"i_lat":-6.33561,"transit":false,"station_id":"CKY","time":0},{"is_transit":false,"i_long":106.425991,"station_name":"Tigaraksa","distance":2651,"station_id":"TGS","time":3,"transit":false,"line":6,"i_lat":-6.328533},{"line":6,"is_transit":false,"distance":2974,"i_lat":-6.327251,"time":5,"transit":false,"station_id":"TEJ","station_name":"Tenjo","i_long":106.460812},{"i_lat":-6.338021,"i_long":106.491338,"is_transit":false,"transit":false,"station_id":"DAR","time":5,"line":0,"station_name":"Daru","distance":3902},{"transit":false,"i_lat":-6.354349,"i_long":106.508482,"station_name":"Cilejit","line":0,"distance":2675,"station_id":"CJT","is_transit":false,"time":6},{"i_lat":-6.3441410000000005,"time":9,"transit":false,"station_id":"PRP","distance":7025,"line":6,"station_name":"Parung Panjang","is_transit":false,"i_long":106.568863},{"i_long":106.617853,"line":0,"is_transit":false,"station_name":"Cicayur","transit":false,"station_id":"CC","distance":5968,"i_lat":-6.329547,"time":8},{"station_id":"CSK","time":4,"station_name":"Cisauk","transit":false,"i_lat":-6.32484,"is_transit":false,"line":0,"distance":2519,"i_long":106.640411},{"line":6,"time":4,"distance":1784,"station_id":"SRP","is_transit":false,"transit":false,"i_long":106.66566,"i_lat":-6.319871,"station_name":"Serpong"},{"i_lat":-6.314823,"station_id":"RU","distance":2413,"i_long":106.675475,"station_name":"Rawa Buntu","transit":false,"time":4,"is_transit":false,"line":6},{"is_transit":false,"transit":false,"station_name":"Sudimara","i_lat":-6.296963,"i_long":106.712277,"distance":4566,"time":6,"line":6,"station_id":"SDM"},{"is_transit":false,"station_id":"JMU","station_name":"Jurangmangu","i_long":106.728916,"time":4,"i_lat":-6.288927,"distance":1994,"transit":false,"line":6},{"transit":false,"station_id":"PDJ","i_long":106.74273,"is_transit":false,"i_lat":-6.276362,"line":6,"station_name":"Pondokranji","time":3,"distance":2179},{"station_name":"Kebayoran","station_id":"KBY","distance":6218,"transit":false,"i_long":106.780334,"line":6,"is_transit":false,"time":8,"i_lat":-6.237242},{"station_id":"PLM","time":7,"i_lat":-6.207404,"station_name":"Palmerah","transit":false,"line":6,"i_long":106.79689,"distance":3737,"is_transit":false},{"station_id":"THB","station_name":"Tanah Abang","line":1,"time":6,"distance":3191,"i_lat":-6.185545,"i_long":106.811091,"is_transit":true,"transit":true},{"is_transit":true,"time":8,"distance":3632,"transit":true,"i_long":106.800832,"line":1,"i_lat":-6.155215,"station_id":"DU","station_name":"Duri"},{"transit":false,"i_lat":-6.144674,"i_long":106.79867,"station_name":"Angke","line":0,"distance":1230,"is_transit":false,"time":4,"station_id":"AK"},{"station_id":"KPB","distance":4102,"i_lat":-6.132549,"station_name":"Kampung Bandan","time":9,"is_transit":true,"transit":false,"i_long":106.826365,"line":0},{"i_lat":-6.137569,"is_transit":true,"i_long":106.812439,"transit":true,"line":0,"time":3,"station_name":"Jakarta Kota","station_id":"JAKK","distance":1364},{"i_long":106.820901,"station_id":"JAY","time":4,"distance":1264,"i_lat":-6.141205,"is_transit":false,"line":7,"station_name":"Jayakarta","transit":false},{"station_name":"Manggabesar","transit":false,"i_lat":-6.149769,"i_long":106.82482,"is_transit":false,"line":2,"time":2,"station_id":"MGB","distance":1080},{"station_id":"SW","i_lat":-6.160725,"transit":false,"time":2,"station_name":"Sawah Besar","line":2,"is_transit":false,"distance":906,"i_long":106.827103},{"station_id":"JUA","time":2,"station_name":"Juanda","transit":false,"line":2,"is_transit":false,"i_long":106.828284,"distance":1149,"i_lat":-6.166716},{"distance":2015,"i_lat":-6.186295,"transit":false,"station_id":"GDD","is_transit":false,"time":4,"i_long":106.832183,"line":2,"station_name":"Gondangdia"},{"distance":1750,"i_long":106.840169,"is_transit":false,"line":0,"i_lat":-6.198556,"transit":false,"station_name":"Cikini","station_id":"CKI","time":3},{"station_name":"Manggarai","distance":1590,"time":4,"transit":true,"i_long":106.84912,"station_id":"MRI","is_transit":true,"i_lat":-6.209883,"line":0},{"line":2,"station_id":"TEB","distance":2610,"i_long":106.857948,"time":4,"station_name":"Tebet","is_transit":false,"transit":false,"i_lat":-6.226659},{"distance":1230,"time":2,"i_long":106.856607,"station_id":"CW","is_transit":false,"station_name":"Cawang","transit":false,"i_lat":-6.242512,"line":0},{"i_lat":-6.255332,"station_name":"Duren Kalibata","i_long":106.85449,"station_id":"DRN","transit":false,"is_transit":false,"time":3,"line":0,"distance":1546},{"station_name":"Pasar Minggu Baru","time":2,"is_transit":false,"i_lat":-6.263214,"i_long":106.851577,"transit":false,"distance":824,"line":2,"station_id":"PSMB"},{"line":2,"i_lat":-6.2842400000000005,"i_long":106.843999,"station_name":"Pasar Minggu","is_transit":false,"distance":2380,"time":2,"transit":false,"station_id":"PSM"},{"line":2,"is_transit":false,"time":4,"transit":false,"distance":2820,"station_name":"Tanjung Barat","station_id":"TNT","i_lat":-6.3080680000000005,"i_long":106.838896},{"transit":false,"i_lat":-6.330363,"i_long":106.832616,"line":2,"is_transit":false,"station_id":"LNA","time":3,"distance":2671,"station_name":"Lenteng Agung"}],[{"time":0,"i_long":106.411216,"distance":0,"transit":false,"station_id":"CKY","i_lat":-6.33561,"station_name":"Cikoya","is_transit":false,"line":0},{"i_lat":-6.328533,"i_long":106.425991,"time":3,"station_id":"TGS","station_name":"Tigaraksa","line":6,"is_transit":false,"distance":2651,"transit":false},{"station_name":"Tenjo","time":5,"is_transit":false,"distance":2974,"transit":false,"i_lat":-6.327251,"station_id":"TEJ","i_long":106.460812,"line":6},{"transit":false,"line":0,"station_id":"DAR","i_long":106.491338,"i_lat":-6.338021,"distance":3902,"time":5,"station_name":"Daru","is_transit":false},{"i_long":106.508482,"is_transit":false,"i_lat":-6.354349,"station_name":"Cilejit","time":6,"station_id":"CJT","distance":2675,"line":0,"transit":false},{"station_id":"PRP","transit":false,"is_transit":false,"line":6,"i_lat":-6.3441410000000005,"distance":7025,"i_long":106.568863,"time":9,"station_name":"Parung Panjang"},{"transit":false,"i_lat":-6.329547,"station_name":"Cicayur","line":0,"is_transit":false,"station_id":"CC","distance":5968,"time":8,"i_long":106.617853},{"i_lat":-6.32484,"i_long":106.640411,"station_id":"CSK","is_transit":false,"transit":false,"line":0,"station_name":"Cisauk","time":4,"distance":2519},{"distance":1784,"is_transit":false,"station_name":"Serpong","transit":false,"i_lat":-6.319871,"i_long":106.66566,"station_id":"SRP","time":4,"line":6},{"station_id":"RU","is_transit":false,"station_name":"Rawa Buntu","i_lat":-6.314823,"i_long":106.675475,"line":6,"time":4,"transit":false,"distance":2413},{"station_name":"Sudimara","transit":false,"i_lat":-6.296963,"line":6,"time":6,"is_transit":false,"station_id":"SDM","i_long":106.712277,"distance":4566},{"station_name":"Jurangmangu","i_lat":-6.288927,"distance":1994,"is_transit":false,"line":6,"transit":false,"station_id":"JMU","time":4,"i_long":106.728916},{"station_name":"Pondokranji","transit":false,"line":6,"time":3,"distance":2179,"i_lat":-6.276362,"station_id":"PDJ","i_long":106.74273,"is_transit":false},{"time":8,"line":6,"station_id":"KBY","distance":6218,"i_lat":-6.237242,"i_long":106.780334,"station_name":"Kebayoran","is_transit":false,"transit":false},{"distance":3737,"i_long":106.79689,"line":6,"is_transit":false,"station_id":"PLM","station_name":"Palmerah","transit":false,"time":7,"i_lat":-6.207404},{"i_long":106.811091,"line":1,"station_id":"THB","is_transit":true,"station_name":"Tanah Abang","time":6,"distance":3191,"transit":true,"i_lat":-6.185545},{"time":8,"line":1,"station_name":"Duri","transit":true,"i_long":106.800832,"station_id":"DU","is_transit":true,"distance":3632,"i_lat":-6.155215},{"i_long":106.79867,"station_name":"Angke","time":4,"station_id":"AK","transit":false,"line":0,"distance":1230,"is_transit":false,"i_lat":-6.144674},{"i_lat":-6.132549,"is_transit":true,"station_name":"Kampung Bandan","transit":true,"i_long":106.826365,"line":0,"distance":4102,"station_id":"KPB","time":9},{"line":11,"station_id":"RJW","time":3,"distance":1444,"i_long":106.836569,"i_lat":-6.14505,"station_name":"Rajawali","is_transit":false,"transit":false},{"station_name":"Kemayoran","i_long":106.839204,"line":11,"is_transit":false,"station_id":"KMO","transit":false,"distance":1901,"time":5,"i_lat":-6.161728},{"line":11,"transit":false,"station_name":"Pasar Senen","is_transit":false,"i_lat":-6.174784,"station_id":"PSE","time":4,"distance":1436,"i_long":106.84368},{"is_transit":false,"i_long":106.850107,"station_id":"GST","distance":1567,"station_name":"Gang Sentiong","time":8,"i_lat":-6.185975,"line":11,"transit":false},{"time":1,"distance":973,"station_id":"KMT","transit":false,"i_lat":-6.193792,"i_long":106.855437,"is_transit":false,"station_name":"Kramat","line":11},{"distance":1829,"transit":false,"i_long":106.861737,"is_transit":false,"i_lat":-6.209188,"station_id":"POK","time":2,"line":11,"station_name":"Pondok Jati"},{"i_long":106.86807400000001,"station_id":"JNG","transit":true,"station_name":"Jatinegara","i_lat":-6.215091,"line":0,"time":9,"is_transit":true,"distance":1236},{"time":2,"transit":false,"i_long":106.858896,"distance":1377,"line":1,"station_id":"MTR","is_transit":false,"station_name":"Matraman","i_lat":-6.212485},{"is_transit":true,"station_id":"MRI","distance":1275,"time":2,"station_name":"Manggarai","i_long":106.84912,"line":0,"i_lat":-6.209883,"transit":true},{"station_id":"TEB","line":2,"time":4,"distance":2610,"station_name":"Tebet","i_lat":-6.226659,"is_transit":false,"transit":false,"i_long":106.857948},{"station_id":"CW","station_name":"Cawang","transit":false,"time":2,"line":0,"i_lat":-6.242512,"distance":1230,"is_transit":false,"i_long":106.856607},{"station_name":"Duren Kalibata","i_lat":-6.255332,"station_id":"DRN","is_transit":false,"time":3,"distance":1546,"line":0,"i_long":106.85449,"transit":false},{"transit":false,"distance":824,"i_lat":-6.263214,"is_transit":false,"station_name":"Pasar Minggu Baru","i_long":106.851577,"station_id":"PSMB","time":2,"line":2},{"is_transit":false,"i_lat":-6.2842400000000005,"station_id":"PSM","distance":2380,"station_name":"Pasar Minggu","transit":false,"line":2,"time":2,"i_long":106.843999},{"i_long":106.838896,"is_transit":false,"station_name":"Tanjung Barat","distance":2820,"station_id":"TNT","transit":false,"time":4,"i_lat":-6.3080680000000005,"line":2},{"i_lat":-6.330363,"transit":false,"is_transit":false,"station_name":"Lenteng Agung","station_id":"LNA","time":3,"distance":2671,"line":2,"i_long":106.832616}]]}