{"data":[[{"distance":0,"station_name":"Cikoya","is_transit":false,"i_long":106.411216,"transit":false,"time":0,"line":3,"station_id":"CKY","i_lat":-6.33561},{"time":3,"distance":2651,"i_lat":-6.328533,"transit":false,"station_name":"Tigaraksa","station_id":"TGS","is_transit":false,"line":6,"i_long":106.425991},{"is_transit":false,"i_long":106.460812,"line":6,"time":5,"transit":false,"i_lat":-6.327251,"station_name":"Tenjo","station_id":"TEJ","distance":2974},{"station_name":"Daru","transit":false,"distance":3902,"i_lat":-6.338021,"time":5,"station_id":"DAR","i_long":106.491338,"is_transit":false,"line":0},{"station_id":"CJT","is_transit":false,"line":3,"station_name":"Cilejit","transit":false,"time":6,"i_lat":-6.354349,"distance":2675,"i_long":106.508482},{"time":9,"is_transit":false,"station_name":"Parung Panjang","i_lat":-6.3441410000000005,"i_long":106.568863,"line":6,"station_id":"PRP","distance":7025,"transit":false},{"station_id":"CC","is_transit":false,"station_name":"Cicayur","distance":5968,"i_lat":-6.329547,"time":8,"transit":false,"i_long":106.617853,"line":3},{"distance":2519,"transit":false,"station_id":"CSK","time":4,"i_lat":-6.32484,"line":3,"station_name":"Cisauk","is_transit":false,"i_long":106.640411},{"transit":false,"station_id":"SRP","is_transit":false,"time":4,"station_name":"Serpong","line":6,"distance":1784,"i_lat":-6.319871,"i_long":106.66566},{"i_lat":-6.314823,"i_long":106.675475,"time":4,"line":6,"transit":false,"station_name":"Rawa Buntu","distance":2413,"station_id":"RU","is_transit":false}]]}