{"data":[[{"station_id":"CKY","i_lat":-6.33561,"i_long":106.411216,"time":0,"line":3,"station_name":"Cikoya","is_transit":false,"transit":false,"distance":0},{"i_long":106.425991,"is_transit":false,"transit":false,"i_lat":-6.328533,"time":3,"line":6,"distance":2651,"station_id":"TGS","station_name":"Tigaraksa"},{"i_long":106.460812,"time":5,"distance":2974,"station_id":"TEJ","station_name":"Tenjo","is_transit":false,"i_lat":-6.327251,"line":6,"transit":false},{"i_long":106.491338,"line":0,"station_id":"DAR","i_lat":-6.338021,"station_name":"Daru","transit":false,"time":5,"is_transit":false,"distance":3902},{"is_transit":false,"transit":false,"i_lat":-6.354349,"distance":2675,"i_long":106.508482,"station_name":"Cilejit","line":3,"station_id":"CJT","time":6},{"time":9,"line":6,"i_lat":-6.3441410000000005,"transit":false,"station_id":"PRP","is_transit":false,"station_name":"Parung Panjang","distance":7025,"i_long":106.568863},{"distance":5968,"time":8,"station_name":"Cicayur","station_id":"CC","i_lat":-6.329547,"i_long":106.617853,"line":3,"is_transit":false,"transit":false},{"i_long":106.640411,"distance":2519,"time":4,"line":3,"transit":false,"station_id":"CSK","is_transit":false,"station_name":"Cisauk","i_lat":-6.32484},{"time":4,"station_id":"SRP","is_transit":false,"station_name":"Serpong","i_long":106.66566,"transit":false,"line":6,"i_lat":-6.319871,"distance":1784}]]}