{"data":[[{"i_long":106.411216,"time":0,"line":3,"station_id":"CKY","station_name":"Cikoya","transit":false,"distance":0,"i_lat":-6.33561,"is_transit":false},{"i_long":106.425991,"transit":false,"i_lat":-6.328533,"line":6,"station_id":"TGS","station_name":"Tigaraksa","is_transit":false,"time":3,"distance":2651},{"is_transit":false,"transit":false,"i_lat":-6.327251,"line":6,"time":5,"distance":2974,"station_id":"TEJ","station_name":"Tenjo","i_long":106.460812},{"distance":3902,"station_id":"DAR","line":0,"transit":false,"time":5,"i_long":106.491338,"is_transit":false,"station_name":"Daru","i_lat":-6.338021},{"transit":false,"station_name":"Cilejit","station_id":"CJT","is_transit":false,"i_long":106.508482,"distance":2675,"i_lat":-6.354349,"time":6,"line":3},{"station_id":"PRP","is_transit":false,"time":9,"distance":7025,"station_name":"Parung Panjang","line":6,"i_long":106.568863,"transit":false,"i_lat":-6.3441410000000005},{"is_transit":false,"station_name":"Cicayur","time":8,"i_lat":-6.329547,"line":3,"transit":false,"station_id":"CC","distance":5968,"i_long":106.617853},{"station_name":"Cisauk","time":4,"distance":2519,"is_transit":false,"line":3,"transit":false,"station_id":"CSK","i_lat":-6.32484,"i_long":106.640411},{"time":4,"is_transit":false,"line":6,"i_lat":-6.319871,"i_long":106.66566,"transit":false,"station_name":"Serpong","distance":1784,"station_id":"SRP"},{"station_id":"RU","line":6,"i_lat":-6.314823,"distance":2413,"time":4,"station_name":"Rawa Buntu","transit":false,"i_long":106.675475,"is_transit":false},{"station_id":"SDM","time":6,"i_lat":-6.296963,"line":6,"station_name":"Sudimara","distance":4566,"transit":false,"is_transit":false,"i_long":106.712277},{"station_name":"Jurangmangu","time":4,"line":6,"station_id":"JMU","distance":1994,"i_lat":-6.288927,"is_transit":false,"i_long":106.728916,"transit":false},{"station_id":"PDJ","i_long":106.74273,"line":6,"time":3,"is_transit":false,"transit":false,"distance":2179,"station_name":"Pondokranji","i_lat":-6.276362},{"station_name":"Kebayoran","is_transit":false,"distance":6218,"transit":false,"i_lat":-6.237242,"time":8,"i_long":106.780334,"line":6,"station_id":"KBY"},{"station_id":"PLM","station_name":"Palmerah","transit":false,"distance":3737,"line":6,"time":7,"i_lat":-6.207404,"is_transit":false,"i_long":106.79689},{"is_transit":true,"line":1,"station_name":"Tanah Abang","distance":3191,"time":6,"station_id":"THB","i_lat":-6.185545,"i_long":106.811091,"transit":true},{"transit":false,"time":5,"line":1,"distance":2029,"station_name":"Karet","is_transit":false,"station_id":"KAT","i_lat":-6.20132,"i_long":106.816351},{"station_id":"SUDB","line":1,"distance":471,"station_name":"Sudirman Baru","time":1,"i_lat":-6.201433,"i_long":106.819881,"is_transit":false,"transit":false},{"time":1,"line":1,"station_id":"SUD","i_lat":-6.202263,"distance":280,"i_long":106.822649,"transit":false,"is_transit":false,"station_name":"Sudirman"},{"time":4,"is_transit":true,"station_name":"Manggarai","line":2,"distance":3186,"station_id":"MRI","transit":true,"i_long":106.84912,"i_lat":-6.209883},{"transit":false,"i_lat":-6.226659,"line":2,"station_name":"Tebet","distance":2610,"i_long":106.857948,"station_id":"TEB","time":4,"is_transit":false},{"station_name":"Cawang","is_transit":false,"time":2,"i_lat":-6.242512,"i_long":106.856607,"distance":1230,"line":2,"transit":false,"station_id":"CW"},{"station_id":"DRN","transit":false,"line":2,"time":3,"station_name":"Duren Kalibata","distance":1546,"is_transit":false,"i_lat":-6.255332,"i_long":106.85449},{"i_long":106.851577,"distance":824,"station_name":"Pasar Minggu Baru","line":2,"time":2,"is_transit":false,"station_id":"PSMB","i_lat":-6.263214,"transit":false},{"i_lat":-6.2842400000000005,"station_id":"PSM","time":2,"station_name":"Pasar Minggu","i_long":106.843999,"line":2,"is_transit":false,"transit":false,"distance":2380},{"is_transit":false,"i_long":106.838896,"station_id":"TNT","station_name":"Tanjung Barat","distance":2820,"transit":false,"i_lat":-6.3080680000000005,"time":4,"line":2},{"line":2,"i_lat":-6.330363,"time":3,"transit":false,"station_name":"Lenteng Agung","is_transit":false,"i_long":106.832616,"station_id":"LNA","distance":2671},{"is_transit":false,"distance":1029,"time":2,"line":2,"station_name":"Univ. Pancasila","transit":false,"station_id":"UP","i_long":106.834175,"i_lat":-6.339291},{"is_transit":false,"station_name":"Univ. Indonesia","i_lat":-6.360749,"time":3,"i_long":106.831474,"line":2,"transit":false,"distance":2264,"station_id":"UI"},{"distance":1109,"transit":false,"is_transit":false,"i_lat":-6.369073,"i_long":106.831114,"station_id":"POC","time":2,"line":2,"station_name":"Pondok Cina"},{"time":4,"i_lat":-6.391065,"station_id":"DPB","i_long":106.819451,"distance":2727,"is_transit":false,"line":2,"station_name":"Depokbaru","transit":false},{"line":2,"station_id":"DP","time":3,"transit":false,"distance":1584,"i_lat":-6.405256,"i_long":106.816926,"is_transit":false,"station_name":"Depok"}],[{"i_lat":-6.33561,"station_id":"CKY","is_transit":false,"time":0,"i_long":106.411216,"distance":0,"station_name":"Cikoya","line":3,"transit":false},{"is_transit":false,"time":3,"station_id":"TGS","i_long":106.425991,"station_name":"Tigaraksa","transit":false,"distance":2651,"line":6,"i_lat":-6.328533},{"i_lat":-6.327251,"is_transit":false,"distance":2974,"i_long":106.460812,"station_name":"Tenjo","line":6,"transit":false,"station_id":"TEJ","time":5},{"station_name":"Daru","time":5,"station_id":"DAR","line":0,"i_lat":-6.338021,"is_transit":false,"distance":3902,"transit":false,"i_long":106.491338},{"i_long":106.508482,"line":3,"is_transit":false,"station_name":"Cilejit","transit":false,"distance":2675,"station_id":"CJT","time":6,"i_lat":-6.354349},{"transit":false,"distance":7025,"station_id":"PRP","is_transit":false,"time":9,"line":6,"i_long":106.568863,"i_lat":-6.3441410000000005,"station_name":"Parung Panjang"},{"station_id":"CC","time":8,"line":3,"i_lat":-6.329547,"distance":5968,"i_long":106.617853,"station_name":"Cicayur","is_transit":false,"transit":false},{"time":4,"station_id":"CSK","distance":2519,"i_lat":-6.32484,"i_long":106.640411,"station_name":"Cisauk","is_transit":false,"transit":false,"line":3},{"station_name":"Serpong","i_long":106.66566,"station_id":"SRP","time":4,"i_lat":-6.319871,"transit":false,"line":6,"distance":1784,"is_transit":false},{"is_transit":false,"i_long":106.675475,"distance":2413,"transit":false,"station_name":"Rawa Buntu","i_lat":-6.314823,"station_id":"RU","time":4,"line":6},{"distance":4566,"line":6,"station_id":"SDM","i_lat":-6.296963,"transit":false,"station_name":"Sudimara","is_transit":false,"time":6,"i_long":106.712277},{"transit":false,"time":4,"distance":1994,"is_transit":false,"i_long":106.728916,"station_id":"JMU","i_lat":-6.288927,"station_name":"Jurangmangu","line":6},{"transit":false,"station_name":"Pondokranji","is_transit":false,"i_lat":-6.276362,"time":3,"distance":2179,"line":6,"i_long":106.74273,"station_id":"PDJ"},{"station_name":"Kebayoran","line":6,"transit":false,"i_lat":-6.237242,"station_id":"KBY","is_transit":false,"distance":6218,"i_long":106.780334,"time":8},{"is_transit":false,"i_lat":-6.207404,"i_long":106.79689,"time":7,"line":6,"station_name":"Palmerah","station_id":"PLM","distance":3737,"transit":false},{"station_name":"Tanah Abang","line":1,"transit":true,"is_transit":true,"time":6,"i_lat":-6.185545,"station_id":"THB","distance":3191,"i_long":106.811091},{"time":8,"is_transit":false,"transit":false,"i_lat":-6.155215,"distance":3632,"line":1,"station_name":"Duri","i_long":106.800832,"station_id":"DU"},{"station_name":"Angke","line":1,"distance":1230,"transit":false,"i_long":106.79867,"i_lat":-6.144674,"is_transit":false,"station_id":"AK","time":4},{"transit":true,"line":4,"station_id":"KPB","i_lat":-6.132549,"distance":4102,"i_long":106.826365,"time":9,"station_name":"Kampung Bandan","is_transit":true},{"station_name":"Jakarta Kota","is_transit":true,"time":3,"transit":true,"i_long":106.812439,"station_id":"JAKK","line":2,"distance":1364,"i_lat":-6.137569},{"station_name":"Jayakarta","i_lat":-6.141205,"line":2,"distance":1264,"i_long":106.820901,"time":4,"transit":false,"station_id":"JAY","is_transit":false},{"is_transit":false,"station_name":"Manggabesar","distance":1080,"transit":false,"time":2,"i_lat":-6.149769,"line":2,"station_id":"MGB","i_long":106.82482},{"station_id":"SW","is_transit":false,"i_lat":-6.160725,"time":2,"distance":906,"i_long":106.827103,"line":2,"transit":false,"station_name":"Sawah Besar"},{"i_lat":-6.166716,"i_long":106.828284,"station_id":"JUA","is_transit":false,"station_name":"Juanda","time":2,"distance":1149,"line":2,"transit":false},{"i_lat":-6.186295,"line":2,"is_transit":false,"i_long":106.832183,"station_name":"Gondangdia","station_id":"GDD","time":4,"distance":2015,"transit":false},{"line":2,"time":3,"i_lat":-6.198556,"transit":false,"station_id":"CKI","is_transit":false,"station_name":"Cikini","distance":1750,"i_long":106.840169},{"is_transit":false,"station_id":"MRI","time":4,"distance":1590,"station_name":"Manggarai","i_long":106.84912,"line":2,"transit":false,"i_lat":-6.209883},{"distance":2610,"station_name":"Tebet","i_lat":-6.226659,"time":4,"i_long":106.857948,"line":2,"transit":false,"station_id":"TEB","is_transit":false},{"station_name":"Cawang","i_long":106.856607,"station_id":"CW","i_lat":-6.242512,"distance":1230,"transit":false,"line":2,"time":2,"is_transit":false},{"distance":1546,"station_name":"Duren Kalibata","station_id":"DRN","line":2,"transit":false,"time":3,"i_long":106.85449,"i_lat":-6.255332,"is_transit":false},{"line":2,"time":2,"station_id":"PSMB","is_transit":false,"transit":false,"i_lat":-6.263214,"i_long":106.851577,"station_name":"Pasar Minggu Baru","distance":824},{"is_transit":false,"station_id":"PSM","station_name":"Pasar Minggu","distance":2380,"line":2,"transit":false,"i_lat":-6.2842400000000005,"i_long":106.843999,"time":2},{"transit":false,"line":2,"time":4,"is_transit":false,"station_name":"Tanjung Barat","distance":2820,"i_long":106.838896,"station_id":"TNT","i_lat":-6.3080680000000005},{"distance":2671,"line":2,"is_transit":false,"transit":false,"time":3,"station_name":"Lenteng Agung","i_long":106.832616,"i_lat":-6.330363,"station_id":"LNA"},{"time":2,"transit":false,"station_id":"UP","distance":1029,"station_name":"Univ. Pancasila","line":2,"i_lat":-6.339291,"i_long":106.834175,"is_transit":false},{"i_long":106.831474,"station_name":"Univ. Indonesia","transit":false,"is_transit":false,"station_id":"UI","time":3,"i_lat":-6.360749,"distance":2264,"line":2},{"station_name":"Pondok Cina","i_long":106.831114,"station_id":"POC","line":2,"distance":1109,"transit":false,"i_lat":-6.369073,"is_transit":false,"time":2},{"station_id":"DPB","i_lat":-6.391065,"station_name":"Depokbaru","time":4,"line":2,"i_long":106.819451,"transit":false,"distance":2727,"is_transit":false},{"transit":false,"time":3,"line":2,"i_long":106.816926,"i_lat":-6.405256,"station_name":"Depok","station_id":"DP","is_transit":false,"distance":1584}],[{"transit":false,"i_lat":-6.33561,"line":3,"is_transit":false,"distance":0,"i_long":106.411216,"station_name":"Cikoya","station_id":"CKY","time":0},{"station_name":"Tigaraksa","i_lat":-6.328533,"i_long":106.425991,"transit":false,"line":6,"station_id":"TGS","time":3,"distance":2651,"is_transit":false},{"transit":false,"line":6,"station_id":"TEJ","is_transit":false,"i_long":106.460812,"station_name":"Tenjo","i_lat":-6.327251,"time":5,"distance":2974},{"station_id":"DAR","i_lat":-6.338021,"distance":3902,"transit":false,"station_name":"Daru","line":0,"is_transit":false,"i_long":106.491338,"time":5},{"is_transit":false,"transit":false,"station_id":"CJT","i_long":106.508482,"station_name":"Cilejit","i_lat":-6.354349,"line":3,"distance":2675,"time":6},{"i_long":106.568863,"line":6,"transit":false,"station_id":"PRP","is_transit":false,"time":9,"station_name":"Parung Panjang","distance":7025,"i_lat":-6.3441410000000005},{"i_lat":-6.329547,"transit":false,"i_long":106.617853,"station_name":"Cicayur","station_id":"CC","time":8,"distance":5968,"line":3,"is_transit":false},{"i_long":106.640411,"station_id":"CSK","station_name":"Cisauk","i_lat":-6.32484,"line":3,"is_transit":false,"distance":2519,"time":4,"transit":false},{"station_id":"SRP","time":4,"station_name":"Serpong","is_transit":false,"i_long":106.66566,"distance":1784,"i_lat":-6.319871,"line":6,"transit":false},{"is_transit":false,"transit":false,"station_id":"RU","time":4,"line":6,"distance":2413,"station_name":"Rawa Buntu","i_lat":-6.314823,"i_long":106.675475},{"station_name":"Sudimara","station_id":"SDM","time":6,"i_long":106.712277,"transit":false,"is_transit":false,"i_lat":-6.296963,"line":6,"distance":4566},{"station_id":"JMU","station_name":"Jurangmangu","is_transit":false,"i_long":106.728916,"i_lat":-6.288927,"distance":1994,"time":4,"transit":false,"line":6},{"line":6,"transit":false,"i_long":106.74273,"station_id":"PDJ","is_transit":false,"distance":2179,"time":3,"i_lat":-6.276362,"station_name":"Pondokranji"},{"is_transit":false,"station_name":"Kebayoran","line":6,"transit":false,"time":8,"station_id":"KBY","distance":6218,"i_lat":-6.237242,"i_long":106.780334},{"time":7,"station_name":"Palmerah","i_lat":-6.207404,"is_transit":false,"distance":3737,"line":6,"transit":false,"station_id":"PLM","i_long":106.79689},{"station_id":"THB","station_name":"Tanah Abang","time":6,"is_transit":true,"i_long":106.811091,"transit":true,"distance":3191,"i_lat":-6.185545,"line":1},{"time":8,"i_long":106.800832,"station_name":"Duri","line":1,"distance":3632,"i_lat":-6.155215,"transit":false,"station_id":"DU","is_transit":false},{"is_transit":false,"i_lat":-6.144674,"station_id":"AK","transit":false,"station_name":"Angke","i_long":106.79867,"distance":1230,"line":1,"time":4},{"i_long":106.826365,"line":4,"transit":true,"time":9,"distance":4102,"is_transit":true,"i_lat":-6.132549,"station_name":"Kampung Bandan","station_id":"KPB"},{"station_name":"Rajawali","station_id":"RJW","i_lat":-6.14505,"time":3,"line":11,"transit":false,"is_transit":false,"i_long":106.836569,"distance":1444},{"station_id":"KMO","is_transit":false,"time":5,"i_long":106.839204,"station_name":"Kemayoran","i_lat":-6.161728,"line":11,"distance":1901,"transit":false},{"distance":1436,"line":11,"station_name":"Pasar Senen","station_id":"PSE","time":4,"i_lat":-6.174784,"transit":false,"is_transit":false,"i_long":106.84368},{"transit":false,"i_long":106.850107,"distance":1567,"station_name":"Gang Sentiong","i_lat":-6.185975,"is_transit":false,"station_id":"GST","time":8,"line":11},{"i_long":106.855437,"line":11,"time":1,"i_lat":-6.193792,"station_name":"Kramat","station_id":"KMT","is_transit":false,"transit":false,"distance":973},{"is_transit":false,"station_name":"Pondok Jati","i_long":106.861737,"transit":false,"distance":1829,"station_id":"POK","time":2,"line":11,"i_lat":-6.209188},{"is_transit":true,"station_name":"Jatinegara","time":9,"line":1,"distance":1236,"i_lat":-6.215091,"station_id":"JNG","i_long":106.86807400000001,"transit":true},{"station_id":"MTR","line":1,"transit":false,"is_transit":false,"distance":1377,"i_lat":-6.212485,"i_long":106.858896,"station_name":"Matraman","time":2},{"is_transit":true,"transit":true,"station_name":"Manggarai","distance":1275,"i_lat":-6.209883,"station_id":"MRI","line":2,"i_long":106.84912,"time":2},{"distance":2610,"i_long":106.857948,"station_name":"Tebet","time":4,"transit":false,"is_transit":false,"line":2,"i_lat":-6.226659,"station_id":"TEB"},{"i_lat":-6.242512,"transit":false,"line":2,"distance":1230,"station_id":"CW","station_name":"Cawang","is_transit":false,"i_long":106.856607,"time":2},{"i_lat":-6.255332,"distance":1546,"station_name":"Duren Kalibata","i_long":106.85449,"is_transit":false,"transit":false,"station_id":"DRN","time":3,"line":2},{"transit":false,"station_id":"PSMB","is_transit":false,"i_lat":-6.263214,"line":2,"time":2,"i_long":106.851577,"distance":824,"station_name":"Pasar Minggu Baru"},{"station_id":"PSM","i_lat":-6.2842400000000005,"line":2,"transit":false,"is_transit":false,"station_name":"Pasar Minggu","time":2,"i_long":106.843999,"distance":2380},{"station_name":"Tanjung Barat","distance":2820,"i_long":106.838896,"line":2,"station_id":"TNT","transit":false,"i_lat":-6.3080680000000005,"is_transit":false,"time":4},{"line":2,"station_id":"LNA","is_transit":false,"transit":false,"time":3,"i_lat":-6.330363,"distance":2671,"i_long":106.832616,"station_name":"Lenteng Agung"},{"transit":false,"station_id":"UP","time":2,"is_transit":false,"station_name":"Univ. Pancasila","i_lat":-6.339291,"i_long":106.834175,"line":2,"distance":1029},{"i_long":106.831474,"line":2,"is_transit":false,"transit":false,"time":3,"station_name":"Univ. Indonesia","distance":2264,"i_lat":-6.360749,"station_id":"UI"},{"station_name":"Pondok Cina","line":2,"station_id":"POC","i_lat":-6.369073,"time":2,"i_long":106.831114,"is_transit":false,"transit":false,"distance":1109},{"i_lat":-6.391065,"station_id":"DPB","transit":false,"station_name":"Depokbaru","is_transit":false,"distance":2727,"i_long":106.819451,"time":4,"line":2},{"station_name":"Depok","line":2,"i_lat":-6.405256,"distance":1584,"transit":false,"time":3,"i_long":106.816926,"station_id":"DP","is_transit":false}]]}