{"data":[[{"transit":false,"line":3,"i_long":106.411216,"i_lat":-6.33561,"distance":0,"is_transit":false,"time":0,"station_name":"Cikoya","station_id":"CKY"},{"i_lat":-6.328533,"line":6,"distance":2651,"i_long":106.425991,"station_name":"Tigaraksa","transit":false,"station_id":"TGS","is_transit":false,"time":3},{"i_lat":-6.327251,"is_transit":false,"distance":2974,"station_name":"Tenjo","time":5,"station_id":"TEJ","i_long":106.460812,"transit":false,"line":6},{"i_lat":-6.338021,"line":0,"is_transit":false,"station_id":"DAR","i_long":106.491338,"distance":3902,"time":5,"station_name":"Daru","transit":false},{"i_long":106.508482,"station_name":"Cilejit","time":6,"transit":false,"distance":2675,"line":3,"is_transit":false,"station_id":"CJT","i_lat":-6.354349},{"transit":false,"i_long":106.568863,"distance":7025,"i_lat":-6.3441410000000005,"time":9,"station_id":"PRP","is_transit":false,"line":6,"station_name":"Parung Panjang"},{"transit":false,"distance":5968,"line":3,"i_lat":-6.329547,"station_name":"Cicayur","station_id":"CC","i_long":106.617853,"time":8,"is_transit":false},{"station_name":"Cisauk","is_transit":false,"station_id":"CSK","distance":2519,"transit":false,"i_lat":-6.32484,"i_long":106.640411,"time":4,"line":3},{"distance":1784,"is_transit":false,"line":6,"i_long":106.66566,"transit":false,"station_id":"SRP","station_name":"Serpong","time":4,"i_lat":-6.319871},{"line":6,"is_transit":false,"time":4,"transit":false,"station_name":"Rawa Buntu","station_id":"RU","i_lat":-6.314823,"distance":2413,"i_long":106.675475},{"station_id":"SDM","i_lat":-6.296963,"i_long":106.712277,"time":6,"transit":false,"line":6,"station_name":"Sudimara","distance":4566,"is_transit":false},{"is_transit":false,"time":4,"station_name":"Jurangmangu","transit":false,"i_long":106.728916,"i_lat":-6.288927,"line":6,"station_id":"JMU","distance":1994},{"transit":false,"i_lat":-6.276362,"distance":2179,"is_transit":false,"station_id":"PDJ","time":3,"line":6,"station_name":"Pondokranji","i_long":106.74273},{"i_long":106.780334,"station_name":"Kebayoran","line":6,"station_id":"KBY","distance":6218,"time":8,"i_lat":-6.237242,"is_transit":false,"transit":false},{"time":7,"is_transit":false,"station_id":"PLM","station_name":"Palmerah","line":6,"i_lat":-6.207404,"transit":false,"i_long":106.79689,"distance":3737},{"transit":true,"station_name":"Tanah Abang","i_long":106.811091,"i_lat":-6.185545,"line":1,"is_transit":true,"time":6,"distance":3191,"station_id":"THB"},{"transit":false,"distance":2029,"time":5,"i_long":106.816351,"station_id":"KAT","station_name":"Karet","is_transit":false,"i_lat":-6.20132,"line":1},{"station_name":"Sudirman Baru","i_long":106.819881,"is_transit":false,"time":1,"transit":false,"distance":471,"i_lat":-6.201433,"station_id":"SUDB","line":1},{"station_name":"Sudirman","line":1,"distance":280,"i_long":106.822649,"i_lat":-6.202263,"station_id":"SUD","is_transit":false,"time":1,"transit":false},{"station_name":"Manggarai","time":4,"is_transit":true,"i_long":106.84912,"line":2,"i_lat":-6.209883,"distance":3186,"transit":true,"station_id":"MRI"},{"station_id":"TEB","station_name":"Tebet","transit":false,"i_lat":-6.226659,"line":2,"is_transit":false,"time":4,"i_long":106.857948,"distance":2610},{"i_long":106.856607,"station_name":"Cawang","distance":1230,"station_id":"CW","is_transit":false,"i_lat":-6.242512,"line":2,"transit":false,"time":2},{"line":2,"distance":1546,"is_transit":false,"time":3,"station_id":"DRN","station_name":"Duren Kalibata","transit":false,"i_lat":-6.255332,"i_long":106.85449},{"distance":824,"is_transit":false,"transit":false,"station_id":"PSMB","time":2,"station_name":"Pasar Minggu Baru","i_lat":-6.263214,"i_long":106.851577,"line":2},{"station_id":"PSM","i_lat":-6.2842400000000005,"time":2,"is_transit":false,"station_name":"Pasar Minggu","i_long":106.843999,"transit":false,"line":2,"distance":2380}],[{"distance":0,"station_id":"CKY","is_transit":false,"line":3,"station_name":"Cikoya","transit":false,"i_lat":-6.33561,"i_long":106.411216,"time":0},{"i_long":106.425991,"station_name":"Tigaraksa","time":3,"is_transit":false,"line":6,"distance":2651,"i_lat":-6.328533,"station_id":"TGS","transit":false},{"station_name":"Tenjo","is_transit":false,"transit":false,"i_lat":-6.327251,"station_id":"TEJ","line":6,"i_long":106.460812,"distance":2974,"time":5},{"distance":3902,"time":5,"i_lat":-6.338021,"i_long":106.491338,"line":0,"is_transit":false,"transit":false,"station_name":"Daru","station_id":"DAR"},{"transit":false,"i_lat":-6.354349,"station_name":"Cilejit","i_long":106.508482,"line":3,"station_id":"CJT","distance":2675,"is_transit":false,"time":6},{"is_transit":false,"distance":7025,"station_name":"Parung Panjang","transit":false,"time":9,"i_long":106.568863,"line":6,"i_lat":-6.3441410000000005,"station_id":"PRP"},{"time":8,"i_lat":-6.329547,"i_long":106.617853,"distance":5968,"station_id":"CC","transit":false,"station_name":"Cicayur","is_transit":false,"line":3},{"station_name":"Cisauk","is_transit":false,"i_lat":-6.32484,"i_long":106.640411,"distance":2519,"time":4,"station_id":"CSK","line":3,"transit":false},{"line":6,"is_transit":false,"transit":false,"distance":1784,"station_name":"Serpong","time":4,"i_long":106.66566,"i_lat":-6.319871,"station_id":"SRP"},{"is_transit":false,"station_name":"Rawa Buntu","time":4,"station_id":"RU","distance":2413,"line":6,"transit":false,"i_lat":-6.314823,"i_long":106.675475},{"is_transit":false,"station_id":"SDM","i_lat":-6.296963,"i_long":106.712277,"distance":4566,"time":6,"station_name":"Sudimara","transit":false,"line":6},{"transit":false,"i_lat":-6.288927,"distance":1994,"line":6,"is_transit":false,"time":4,"station_id":"JMU","station_name":"Jurangmangu","i_long":106.728916},{"station_name":"Pondokranji","i_long":106.74273,"distance":2179,"time":3,"line":6,"is_transit":false,"transit":false,"i_lat":-6.276362,"station_id":"PDJ"},{"distance":6218,"time":8,"transit":false,"i_lat":-6.237242,"station_name":"Kebayoran","i_long":106.780334,"station_id":"KBY","line":6,"is_transit":false},{"station_name":"Palmerah","transit":false,"time":7,"line":6,"i_long":106.79689,"i_lat":-6.207404,"station_id":"PLM","distance":3737,"is_transit":false},{"station_name":"Tanah Abang","transit":true,"line":1,"distance":3191,"station_id":"THB","time":6,"i_long":106.811091,"i_lat":-6.185545,"is_transit":true},{"is_transit":false,"time":8,"distance":3632,"station_name":"Duri","i_lat":-6.155215,"transit":false,"station_id":"DU","line":1,"i_long":106.800832},{"distance":1230,"station_id":"AK","is_transit":false,"station_name":"Angke","i_lat":-6.144674,"i_long":106.79867,"time":4,"line":1,"transit":false},{"station_name":"Kampung Bandan","i_long":106.826365,"is_transit":true,"distance":4102,"time":9,"i_lat":-6.132549,"transit":true,"line":4,"station_id":"KPB"},{"distance":1364,"line":2,"transit":true,"i_lat":-6.137569,"i_long":106.812439,"time":3,"is_transit":true,"station_name":"Jakarta Kota","station_id":"JAKK"},{"time":4,"transit":false,"station_name":"Jayakarta","distance":1264,"line":2,"is_transit":false,"i_lat":-6.141205,"station_id":"JAY","i_long":106.820901},{"station_name":"Manggabesar","distance":1080,"transit":false,"i_lat":-6.149769,"line":2,"i_long":106.82482,"time":2,"is_transit":false,"station_id":"MGB"},{"is_transit":false,"line":2,"time":2,"station_id":"SW","distance":906,"i_lat":-6.160725,"i_long":106.827103,"station_name":"Sawah Besar","transit":false},{"distance":1149,"time":2,"station_name":"Juanda","transit":false,"i_lat":-6.166716,"line":2,"is_transit":false,"i_long":106.828284,"station_id":"JUA"},{"is_transit":false,"distance":2015,"i_lat":-6.186295,"station_id":"GDD","station_name":"Gondangdia","i_long":106.832183,"line":2,"time":4,"transit":false},{"is_transit":false,"station_id":"CKI","station_name":"Cikini","i_long":106.840169,"line":2,"i_lat":-6.198556,"time":3,"transit":false,"distance":1750},{"line":2,"station_name":"Manggarai","transit":false,"time":4,"i_lat":-6.209883,"station_id":"MRI","is_transit":false,"i_long":106.84912,"distance":1590},{"station_name":"Tebet","distance":2610,"is_transit":false,"station_id":"TEB","time":4,"line":2,"i_lat":-6.226659,"i_long":106.857948,"transit":false},{"distance":1230,"line":2,"i_long":106.856607,"station_name":"Cawang","station_id":"CW","time":2,"transit":false,"is_transit":false,"i_lat":-6.242512},{"distance":1546,"station_name":"Duren Kalibata","transit":false,"line":2,"i_lat":-6.255332,"station_id":"DRN","is_transit":false,"time":3,"i_long":106.85449},{"time":2,"station_name":"Pasar Minggu Baru","i_lat":-6.263214,"distance":824,"station_id":"PSMB","transit":false,"line":2,"i_long":106.851577,"is_transit":false},{"line":2,"time":2,"i_lat":-6.2842400000000005,"station_id":"PSM","station_name":"Pasar Minggu","is_transit":false,"transit":false,"distance":2380,"i_long":106.843999}],[{"time":0,"station_name":"Cikoya","i_lat":-6.33561,"line":3,"station_id":"CKY","is_transit":false,"distance":0,"i_long":106.411216,"transit":false},{"i_long":106.425991,"distance":2651,"station_id":"TGS","i_lat":-6.328533,"time":3,"line":6,"station_name":"Tigaraksa","is_transit":false,"transit":false},{"i_lat":-6.327251,"i_long":106.460812,"is_transit":false,"distance":2974,"transit":false,"station_id":"TEJ","line":6,"station_name":"Tenjo","time":5},{"time":5,"distance":3902,"station_name":"Daru","line":0,"is_transit":false,"station_id":"DAR","i_lat":-6.338021,"transit":false,"i_long":106.491338},{"line":3,"i_lat":-6.354349,"time":6,"station_id":"CJT","station_name":"Cilejit","is_transit":false,"distance":2675,"i_long":106.508482,"transit":false},{"distance":7025,"is_transit":false,"line":6,"transit":false,"time":9,"i_lat":-6.3441410000000005,"i_long":106.568863,"station_name":"Parung Panjang","station_id":"PRP"},{"transit":false,"distance":5968,"is_transit":false,"station_name":"Cicayur","time":8,"i_lat":-6.329547,"i_long":106.617853,"station_id":"CC","line":3},{"is_transit":false,"transit":false,"time":4,"i_long":106.640411,"i_lat":-6.32484,"line":3,"station_name":"Cisauk","distance":2519,"station_id":"CSK"},{"transit":false,"i_long":106.66566,"line":6,"time":4,"station_name":"Serpong","station_id":"SRP","is_transit":false,"i_lat":-6.319871,"distance":1784},{"is_transit":false,"transit":false,"time":4,"station_id":"RU","station_name":"Rawa Buntu","i_lat":-6.314823,"i_long":106.675475,"line":6,"distance":2413},{"line":6,"time":6,"distance":4566,"transit":false,"is_transit":false,"station_name":"Sudimara","station_id":"SDM","i_lat":-6.296963,"i_long":106.712277},{"time":4,"transit":false,"is_transit":false,"station_name":"Jurangmangu","station_id":"JMU","distance":1994,"i_long":106.728916,"i_lat":-6.288927,"line":6},{"transit":false,"i_lat":-6.276362,"is_transit":false,"time":3,"i_long":106.74273,"station_id":"PDJ","line":6,"station_name":"Pondokranji","distance":2179},{"i_lat":-6.237242,"i_long":106.780334,"station_name":"Kebayoran","station_id":"KBY","time":8,"transit":false,"line":6,"is_transit":false,"distance":6218},{"time":7,"is_transit":false,"distance":3737,"station_id":"PLM","i_long":106.79689,"station_name":"Palmerah","transit":false,"i_lat":-6.207404,"line":6},{"distance":3191,"transit":true,"i_lat":-6.185545,"time":6,"i_long":106.811091,"is_transit":true,"station_id":"THB","station_name":"Tanah Abang","line":1},{"transit":false,"line":1,"i_lat":-6.155215,"distance":3632,"station_id":"DU","time":8,"is_transit":false,"i_long":106.800832,"station_name":"Duri"},{"line":1,"i_lat":-6.144674,"i_long":106.79867,"station_name":"Angke","station_id":"AK","is_transit":false,"time":4,"transit":false,"distance":1230},{"distance":4102,"station_name":"Kampung Bandan","is_transit":true,"line":4,"station_id":"KPB","i_lat":-6.132549,"time":9,"transit":true,"i_long":106.826365},{"distance":1444,"station_name":"Rajawali","i_lat":-6.14505,"time":3,"line":11,"station_id":"RJW","is_transit":false,"transit":false,"i_long":106.836569},{"i_long":106.839204,"is_transit":false,"line":11,"i_lat":-6.161728,"station_name":"Kemayoran","transit":false,"distance":1901,"station_id":"KMO","time":5},{"is_transit":false,"i_long":106.84368,"distance":1436,"line":11,"time":4,"transit":false,"i_lat":-6.174784,"station_name":"Pasar Senen","station_id":"PSE"},{"station_name":"Gang Sentiong","time":8,"i_lat":-6.185975,"distance":1567,"station_id":"GST","i_long":106.850107,"line":11,"transit":false,"is_transit":false},{"line":11,"i_long":106.855437,"station_id":"KMT","distance":973,"i_lat":-6.193792,"station_name":"Kramat","time":1,"is_transit":false,"transit":false},{"station_id":"POK","time":2,"transit":false,"i_long":106.861737,"is_transit":false,"i_lat":-6.209188,"line":11,"station_name":"Pondok Jati","distance":1829},{"station_id":"JNG","i_lat":-6.215091,"transit":true,"line":1,"is_transit":true,"distance":1236,"time":9,"station_name":"Jatinegara","i_long":106.86807400000001},{"time":2,"i_lat":-6.212485,"station_name":"Matraman","i_long":106.858896,"station_id":"MTR","distance":1377,"line":1,"is_transit":false,"transit":false},{"i_long":106.84912,"distance":1275,"transit":true,"station_id":"MRI","is_transit":true,"time":2,"i_lat":-6.209883,"station_name":"Manggarai","line":2},{"station_id":"TEB","is_transit":false,"time":4,"line":2,"station_name":"Tebet","i_lat":-6.226659,"i_long":106.857948,"distance":2610,"transit":false},{"i_long":106.856607,"time":2,"is_transit":false,"station_id":"CW","station_name":"Cawang","transit":false,"i_lat":-6.242512,"line":2,"distance":1230},{"station_name":"Duren Kalibata","time":3,"i_lat":-6.255332,"i_long":106.85449,"is_transit":false,"line":2,"station_id":"DRN","transit":false,"distance":1546},{"i_lat":-6.263214,"distance":824,"transit":false,"line":2,"is_transit":false,"i_long":106.851577,"station_name":"Pasar Minggu Baru","station_id":"PSMB","time":2},{"station_name":"Pasar Minggu","i_long":106.843999,"distance":2380,"station_id":"PSM","line":2,"i_lat":-6.2842400000000005,"time":2,"transit":false,"is_transit":false}]]}