{"data":[[{"time":0,"is_transit":false,"i_long":106.411216,"distance":0,"transit":false,"station_id":"CKY","i_lat":-6.33561,"station_name":"Cikoya","line":3},{"transit":false,"station_name":"Tigaraksa","time":3,"distance":2651,"station_id":"TGS","line":6,"is_transit":false,"i_lat":-6.328533,"i_long":106.425991},{"is_transit":false,"transit":false,"station_id":"TEJ","time":5,"distance":2974,"i_long":106.460812,"line":6,"i_lat":-6.327251,"station_name":"Tenjo"},{"line":0,"distance":3902,"station_name":"Daru","i_long":106.491338,"transit":false,"is_transit":false,"time":5,"i_lat":-6.338021,"station_id":"DAR"},{"time":6,"i_long":106.508482,"station_name":"Cilejit","distance":2675,"is_transit":false,"line":3,"transit":false,"station_id":"CJT","i_lat":-6.354349},{"station_id":"PRP","time":9,"station_name":"Parung Panjang","distance":7025,"transit":false,"is_transit":false,"i_long":106.568863,"i_lat":-6.3441410000000005,"line":6},{"line":3,"distance":5968,"is_transit":false,"station_id":"CC","i_lat":-6.329547,"station_name":"Cicayur","time":8,"transit":false,"i_long":106.617853},{"station_id":"CSK","time":4,"i_lat":-6.32484,"station_name":"Cisauk","is_transit":false,"transit":false,"distance":2519,"i_long":106.640411,"line":3},{"line":6,"is_transit":false,"distance":1784,"transit":false,"station_name":"Serpong","i_long":106.66566,"time":4,"station_id":"SRP","i_lat":-6.319871},{"distance":2413,"time":4,"i_long":106.675475,"i_lat":-6.314823,"is_transit":false,"station_id":"RU","line":6,"station_name":"Rawa Buntu","transit":false},{"line":6,"distance":4566,"transit":false,"station_name":"Sudimara","is_transit":false,"time":6,"station_id":"SDM","i_lat":-6.296963,"i_long":106.712277},{"transit":false,"i_lat":-6.288927,"station_name":"Jurangmangu","line":6,"time":4,"is_transit":false,"distance":1994,"i_long":106.728916,"station_id":"JMU"},{"station_name":"Pondokranji","transit":false,"i_long":106.74273,"i_lat":-6.276362,"station_id":"PDJ","is_transit":false,"time":3,"distance":2179,"line":6},{"station_name":"Kebayoran","i_lat":-6.237242,"time":8,"i_long":106.780334,"transit":false,"is_transit":false,"station_id":"KBY","distance":6218,"line":6},{"line":6,"is_transit":false,"distance":3737,"i_lat":-6.207404,"station_id":"PLM","time":7,"transit":false,"i_long":106.79689,"station_name":"Palmerah"},{"transit":true,"i_long":106.811091,"station_id":"THB","time":6,"line":1,"is_transit":true,"i_lat":-6.185545,"station_name":"Tanah Abang","distance":3191},{"station_id":"DU","is_transit":false,"distance":3632,"station_name":"Duri","i_long":106.800832,"i_lat":-6.155215,"time":8,"line":1,"transit":false},{"is_transit":false,"distance":1230,"transit":false,"time":4,"station_id":"AK","line":1,"station_name":"Angke","i_long":106.79867,"i_lat":-6.144674},{"distance":4102,"time":9,"line":4,"i_lat":-6.132549,"station_id":"KPB","transit":true,"station_name":"Kampung Bandan","is_transit":true,"i_long":106.826365},{"time":3,"station_id":"JAKK","line":2,"distance":1364,"i_lat":-6.137569,"is_transit":true,"i_long":106.812439,"station_name":"Jakarta Kota","transit":true},{"station_id":"JAY","i_long":106.820901,"station_name":"Jayakarta","distance":1264,"line":2,"is_transit":false,"transit":false,"time":4,"i_lat":-6.141205},{"station_name":"Manggabesar","time":2,"station_id":"MGB","is_transit":false,"i_long":106.82482,"line":2,"transit":false,"distance":1080,"i_lat":-6.149769},{"station_id":"SW","line":2,"distance":906,"station_name":"Sawah Besar","i_long":106.827103,"transit":false,"time":2,"i_lat":-6.160725,"is_transit":false}],[{"i_lat":-6.33561,"line":3,"transit":false,"station_name":"Cikoya","distance":0,"time":0,"station_id":"CKY","is_transit":false,"i_long":106.411216},{"distance":2651,"time":3,"i_long":106.425991,"station_name":"Tigaraksa","station_id":"TGS","is_transit":false,"i_lat":-6.328533,"transit":false,"line":6},{"line":6,"station_name":"Tenjo","is_transit":false,"transit":false,"station_id":"TEJ","time":5,"distance":2974,"i_lat":-6.327251,"i_long":106.460812},{"i_lat":-6.338021,"time":5,"station_name":"Daru","transit":false,"i_long":106.491338,"station_id":"DAR","is_transit":false,"distance":3902,"line":0},{"time":6,"i_lat":-6.354349,"is_transit":false,"station_id":"CJT","station_name":"Cilejit","i_long":106.508482,"transit":false,"line":3,"distance":2675},{"distance":7025,"time":9,"station_id":"PRP","transit":false,"is_transit":false,"i_long":106.568863,"station_name":"Parung Panjang","line":6,"i_lat":-6.3441410000000005},{"time":8,"distance":5968,"station_name":"Cicayur","transit":false,"is_transit":false,"i_lat":-6.329547,"station_id":"CC","i_long":106.617853,"line":3},{"station_id":"CSK","is_transit":false,"distance":2519,"transit":false,"time":4,"i_lat":-6.32484,"i_long":106.640411,"line":3,"station_name":"Cisauk"},{"is_transit":false,"transit":false,"i_long":106.66566,"station_name":"Serpong","distance":1784,"i_lat":-6.319871,"line":6,"station_id":"SRP","time":4},{"i_long":106.675475,"time":4,"is_transit":false,"transit":false,"station_name":"Rawa Buntu","distance":2413,"i_lat":-6.314823,"station_id":"RU","line":6},{"i_long":106.712277,"transit":false,"station_name":"Sudimara","time":6,"i_lat":-6.296963,"line":6,"distance":4566,"is_transit":false,"station_id":"SDM"},{"line":6,"time":4,"is_transit":false,"station_name":"Jurangmangu","distance":1994,"i_lat":-6.288927,"station_id":"JMU","transit":false,"i_long":106.728916},{"i_long":106.74273,"line":6,"i_lat":-6.276362,"station_name":"Pondokranji","station_id":"PDJ","time":3,"distance":2179,"is_transit":false,"transit":false},{"time":8,"station_id":"KBY","i_lat":-6.237242,"station_name":"Kebayoran","line":6,"distance":6218,"is_transit":false,"i_long":106.780334,"transit":false},{"i_lat":-6.207404,"i_long":106.79689,"is_transit":false,"line":6,"distance":3737,"time":7,"transit":false,"station_id":"PLM","station_name":"Palmerah"},{"is_transit":true,"i_lat":-6.185545,"distance":3191,"station_id":"THB","transit":true,"i_long":106.811091,"station_name":"Tanah Abang","time":6,"line":1},{"transit":false,"station_name":"Karet","station_id":"KAT","i_lat":-6.20132,"is_transit":false,"time":5,"i_long":106.816351,"line":1,"distance":2029},{"i_long":106.819881,"i_lat":-6.201433,"station_id":"SUDB","is_transit":false,"station_name":"Sudirman Baru","transit":false,"distance":471,"time":1,"line":1},{"distance":280,"i_long":106.822649,"time":1,"transit":false,"line":1,"is_transit":false,"i_lat":-6.202263,"station_id":"SUD","station_name":"Sudirman"},{"transit":true,"station_id":"MRI","station_name":"Manggarai","distance":3186,"time":4,"is_transit":true,"i_lat":-6.209883,"i_long":106.84912,"line":2},{"i_long":106.840169,"is_transit":false,"station_id":"CKI","i_lat":-6.198556,"line":2,"station_name":"Cikini","distance":1590,"transit":false,"time":4},{"distance":1750,"i_long":106.832183,"transit":false,"station_name":"Gondangdia","time":3,"i_lat":-6.186295,"line":2,"is_transit":false,"station_id":"GDD"},{"transit":false,"station_name":"Juanda","is_transit":false,"distance":2015,"station_id":"JUA","i_long":106.828284,"time":4,"i_lat":-6.166716,"line":2},{"line":2,"station_id":"SW","i_lat":-6.160725,"station_name":"Sawah Besar","transit":false,"time":2,"distance":1149,"is_transit":false,"i_long":106.827103}],[{"is_transit":false,"transit":false,"time":0,"station_id":"CKY","i_long":106.411216,"distance":0,"i_lat":-6.33561,"station_name":"Cikoya","line":3},{"i_lat":-6.328533,"i_long":106.425991,"is_transit":false,"distance":2651,"transit":false,"time":3,"line":6,"station_id":"TGS","station_name":"Tigaraksa"},{"station_name":"Tenjo","is_transit":false,"i_lat":-6.327251,"i_long":106.460812,"time":5,"station_id":"TEJ","line":6,"distance":2974,"transit":false},{"line":0,"distance":3902,"i_lat":-6.338021,"time":5,"is_transit":false,"transit":false,"station_name":"Daru","station_id":"DAR","i_long":106.491338},{"time":6,"station_name":"Cilejit","station_id":"CJT","line":3,"is_transit":false,"distance":2675,"i_lat":-6.354349,"i_long":106.508482,"transit":false},{"distance":7025,"time":9,"i_lat":-6.3441410000000005,"is_transit":false,"i_long":106.568863,"station_id":"PRP","transit":false,"line":6,"station_name":"Parung Panjang"},{"time":8,"i_lat":-6.329547,"i_long":106.617853,"is_transit":false,"transit":false,"station_name":"Cicayur","station_id":"CC","distance":5968,"line":3},{"is_transit":false,"station_name":"Cisauk","time":4,"transit":false,"i_lat":-6.32484,"station_id":"CSK","i_long":106.640411,"line":3,"distance":2519},{"line":6,"transit":false,"station_name":"Serpong","distance":1784,"time":4,"i_lat":-6.319871,"station_id":"SRP","is_transit":false,"i_long":106.66566},{"time":4,"i_long":106.675475,"station_name":"Rawa Buntu","is_transit":false,"distance":2413,"i_lat":-6.314823,"line":6,"station_id":"RU","transit":false},{"transit":false,"distance":4566,"is_transit":false,"i_long":106.712277,"line":6,"station_name":"Sudimara","time":6,"station_id":"SDM","i_lat":-6.296963},{"time":4,"i_long":106.728916,"distance":1994,"station_name":"Jurangmangu","line":6,"i_lat":-6.288927,"station_id":"JMU","transit":false,"is_transit":false},{"station_id":"PDJ","is_transit":false,"i_long":106.74273,"time":3,"distance":2179,"i_lat":-6.276362,"station_name":"Pondokranji","transit":false,"line":6},{"station_id":"KBY","i_lat":-6.237242,"i_long":106.780334,"time":8,"is_transit":false,"transit":false,"station_name":"Kebayoran","distance":6218,"line":6},{"line":6,"time":7,"transit":false,"station_id":"PLM","is_transit":false,"distance":3737,"i_lat":-6.207404,"i_long":106.79689,"station_name":"Palmerah"},{"i_long":106.811091,"station_name":"Tanah Abang","i_lat":-6.185545,"line":1,"transit":true,"time":6,"distance":3191,"station_id":"THB","is_transit":true},{"transit":false,"station_id":"DU","line":1,"i_long":106.800832,"i_lat":-6.155215,"time":8,"is_transit":false,"distance":3632,"station_name":"Duri"},{"distance":1230,"line":1,"i_lat":-6.144674,"is_transit":false,"transit":false,"i_long":106.79867,"station_name":"Angke","station_id":"AK","time":4},{"i_lat":-6.132549,"line":4,"is_transit":true,"distance":4102,"time":9,"i_long":106.826365,"transit":true,"station_name":"Kampung Bandan","station_id":"KPB"},{"is_transit":false,"distance":1444,"i_lat":-6.14505,"transit":false,"time":3,"station_id":"RJW","i_long":106.836569,"line":11,"station_name":"Rajawali"},{"transit":false,"line":11,"station_id":"KMO","is_transit":false,"distance":1901,"i_lat":-6.161728,"station_name":"Kemayoran","time":5,"i_long":106.839204},{"transit":false,"station_name":"Pasar Senen","i_long":106.84368,"distance":1436,"time":4,"is_transit":false,"line":11,"i_lat":-6.174784,"station_id":"PSE"},{"time":8,"i_lat":-6.185975,"line":11,"distance":1567,"station_id":"GST","transit":false,"i_long":106.850107,"is_transit":false,"station_name":"Gang Sentiong"},{"station_name":"Kramat","time":1,"i_long":106.855437,"transit":false,"is_transit":false,"distance":973,"station_id":"KMT","i_lat":-6.193792,"line":11},{"is_transit":false,"i_lat":-6.209188,"line":11,"i_long":106.861737,"transit":false,"time":2,"station_name":"Pondok Jati","station_id":"POK","distance":1829},{"i_long":106.86807400000001,"station_name":"Jatinegara","transit":true,"station_id":"JNG","i_lat":-6.215091,"distance":1236,"line":1,"time":9,"is_transit":true},{"transit":false,"station_name":"Matraman","i_long":106.858896,"station_id":"MTR","i_lat":-6.212485,"distance":1377,"is_transit":false,"time":2,"line":1},{"distance":1275,"i_lat":-6.209883,"transit":true,"station_name":"Manggarai","station_id":"MRI","time":2,"i_long":106.84912,"line":2,"is_transit":true},{"station_id":"CKI","distance":1590,"line":2,"transit":false,"is_transit":false,"i_lat":-6.198556,"i_long":106.840169,"station_name":"Cikini","time":4},{"i_lat":-6.186295,"station_name":"Gondangdia","time":3,"line":2,"i_long":106.832183,"transit":false,"station_id":"GDD","is_transit":false,"distance":1750},{"is_transit":false,"transit":false,"distance":2015,"i_lat":-6.166716,"station_name":"Juanda","time":4,"i_long":106.828284,"station_id":"JUA","line":2},{"line":2,"station_id":"SW","i_lat":-6.160725,"time":2,"transit":false,"is_transit":false,"distance":1149,"i_long":106.827103,"station_name":"Sawah Besar"}],[{"station_id":"CKY","transit":false,"i_long":106.411216,"time":0,"i_lat":-6.33561,"is_transit":false,"line":3,"distance":0,"station_name":"Cikoya"},{"i_long":106.425991,"transit":false,"time":3,"distance":2651,"line":6,"station_name":"Tigaraksa","is_transit":false,"station_id":"TGS","i_lat":-6.328533},{"station_name":"Tenjo","line":6,"i_long":106.460812,"distance":2974,"transit":false,"time":5,"station_id":"TEJ","i_lat":-6.327251,"is_transit":false},{"transit":false,"station_id":"DAR","i_long":106.491338,"line":0,"is_transit":false,"distance":3902,"i_lat":-6.338021,"station_name":"Daru","time":5},{"i_long":106.508482,"line":3,"station_id":"CJT","is_transit":false,"time":6,"i_lat":-6.354349,"station_name":"Cilejit","distance":2675,"transit":false},{"i_lat":-6.3441410000000005,"transit":false,"station_name":"Parung Panjang","i_long":106.568863,"distance":7025,"station_id":"PRP","line":6,"is_transit":false,"time":9},{"i_long":106.617853,"line":3,"station_id":"CC","transit":false,"station_name":"Cicayur","time":8,"is_transit":false,"i_lat":-6.329547,"distance":5968},{"time":4,"distance":2519,"transit":false,"station_name":"Cisauk","is_transit":false,"station_id":"CSK","line":3,"i_lat":-6.32484,"i_long":106.640411},{"station_name":"Serpong","i_lat":-6.319871,"transit":false,"is_transit":false,"time":4,"distance":1784,"station_id":"SRP","i_long":106.66566,"line":6},{"station_id":"RU","transit":false,"distance":2413,"i_lat":-6.314823,"line":6,"station_name":"Rawa Buntu","is_transit":false,"i_long":106.675475,"time":4},{"time":6,"i_long":106.712277,"distance":4566,"is_transit":false,"line":6,"transit":false,"station_name":"Sudimara","station_id":"SDM","i_lat":-6.296963},{"station_name":"Jurangmangu","distance":1994,"i_long":106.728916,"station_id":"JMU","line":6,"transit":false,"time":4,"i_lat":-6.288927,"is_transit":false},{"i_long":106.74273,"station_id":"PDJ","is_transit":false,"time":3,"station_name":"Pondokranji","line":6,"transit":false,"distance":2179,"i_lat":-6.276362},{"i_long":106.780334,"time":8,"is_transit":false,"station_id":"KBY","station_name":"Kebayoran","distance":6218,"transit":false,"line":6,"i_lat":-6.237242},{"line":6,"time":7,"distance":3737,"i_lat":-6.207404,"transit":false,"i_long":106.79689,"station_id":"PLM","station_name":"Palmerah","is_transit":false},{"transit":true,"i_lat":-6.185545,"station_id":"THB","is_transit":true,"time":6,"i_long":106.811091,"line":1,"distance":3191,"station_name":"Tanah Abang"},{"station_name":"Karet","is_transit":false,"i_long":106.816351,"time":5,"transit":false,"distance":2029,"station_id":"KAT","i_lat":-6.20132,"line":1},{"distance":471,"is_transit":false,"station_id":"SUDB","line":1,"transit":false,"time":1,"i_lat":-6.201433,"i_long":106.819881,"station_name":"Sudirman Baru"},{"i_long":106.822649,"station_id":"SUD","i_lat":-6.202263,"time":1,"station_name":"Sudirman","transit":false,"is_transit":false,"line":1,"distance":280},{"distance":3186,"station_name":"Manggarai","transit":false,"station_id":"MRI","time":4,"i_long":106.84912,"line":2,"is_transit":false,"i_lat":-6.209883},{"i_lat":-6.212485,"station_name":"Matraman","is_transit":false,"time":2,"station_id":"MTR","i_long":106.858896,"transit":false,"distance":1275,"line":1},{"time":8,"line":1,"is_transit":true,"transit":true,"distance":1377,"i_long":106.86807400000001,"i_lat":-6.215091,"station_id":"JNG","station_name":"Jatinegara"},{"station_name":"Pondok Jati","line":11,"is_transit":false,"station_id":"POK","i_long":106.861737,"distance":1236,"transit":false,"time":2,"i_lat":-6.209188},{"transit":false,"station_id":"KMT","i_long":106.855437,"is_transit":false,"time":2,"i_lat":-6.193792,"station_name":"Kramat","distance":1829,"line":11},{"station_id":"GST","time":1,"i_long":106.850107,"is_transit":false,"line":11,"distance":973,"i_lat":-6.185975,"transit":false,"station_name":"Gang Sentiong"},{"time":8,"station_name":"Pasar Senen","station_id":"PSE","i_long":106.84368,"is_transit":false,"transit":false,"distance":1567,"i_lat":-6.174784,"line":11},{"is_transit":false,"line":11,"distance":1436,"i_lat":-6.161728,"station_id":"KMO","i_long":106.839204,"time":4,"transit":false,"station_name":"Kemayoran"},{"time":5,"line":11,"station_name":"Rajawali","i_lat":-6.14505,"is_transit":false,"station_id":"RJW","transit":false,"distance":1901,"i_long":106.836569},{"is_transit":true,"station_id":"KPB","line":4,"transit":true,"i_long":106.826365,"distance":1444,"time":3,"i_lat":-6.132549,"station_name":"Kampung Bandan"},{"transit":true,"is_transit":true,"distance":1364,"time":3,"station_id":"JAKK","i_lat":-6.137569,"i_long":106.812439,"line":2,"station_name":"Jakarta Kota"},{"transit":false,"i_long":106.820901,"station_id":"JAY","is_transit":false,"station_name":"Jayakarta","distance":1264,"i_lat":-6.141205,"time":4,"line":2},{"i_long":106.82482,"transit":false,"station_name":"Manggabesar","is_transit":false,"time":2,"station_id":"MGB","line":2,"distance":1080,"i_lat":-6.149769},{"distance":906,"station_id":"SW","line":2,"i_lat":-6.160725,"is_transit":false,"station_name":"Sawah Besar","i_long":106.827103,"transit":false,"time":2}]]}