{"data":[[{"station_name":"Cikoya","station_id":"CKY","i_long":106.411216,"time":0,"is_transit":false,"transit":false,"i_lat":-6.33561,"line":3,"distance":0},{"i_lat":-6.328533,"transit":false,"distance":2651,"i_long":106.425991,"station_id":"TGS","time":3,"station_name":"Tigaraksa","is_transit":false,"line":6},{"transit":false,"line":6,"station_name":"Tenjo","time":5,"distance":2974,"is_transit":false,"i_lat":-6.327251,"i_long":106.460812,"station_id":"TEJ"},{"is_transit":false,"station_id":"DAR","i_long":106.491338,"transit":false,"line":0,"time":5,"i_lat":-6.338021,"distance":3902,"station_name":"Daru"},{"distance":2675,"station_id":"CJT","i_lat":-6.354349,"time":6,"is_transit":false,"i_long":106.508482,"line":3,"transit":false,"station_name":"Cilejit"},{"station_name":"Parung Panjang","station_id":"PRP","i_lat":-6.3441410000000005,"i_long":106.568863,"line":6,"is_transit":false,"transit":false,"distance":7025,"time":9},{"line":3,"i_long":106.617853,"time":8,"is_transit":false,"station_id":"CC","distance":5968,"station_name":"Cicayur","i_lat":-6.329547,"transit":false}]]}