{"data":[[{"i_lat":-6.33561,"station_name":"Cikoya","is_transit":false,"station_id":"CKY","distance":0,"line":0,"i_long":106.411216,"time":0,"transit":false},{"line":6,"station_name":"Tigaraksa","station_id":"TGS","time":3,"i_lat":-6.328533,"i_long":106.425991,"distance":2651,"transit":false,"is_transit":false},{"i_long":106.460812,"transit":false,"is_transit":false,"line":6,"time":5,"distance":2974,"station_name":"Tenjo","station_id":"TEJ","i_lat":-6.327251},{"transit":false,"station_name":"Daru","is_transit":false,"i_lat":-6.338021,"line":0,"time":5,"station_id":"DAR","distance":3902,"i_long":106.491338},{"i_long":106.508482,"time":6,"distance":2675,"station_name":"Cilejit","line":0,"transit":false,"is_transit":false,"station_id":"CJT","i_lat":-6.354349},{"transit":false,"i_lat":-6.3441410000000005,"station_name":"Parung Panjang","is_transit":false,"station_id":"PRP","time":9,"distance":7025,"i_long":106.568863,"line":6},{"station_id":"CC","i_lat":-6.329547,"transit":false,"time":8,"line":0,"i_long":106.617853,"distance":5968,"station_name":"Cicayur","is_transit":false},{"station_name":"Cisauk","time":4,"line":0,"transit":false,"distance":2519,"i_long":106.640411,"i_lat":-6.32484,"is_transit":false,"station_id":"CSK"},{"i_long":106.66566,"time":4,"i_lat":-6.319871,"transit":false,"is_transit":false,"distance":1784,"line":6,"station_name":"Serpong","station_id":"SRP"},{"line":6,"time":4,"distance":2413,"station_name":"Rawa Buntu","transit":false,"is_transit":false,"station_id":"RU","i_lat":-6.314823,"i_long":106.675475},{"station_name":"Sudimara","transit":false,"is_transit":false,"time":6,"i_lat":-6.296963,"line":6,"i_long":106.712277,"station_id":"SDM","distance":4566},{"distance":1994,"station_id":"JMU","transit":false,"i_long":106.728916,"station_name":"Jurangmangu","time":4,"line":6,"is_transit":false,"i_lat":-6.288927},{"line":6,"distance":2179,"transit":false,"is_transit":false,"i_long":106.74273,"station_id":"PDJ","time":3,"station_name":"Pondokranji","i_lat":-6.276362},{"time":8,"station_name":"Kebayoran","station_id":"KBY","distance":6218,"i_lat":-6.237242,"line":6,"is_transit":false,"transit":false,"i_long":106.780334},{"line":6,"time":7,"i_long":106.79689,"station_name":"Palmerah","station_id":"PLM","transit":false,"i_lat":-6.207404,"is_transit":false,"distance":3737},{"line":1,"i_long":106.811091,"transit":true,"station_id":"THB","i_lat":-6.185545,"station_name":"Tanah Abang","time":6,"distance":3191,"is_transit":true},{"i_lat":-6.20132,"line":1,"time":5,"station_name":"Karet","is_transit":false,"distance":2029,"transit":false,"station_id":"KAT","i_long":106.816351},{"distance":471,"station_name":"Sudirman Baru","time":1,"station_id":"SUDB","i_lat":-6.201433,"transit":false,"i_long":106.819881,"is_transit":false,"line":1},{"is_transit":false,"i_long":106.822649,"transit":false,"station_name":"Sudirman","station_id":"SUD","time":1,"distance":280,"i_lat":-6.202263,"line":1},{"time":4,"distance":3186,"i_lat":-6.209883,"transit":false,"i_long":106.84912,"station_id":"MRI","station_name":"Manggarai","line":0,"is_transit":true},{"line":1,"transit":false,"is_transit":false,"time":2,"station_name":"Matraman","station_id":"MTR","distance":1275,"i_lat":-6.212485,"i_long":106.858896},{"distance":1377,"i_long":106.86807400000001,"transit":false,"is_transit":true,"station_name":"Jatinegara","station_id":"JNG","time":8,"i_lat":-6.215091,"line":0},{"i_lat":-6.2135,"line":1,"distance":3395,"time":3,"is_transit":false,"i_long":106.899548,"transit":false,"station_name":"Klender","station_id":"KLD"},{"i_long":106.922662,"is_transit":false,"station_id":"BUA","distance":3100,"i_lat":-6.215568,"transit":false,"line":0,"time":2,"station_name":"Buaran"},{"time":1,"transit":false,"i_lat":-6.217455,"i_long":106.939679,"line":1,"is_transit":false,"distance":1305,"station_id":"KLDB","station_name":"Klenderbaru"}],[{"line":0,"time":0,"i_long":106.411216,"i_lat":-6.33561,"is_transit":false,"transit":false,"station_name":"Cikoya","distance":0,"station_id":"CKY"},{"station_name":"Tigaraksa","is_transit":false,"time":3,"i_long":106.425991,"i_lat":-6.328533,"transit":false,"distance":2651,"line":6,"station_id":"TGS"},{"i_long":106.460812,"line":6,"station_id":"TEJ","transit":false,"station_name":"Tenjo","is_transit":false,"time":5,"distance":2974,"i_lat":-6.327251},{"i_lat":-6.338021,"line":0,"transit":false,"time":5,"station_name":"Daru","station_id":"DAR","distance":3902,"i_long":106.491338,"is_transit":false},{"is_transit":false,"transit":false,"station_name":"Cilejit","i_lat":-6.354349,"i_long":106.508482,"line":0,"station_id":"CJT","time":6,"distance":2675},{"time":9,"station_name":"Parung Panjang","is_transit":false,"line":6,"distance":7025,"transit":false,"i_long":106.568863,"station_id":"PRP","i_lat":-6.3441410000000005},{"time":8,"distance":5968,"transit":false,"station_id":"CC","i_lat":-6.329547,"line":0,"i_long":106.617853,"is_transit":false,"station_name":"Cicayur"},{"distance":2519,"transit":false,"time":4,"i_long":106.640411,"line":0,"is_transit":false,"station_id":"CSK","i_lat":-6.32484,"station_name":"Cisauk"},{"station_name":"Serpong","i_long":106.66566,"is_transit":false,"distance":1784,"i_lat":-6.319871,"time":4,"station_id":"SRP","line":6,"transit":false},{"station_name":"Rawa Buntu","transit":false,"station_id":"RU","distance":2413,"time":4,"i_lat":-6.314823,"i_long":106.675475,"line":6,"is_transit":false},{"is_transit":false,"station_id":"SDM","time":6,"i_long":106.712277,"distance":4566,"station_name":"Sudimara","line":6,"transit":false,"i_lat":-6.296963},{"station_name":"Jurangmangu","time":4,"is_transit":false,"distance":1994,"transit":false,"i_lat":-6.288927,"i_long":106.728916,"line":6,"station_id":"JMU"},{"transit":false,"is_transit":false,"i_long":106.74273,"i_lat":-6.276362,"distance":2179,"station_name":"Pondokranji","station_id":"PDJ","line":6,"time":3},{"distance":6218,"i_lat":-6.237242,"is_transit":false,"transit":false,"station_id":"KBY","i_long":106.780334,"line":6,"time":8,"station_name":"Kebayoran"},{"transit":false,"i_long":106.79689,"line":6,"is_transit":false,"time":7,"station_id":"PLM","distance":3737,"station_name":"Palmerah","i_lat":-6.207404},{"i_long":106.811091,"time":6,"i_lat":-6.185545,"distance":3191,"transit":true,"station_id":"THB","line":1,"is_transit":true,"station_name":"Tanah Abang"},{"transit":true,"is_transit":true,"distance":3632,"station_name":"Duri","station_id":"DU","i_long":106.800832,"i_lat":-6.155215,"line":1,"time":8},{"line":0,"time":4,"distance":1230,"is_transit":false,"transit":false,"station_id":"AK","i_lat":-6.144674,"i_long":106.79867,"station_name":"Angke"},{"station_id":"KPB","time":9,"i_long":106.826365,"line":0,"distance":4102,"i_lat":-6.132549,"is_transit":true,"station_name":"Kampung Bandan","transit":true},{"i_lat":-6.14505,"transit":false,"is_transit":false,"station_name":"Rajawali","i_long":106.836569,"station_id":"RJW","time":3,"distance":1444,"line":11},{"line":11,"station_id":"KMO","station_name":"Kemayoran","transit":false,"i_long":106.839204,"i_lat":-6.161728,"time":5,"distance":1901,"is_transit":false},{"station_id":"PSE","time":4,"line":11,"transit":false,"i_long":106.84368,"station_name":"Pasar Senen","is_transit":false,"distance":1436,"i_lat":-6.174784},{"time":8,"transit":false,"is_transit":false,"i_long":106.850107,"i_lat":-6.185975,"line":11,"station_name":"Gang Sentiong","station_id":"GST","distance":1567},{"i_lat":-6.193792,"line":11,"distance":973,"transit":false,"station_id":"KMT","time":1,"station_name":"Kramat","i_long":106.855437,"is_transit":false},{"station_name":"Pondok Jati","time":2,"is_transit":false,"i_long":106.861737,"station_id":"POK","line":11,"distance":1829,"transit":false,"i_lat":-6.209188},{"is_transit":true,"station_name":"Jatinegara","i_lat":-6.215091,"i_long":106.86807400000001,"line":0,"transit":true,"time":9,"station_id":"JNG","distance":1236},{"line":1,"i_long":106.899548,"time":3,"station_name":"Klender","is_transit":false,"station_id":"KLD","i_lat":-6.2135,"transit":false,"distance":3395},{"is_transit":false,"time":2,"station_name":"Buaran","transit":false,"distance":3100,"i_long":106.922662,"station_id":"BUA","i_lat":-6.215568,"line":0},{"i_lat":-6.217455,"line":1,"station_name":"Klenderbaru","time":1,"station_id":"KLDB","is_transit":false,"i_long":106.939679,"distance":1305,"transit":false}],[{"distance":0,"transit":false,"time":0,"station_id":"CKY","i_long":106.411216,"line":0,"i_lat":-6.33561,"station_name":"Cikoya","is_transit":false},{"station_name":"Tigaraksa","distance":2651,"time":3,"i_long":106.425991,"station_id":"TGS","line":6,"transit":false,"is_transit":false,"i_lat":-6.328533},{"station_id":"TEJ","i_long":106.460812,"time":5,"station_name":"Tenjo","line":6,"is_transit":false,"distance":2974,"i_lat":-6.327251,"transit":false},{"station_name":"Daru","line":0,"transit":false,"station_id":"DAR","i_lat":-6.338021,"i_long":106.491338,"is_transit":false,"time":5,"distance":3902},{"time":6,"i_lat":-6.354349,"station_id":"CJT","transit":false,"i_long":106.508482,"distance":2675,"station_name":"Cilejit","is_transit":false,"line":0},{"transit":false,"is_transit":false,"time":9,"distance":7025,"i_long":106.568863,"line":6,"station_id":"PRP","station_name":"Parung Panjang","i_lat":-6.3441410000000005},{"station_name":"Cicayur","station_id":"CC","time":8,"transit":false,"distance":5968,"line":0,"is_transit":false,"i_lat":-6.329547,"i_long":106.617853},{"i_long":106.640411,"line":0,"transit":false,"distance":2519,"is_transit":false,"time":4,"i_lat":-6.32484,"station_id":"CSK","station_name":"Cisauk"},{"transit":false,"distance":1784,"line":6,"i_long":106.66566,"time":4,"i_lat":-6.319871,"is_transit":false,"station_id":"SRP","station_name":"Serpong"},{"time":4,"i_long":106.675475,"distance":2413,"line":6,"station_id":"RU","transit":false,"i_lat":-6.314823,"station_name":"Rawa Buntu","is_transit":false},{"transit":false,"station_name":"Sudimara","is_transit":false,"station_id":"SDM","time":6,"i_long":106.712277,"line":6,"distance":4566,"i_lat":-6.296963},{"is_transit":false,"line":6,"distance":1994,"i_long":106.728916,"station_name":"Jurangmangu","transit":false,"i_lat":-6.288927,"station_id":"JMU","time":4},{"line":6,"i_lat":-6.276362,"transit":false,"distance":2179,"time":3,"station_name":"Pondokranji","is_transit":false,"station_id":"PDJ","i_long":106.74273},{"time":8,"i_long":106.780334,"transit":false,"line":6,"station_id":"KBY","station_name":"Kebayoran","is_transit":false,"distance":6218,"i_lat":-6.237242},{"is_transit":false,"station_name":"Palmerah","i_long":106.79689,"line":6,"distance":3737,"station_id":"PLM","transit":false,"time":7,"i_lat":-6.207404},{"time":6,"transit":true,"station_id":"THB","i_lat":-6.185545,"station_name":"Tanah Abang","is_transit":true,"i_long":106.811091,"distance":3191,"line":1},{"is_transit":true,"transit":true,"distance":3632,"i_long":106.800832,"line":1,"time":8,"station_name":"Duri","i_lat":-6.155215,"station_id":"DU"},{"is_transit":false,"distance":1230,"i_long":106.79867,"station_name":"Angke","transit":false,"i_lat":-6.144674,"time":4,"station_id":"AK","line":0},{"i_lat":-6.132549,"station_name":"Kampung Bandan","station_id":"KPB","transit":false,"i_long":106.826365,"distance":4102,"is_transit":true,"line":0,"time":9},{"i_long":106.812439,"distance":1364,"station_id":"JAKK","line":0,"time":3,"station_name":"Jakarta Kota","is_transit":true,"i_lat":-6.137569,"transit":true},{"i_lat":-6.141205,"line":7,"station_id":"JAY","is_transit":false,"time":4,"distance":1264,"i_long":106.820901,"station_name":"Jayakarta","transit":false},{"i_lat":-6.149769,"transit":false,"distance":1080,"station_id":"MGB","line":2,"i_long":106.82482,"station_name":"Manggabesar","is_transit":false,"time":2},{"line":2,"is_transit":false,"station_name":"Sawah Besar","station_id":"SW","time":2,"i_lat":-6.160725,"transit":false,"distance":906,"i_long":106.827103},{"distance":1149,"is_transit":false,"i_long":106.828284,"line":2,"i_lat":-6.166716,"station_id":"JUA","transit":false,"time":2,"station_name":"Juanda"},{"station_name":"Gondangdia","transit":false,"time":4,"i_lat":-6.186295,"line":2,"i_long":106.832183,"station_id":"GDD","distance":2015,"is_transit":false},{"transit":false,"i_long":106.840169,"station_name":"Cikini","is_transit":false,"line":0,"i_lat":-6.198556,"time":3,"station_id":"CKI","distance":1750},{"time":4,"transit":true,"is_transit":true,"i_long":106.84912,"line":0,"station_id":"MRI","distance":1590,"station_name":"Manggarai","i_lat":-6.209883},{"i_long":106.858896,"is_transit":false,"i_lat":-6.212485,"line":1,"transit":false,"distance":1275,"station_name":"Matraman","station_id":"MTR","time":2},{"station_name":"Jatinegara","is_transit":true,"time":8,"line":0,"transit":false,"i_long":106.86807400000001,"station_id":"JNG","distance":1377,"i_lat":-6.215091},{"is_transit":false,"i_lat":-6.2135,"transit":false,"distance":3395,"station_name":"Klender","line":1,"station_id":"KLD","time":3,"i_long":106.899548},{"is_transit":false,"i_lat":-6.215568,"transit":false,"distance":3100,"station_id":"BUA","station_name":"Buaran","time":2,"line":0,"i_long":106.922662},{"transit":false,"time":1,"station_name":"Klenderbaru","is_transit":false,"distance":1305,"i_lat":-6.217455,"line":1,"i_long":106.939679,"station_id":"KLDB"}],[{"time":0,"is_transit":false,"station_name":"Cikoya","i_lat":-6.33561,"station_id":"CKY","i_long":106.411216,"transit":false,"distance":0,"line":0},{"time":3,"is_transit":false,"station_name":"Tigaraksa","transit":false,"i_lat":-6.328533,"i_long":106.425991,"station_id":"TGS","distance":2651,"line":6},{"i_lat":-6.327251,"station_name":"Tenjo","is_transit":false,"distance":2974,"transit":false,"line":6,"station_id":"TEJ","i_long":106.460812,"time":5},{"distance":3902,"i_long":106.491338,"is_transit":false,"line":0,"i_lat":-6.338021,"station_id":"DAR","time":5,"transit":false,"station_name":"Daru"},{"station_id":"CJT","time":6,"distance":2675,"station_name":"Cilejit","line":0,"i_lat":-6.354349,"is_transit":false,"i_long":106.508482,"transit":false},{"station_id":"PRP","transit":false,"distance":7025,"station_name":"Parung Panjang","is_transit":false,"i_lat":-6.3441410000000005,"time":9,"line":6,"i_long":106.568863},{"transit":false,"station_id":"CC","station_name":"Cicayur","time":8,"line":0,"is_transit":false,"i_lat":-6.329547,"distance":5968,"i_long":106.617853},{"is_transit":false,"time":4,"distance":2519,"i_lat":-6.32484,"i_long":106.640411,"station_name":"Cisauk","transit":false,"station_id":"CSK","line":0},{"i_lat":-6.319871,"i_long":106.66566,"is_transit":false,"time":4,"transit":false,"distance":1784,"station_name":"Serpong","line":6,"station_id":"SRP"},{"station_id":"RU","i_long":106.675475,"time":4,"line":6,"distance":2413,"is_transit":false,"station_name":"Rawa Buntu","transit":false,"i_lat":-6.314823},{"is_transit":false,"distance":4566,"station_name":"Sudimara","i_long":106.712277,"transit":false,"station_id":"SDM","time":6,"line":6,"i_lat":-6.296963},{"time":4,"station_name":"Jurangmangu","is_transit":false,"transit":false,"i_long":106.728916,"station_id":"JMU","line":6,"distance":1994,"i_lat":-6.288927},{"transit":false,"line":6,"time":3,"station_id":"PDJ","distance":2179,"station_name":"Pondokranji","i_long":106.74273,"is_transit":false,"i_lat":-6.276362},{"distance":6218,"i_lat":-6.237242,"station_name":"Kebayoran","station_id":"KBY","line":6,"time":8,"transit":false,"i_long":106.780334,"is_transit":false},{"station_id":"PLM","distance":3737,"is_transit":false,"station_name":"Palmerah","time":7,"i_long":106.79689,"line":6,"i_lat":-6.207404,"transit":false},{"transit":true,"time":6,"distance":3191,"line":1,"station_id":"THB","station_name":"Tanah Abang","is_transit":true,"i_lat":-6.185545,"i_long":106.811091},{"is_transit":false,"i_long":106.816351,"station_id":"KAT","i_lat":-6.20132,"transit":false,"station_name":"Karet","time":5,"distance":2029,"line":1},{"line":1,"station_id":"SUDB","transit":false,"station_name":"Sudirman Baru","is_transit":false,"i_long":106.819881,"time":1,"distance":471,"i_lat":-6.201433},{"is_transit":false,"station_name":"Sudirman","transit":false,"distance":280,"time":1,"station_id":"SUD","i_lat":-6.202263,"i_long":106.822649,"line":1},{"i_lat":-6.209883,"transit":true,"i_long":106.84912,"line":0,"is_transit":true,"time":4,"distance":3186,"station_id":"MRI","station_name":"Manggarai"},{"time":4,"transit":false,"is_transit":false,"i_lat":-6.198556,"station_name":"Cikini","distance":1590,"i_long":106.840169,"station_id":"CKI","line":0},{"station_id":"GDD","distance":1750,"line":2,"is_transit":false,"station_name":"Gondangdia","i_lat":-6.186295,"time":3,"i_long":106.832183,"transit":false},{"is_transit":false,"line":2,"i_lat":-6.166716,"transit":false,"i_long":106.828284,"station_id":"JUA","time":4,"distance":2015,"station_name":"Juanda"},{"line":2,"transit":false,"distance":1149,"station_name":"Sawah Besar","i_lat":-6.160725,"i_long":106.827103,"time":2,"is_transit":false,"station_id":"SW"},{"station_name":"Manggabesar","time":2,"line":2,"is_transit":false,"i_long":106.82482,"distance":906,"station_id":"MGB","i_lat":-6.149769,"transit":false},{"line":7,"station_name":"Jayakarta","i_long":106.820901,"transit":false,"i_lat":-6.141205,"time":2,"station_id":"JAY","is_transit":false,"distance":1080},{"line":0,"station_name":"Jakarta Kota","i_long":106.812439,"station_id":"JAKK","i_lat":-6.137569,"distance":1264,"is_transit":true,"transit":true,"time":4},{"station_id":"KPB","transit":true,"is_transit":true,"i_lat":-6.132549,"line":0,"i_long":106.826365,"station_name":"Kampung Bandan","distance":1364,"time":3},{"is_transit":false,"time":3,"distance":1444,"i_lat":-6.14505,"i_long":106.836569,"line":11,"transit":false,"station_name":"Rajawali","station_id":"RJW"},{"transit":false,"distance":1901,"is_transit":false,"station_name":"Kemayoran","station_id":"KMO","time":5,"i_long":106.839204,"i_lat":-6.161728,"line":11},{"distance":1436,"station_name":"Pasar Senen","i_lat":-6.174784,"line":11,"transit":false,"is_transit":false,"i_long":106.84368,"station_id":"PSE","time":4},{"time":8,"distance":1567,"is_transit":false,"line":11,"i_long":106.850107,"i_lat":-6.185975,"transit":false,"station_id":"GST","station_name":"Gang Sentiong"},{"time":1,"is_transit":false,"transit":false,"distance":973,"i_long":106.855437,"line":11,"station_id":"KMT","i_lat":-6.193792,"station_name":"Kramat"},{"i_lat":-6.209188,"i_long":106.861737,"line":11,"transit":false,"distance":1829,"station_name":"Pondok Jati","is_transit":false,"station_id":"POK","time":2},{"time":9,"is_transit":true,"distance":1236,"line":0,"i_lat":-6.215091,"station_name":"Jatinegara","station_id":"JNG","transit":true,"i_long":106.86807400000001},{"time":3,"distance":3395,"transit":false,"i_long":106.899548,"station_name":"Klender","station_id":"KLD","i_lat":-6.2135,"is_transit":false,"line":1},{"station_id":"BUA","distance":3100,"i_long":106.922662,"i_lat":-6.215568,"transit":false,"time":2,"station_name":"Buaran","is_transit":false,"line":0},{"i_long":106.939679,"is_transit":false,"station_name":"Klenderbaru","transit":false,"station_id":"KLDB","time":1,"line":1,"distance":1305,"i_lat":-6.217455}]]}