{"data":[[{"station_name":"Cikoya","time":0,"station_id":"CKY","is_transit":false,"transit":false,"i_long":106.411216,"line":3,"i_lat":-6.33561,"distance":0},{"station_id":"TGS","i_lat":-6.328533,"is_transit":false,"transit":false,"line":6,"distance":2651,"station_name":"Tigaraksa","i_long":106.425991,"time":3},{"is_transit":false,"transit":false,"distance":2974,"station_id":"TEJ","i_lat":-6.327251,"line":6,"station_name":"Tenjo","time":5,"i_long":106.460812},{"i_long":106.491338,"station_id":"DAR","time":5,"is_transit":false,"station_name":"Daru","distance":3902,"transit":false,"i_lat":-6.338021,"line":0},{"distance":2675,"station_name":"Cilejit","i_lat":-6.354349,"transit":false,"time":6,"i_long":106.508482,"is_transit":false,"line":3,"station_id":"CJT"},{"station_name":"Parung Panjang","i_lat":-6.3441410000000005,"time":9,"station_id":"PRP","distance":7025,"is_transit":false,"transit":false,"i_long":106.568863,"line":6},{"i_long":106.617853,"is_transit":false,"station_id":"CC","time":8,"station_name":"Cicayur","transit":false,"line":3,"distance":5968,"i_lat":-6.329547},{"station_name":"Cisauk","time":4,"transit":false,"i_long":106.640411,"i_lat":-6.32484,"is_transit":false,"distance":2519,"line":3,"station_id":"CSK"},{"time":4,"i_lat":-6.319871,"station_name":"Serpong","is_transit":false,"i_long":106.66566,"line":6,"station_id":"SRP","distance":1784,"transit":false},{"station_id":"RU","line":6,"station_name":"Rawa Buntu","time":4,"i_long":106.675475,"transit":false,"distance":2413,"is_transit":false,"i_lat":-6.314823},{"i_long":106.712277,"station_id":"SDM","station_name":"Sudimara","transit":false,"is_transit":false,"time":6,"distance":4566,"line":6,"i_lat":-6.296963},{"i_lat":-6.288927,"station_id":"JMU","i_long":106.728916,"station_name":"Jurangmangu","transit":false,"line":6,"time":4,"distance":1994,"is_transit":false},{"transit":false,"line":6,"time":3,"is_transit":false,"i_long":106.74273,"distance":2179,"i_lat":-6.276362,"station_name":"Pondokranji","station_id":"PDJ"},{"i_lat":-6.237242,"is_transit":false,"station_name":"Kebayoran","i_long":106.780334,"time":8,"station_id":"KBY","distance":6218,"transit":false,"line":6},{"time":7,"station_id":"PLM","i_lat":-6.207404,"distance":3737,"line":6,"i_long":106.79689,"is_transit":false,"station_name":"Palmerah","transit":false},{"transit":true,"time":6,"station_id":"THB","line":1,"i_lat":-6.185545,"distance":3191,"station_name":"Tanah Abang","is_transit":true,"i_long":106.811091},{"i_long":106.800832,"station_id":"DU","transit":false,"is_transit":false,"line":1,"time":8,"i_lat":-6.155215,"station_name":"Duri","distance":3632}],[{"line":3,"transit":false,"distance":0,"i_lat":-6.33561,"i_long":106.411216,"time":0,"station_id":"CKY","station_name":"Cikoya","is_transit":false},{"i_lat":-6.328533,"i_long":106.425991,"station_id":"TGS","is_transit":false,"transit":false,"line":6,"time":3,"station_name":"Tigaraksa","distance":2651},{"transit":false,"is_transit":false,"i_long":106.460812,"station_id":"TEJ","station_name":"Tenjo","line":6,"i_lat":-6.327251,"time":5,"distance":2974},{"is_transit":false,"time":5,"station_id":"DAR","i_lat":-6.338021,"station_name":"Daru","distance":3902,"i_long":106.491338,"transit":false,"line":0},{"is_transit":false,"station_name":"Cilejit","distance":2675,"station_id":"CJT","i_lat":-6.354349,"transit":false,"time":6,"line":3,"i_long":106.508482},{"line":6,"station_name":"Parung Panjang","distance":7025,"station_id":"PRP","time":9,"is_transit":false,"transit":false,"i_lat":-6.3441410000000005,"i_long":106.568863},{"station_name":"Cicayur","time":8,"transit":false,"i_long":106.617853,"distance":5968,"i_lat":-6.329547,"is_transit":false,"station_id":"CC","line":3},{"line":3,"transit":false,"i_lat":-6.32484,"time":4,"station_name":"Cisauk","station_id":"CSK","is_transit":false,"i_long":106.640411,"distance":2519},{"is_transit":false,"transit":false,"station_name":"Serpong","i_long":106.66566,"distance":1784,"station_id":"SRP","i_lat":-6.319871,"time":4,"line":6},{"is_transit":false,"station_id":"RU","i_lat":-6.314823,"line":6,"distance":2413,"station_name":"Rawa Buntu","transit":false,"i_long":106.675475,"time":4},{"i_long":106.712277,"station_id":"SDM","station_name":"Sudimara","time":6,"line":6,"is_transit":false,"transit":false,"i_lat":-6.296963,"distance":4566},{"distance":1994,"i_long":106.728916,"station_id":"JMU","line":6,"station_name":"Jurangmangu","time":4,"i_lat":-6.288927,"is_transit":false,"transit":false},{"line":6,"station_name":"Pondokranji","is_transit":false,"i_lat":-6.276362,"i_long":106.74273,"distance":2179,"station_id":"PDJ","transit":false,"time":3},{"i_long":106.780334,"i_lat":-6.237242,"distance":6218,"line":6,"transit":false,"is_transit":false,"station_name":"Kebayoran","station_id":"KBY","time":8},{"transit":false,"is_transit":false,"station_id":"PLM","i_long":106.79689,"time":7,"station_name":"Palmerah","distance":3737,"i_lat":-6.207404,"line":6},{"line":1,"i_lat":-6.185545,"i_long":106.811091,"station_id":"THB","station_name":"Tanah Abang","is_transit":true,"transit":true,"time":6,"distance":3191},{"distance":2029,"station_id":"KAT","transit":false,"i_lat":-6.20132,"line":1,"i_long":106.816351,"time":5,"is_transit":false,"station_name":"Karet"},{"time":1,"line":1,"transit":false,"distance":471,"i_long":106.819881,"is_transit":false,"station_id":"SUDB","i_lat":-6.201433,"station_name":"Sudirman Baru"},{"station_name":"Sudirman","line":1,"is_transit":false,"transit":false,"i_lat":-6.202263,"distance":280,"time":1,"station_id":"SUD","i_long":106.822649},{"transit":true,"station_id":"MRI","i_long":106.84912,"i_lat":-6.209883,"distance":3186,"time":4,"station_name":"Manggarai","line":2,"is_transit":true},{"station_id":"CKI","i_long":106.840169,"distance":1590,"line":2,"i_lat":-6.198556,"transit":false,"is_transit":false,"station_name":"Cikini","time":4},{"line":2,"i_lat":-6.186295,"station_name":"Gondangdia","station_id":"GDD","transit":false,"distance":1750,"time":3,"i_long":106.832183,"is_transit":false},{"time":4,"station_name":"Juanda","is_transit":false,"station_id":"JUA","i_lat":-6.166716,"transit":false,"i_long":106.828284,"distance":2015,"line":2},{"i_long":106.827103,"i_lat":-6.160725,"distance":1149,"station_name":"Sawah Besar","is_transit":false,"line":2,"station_id":"SW","time":2,"transit":false},{"time":2,"distance":906,"line":2,"transit":false,"is_transit":false,"i_long":106.82482,"station_name":"Manggabesar","station_id":"MGB","i_lat":-6.149769},{"distance":1080,"transit":false,"is_transit":false,"station_name":"Jayakarta","time":2,"station_id":"JAY","i_lat":-6.141205,"i_long":106.820901,"line":2},{"station_name":"Jakarta Kota","station_id":"JAKK","line":2,"time":4,"transit":true,"i_lat":-6.137569,"i_long":106.812439,"distance":1264,"is_transit":true},{"line":4,"transit":true,"is_transit":true,"i_lat":-6.132549,"i_long":106.826365,"distance":1364,"time":3,"station_id":"KPB","station_name":"Kampung Bandan"},{"time":9,"transit":false,"line":1,"is_transit":false,"i_long":106.79867,"station_id":"AK","i_lat":-6.144674,"distance":4102,"station_name":"Angke"},{"time":4,"station_id":"DU","i_lat":-6.155215,"is_transit":false,"transit":false,"distance":1230,"i_long":106.800832,"line":1,"station_name":"Duri"}],[{"station_name":"Cikoya","transit":false,"station_id":"CKY","i_long":106.411216,"time":0,"is_transit":false,"i_lat":-6.33561,"line":3,"distance":0},{"line":6,"distance":2651,"station_name":"Tigaraksa","time":3,"transit":false,"station_id":"TGS","i_lat":-6.328533,"i_long":106.425991,"is_transit":false},{"transit":false,"is_transit":false,"distance":2974,"time":5,"station_id":"TEJ","i_lat":-6.327251,"i_long":106.460812,"line":6,"station_name":"Tenjo"},{"time":5,"i_lat":-6.338021,"station_name":"Daru","transit":false,"station_id":"DAR","i_long":106.491338,"is_transit":false,"line":0,"distance":3902},{"distance":2675,"station_id":"CJT","line":3,"i_long":106.508482,"time":6,"station_name":"Cilejit","is_transit":false,"transit":false,"i_lat":-6.354349},{"time":9,"station_id":"PRP","distance":7025,"is_transit":false,"i_lat":-6.3441410000000005,"i_long":106.568863,"line":6,"transit":false,"station_name":"Parung Panjang"},{"time":8,"i_long":106.617853,"distance":5968,"is_transit":false,"station_name":"Cicayur","line":3,"transit":false,"i_lat":-6.329547,"station_id":"CC"},{"is_transit":false,"i_long":106.640411,"time":4,"station_id":"CSK","line":3,"transit":false,"distance":2519,"station_name":"Cisauk","i_lat":-6.32484},{"transit":false,"time":4,"distance":1784,"station_id":"SRP","line":6,"is_transit":false,"i_lat":-6.319871,"i_long":106.66566,"station_name":"Serpong"},{"is_transit":false,"station_id":"RU","time":4,"i_long":106.675475,"distance":2413,"station_name":"Rawa Buntu","i_lat":-6.314823,"line":6,"transit":false},{"i_long":106.712277,"line":6,"distance":4566,"transit":false,"station_name":"Sudimara","time":6,"station_id":"SDM","i_lat":-6.296963,"is_transit":false},{"transit":false,"is_transit":false,"station_id":"JMU","station_name":"Jurangmangu","i_lat":-6.288927,"distance":1994,"time":4,"i_long":106.728916,"line":6},{"line":6,"station_id":"PDJ","time":3,"distance":2179,"is_transit":false,"i_lat":-6.276362,"i_long":106.74273,"transit":false,"station_name":"Pondokranji"},{"is_transit":false,"i_long":106.780334,"station_id":"KBY","station_name":"Kebayoran","time":8,"transit":false,"i_lat":-6.237242,"line":6,"distance":6218},{"line":6,"station_id":"PLM","transit":false,"distance":3737,"is_transit":false,"i_long":106.79689,"time":7,"station_name":"Palmerah","i_lat":-6.207404},{"station_name":"Tanah Abang","line":1,"is_transit":true,"distance":3191,"time":6,"i_lat":-6.185545,"transit":true,"station_id":"THB","i_long":106.811091},{"distance":2029,"time":5,"transit":false,"i_lat":-6.20132,"i_long":106.816351,"line":1,"is_transit":false,"station_name":"Karet","station_id":"KAT"},{"station_id":"SUDB","is_transit":false,"i_lat":-6.201433,"transit":false,"distance":471,"line":1,"station_name":"Sudirman Baru","time":1,"i_long":106.819881},{"transit":false,"time":1,"i_lat":-6.202263,"line":1,"i_long":106.822649,"station_id":"SUD","station_name":"Sudirman","distance":280,"is_transit":false},{"time":4,"is_transit":false,"i_long":106.84912,"distance":3186,"transit":false,"i_lat":-6.209883,"line":2,"station_name":"Manggarai","station_id":"MRI"},{"i_long":106.858896,"distance":1275,"transit":false,"station_id":"MTR","i_lat":-6.212485,"is_transit":false,"time":2,"line":1,"station_name":"Matraman"},{"transit":true,"line":1,"station_name":"Jatinegara","station_id":"JNG","time":8,"i_lat":-6.215091,"i_long":106.86807400000001,"is_transit":true,"distance":1377},{"time":2,"line":11,"transit":false,"station_id":"POK","is_transit":false,"station_name":"Pondok Jati","distance":1236,"i_lat":-6.209188,"i_long":106.861737},{"is_transit":false,"distance":1829,"line":11,"station_name":"Kramat","i_lat":-6.193792,"time":2,"transit":false,"station_id":"KMT","i_long":106.855437},{"station_name":"Gang Sentiong","transit":false,"i_lat":-6.185975,"distance":973,"time":1,"is_transit":false,"line":11,"station_id":"GST","i_long":106.850107},{"station_name":"Pasar Senen","time":8,"transit":false,"i_long":106.84368,"line":11,"station_id":"PSE","is_transit":false,"i_lat":-6.174784,"distance":1567},{"station_name":"Kemayoran","is_transit":false,"station_id":"KMO","line":11,"distance":1436,"i_long":106.839204,"time":4,"transit":false,"i_lat":-6.161728},{"station_id":"RJW","is_transit":false,"line":11,"i_lat":-6.14505,"distance":1901,"i_long":106.836569,"time":5,"station_name":"Rajawali","transit":false},{"station_id":"KPB","transit":true,"i_long":106.826365,"line":4,"distance":1444,"time":3,"is_transit":true,"i_lat":-6.132549,"station_name":"Kampung Bandan"},{"line":1,"i_lat":-6.144674,"is_transit":false,"distance":4102,"transit":false,"station_name":"Angke","time":9,"station_id":"AK","i_long":106.79867},{"time":4,"transit":false,"station_id":"DU","is_transit":false,"i_long":106.800832,"line":1,"distance":1230,"i_lat":-6.155215,"station_name":"Duri"}]]}