{"data":[[{"time":0,"i_long":106.411216,"line":3,"is_transit":false,"station_name":"Cikoya","transit":false,"station_id":"CKY","distance":0,"i_lat":-6.33561},{"distance":2651,"station_id":"TGS","station_name":"Tigaraksa","time":3,"transit":false,"i_long":106.425991,"is_transit":false,"i_lat":-6.328533,"line":6},{"transit":false,"station_name":"Tenjo","distance":2974,"is_transit":false,"time":5,"station_id":"TEJ","i_long":106.460812,"i_lat":-6.327251,"line":6},{"i_long":106.491338,"station_id":"DAR","time":5,"transit":false,"is_transit":false,"distance":3902,"station_name":"Daru","i_lat":-6.338021,"line":0},{"time":6,"is_transit":false,"transit":false,"line":3,"station_name":"Cilejit","station_id":"CJT","i_lat":-6.354349,"i_long":106.508482,"distance":2675},{"i_lat":-6.3441410000000005,"line":6,"distance":7025,"station_id":"PRP","i_long":106.568863,"time":9,"station_name":"Parung Panjang","is_transit":false,"transit":false},{"is_transit":false,"i_lat":-6.329547,"line":3,"distance":5968,"transit":false,"i_long":106.617853,"station_name":"Cicayur","station_id":"CC","time":8},{"time":4,"station_id":"CSK","station_name":"Cisauk","i_long":106.640411,"is_transit":false,"transit":false,"line":3,"i_lat":-6.32484,"distance":2519},{"time":4,"transit":false,"station_name":"Serpong","is_transit":false,"station_id":"SRP","i_lat":-6.319871,"i_long":106.66566,"line":6,"distance":1784},{"distance":2413,"station_name":"Rawa Buntu","i_lat":-6.314823,"is_transit":false,"time":4,"station_id":"RU","transit":false,"i_long":106.675475,"line":6},{"station_id":"SDM","line":6,"station_name":"Sudimara","time":6,"i_lat":-6.296963,"distance":4566,"is_transit":false,"transit":false,"i_long":106.712277},{"distance":1994,"time":4,"transit":false,"i_long":106.728916,"line":6,"i_lat":-6.288927,"station_id":"JMU","station_name":"Jurangmangu","is_transit":false},{"station_id":"PDJ","is_transit":false,"line":6,"station_name":"Pondokranji","transit":false,"time":3,"i_lat":-6.276362,"i_long":106.74273,"distance":2179},{"i_lat":-6.237242,"distance":6218,"station_name":"Kebayoran","time":8,"station_id":"KBY","transit":false,"is_transit":false,"i_long":106.780334,"line":6},{"station_name":"Palmerah","is_transit":false,"line":6,"i_lat":-6.207404,"station_id":"PLM","time":7,"distance":3737,"transit":false,"i_long":106.79689},{"distance":3191,"station_id":"THB","transit":true,"i_lat":-6.185545,"station_name":"Tanah Abang","i_long":106.811091,"time":6,"is_transit":true,"line":1},{"station_name":"Karet","is_transit":false,"station_id":"KAT","distance":2029,"i_lat":-6.20132,"line":1,"time":5,"transit":false,"i_long":106.816351},{"time":1,"is_transit":false,"i_lat":-6.201433,"station_id":"SUDB","line":1,"transit":false,"distance":471,"i_long":106.819881,"station_name":"Sudirman Baru"},{"i_long":106.822649,"station_id":"SUD","time":1,"is_transit":false,"line":1,"i_lat":-6.202263,"transit":false,"distance":280,"station_name":"Sudirman"},{"i_long":106.84912,"i_lat":-6.209883,"distance":3186,"station_name":"Manggarai","station_id":"MRI","is_transit":true,"time":4,"line":2,"transit":true},{"station_name":"Tebet","is_transit":false,"i_long":106.857948,"time":4,"line":2,"distance":2610,"i_lat":-6.226659,"station_id":"TEB","transit":false},{"station_name":"Cawang","distance":1230,"station_id":"CW","i_lat":-6.242512,"time":2,"line":2,"transit":false,"i_long":106.856607,"is_transit":false},{"station_id":"DRN","time":3,"distance":1546,"i_long":106.85449,"station_name":"Duren Kalibata","is_transit":false,"i_lat":-6.255332,"line":2,"transit":false},{"station_id":"PSMB","is_transit":false,"transit":false,"time":2,"i_lat":-6.263214,"i_long":106.851577,"line":2,"station_name":"Pasar Minggu Baru","distance":824},{"transit":false,"i_lat":-6.2842400000000005,"line":2,"station_id":"PSM","is_transit":false,"i_long":106.843999,"time":2,"distance":2380,"station_name":"Pasar Minggu"},{"station_name":"Tanjung Barat","distance":2820,"i_lat":-6.3080680000000005,"is_transit":false,"station_id":"TNT","time":4,"line":2,"transit":false,"i_long":106.838896},{"station_id":"LNA","time":3,"distance":2671,"transit":false,"station_name":"Lenteng Agung","i_long":106.832616,"i_lat":-6.330363,"is_transit":false,"line":2}],[{"station_name":"Cikoya","time":0,"i_long":106.411216,"transit":false,"line":3,"distance":0,"i_lat":-6.33561,"station_id":"CKY","is_transit":false},{"station_id":"TGS","i_long":106.425991,"line":6,"station_name":"Tigaraksa","i_lat":-6.328533,"time":3,"distance":2651,"transit":false,"is_transit":false},{"transit":false,"i_lat":-6.327251,"distance":2974,"station_id":"TEJ","station_name":"Tenjo","i_long":106.460812,"is_transit":false,"time":5,"line":6},{"is_transit":false,"i_lat":-6.338021,"station_name":"Daru","transit":false,"station_id":"DAR","distance":3902,"time":5,"line":0,"i_long":106.491338},{"transit":false,"distance":2675,"station_name":"Cilejit","station_id":"CJT","time":6,"i_long":106.508482,"line":3,"i_lat":-6.354349,"is_transit":false},{"distance":7025,"transit":false,"i_lat":-6.3441410000000005,"station_id":"PRP","station_name":"Parung Panjang","is_transit":false,"i_long":106.568863,"line":6,"time":9},{"is_transit":false,"station_id":"CC","i_long":106.617853,"line":3,"station_name":"Cicayur","transit":false,"time":8,"distance":5968,"i_lat":-6.329547},{"station_name":"Cisauk","transit":false,"distance":2519,"station_id":"CSK","time":4,"is_transit":false,"i_long":106.640411,"line":3,"i_lat":-6.32484},{"station_id":"SRP","i_lat":-6.319871,"distance":1784,"transit":false,"i_long":106.66566,"is_transit":false,"line":6,"time":4,"station_name":"Serpong"},{"distance":2413,"is_transit":false,"station_id":"RU","i_long":106.675475,"i_lat":-6.314823,"line":6,"transit":false,"time":4,"station_name":"Rawa Buntu"},{"transit":false,"time":6,"distance":4566,"line":6,"i_lat":-6.296963,"i_long":106.712277,"is_transit":false,"station_id":"SDM","station_name":"Sudimara"},{"is_transit":false,"distance":1994,"station_name":"Jurangmangu","transit":false,"station_id":"JMU","i_lat":-6.288927,"i_long":106.728916,"line":6,"time":4},{"i_long":106.74273,"distance":2179,"station_id":"PDJ","line":6,"transit":false,"time":3,"i_lat":-6.276362,"is_transit":false,"station_name":"Pondokranji"},{"station_name":"Kebayoran","is_transit":false,"i_long":106.780334,"i_lat":-6.237242,"transit":false,"time":8,"line":6,"station_id":"KBY","distance":6218},{"time":7,"i_lat":-6.207404,"i_long":106.79689,"distance":3737,"is_transit":false,"transit":false,"station_id":"PLM","station_name":"Palmerah","line":6},{"is_transit":true,"line":1,"distance":3191,"time":6,"station_name":"Tanah Abang","i_lat":-6.185545,"station_id":"THB","transit":true,"i_long":106.811091},{"line":1,"i_long":106.800832,"is_transit":false,"i_lat":-6.155215,"distance":3632,"time":8,"station_id":"DU","station_name":"Duri","transit":false},{"transit":false,"i_lat":-6.144674,"time":4,"i_long":106.79867,"distance":1230,"station_id":"AK","station_name":"Angke","line":1,"is_transit":false},{"time":9,"i_lat":-6.132549,"station_id":"KPB","station_name":"Kampung Bandan","is_transit":true,"transit":true,"distance":4102,"i_long":106.826365,"line":4},{"time":3,"transit":true,"distance":1364,"i_lat":-6.137569,"station_name":"Jakarta Kota","is_transit":true,"station_id":"JAKK","i_long":106.812439,"line":2},{"station_id":"JAY","time":4,"transit":false,"line":2,"i_lat":-6.141205,"station_name":"Jayakarta","is_transit":false,"i_long":106.820901,"distance":1264},{"i_long":106.82482,"transit":false,"i_lat":-6.149769,"is_transit":false,"line":2,"time":2,"distance":1080,"station_id":"MGB","station_name":"Manggabesar"},{"line":2,"distance":906,"is_transit":false,"i_lat":-6.160725,"i_long":106.827103,"station_name":"Sawah Besar","station_id":"SW","transit":false,"time":2},{"is_transit":false,"i_long":106.828284,"distance":1149,"station_id":"JUA","time":2,"line":2,"station_name":"Juanda","transit":false,"i_lat":-6.166716},{"is_transit":false,"transit":false,"distance":2015,"station_id":"GDD","time":4,"i_lat":-6.186295,"station_name":"Gondangdia","line":2,"i_long":106.832183},{"transit":false,"time":3,"station_name":"Cikini","i_long":106.840169,"distance":1750,"line":2,"i_lat":-6.198556,"station_id":"CKI","is_transit":false},{"line":2,"time":4,"transit":false,"station_id":"MRI","i_long":106.84912,"distance":1590,"i_lat":-6.209883,"station_name":"Manggarai","is_transit":false},{"line":2,"distance":2610,"station_id":"TEB","is_transit":false,"station_name":"Tebet","time":4,"i_long":106.857948,"transit":false,"i_lat":-6.226659},{"is_transit":false,"transit":false,"i_lat":-6.242512,"station_name":"Cawang","time":2,"line":2,"i_long":106.856607,"station_id":"CW","distance":1230},{"line":2,"time":3,"is_transit":false,"transit":false,"i_lat":-6.255332,"station_name":"Duren Kalibata","distance":1546,"i_long":106.85449,"station_id":"DRN"},{"transit":false,"i_lat":-6.263214,"is_transit":false,"station_id":"PSMB","i_long":106.851577,"station_name":"Pasar Minggu Baru","time":2,"distance":824,"line":2},{"i_long":106.843999,"station_name":"Pasar Minggu","i_lat":-6.2842400000000005,"time":2,"distance":2380,"station_id":"PSM","transit":false,"line":2,"is_transit":false},{"time":4,"i_long":106.838896,"transit":false,"line":2,"is_transit":false,"station_id":"TNT","station_name":"Tanjung Barat","distance":2820,"i_lat":-6.3080680000000005},{"time":3,"station_id":"LNA","i_long":106.832616,"transit":false,"i_lat":-6.330363,"is_transit":false,"station_name":"Lenteng Agung","line":2,"distance":2671}],[{"station_name":"Cikoya","time":0,"station_id":"CKY","transit":false,"line":3,"distance":0,"i_lat":-6.33561,"is_transit":false,"i_long":106.411216},{"station_name":"Tigaraksa","line":6,"time":3,"is_transit":false,"station_id":"TGS","distance":2651,"transit":false,"i_lat":-6.328533,"i_long":106.425991},{"i_long":106.460812,"transit":false,"station_id":"TEJ","time":5,"distance":2974,"is_transit":false,"station_name":"Tenjo","i_lat":-6.327251,"line":6},{"station_id":"DAR","distance":3902,"station_name":"Daru","i_lat":-6.338021,"time":5,"line":0,"is_transit":false,"transit":false,"i_long":106.491338},{"i_long":106.508482,"station_id":"CJT","distance":2675,"i_lat":-6.354349,"line":3,"time":6,"station_name":"Cilejit","is_transit":false,"transit":false},{"station_name":"Parung Panjang","i_lat":-6.3441410000000005,"transit":false,"distance":7025,"is_transit":false,"i_long":106.568863,"line":6,"time":9,"station_id":"PRP"},{"distance":5968,"time":8,"i_long":106.617853,"is_transit":false,"station_name":"Cicayur","i_lat":-6.329547,"line":3,"transit":false,"station_id":"CC"},{"transit":false,"is_transit":false,"distance":2519,"station_id":"CSK","station_name":"Cisauk","i_lat":-6.32484,"i_long":106.640411,"time":4,"line":3},{"time":4,"line":6,"distance":1784,"transit":false,"station_name":"Serpong","is_transit":false,"station_id":"SRP","i_long":106.66566,"i_lat":-6.319871},{"distance":2413,"line":6,"station_id":"RU","transit":false,"station_name":"Rawa Buntu","time":4,"is_transit":false,"i_long":106.675475,"i_lat":-6.314823},{"is_transit":false,"time":6,"transit":false,"station_name":"Sudimara","i_lat":-6.296963,"i_long":106.712277,"station_id":"SDM","line":6,"distance":4566},{"is_transit":false,"i_lat":-6.288927,"station_name":"Jurangmangu","transit":false,"distance":1994,"time":4,"i_long":106.728916,"line":6,"station_id":"JMU"},{"station_id":"PDJ","transit":false,"station_name":"Pondokranji","time":3,"i_lat":-6.276362,"i_long":106.74273,"line":6,"distance":2179,"is_transit":false},{"i_lat":-6.237242,"is_transit":false,"distance":6218,"station_id":"KBY","transit":false,"line":6,"station_name":"Kebayoran","time":8,"i_long":106.780334},{"i_long":106.79689,"i_lat":-6.207404,"is_transit":false,"time":7,"station_id":"PLM","line":6,"distance":3737,"station_name":"Palmerah","transit":false},{"is_transit":true,"line":1,"transit":true,"i_long":106.811091,"station_id":"THB","distance":3191,"i_lat":-6.185545,"station_name":"Tanah Abang","time":6},{"distance":3632,"i_lat":-6.155215,"i_long":106.800832,"is_transit":false,"transit":false,"time":8,"line":1,"station_name":"Duri","station_id":"DU"},{"line":1,"time":4,"distance":1230,"station_id":"AK","transit":false,"station_name":"Angke","i_lat":-6.144674,"i_long":106.79867,"is_transit":false},{"is_transit":true,"station_id":"KPB","distance":4102,"i_long":106.826365,"time":9,"i_lat":-6.132549,"line":4,"transit":true,"station_name":"Kampung Bandan"},{"time":3,"distance":1444,"i_long":106.836569,"transit":false,"is_transit":false,"station_id":"RJW","station_name":"Rajawali","line":11,"i_lat":-6.14505},{"is_transit":false,"i_long":106.839204,"i_lat":-6.161728,"station_id":"KMO","line":11,"transit":false,"station_name":"Kemayoran","time":5,"distance":1901},{"line":11,"i_lat":-6.174784,"station_id":"PSE","i_long":106.84368,"station_name":"Pasar Senen","is_transit":false,"time":4,"distance":1436,"transit":false},{"i_lat":-6.185975,"transit":false,"time":8,"line":11,"station_id":"GST","station_name":"Gang Sentiong","i_long":106.850107,"distance":1567,"is_transit":false},{"line":11,"station_name":"Kramat","i_lat":-6.193792,"time":1,"station_id":"KMT","is_transit":false,"i_long":106.855437,"distance":973,"transit":false},{"i_long":106.861737,"i_lat":-6.209188,"station_id":"POK","distance":1829,"is_transit":false,"transit":false,"line":11,"station_name":"Pondok Jati","time":2},{"station_id":"JNG","time":9,"line":1,"distance":1236,"is_transit":true,"station_name":"Jatinegara","transit":true,"i_lat":-6.215091,"i_long":106.86807400000001},{"transit":false,"is_transit":false,"time":2,"distance":1377,"i_long":106.858896,"line":1,"station_id":"MTR","i_lat":-6.212485,"station_name":"Matraman"},{"station_id":"MRI","distance":1275,"is_transit":true,"i_lat":-6.209883,"i_long":106.84912,"line":2,"station_name":"Manggarai","transit":true,"time":2},{"line":2,"i_long":106.857948,"distance":2610,"is_transit":false,"station_id":"TEB","transit":false,"station_name":"Tebet","time":4,"i_lat":-6.226659},{"station_name":"Cawang","i_long":106.856607,"line":2,"time":2,"distance":1230,"transit":false,"i_lat":-6.242512,"is_transit":false,"station_id":"CW"},{"time":3,"i_long":106.85449,"station_id":"DRN","transit":false,"line":2,"station_name":"Duren Kalibata","distance":1546,"is_transit":false,"i_lat":-6.255332},{"station_id":"PSMB","is_transit":false,"transit":false,"station_name":"Pasar Minggu Baru","line":2,"distance":824,"time":2,"i_lat":-6.263214,"i_long":106.851577},{"line":2,"is_transit":false,"station_id":"PSM","distance":2380,"time":2,"station_name":"Pasar Minggu","i_lat":-6.2842400000000005,"i_long":106.843999,"transit":false},{"line":2,"i_lat":-6.3080680000000005,"i_long":106.838896,"station_name":"Tanjung Barat","station_id":"TNT","is_transit":false,"time":4,"transit":false,"distance":2820},{"distance":2671,"station_name":"Lenteng Agung","is_transit":false,"line":2,"station_id":"LNA","i_lat":-6.330363,"transit":false,"time":3,"i_long":106.832616}]]}