{"data":[[{"is_transit":false,"time":0,"station_name":"Cikoya","i_lat":-6.33561,"i_long":106.411216,"transit":false,"line":0,"distance":0,"station_id":"CKY"},{"is_transit":false,"transit":false,"line":6,"time":3,"i_long":106.425991,"station_name":"Tigaraksa","station_id":"TGS","i_lat":-6.328533,"distance":2651},{"distance":2974,"i_lat":-6.327251,"i_long":106.460812,"is_transit":false,"station_name":"Tenjo","time":5,"transit":false,"line":6,"station_id":"TEJ"},{"station_name":"Daru","distance":3902,"i_lat":-6.338021,"time":5,"transit":false,"i_long":106.491338,"station_id":"DAR","line":0,"is_transit":false},{"is_transit":false,"line":0,"transit":false,"distance":2675,"i_lat":-6.354349,"i_long":106.508482,"station_name":"Cilejit","time":6,"station_id":"CJT"},{"transit":false,"station_name":"Parung Panjang","time":9,"distance":7025,"station_id":"PRP","is_transit":false,"line":6,"i_long":106.568863,"i_lat":-6.3441410000000005},{"i_lat":-6.329547,"time":8,"line":0,"i_long":106.617853,"distance":5968,"station_id":"CC","transit":false,"station_name":"Cicayur","is_transit":false},{"i_long":106.640411,"line":0,"station_name":"Cisauk","i_lat":-6.32484,"time":4,"transit":false,"station_id":"CSK","is_transit":false,"distance":2519},{"distance":1784,"is_transit":false,"i_long":106.66566,"line":6,"time":4,"station_id":"SRP","i_lat":-6.319871,"transit":false,"station_name":"Serpong"},{"line":6,"transit":false,"is_transit":false,"time":4,"distance":2413,"station_name":"Rawa Buntu","station_id":"RU","i_lat":-6.314823,"i_long":106.675475},{"transit":false,"distance":4566,"station_name":"Sudimara","i_lat":-6.296963,"line":6,"i_long":106.712277,"station_id":"SDM","time":6,"is_transit":false},{"time":4,"line":6,"transit":false,"i_long":106.728916,"is_transit":false,"i_lat":-6.288927,"station_name":"Jurangmangu","station_id":"JMU","distance":1994},{"time":3,"i_long":106.74273,"station_name":"Pondokranji","distance":2179,"line":6,"station_id":"PDJ","is_transit":false,"i_lat":-6.276362,"transit":false},{"line":6,"time":8,"station_id":"KBY","is_transit":false,"i_lat":-6.237242,"i_long":106.780334,"station_name":"Kebayoran","distance":6218,"transit":false},{"i_long":106.79689,"line":6,"distance":3737,"transit":false,"time":7,"i_lat":-6.207404,"station_name":"Palmerah","station_id":"PLM","is_transit":false},{"is_transit":true,"i_long":106.811091,"station_id":"THB","distance":3191,"line":1,"station_name":"Tanah Abang","transit":true,"time":6,"i_lat":-6.185545},{"distance":3632,"station_id":"DU","transit":true,"i_long":106.800832,"time":8,"station_name":"Duri","i_lat":-6.155215,"is_transit":true,"line":1},{"distance":1700,"time":3,"station_name":"Grogol","line":5,"station_id":"GGL","is_transit":false,"transit":false,"i_long":106.788277,"i_lat":-6.162021},{"i_lat":-6.161433,"i_long":106.771379,"station_name":"Pesing","is_transit":false,"distance":2036,"transit":false,"time":2,"station_id":"PSG","line":5},{"distance":1614,"station_name":"Taman Kota","is_transit":false,"time":2,"i_lat":-6.1587309999999995,"line":5,"station_id":"TKO","i_long":106.756522,"transit":false},{"time":2,"is_transit":false,"distance":2334,"station_id":"BOI","i_lat":-6.159876,"i_long":106.737035,"transit":false,"station_name":"Bojongindah","line":0}],[{"transit":false,"i_long":106.411216,"distance":0,"station_id":"CKY","line":0,"is_transit":false,"time":0,"station_name":"Cikoya","i_lat":-6.33561},{"time":3,"is_transit":false,"station_name":"Tigaraksa","i_lat":-6.328533,"distance":2651,"station_id":"TGS","transit":false,"i_long":106.425991,"line":6},{"transit":false,"station_name":"Tenjo","i_long":106.460812,"time":5,"i_lat":-6.327251,"is_transit":false,"station_id":"TEJ","line":6,"distance":2974},{"time":5,"line":0,"station_name":"Daru","i_long":106.491338,"transit":false,"station_id":"DAR","i_lat":-6.338021,"distance":3902,"is_transit":false},{"i_lat":-6.354349,"line":0,"distance":2675,"station_name":"Cilejit","time":6,"is_transit":false,"i_long":106.508482,"transit":false,"station_id":"CJT"},{"station_name":"Parung Panjang","transit":false,"time":9,"is_transit":false,"i_long":106.568863,"line":6,"station_id":"PRP","distance":7025,"i_lat":-6.3441410000000005},{"transit":false,"time":8,"station_id":"CC","is_transit":false,"i_lat":-6.329547,"i_long":106.617853,"distance":5968,"station_name":"Cicayur","line":0},{"distance":2519,"station_id":"CSK","transit":false,"i_lat":-6.32484,"is_transit":false,"station_name":"Cisauk","i_long":106.640411,"time":4,"line":0},{"i_long":106.66566,"station_name":"Serpong","transit":false,"time":4,"station_id":"SRP","line":6,"is_transit":false,"distance":1784,"i_lat":-6.319871},{"i_long":106.675475,"line":6,"i_lat":-6.314823,"time":4,"station_name":"Rawa Buntu","station_id":"RU","distance":2413,"is_transit":false,"transit":false},{"station_id":"SDM","is_transit":false,"transit":false,"time":6,"station_name":"Sudimara","distance":4566,"i_long":106.712277,"i_lat":-6.296963,"line":6},{"station_id":"JMU","distance":1994,"station_name":"Jurangmangu","i_lat":-6.288927,"line":6,"transit":false,"is_transit":false,"i_long":106.728916,"time":4},{"is_transit":false,"station_name":"Pondokranji","i_long":106.74273,"i_lat":-6.276362,"transit":false,"time":3,"line":6,"station_id":"PDJ","distance":2179},{"station_name":"Kebayoran","station_id":"KBY","is_transit":false,"i_lat":-6.237242,"i_long":106.780334,"line":6,"distance":6218,"time":8,"transit":false},{"i_long":106.79689,"line":6,"is_transit":false,"distance":3737,"transit":false,"i_lat":-6.207404,"station_name":"Palmerah","station_id":"PLM","time":7},{"transit":true,"is_transit":true,"time":6,"i_lat":-6.185545,"station_id":"THB","station_name":"Tanah Abang","distance":3191,"i_long":106.811091,"line":1},{"line":1,"distance":2029,"station_id":"KAT","i_lat":-6.20132,"transit":false,"time":5,"station_name":"Karet","is_transit":false,"i_long":106.816351},{"i_long":106.819881,"distance":471,"time":1,"i_lat":-6.201433,"station_name":"Sudirman Baru","station_id":"SUDB","transit":false,"is_transit":false,"line":1},{"station_name":"Sudirman","time":1,"line":1,"i_lat":-6.202263,"i_long":106.822649,"distance":280,"is_transit":false,"transit":false,"station_id":"SUD"},{"station_name":"Manggarai","time":4,"line":0,"i_long":106.84912,"distance":3186,"is_transit":true,"transit":true,"i_lat":-6.209883,"station_id":"MRI"},{"i_lat":-6.198556,"time":4,"station_name":"Cikini","i_long":106.840169,"station_id":"CKI","is_transit":false,"distance":1590,"line":0,"transit":false},{"is_transit":false,"line":2,"distance":1750,"i_long":106.832183,"station_name":"Gondangdia","time":3,"station_id":"GDD","i_lat":-6.186295,"transit":false},{"station_id":"JUA","line":2,"distance":2015,"time":4,"transit":false,"i_long":106.828284,"station_name":"Juanda","i_lat":-6.166716,"is_transit":false},{"i_lat":-6.160725,"distance":1149,"is_transit":false,"time":2,"station_name":"Sawah Besar","line":2,"station_id":"SW","transit":false,"i_long":106.827103},{"station_id":"MGB","line":2,"i_long":106.82482,"i_lat":-6.149769,"transit":false,"station_name":"Manggabesar","is_transit":false,"time":2,"distance":906},{"transit":false,"time":2,"line":7,"station_name":"Jayakarta","station_id":"JAY","is_transit":false,"i_long":106.820901,"distance":1080,"i_lat":-6.141205},{"is_transit":true,"station_id":"JAKK","i_long":106.812439,"distance":1264,"time":4,"station_name":"Jakarta Kota","transit":true,"line":0,"i_lat":-6.137569},{"line":0,"is_transit":true,"station_id":"KPB","transit":false,"i_lat":-6.132549,"distance":1364,"time":3,"i_long":106.826365,"station_name":"Kampung Bandan"},{"line":0,"time":9,"station_name":"Angke","station_id":"AK","is_transit":false,"i_long":106.79867,"distance":4102,"i_lat":-6.144674,"transit":false},{"time":4,"station_name":"Duri","i_lat":-6.155215,"line":1,"transit":true,"station_id":"DU","i_long":106.800832,"is_transit":true,"distance":1230},{"time":3,"is_transit":false,"transit":false,"distance":1700,"station_name":"Grogol","i_lat":-6.162021,"line":5,"station_id":"GGL","i_long":106.788277},{"time":2,"line":5,"transit":false,"distance":2036,"station_name":"Pesing","station_id":"PSG","i_lat":-6.161433,"is_transit":false,"i_long":106.771379},{"line":5,"distance":1614,"station_name":"Taman Kota","i_lat":-6.1587309999999995,"time":2,"transit":false,"station_id":"TKO","is_transit":false,"i_long":106.756522},{"i_long":106.737035,"distance":2334,"is_transit":false,"time":2,"station_id":"BOI","station_name":"Bojongindah","line":0,"transit":false,"i_lat":-6.159876}],[{"i_long":106.411216,"line":0,"station_id":"CKY","station_name":"Cikoya","i_lat":-6.33561,"transit":false,"distance":0,"time":0,"is_transit":false},{"i_lat":-6.328533,"line":6,"station_id":"TGS","is_transit":false,"time":3,"i_long":106.425991,"distance":2651,"transit":false,"station_name":"Tigaraksa"},{"transit":false,"station_id":"TEJ","distance":2974,"i_long":106.460812,"line":6,"is_transit":false,"i_lat":-6.327251,"time":5,"station_name":"Tenjo"},{"station_id":"DAR","is_transit":false,"station_name":"Daru","transit":false,"time":5,"i_lat":-6.338021,"line":0,"i_long":106.491338,"distance":3902},{"station_name":"Cilejit","line":0,"is_transit":false,"time":6,"i_long":106.508482,"transit":false,"distance":2675,"station_id":"CJT","i_lat":-6.354349},{"is_transit":false,"station_id":"PRP","transit":false,"station_name":"Parung Panjang","i_long":106.568863,"time":9,"i_lat":-6.3441410000000005,"line":6,"distance":7025},{"i_lat":-6.329547,"i_long":106.617853,"station_name":"Cicayur","distance":5968,"time":8,"line":0,"transit":false,"is_transit":false,"station_id":"CC"},{"transit":false,"time":4,"station_id":"CSK","station_name":"Cisauk","line":0,"i_long":106.640411,"distance":2519,"is_transit":false,"i_lat":-6.32484},{"time":4,"station_name":"Serpong","is_transit":false,"transit":false,"i_long":106.66566,"distance":1784,"station_id":"SRP","i_lat":-6.319871,"line":6},{"i_lat":-6.314823,"distance":2413,"transit":false,"time":4,"i_long":106.675475,"line":6,"station_name":"Rawa Buntu","station_id":"RU","is_transit":false},{"i_lat":-6.296963,"time":6,"is_transit":false,"transit":false,"distance":4566,"i_long":106.712277,"station_id":"SDM","line":6,"station_name":"Sudimara"},{"distance":1994,"i_long":106.728916,"time":4,"line":6,"station_name":"Jurangmangu","transit":false,"station_id":"JMU","i_lat":-6.288927,"is_transit":false},{"transit":false,"is_transit":false,"station_name":"Pondokranji","station_id":"PDJ","distance":2179,"i_long":106.74273,"time":3,"i_lat":-6.276362,"line":6},{"station_id":"KBY","i_lat":-6.237242,"i_long":106.780334,"distance":6218,"time":8,"line":6,"is_transit":false,"transit":false,"station_name":"Kebayoran"},{"transit":false,"time":7,"station_name":"Palmerah","is_transit":false,"i_long":106.79689,"station_id":"PLM","i_lat":-6.207404,"line":6,"distance":3737},{"station_id":"THB","distance":3191,"i_lat":-6.185545,"line":1,"transit":true,"is_transit":true,"i_long":106.811091,"time":6,"station_name":"Tanah Abang"},{"time":5,"is_transit":false,"transit":false,"station_name":"Karet","station_id":"KAT","i_lat":-6.20132,"distance":2029,"line":1,"i_long":106.816351},{"transit":false,"line":1,"time":1,"distance":471,"station_name":"Sudirman Baru","is_transit":false,"i_lat":-6.201433,"station_id":"SUDB","i_long":106.819881},{"distance":280,"station_name":"Sudirman","is_transit":false,"time":1,"transit":false,"station_id":"SUD","i_long":106.822649,"i_lat":-6.202263,"line":1},{"station_id":"MRI","i_lat":-6.209883,"line":0,"distance":3186,"transit":false,"station_name":"Manggarai","is_transit":true,"i_long":106.84912,"time":4},{"i_long":106.858896,"line":1,"transit":false,"station_name":"Matraman","time":2,"distance":1275,"i_lat":-6.212485,"station_id":"MTR","is_transit":false},{"is_transit":true,"time":8,"i_lat":-6.215091,"station_name":"Jatinegara","i_long":106.86807400000001,"transit":true,"station_id":"JNG","distance":1377,"line":0},{"transit":false,"i_lat":-6.209188,"time":2,"i_long":106.861737,"line":11,"station_name":"Pondok Jati","is_transit":false,"station_id":"POK","distance":1236},{"i_long":106.855437,"i_lat":-6.193792,"transit":false,"station_name":"Kramat","line":11,"distance":1829,"station_id":"KMT","is_transit":false,"time":2},{"is_transit":false,"line":11,"i_lat":-6.185975,"time":1,"distance":973,"i_long":106.850107,"transit":false,"station_name":"Gang Sentiong","station_id":"GST"},{"station_id":"PSE","i_lat":-6.174784,"station_name":"Pasar Senen","is_transit":false,"time":8,"distance":1567,"line":11,"i_long":106.84368,"transit":false},{"is_transit":false,"station_name":"Kemayoran","i_lat":-6.161728,"line":11,"time":4,"distance":1436,"transit":false,"station_id":"KMO","i_long":106.839204},{"line":11,"time":5,"i_long":106.836569,"i_lat":-6.14505,"station_id":"RJW","is_transit":false,"transit":false,"distance":1901,"station_name":"Rajawali"},{"time":3,"station_id":"KPB","i_lat":-6.132549,"transit":true,"i_long":106.826365,"line":0,"station_name":"Kampung Bandan","is_transit":true,"distance":1444},{"line":0,"is_transit":false,"transit":false,"time":9,"i_long":106.79867,"i_lat":-6.144674,"distance":4102,"station_name":"Angke","station_id":"AK"},{"is_transit":true,"line":1,"station_name":"Duri","distance":1230,"transit":true,"station_id":"DU","i_long":106.800832,"i_lat":-6.155215,"time":4},{"i_lat":-6.162021,"time":3,"distance":1700,"i_long":106.788277,"line":5,"transit":false,"station_id":"GGL","is_transit":false,"station_name":"Grogol"},{"transit":false,"station_id":"PSG","is_transit":false,"i_long":106.771379,"time":2,"distance":2036,"i_lat":-6.161433,"line":5,"station_name":"Pesing"},{"line":5,"station_name":"Taman Kota","i_lat":-6.1587309999999995,"is_transit":false,"i_long":106.756522,"distance":1614,"station_id":"TKO","time":2,"transit":false},{"transit":false,"i_lat":-6.159876,"line":0,"station_name":"Bojongindah","distance":2334,"time":2,"station_id":"BOI","i_long":106.737035,"is_transit":false}]]}