{"data":[[{"station_name":"Cikoya","transit":false,"line":0,"i_lat":-6.33561,"i_long":106.411216,"station_id":"CKY","is_transit":false,"time":0,"distance":0},{"line":6,"time":3,"distance":2651,"i_long":106.425991,"station_name":"Tigaraksa","transit":false,"i_lat":-6.328533,"is_transit":false,"station_id":"TGS"},{"time":5,"line":6,"transit":false,"i_lat":-6.327251,"station_name":"Tenjo","i_long":106.460812,"is_transit":false,"distance":2974,"station_id":"TEJ"},{"line":0,"station_id":"DAR","is_transit":false,"distance":3902,"i_lat":-6.338021,"time":5,"transit":false,"station_name":"Daru","i_long":106.491338},{"station_id":"CJT","transit":false,"station_name":"Cilejit","i_lat":-6.354349,"i_long":106.508482,"distance":2675,"line":0,"is_transit":false,"time":6},{"time":9,"transit":false,"i_lat":-6.3441410000000005,"i_long":106.568863,"line":6,"station_id":"PRP","is_transit":false,"station_name":"Parung Panjang","distance":7025},{"distance":5968,"i_lat":-6.329547,"transit":false,"i_long":106.617853,"time":8,"line":0,"is_transit":false,"station_id":"CC","station_name":"Cicayur"},{"i_long":106.640411,"station_id":"CSK","is_transit":false,"distance":2519,"line":0,"station_name":"Cisauk","transit":false,"i_lat":-6.32484,"time":4},{"is_transit":false,"time":4,"station_name":"Serpong","distance":1784,"transit":false,"i_lat":-6.319871,"i_long":106.66566,"line":6,"station_id":"SRP"},{"is_transit":false,"i_lat":-6.314823,"distance":2413,"i_long":106.675475,"time":4,"station_id":"RU","station_name":"Rawa Buntu","transit":false,"line":6},{"i_lat":-6.296963,"i_long":106.712277,"station_name":"Sudimara","time":6,"station_id":"SDM","is_transit":false,"line":6,"distance":4566,"transit":false},{"station_id":"JMU","time":4,"transit":false,"line":6,"i_long":106.728916,"distance":1994,"station_name":"Jurangmangu","i_lat":-6.288927,"is_transit":false},{"i_lat":-6.276362,"station_name":"Pondokranji","time":3,"distance":2179,"line":6,"station_id":"PDJ","is_transit":false,"i_long":106.74273,"transit":false},{"is_transit":false,"distance":6218,"station_name":"Kebayoran","i_long":106.780334,"line":6,"i_lat":-6.237242,"transit":false,"station_id":"KBY","time":8},{"line":6,"station_id":"PLM","i_lat":-6.207404,"station_name":"Palmerah","distance":3737,"time":7,"is_transit":false,"transit":false,"i_long":106.79689},{"distance":3191,"station_id":"THB","i_long":106.811091,"transit":true,"line":1,"station_name":"Tanah Abang","time":6,"is_transit":true,"i_lat":-6.185545},{"station_name":"Duri","i_lat":-6.155215,"transit":true,"is_transit":true,"i_long":106.800832,"line":1,"time":8,"distance":3632,"station_id":"DU"},{"i_long":106.79867,"station_id":"AK","distance":1230,"i_lat":-6.144674,"is_transit":false,"line":0,"transit":false,"time":4,"station_name":"Angke"}],[{"station_id":"CKY","transit":false,"i_long":106.411216,"station_name":"Cikoya","is_transit":false,"time":0,"i_lat":-6.33561,"line":0,"distance":0},{"time":3,"i_lat":-6.328533,"line":6,"distance":2651,"i_long":106.425991,"transit":false,"station_id":"TGS","station_name":"Tigaraksa","is_transit":false},{"distance":2974,"station_id":"TEJ","time":5,"transit":false,"i_long":106.460812,"line":6,"station_name":"Tenjo","is_transit":false,"i_lat":-6.327251},{"transit":false,"i_long":106.491338,"is_transit":false,"station_name":"Daru","station_id":"DAR","time":5,"distance":3902,"i_lat":-6.338021,"line":0},{"time":6,"distance":2675,"i_lat":-6.354349,"station_id":"CJT","line":0,"i_long":106.508482,"transit":false,"station_name":"Cilejit","is_transit":false},{"line":6,"station_id":"PRP","time":9,"i_lat":-6.3441410000000005,"i_long":106.568863,"station_name":"Parung Panjang","is_transit":false,"distance":7025,"transit":false},{"i_long":106.617853,"line":0,"i_lat":-6.329547,"station_name":"Cicayur","station_id":"CC","distance":5968,"time":8,"is_transit":false,"transit":false},{"station_id":"CSK","station_name":"Cisauk","i_long":106.640411,"time":4,"distance":2519,"is_transit":false,"transit":false,"i_lat":-6.32484,"line":0},{"distance":1784,"is_transit":false,"transit":false,"i_lat":-6.319871,"station_id":"SRP","i_long":106.66566,"line":6,"station_name":"Serpong","time":4},{"time":4,"distance":2413,"station_name":"Rawa Buntu","i_lat":-6.314823,"station_id":"RU","is_transit":false,"line":6,"i_long":106.675475,"transit":false},{"i_long":106.712277,"i_lat":-6.296963,"line":6,"distance":4566,"is_transit":false,"time":6,"transit":false,"station_name":"Sudimara","station_id":"SDM"},{"i_long":106.728916,"station_id":"JMU","i_lat":-6.288927,"is_transit":false,"transit":false,"line":6,"station_name":"Jurangmangu","time":4,"distance":1994},{"station_id":"PDJ","distance":2179,"i_lat":-6.276362,"is_transit":false,"line":6,"station_name":"Pondokranji","i_long":106.74273,"time":3,"transit":false},{"distance":6218,"i_long":106.780334,"station_name":"Kebayoran","is_transit":false,"station_id":"KBY","transit":false,"time":8,"i_lat":-6.237242,"line":6},{"distance":3737,"station_id":"PLM","transit":false,"station_name":"Palmerah","time":7,"i_long":106.79689,"line":6,"i_lat":-6.207404,"is_transit":false},{"station_name":"Tanah Abang","i_lat":-6.185545,"time":6,"distance":3191,"is_transit":true,"transit":true,"station_id":"THB","line":1,"i_long":106.811091},{"time":5,"i_lat":-6.20132,"i_long":106.816351,"line":1,"transit":false,"distance":2029,"station_id":"KAT","station_name":"Karet","is_transit":false},{"time":1,"distance":471,"transit":false,"station_id":"SUDB","i_long":106.819881,"is_transit":false,"line":1,"station_name":"Sudirman Baru","i_lat":-6.201433},{"i_lat":-6.202263,"time":1,"station_id":"SUD","station_name":"Sudirman","is_transit":false,"distance":280,"line":1,"transit":false,"i_long":106.822649},{"time":4,"station_id":"MRI","distance":3186,"station_name":"Manggarai","transit":true,"is_transit":true,"line":0,"i_lat":-6.209883,"i_long":106.84912},{"station_id":"CKI","is_transit":false,"time":4,"distance":1590,"i_long":106.840169,"i_lat":-6.198556,"station_name":"Cikini","line":0,"transit":false},{"i_long":106.832183,"station_name":"Gondangdia","time":3,"distance":1750,"transit":false,"i_lat":-6.186295,"station_id":"GDD","is_transit":false,"line":2},{"is_transit":false,"i_lat":-6.166716,"time":4,"distance":2015,"line":2,"i_long":106.828284,"transit":false,"station_id":"JUA","station_name":"Juanda"},{"distance":1149,"i_long":106.827103,"transit":false,"line":2,"time":2,"station_id":"SW","is_transit":false,"i_lat":-6.160725,"station_name":"Sawah Besar"},{"i_long":106.82482,"station_id":"MGB","line":2,"transit":false,"is_transit":false,"i_lat":-6.149769,"station_name":"Manggabesar","time":2,"distance":906},{"station_id":"JAY","time":2,"transit":false,"distance":1080,"station_name":"Jayakarta","i_lat":-6.141205,"i_long":106.820901,"line":7,"is_transit":false},{"line":0,"is_transit":true,"station_name":"Jakarta Kota","time":4,"distance":1264,"transit":true,"i_lat":-6.137569,"i_long":106.812439,"station_id":"JAKK"},{"distance":1364,"time":3,"line":0,"station_id":"KPB","station_name":"Kampung Bandan","i_lat":-6.132549,"i_long":106.826365,"transit":false,"is_transit":true},{"station_name":"Angke","is_transit":false,"distance":4102,"line":0,"time":9,"i_lat":-6.144674,"i_long":106.79867,"transit":false,"station_id":"AK"}],[{"distance":0,"i_lat":-6.33561,"is_transit":false,"transit":false,"line":0,"station_name":"Cikoya","time":0,"i_long":106.411216,"station_id":"CKY"},{"transit":false,"station_name":"Tigaraksa","distance":2651,"station_id":"TGS","i_long":106.425991,"time":3,"line":6,"i_lat":-6.328533,"is_transit":false},{"i_lat":-6.327251,"station_name":"Tenjo","is_transit":false,"transit":false,"distance":2974,"station_id":"TEJ","i_long":106.460812,"time":5,"line":6},{"transit":false,"is_transit":false,"station_id":"DAR","distance":3902,"station_name":"Daru","time":5,"i_long":106.491338,"line":0,"i_lat":-6.338021},{"time":6,"station_id":"CJT","line":0,"is_transit":false,"transit":false,"i_lat":-6.354349,"distance":2675,"i_long":106.508482,"station_name":"Cilejit"},{"i_lat":-6.3441410000000005,"line":6,"station_id":"PRP","time":9,"distance":7025,"transit":false,"station_name":"Parung Panjang","is_transit":false,"i_long":106.568863},{"line":0,"time":8,"station_id":"CC","station_name":"Cicayur","is_transit":false,"transit":false,"distance":5968,"i_lat":-6.329547,"i_long":106.617853},{"line":0,"station_name":"Cisauk","distance":2519,"i_lat":-6.32484,"time":4,"is_transit":false,"transit":false,"station_id":"CSK","i_long":106.640411},{"time":4,"i_long":106.66566,"transit":false,"station_name":"Serpong","is_transit":false,"i_lat":-6.319871,"line":6,"distance":1784,"station_id":"SRP"},{"time":4,"is_transit":false,"distance":2413,"transit":false,"station_id":"RU","i_lat":-6.314823,"line":6,"station_name":"Rawa Buntu","i_long":106.675475},{"i_lat":-6.296963,"line":6,"station_id":"SDM","station_name":"Sudimara","is_transit":false,"distance":4566,"time":6,"transit":false,"i_long":106.712277},{"distance":1994,"station_id":"JMU","time":4,"line":6,"transit":false,"is_transit":false,"i_long":106.728916,"i_lat":-6.288927,"station_name":"Jurangmangu"},{"is_transit":false,"transit":false,"station_name":"Pondokranji","i_lat":-6.276362,"i_long":106.74273,"distance":2179,"station_id":"PDJ","time":3,"line":6},{"line":6,"station_name":"Kebayoran","is_transit":false,"i_long":106.780334,"transit":false,"station_id":"KBY","distance":6218,"i_lat":-6.237242,"time":8},{"transit":false,"station_name":"Palmerah","time":7,"is_transit":false,"line":6,"distance":3737,"i_long":106.79689,"i_lat":-6.207404,"station_id":"PLM"},{"station_name":"Tanah Abang","line":1,"i_long":106.811091,"station_id":"THB","transit":true,"time":6,"distance":3191,"i_lat":-6.185545,"is_transit":true},{"i_lat":-6.20132,"is_transit":false,"station_name":"Karet","time":5,"distance":2029,"transit":false,"station_id":"KAT","i_long":106.816351,"line":1},{"station_id":"SUDB","distance":471,"i_long":106.819881,"station_name":"Sudirman Baru","is_transit":false,"transit":false,"i_lat":-6.201433,"line":1,"time":1},{"i_lat":-6.202263,"is_transit":false,"transit":false,"time":1,"station_name":"Sudirman","distance":280,"i_long":106.822649,"line":1,"station_id":"SUD"},{"transit":false,"line":0,"station_name":"Manggarai","i_long":106.84912,"time":4,"station_id":"MRI","is_transit":true,"distance":3186,"i_lat":-6.209883},{"i_long":106.858896,"station_id":"MTR","time":2,"i_lat":-6.212485,"line":1,"is_transit":false,"distance":1275,"station_name":"Matraman","transit":false},{"distance":1377,"is_transit":true,"i_long":106.86807400000001,"transit":true,"station_name":"Jatinegara","station_id":"JNG","time":8,"i_lat":-6.215091,"line":0},{"station_name":"Pondok Jati","distance":1236,"time":2,"i_lat":-6.209188,"i_long":106.861737,"is_transit":false,"station_id":"POK","line":11,"transit":false},{"i_long":106.855437,"station_id":"KMT","time":2,"is_transit":false,"i_lat":-6.193792,"line":11,"station_name":"Kramat","transit":false,"distance":1829},{"distance":973,"transit":false,"is_transit":false,"time":1,"station_id":"GST","i_lat":-6.185975,"i_long":106.850107,"line":11,"station_name":"Gang Sentiong"},{"station_name":"Pasar Senen","i_long":106.84368,"line":11,"transit":false,"time":8,"distance":1567,"i_lat":-6.174784,"station_id":"PSE","is_transit":false},{"transit":false,"station_name":"Kemayoran","i_lat":-6.161728,"is_transit":false,"station_id":"KMO","time":4,"distance":1436,"i_long":106.839204,"line":11},{"time":5,"is_transit":false,"line":11,"i_lat":-6.14505,"i_long":106.836569,"transit":false,"station_name":"Rajawali","station_id":"RJW","distance":1901},{"time":3,"transit":true,"line":0,"station_name":"Kampung Bandan","distance":1444,"i_long":106.826365,"station_id":"KPB","i_lat":-6.132549,"is_transit":true},{"time":9,"i_long":106.79867,"transit":false,"station_id":"AK","station_name":"Angke","distance":4102,"line":0,"is_transit":false,"i_lat":-6.144674}]]}