{"data":[[{"line":3,"is_transit":false,"time":0,"distance":0,"i_long":106.411216,"station_name":"Cikoya","station_id":"CKY","i_lat":-6.33561,"transit":false},{"is_transit":false,"i_lat":-6.328533,"line":6,"i_long":106.425991,"station_id":"TGS","time":3,"distance":2651,"station_name":"Tigaraksa","transit":false},{"i_lat":-6.327251,"i_long":106.460812,"is_transit":false,"transit":false,"time":5,"distance":2974,"station_name":"Tenjo","station_id":"TEJ","line":6},{"is_transit":false,"station_id":"DAR","line":0,"time":5,"distance":3902,"i_long":106.491338,"i_lat":-6.338021,"transit":false,"station_name":"Daru"},{"line":3,"station_id":"CJT","time":6,"station_name":"Cilejit","i_lat":-6.354349,"transit":false,"distance":2675,"is_transit":false,"i_long":106.508482},{"line":6,"i_lat":-6.3441410000000005,"station_name":"Parung Panjang","is_transit":false,"transit":false,"time":9,"i_long":106.568863,"distance":7025,"station_id":"PRP"},{"transit":false,"is_transit":false,"line":3,"time":8,"station_id":"CC","i_lat":-6.329547,"distance":5968,"station_name":"Cicayur","i_long":106.617853},{"station_id":"CSK","time":4,"i_lat":-6.32484,"i_long":106.640411,"station_name":"Cisauk","is_transit":false,"distance":2519,"transit":false,"line":3},{"i_lat":-6.319871,"distance":1784,"station_name":"Serpong","station_id":"SRP","line":6,"time":4,"transit":false,"is_transit":false,"i_long":106.66566},{"station_id":"RU","i_long":106.675475,"line":6,"station_name":"Rawa Buntu","time":4,"is_transit":false,"distance":2413,"i_lat":-6.314823,"transit":false},{"station_name":"Sudimara","line":6,"i_lat":-6.296963,"transit":false,"i_long":106.712277,"distance":4566,"time":6,"station_id":"SDM","is_transit":false},{"station_name":"Jurangmangu","time":4,"is_transit":false,"i_lat":-6.288927,"i_long":106.728916,"line":6,"station_id":"JMU","transit":false,"distance":1994},{"distance":2179,"transit":false,"station_id":"PDJ","is_transit":false,"time":3,"i_long":106.74273,"line":6,"station_name":"Pondokranji","i_lat":-6.276362},{"transit":false,"station_id":"KBY","station_name":"Kebayoran","is_transit":false,"distance":6218,"i_lat":-6.237242,"time":8,"i_long":106.780334,"line":6},{"station_id":"PLM","line":6,"i_lat":-6.207404,"time":7,"transit":false,"station_name":"Palmerah","i_long":106.79689,"is_transit":false,"distance":3737},{"is_transit":true,"distance":3191,"transit":true,"i_lat":-6.185545,"line":1,"station_name":"Tanah Abang","station_id":"THB","time":6,"i_long":106.811091},{"station_name":"Duri","is_transit":false,"station_id":"DU","time":8,"line":1,"distance":3632,"i_long":106.800832,"i_lat":-6.155215,"transit":false}],[{"distance":0,"i_lat":-6.33561,"i_long":106.411216,"transit":false,"time":0,"line":3,"station_id":"CKY","station_name":"Cikoya","is_transit":false},{"station_id":"TGS","time":3,"i_lat":-6.328533,"i_long":106.425991,"line":6,"station_name":"Tigaraksa","distance":2651,"is_transit":false,"transit":false},{"time":5,"distance":2974,"transit":false,"line":6,"station_id":"TEJ","is_transit":false,"i_lat":-6.327251,"station_name":"Tenjo","i_long":106.460812},{"distance":3902,"i_lat":-6.338021,"station_id":"DAR","i_long":106.491338,"station_name":"Daru","transit":false,"line":0,"is_transit":false,"time":5},{"line":3,"time":6,"transit":false,"station_name":"Cilejit","i_lat":-6.354349,"is_transit":false,"station_id":"CJT","distance":2675,"i_long":106.508482},{"station_id":"PRP","station_name":"Parung Panjang","i_long":106.568863,"time":9,"transit":false,"line":6,"i_lat":-6.3441410000000005,"is_transit":false,"distance":7025},{"distance":5968,"i_lat":-6.329547,"i_long":106.617853,"line":3,"is_transit":false,"station_id":"CC","station_name":"Cicayur","time":8,"transit":false},{"line":3,"is_transit":false,"distance":2519,"transit":false,"i_lat":-6.32484,"time":4,"i_long":106.640411,"station_name":"Cisauk","station_id":"CSK"},{"i_long":106.66566,"transit":false,"is_transit":false,"i_lat":-6.319871,"line":6,"distance":1784,"time":4,"station_name":"Serpong","station_id":"SRP"},{"station_name":"Rawa Buntu","i_long":106.675475,"station_id":"RU","transit":false,"is_transit":false,"distance":2413,"time":4,"i_lat":-6.314823,"line":6},{"time":6,"i_lat":-6.296963,"station_name":"Sudimara","i_long":106.712277,"distance":4566,"station_id":"SDM","is_transit":false,"line":6,"transit":false},{"transit":false,"station_name":"Jurangmangu","i_long":106.728916,"is_transit":false,"station_id":"JMU","time":4,"i_lat":-6.288927,"distance":1994,"line":6},{"station_id":"PDJ","is_transit":false,"station_name":"Pondokranji","i_lat":-6.276362,"i_long":106.74273,"line":6,"distance":2179,"time":3,"transit":false},{"i_long":106.780334,"time":8,"i_lat":-6.237242,"station_name":"Kebayoran","transit":false,"line":6,"is_transit":false,"distance":6218,"station_id":"KBY"},{"time":7,"line":6,"transit":false,"station_id":"PLM","is_transit":false,"station_name":"Palmerah","i_lat":-6.207404,"i_long":106.79689,"distance":3737},{"time":6,"station_name":"Tanah Abang","transit":true,"i_lat":-6.185545,"is_transit":true,"distance":3191,"line":1,"station_id":"THB","i_long":106.811091},{"line":1,"distance":2029,"station_name":"Karet","is_transit":false,"station_id":"KAT","i_lat":-6.20132,"transit":false,"time":5,"i_long":106.816351},{"station_id":"SUDB","is_transit":false,"i_long":106.819881,"line":1,"i_lat":-6.201433,"distance":471,"time":1,"station_name":"Sudirman Baru","transit":false},{"station_name":"Sudirman","is_transit":false,"i_long":106.822649,"station_id":"SUD","line":1,"distance":280,"time":1,"transit":false,"i_lat":-6.202263},{"time":4,"i_lat":-6.209883,"is_transit":true,"i_long":106.84912,"distance":3186,"line":2,"station_name":"Manggarai","transit":true,"station_id":"MRI"},{"station_name":"Cikini","time":4,"i_lat":-6.198556,"i_long":106.840169,"distance":1590,"line":2,"is_transit":false,"transit":false,"station_id":"CKI"},{"station_name":"Gondangdia","transit":false,"i_long":106.832183,"is_transit":false,"line":2,"station_id":"GDD","distance":1750,"i_lat":-6.186295,"time":3},{"time":4,"i_lat":-6.166716,"distance":2015,"transit":false,"station_name":"Juanda","line":2,"i_long":106.828284,"is_transit":false,"station_id":"JUA"},{"distance":1149,"transit":false,"i_lat":-6.160725,"time":2,"station_name":"Sawah Besar","line":2,"station_id":"SW","is_transit":false,"i_long":106.827103},{"time":2,"is_transit":false,"transit":false,"i_long":106.82482,"distance":906,"i_lat":-6.149769,"line":2,"station_name":"Manggabesar","station_id":"MGB"},{"time":2,"i_lat":-6.141205,"line":2,"i_long":106.820901,"distance":1080,"station_id":"JAY","transit":false,"station_name":"Jayakarta","is_transit":false},{"distance":1264,"is_transit":true,"station_name":"Jakarta Kota","i_long":106.812439,"time":4,"line":2,"transit":true,"i_lat":-6.137569,"station_id":"JAKK"},{"station_name":"Kampung Bandan","is_transit":true,"line":4,"transit":true,"i_lat":-6.132549,"i_long":106.826365,"distance":1364,"time":3,"station_id":"KPB"},{"station_id":"AK","time":9,"line":1,"i_long":106.79867,"i_lat":-6.144674,"is_transit":false,"transit":false,"distance":4102,"station_name":"Angke"},{"station_id":"DU","station_name":"Duri","distance":1230,"i_lat":-6.155215,"time":4,"line":1,"is_transit":false,"i_long":106.800832,"transit":false}],[{"station_name":"Cikoya","is_transit":false,"i_long":106.411216,"transit":false,"station_id":"CKY","time":0,"line":3,"i_lat":-6.33561,"distance":0},{"is_transit":false,"time":3,"station_id":"TGS","distance":2651,"station_name":"Tigaraksa","i_long":106.425991,"line":6,"transit":false,"i_lat":-6.328533},{"i_long":106.460812,"station_id":"TEJ","transit":false,"time":5,"distance":2974,"i_lat":-6.327251,"line":6,"station_name":"Tenjo","is_transit":false},{"transit":false,"time":5,"i_long":106.491338,"station_name":"Daru","i_lat":-6.338021,"station_id":"DAR","is_transit":false,"distance":3902,"line":0},{"distance":2675,"station_id":"CJT","station_name":"Cilejit","is_transit":false,"i_long":106.508482,"i_lat":-6.354349,"time":6,"line":3,"transit":false},{"distance":7025,"transit":false,"is_transit":false,"line":6,"time":9,"i_long":106.568863,"station_name":"Parung Panjang","i_lat":-6.3441410000000005,"station_id":"PRP"},{"distance":5968,"line":3,"station_id":"CC","time":8,"is_transit":false,"i_lat":-6.329547,"transit":false,"station_name":"Cicayur","i_long":106.617853},{"station_id":"CSK","transit":false,"i_lat":-6.32484,"distance":2519,"i_long":106.640411,"time":4,"is_transit":false,"station_name":"Cisauk","line":3},{"station_name":"Serpong","station_id":"SRP","distance":1784,"i_long":106.66566,"transit":false,"is_transit":false,"line":6,"time":4,"i_lat":-6.319871},{"line":6,"distance":2413,"transit":false,"station_name":"Rawa Buntu","i_long":106.675475,"is_transit":false,"station_id":"RU","time":4,"i_lat":-6.314823},{"i_lat":-6.296963,"station_id":"SDM","time":6,"station_name":"Sudimara","line":6,"transit":false,"i_long":106.712277,"is_transit":false,"distance":4566},{"distance":1994,"time":4,"is_transit":false,"station_id":"JMU","station_name":"Jurangmangu","i_lat":-6.288927,"i_long":106.728916,"transit":false,"line":6},{"i_lat":-6.276362,"is_transit":false,"transit":false,"distance":2179,"i_long":106.74273,"time":3,"line":6,"station_name":"Pondokranji","station_id":"PDJ"},{"station_name":"Kebayoran","time":8,"i_long":106.780334,"distance":6218,"transit":false,"i_lat":-6.237242,"station_id":"KBY","is_transit":false,"line":6},{"station_name":"Palmerah","i_lat":-6.207404,"i_long":106.79689,"is_transit":false,"line":6,"station_id":"PLM","time":7,"transit":false,"distance":3737},{"station_name":"Tanah Abang","transit":true,"station_id":"THB","i_lat":-6.185545,"i_long":106.811091,"distance":3191,"is_transit":true,"line":1,"time":6},{"distance":2029,"transit":false,"line":1,"i_long":106.816351,"station_id":"KAT","i_lat":-6.20132,"time":5,"station_name":"Karet","is_transit":false},{"time":1,"i_lat":-6.201433,"station_name":"Sudirman Baru","station_id":"SUDB","line":1,"is_transit":false,"distance":471,"transit":false,"i_long":106.819881},{"i_lat":-6.202263,"station_id":"SUD","distance":280,"station_name":"Sudirman","i_long":106.822649,"transit":false,"line":1,"time":1,"is_transit":false},{"time":4,"line":2,"station_name":"Manggarai","station_id":"MRI","i_long":106.84912,"i_lat":-6.209883,"transit":false,"is_transit":false,"distance":3186},{"station_name":"Matraman","i_lat":-6.212485,"i_long":106.858896,"station_id":"MTR","transit":false,"distance":1275,"line":1,"is_transit":false,"time":2},{"station_name":"Jatinegara","time":8,"i_lat":-6.215091,"distance":1377,"station_id":"JNG","is_transit":true,"transit":true,"i_long":106.86807400000001,"line":1},{"transit":false,"is_transit":false,"distance":1236,"station_name":"Pondok Jati","i_long":106.861737,"station_id":"POK","i_lat":-6.209188,"line":11,"time":2},{"transit":false,"time":2,"i_lat":-6.193792,"i_long":106.855437,"distance":1829,"station_id":"KMT","station_name":"Kramat","is_transit":false,"line":11},{"transit":false,"distance":973,"station_name":"Gang Sentiong","line":11,"i_long":106.850107,"time":1,"i_lat":-6.185975,"station_id":"GST","is_transit":false},{"line":11,"is_transit":false,"station_name":"Pasar Senen","time":8,"i_lat":-6.174784,"station_id":"PSE","i_long":106.84368,"transit":false,"distance":1567},{"is_transit":false,"distance":1436,"transit":false,"line":11,"station_name":"Kemayoran","i_long":106.839204,"station_id":"KMO","i_lat":-6.161728,"time":4},{"is_transit":false,"line":11,"station_id":"RJW","transit":false,"time":5,"distance":1901,"i_long":106.836569,"station_name":"Rajawali","i_lat":-6.14505},{"i_lat":-6.132549,"station_name":"Kampung Bandan","station_id":"KPB","distance":1444,"line":4,"transit":true,"is_transit":true,"i_long":106.826365,"time":3},{"i_lat":-6.144674,"distance":4102,"line":1,"station_id":"AK","time":9,"station_name":"Angke","i_long":106.79867,"transit":false,"is_transit":false},{"i_long":106.800832,"is_transit":false,"time":4,"distance":1230,"station_name":"Duri","i_lat":-6.155215,"line":1,"station_id":"DU","transit":false}]]}