{"data":[[{"transit":false,"i_lat":-6.33561,"station_name":"Cikoya","distance":0,"i_long":106.411216,"time":0,"station_id":"CKY","is_transit":false,"line":3},{"transit":false,"distance":2651,"time":3,"i_long":106.425991,"station_id":"TGS","station_name":"Tigaraksa","i_lat":-6.328533,"is_transit":false,"line":6},{"station_name":"Tenjo","i_long":106.460812,"station_id":"TEJ","time":5,"transit":false,"i_lat":-6.327251,"line":6,"is_transit":false,"distance":2974},{"time":5,"i_long":106.491338,"is_transit":false,"line":0,"distance":3902,"transit":false,"station_id":"DAR","station_name":"Daru","i_lat":-6.338021},{"distance":2675,"station_id":"CJT","transit":false,"i_long":106.508482,"is_transit":false,"station_name":"Cilejit","i_lat":-6.354349,"line":3,"time":6},{"i_lat":-6.3441410000000005,"transit":false,"station_name":"Parung Panjang","is_transit":false,"distance":7025,"i_long":106.568863,"time":9,"station_id":"PRP","line":6},{"is_transit":false,"i_long":106.617853,"line":3,"station_id":"CC","distance":5968,"i_lat":-6.329547,"transit":false,"time":8,"station_name":"Cicayur"},{"station_id":"CSK","distance":2519,"time":4,"line":3,"is_transit":false,"station_name":"Cisauk","transit":false,"i_lat":-6.32484,"i_long":106.640411},{"i_lat":-6.319871,"time":4,"is_transit":false,"station_id":"SRP","line":6,"station_name":"Serpong","transit":false,"i_long":106.66566,"distance":1784},{"is_transit":false,"station_id":"RU","time":4,"transit":false,"station_name":"Rawa Buntu","distance":2413,"line":6,"i_lat":-6.314823,"i_long":106.675475},{"i_long":106.712277,"distance":4566,"station_name":"Sudimara","i_lat":-6.296963,"station_id":"SDM","transit":false,"time":6,"line":6,"is_transit":false},{"station_name":"Jurangmangu","transit":false,"line":6,"is_transit":false,"time":4,"distance":1994,"station_id":"JMU","i_long":106.728916,"i_lat":-6.288927},{"distance":2179,"time":3,"station_name":"Pondokranji","i_long":106.74273,"is_transit":false,"line":6,"station_id":"PDJ","i_lat":-6.276362,"transit":false},{"line":6,"station_id":"KBY","i_lat":-6.237242,"i_long":106.780334,"is_transit":false,"distance":6218,"time":8,"station_name":"Kebayoran","transit":false},{"station_name":"Palmerah","i_lat":-6.207404,"i_long":106.79689,"line":6,"time":7,"is_transit":false,"station_id":"PLM","distance":3737,"transit":false},{"i_long":106.811091,"station_id":"THB","transit":true,"is_transit":true,"station_name":"Tanah Abang","time":6,"i_lat":-6.185545,"line":1,"distance":3191},{"line":1,"is_transit":false,"time":8,"station_id":"DU","station_name":"Duri","distance":3632,"transit":false,"i_lat":-6.155215,"i_long":106.800832},{"transit":false,"line":1,"i_lat":-6.144674,"is_transit":false,"distance":1230,"i_long":106.79867,"station_id":"AK","time":4,"station_name":"Angke"},{"distance":4102,"station_name":"Kampung Bandan","time":9,"transit":true,"i_long":106.826365,"line":4,"i_lat":-6.132549,"is_transit":true,"station_id":"KPB"},{"station_id":"RJW","time":3,"station_name":"Rajawali","transit":false,"i_long":106.836569,"line":11,"distance":1444,"i_lat":-6.14505,"is_transit":false},{"transit":false,"line":11,"i_lat":-6.161728,"distance":1901,"station_id":"KMO","time":5,"i_long":106.839204,"is_transit":false,"station_name":"Kemayoran"}],[{"transit":false,"is_transit":false,"time":0,"station_id":"CKY","i_lat":-6.33561,"line":3,"station_name":"Cikoya","distance":0,"i_long":106.411216},{"distance":2651,"transit":false,"time":3,"i_lat":-6.328533,"station_id":"TGS","line":6,"i_long":106.425991,"is_transit":false,"station_name":"Tigaraksa"},{"is_transit":false,"distance":2974,"i_lat":-6.327251,"line":6,"i_long":106.460812,"station_name":"Tenjo","time":5,"station_id":"TEJ","transit":false},{"is_transit":false,"distance":3902,"i_lat":-6.338021,"transit":false,"line":0,"station_name":"Daru","time":5,"station_id":"DAR","i_long":106.491338},{"i_lat":-6.354349,"distance":2675,"time":6,"station_id":"CJT","is_transit":false,"transit":false,"i_long":106.508482,"line":3,"station_name":"Cilejit"},{"is_transit":false,"i_long":106.568863,"time":9,"line":6,"i_lat":-6.3441410000000005,"station_name":"Parung Panjang","distance":7025,"station_id":"PRP","transit":false},{"is_transit":false,"transit":false,"distance":5968,"i_long":106.617853,"station_name":"Cicayur","i_lat":-6.329547,"line":3,"time":8,"station_id":"CC"},{"line":3,"is_transit":false,"time":4,"i_lat":-6.32484,"station_id":"CSK","transit":false,"i_long":106.640411,"station_name":"Cisauk","distance":2519},{"time":4,"is_transit":false,"station_id":"SRP","distance":1784,"transit":false,"i_lat":-6.319871,"station_name":"Serpong","line":6,"i_long":106.66566},{"i_lat":-6.314823,"line":6,"time":4,"station_name":"Rawa Buntu","transit":false,"i_long":106.675475,"is_transit":false,"distance":2413,"station_id":"RU"},{"is_transit":false,"i_lat":-6.296963,"station_id":"SDM","transit":false,"time":6,"station_name":"Sudimara","i_long":106.712277,"line":6,"distance":4566},{"i_long":106.728916,"distance":1994,"i_lat":-6.288927,"station_id":"JMU","line":6,"station_name":"Jurangmangu","is_transit":false,"time":4,"transit":false},{"station_name":"Pondokranji","time":3,"station_id":"PDJ","transit":false,"i_long":106.74273,"distance":2179,"is_transit":false,"i_lat":-6.276362,"line":6},{"i_long":106.780334,"station_id":"KBY","station_name":"Kebayoran","distance":6218,"time":8,"i_lat":-6.237242,"is_transit":false,"transit":false,"line":6},{"i_long":106.79689,"station_name":"Palmerah","station_id":"PLM","time":7,"transit":false,"is_transit":false,"line":6,"distance":3737,"i_lat":-6.207404},{"transit":true,"distance":3191,"i_lat":-6.185545,"i_long":106.811091,"station_name":"Tanah Abang","is_transit":true,"line":1,"time":6,"station_id":"THB"},{"is_transit":false,"i_long":106.816351,"time":5,"transit":false,"station_name":"Karet","station_id":"KAT","i_lat":-6.20132,"line":1,"distance":2029},{"time":1,"i_lat":-6.201433,"i_long":106.819881,"distance":471,"line":1,"is_transit":false,"station_name":"Sudirman Baru","station_id":"SUDB","transit":false},{"i_lat":-6.202263,"line":1,"i_long":106.822649,"time":1,"transit":false,"is_transit":false,"station_id":"SUD","distance":280,"station_name":"Sudirman"},{"distance":3186,"line":2,"is_transit":false,"station_name":"Manggarai","transit":false,"i_lat":-6.209883,"station_id":"MRI","i_long":106.84912,"time":4},{"distance":1275,"station_id":"MTR","i_lat":-6.212485,"i_long":106.858896,"transit":false,"line":1,"is_transit":false,"time":2,"station_name":"Matraman"},{"line":1,"time":8,"i_lat":-6.215091,"station_name":"Jatinegara","station_id":"JNG","distance":1377,"is_transit":true,"transit":true,"i_long":106.86807400000001},{"line":11,"is_transit":false,"i_lat":-6.209188,"transit":false,"station_id":"POK","i_long":106.861737,"time":2,"distance":1236,"station_name":"Pondok Jati"},{"time":2,"station_id":"KMT","transit":false,"i_lat":-6.193792,"is_transit":false,"distance":1829,"station_name":"Kramat","i_long":106.855437,"line":11},{"station_name":"Gang Sentiong","line":11,"is_transit":false,"i_long":106.850107,"transit":false,"station_id":"GST","i_lat":-6.185975,"distance":973,"time":1},{"is_transit":false,"distance":1567,"transit":false,"i_lat":-6.174784,"line":11,"time":8,"i_long":106.84368,"station_id":"PSE","station_name":"Pasar Senen"},{"time":4,"is_transit":false,"i_long":106.839204,"line":11,"distance":1436,"station_name":"Kemayoran","station_id":"KMO","transit":false,"i_lat":-6.161728}],[{"line":3,"i_lat":-6.33561,"time":0,"distance":0,"station_name":"Cikoya","is_transit":false,"station_id":"CKY","i_long":106.411216,"transit":false},{"i_long":106.425991,"transit":false,"distance":2651,"station_id":"TGS","is_transit":false,"time":3,"line":6,"station_name":"Tigaraksa","i_lat":-6.328533},{"time":5,"i_lat":-6.327251,"station_id":"TEJ","i_long":106.460812,"line":6,"station_name":"Tenjo","is_transit":false,"transit":false,"distance":2974},{"distance":3902,"time":5,"station_name":"Daru","station_id":"DAR","transit":false,"i_lat":-6.338021,"i_long":106.491338,"line":0,"is_transit":false},{"transit":false,"station_name":"Cilejit","time":6,"distance":2675,"is_transit":false,"i_lat":-6.354349,"line":3,"station_id":"CJT","i_long":106.508482},{"station_name":"Parung Panjang","is_transit":false,"distance":7025,"time":9,"station_id":"PRP","transit":false,"i_lat":-6.3441410000000005,"line":6,"i_long":106.568863},{"time":8,"is_transit":false,"station_id":"CC","transit":false,"i_long":106.617853,"line":3,"distance":5968,"station_name":"Cicayur","i_lat":-6.329547},{"time":4,"distance":2519,"transit":false,"station_id":"CSK","line":3,"i_long":106.640411,"is_transit":false,"station_name":"Cisauk","i_lat":-6.32484},{"i_long":106.66566,"line":6,"station_id":"SRP","time":4,"distance":1784,"is_transit":false,"transit":false,"station_name":"Serpong","i_lat":-6.319871},{"time":4,"station_id":"RU","transit":false,"distance":2413,"is_transit":false,"line":6,"station_name":"Rawa Buntu","i_long":106.675475,"i_lat":-6.314823},{"i_long":106.712277,"line":6,"is_transit":false,"time":6,"station_name":"Sudimara","distance":4566,"station_id":"SDM","transit":false,"i_lat":-6.296963},{"is_transit":false,"i_lat":-6.288927,"transit":false,"station_name":"Jurangmangu","station_id":"JMU","distance":1994,"time":4,"line":6,"i_long":106.728916},{"distance":2179,"i_lat":-6.276362,"is_transit":false,"station_id":"PDJ","i_long":106.74273,"line":6,"transit":false,"station_name":"Pondokranji","time":3},{"station_name":"Kebayoran","i_long":106.780334,"is_transit":false,"i_lat":-6.237242,"distance":6218,"station_id":"KBY","transit":false,"line":6,"time":8},{"transit":false,"distance":3737,"time":7,"i_lat":-6.207404,"station_name":"Palmerah","i_long":106.79689,"is_transit":false,"station_id":"PLM","line":6},{"station_name":"Tanah Abang","time":6,"distance":3191,"i_lat":-6.185545,"line":1,"is_transit":true,"transit":true,"station_id":"THB","i_long":106.811091},{"transit":false,"i_lat":-6.20132,"is_transit":false,"station_id":"KAT","i_long":106.816351,"time":5,"station_name":"Karet","distance":2029,"line":1},{"is_transit":false,"station_id":"SUDB","i_long":106.819881,"i_lat":-6.201433,"distance":471,"time":1,"transit":false,"line":1,"station_name":"Sudirman Baru"},{"time":1,"is_transit":false,"distance":280,"i_lat":-6.202263,"station_id":"SUD","line":1,"station_name":"Sudirman","i_long":106.822649,"transit":false},{"i_lat":-6.209883,"is_transit":true,"i_long":106.84912,"line":2,"distance":3186,"station_name":"Manggarai","time":4,"station_id":"MRI","transit":true},{"station_name":"Cikini","i_lat":-6.198556,"station_id":"CKI","line":2,"i_long":106.840169,"distance":1590,"is_transit":false,"transit":false,"time":4},{"transit":false,"line":2,"station_id":"GDD","distance":1750,"is_transit":false,"time":3,"station_name":"Gondangdia","i_long":106.832183,"i_lat":-6.186295},{"station_id":"JUA","is_transit":false,"transit":false,"distance":2015,"time":4,"station_name":"Juanda","i_lat":-6.166716,"i_long":106.828284,"line":2},{"station_id":"SW","is_transit":false,"i_long":106.827103,"line":2,"station_name":"Sawah Besar","time":2,"transit":false,"i_lat":-6.160725,"distance":1149},{"line":2,"distance":906,"station_id":"MGB","i_long":106.82482,"time":2,"is_transit":false,"station_name":"Manggabesar","i_lat":-6.149769,"transit":false},{"is_transit":false,"transit":false,"time":2,"distance":1080,"line":2,"station_id":"JAY","i_lat":-6.141205,"station_name":"Jayakarta","i_long":106.820901},{"time":4,"is_transit":true,"station_id":"JAKK","distance":1264,"line":2,"transit":true,"station_name":"Jakarta Kota","i_long":106.812439,"i_lat":-6.137569},{"line":4,"distance":1364,"time":3,"station_id":"KPB","i_lat":-6.132549,"transit":true,"i_long":106.826365,"station_name":"Kampung Bandan","is_transit":true},{"distance":1444,"station_name":"Rajawali","line":11,"is_transit":false,"station_id":"RJW","i_long":106.836569,"time":3,"i_lat":-6.14505,"transit":false},{"i_lat":-6.161728,"station_name":"Kemayoran","station_id":"KMO","is_transit":false,"transit":false,"time":5,"i_long":106.839204,"line":11,"distance":1901}],[{"station_id":"CKY","transit":false,"distance":0,"line":3,"i_long":106.411216,"time":0,"i_lat":-6.33561,"is_transit":false,"station_name":"Cikoya"},{"station_name":"Tigaraksa","time":3,"station_id":"TGS","i_lat":-6.328533,"transit":false,"i_long":106.425991,"line":6,"distance":2651,"is_transit":false},{"station_name":"Tenjo","is_transit":false,"transit":false,"distance":2974,"time":5,"i_lat":-6.327251,"i_long":106.460812,"line":6,"station_id":"TEJ"},{"time":5,"i_long":106.491338,"station_name":"Daru","is_transit":false,"i_lat":-6.338021,"distance":3902,"transit":false,"station_id":"DAR","line":0},{"line":3,"station_id":"CJT","station_name":"Cilejit","distance":2675,"is_transit":false,"transit":false,"i_lat":-6.354349,"time":6,"i_long":106.508482},{"i_long":106.568863,"is_transit":false,"time":9,"distance":7025,"station_name":"Parung Panjang","station_id":"PRP","i_lat":-6.3441410000000005,"line":6,"transit":false},{"station_id":"CC","time":8,"is_transit":false,"distance":5968,"transit":false,"i_lat":-6.329547,"station_name":"Cicayur","line":3,"i_long":106.617853},{"line":3,"station_name":"Cisauk","transit":false,"time":4,"distance":2519,"i_lat":-6.32484,"i_long":106.640411,"station_id":"CSK","is_transit":false},{"line":6,"time":4,"station_id":"SRP","i_long":106.66566,"distance":1784,"i_lat":-6.319871,"transit":false,"is_transit":false,"station_name":"Serpong"},{"station_name":"Rawa Buntu","station_id":"RU","is_transit":false,"distance":2413,"transit":false,"i_long":106.675475,"line":6,"time":4,"i_lat":-6.314823},{"station_name":"Sudimara","i_lat":-6.296963,"time":6,"station_id":"SDM","is_transit":false,"i_long":106.712277,"line":6,"transit":false,"distance":4566},{"i_long":106.728916,"line":6,"station_id":"JMU","time":4,"distance":1994,"i_lat":-6.288927,"transit":false,"is_transit":false,"station_name":"Jurangmangu"},{"station_id":"PDJ","i_lat":-6.276362,"distance":2179,"transit":false,"is_transit":false,"i_long":106.74273,"station_name":"Pondokranji","line":6,"time":3},{"i_long":106.780334,"station_name":"Kebayoran","time":8,"transit":false,"is_transit":false,"station_id":"KBY","distance":6218,"line":6,"i_lat":-6.237242},{"i_long":106.79689,"station_id":"PLM","is_transit":false,"station_name":"Palmerah","distance":3737,"line":6,"time":7,"transit":false,"i_lat":-6.207404},{"station_id":"THB","i_long":106.811091,"is_transit":true,"time":6,"transit":true,"station_name":"Tanah Abang","i_lat":-6.185545,"distance":3191,"line":1},{"station_name":"Duri","is_transit":false,"transit":false,"i_lat":-6.155215,"distance":3632,"i_long":106.800832,"line":1,"time":8,"station_id":"DU"},{"distance":1230,"is_transit":false,"station_name":"Angke","station_id":"AK","transit":false,"i_lat":-6.144674,"time":4,"line":1,"i_long":106.79867},{"i_lat":-6.132549,"distance":4102,"i_long":106.826365,"transit":true,"is_transit":true,"time":9,"station_name":"Kampung Bandan","station_id":"KPB","line":4},{"time":3,"station_id":"JAKK","transit":true,"is_transit":true,"station_name":"Jakarta Kota","distance":1364,"i_lat":-6.137569,"line":2,"i_long":106.812439},{"is_transit":false,"station_id":"JAY","i_long":106.820901,"line":2,"distance":1264,"station_name":"Jayakarta","transit":false,"i_lat":-6.141205,"time":4},{"i_lat":-6.149769,"line":2,"transit":false,"time":2,"distance":1080,"is_transit":false,"i_long":106.82482,"station_id":"MGB","station_name":"Manggabesar"},{"station_name":"Sawah Besar","time":2,"is_transit":false,"distance":906,"station_id":"SW","transit":false,"i_lat":-6.160725,"i_long":106.827103,"line":2},{"station_id":"JUA","i_long":106.828284,"distance":1149,"is_transit":false,"station_name":"Juanda","i_lat":-6.166716,"line":2,"time":2,"transit":false},{"time":4,"transit":false,"i_lat":-6.186295,"line":2,"station_id":"GDD","i_long":106.832183,"is_transit":false,"distance":2015,"station_name":"Gondangdia"},{"is_transit":false,"time":3,"transit":false,"distance":1750,"line":2,"station_name":"Cikini","i_lat":-6.198556,"i_long":106.840169,"station_id":"CKI"},{"is_transit":true,"distance":1590,"station_id":"MRI","i_long":106.84912,"station_name":"Manggarai","i_lat":-6.209883,"line":2,"time":4,"transit":true},{"station_id":"MTR","is_transit":false,"distance":1275,"station_name":"Matraman","i_lat":-6.212485,"transit":false,"i_long":106.858896,"line":1,"time":2},{"i_lat":-6.215091,"distance":1377,"time":8,"station_id":"JNG","transit":true,"line":1,"i_long":106.86807400000001,"is_transit":true,"station_name":"Jatinegara"},{"i_long":106.861737,"distance":1236,"transit":false,"i_lat":-6.209188,"station_id":"POK","time":2,"is_transit":false,"station_name":"Pondok Jati","line":11},{"line":11,"station_name":"Kramat","distance":1829,"i_lat":-6.193792,"i_long":106.855437,"is_transit":false,"time":2,"station_id":"KMT","transit":false},{"transit":false,"station_name":"Gang Sentiong","i_lat":-6.185975,"is_transit":false,"distance":973,"line":11,"station_id":"GST","i_long":106.850107,"time":1},{"i_lat":-6.174784,"transit":false,"distance":1567,"line":11,"i_long":106.84368,"station_id":"PSE","time":8,"is_transit":false,"station_name":"Pasar Senen"},{"distance":1436,"transit":false,"line":11,"i_lat":-6.161728,"is_transit":false,"time":4,"station_name":"Kemayoran","i_long":106.839204,"station_id":"KMO"}]]}