{"data":[[{"line":3,"station_name":"Cikoya","transit":false,"distance":0,"i_lat":-6.33561,"i_long":106.411216,"time":0,"is_transit":false,"station_id":"CKY"},{"distance":2651,"i_long":106.425991,"line":6,"station_name":"Tigaraksa","i_lat":-6.328533,"transit":false,"station_id":"TGS","time":3,"is_transit":false},{"is_transit":false,"distance":2974,"transit":false,"station_id":"TEJ","i_lat":-6.327251,"station_name":"Tenjo","time":5,"i_long":106.460812,"line":6},{"transit":false,"station_name":"Daru","i_lat":-6.338021,"is_transit":false,"time":5,"line":0,"station_id":"DAR","i_long":106.491338,"distance":3902},{"station_id":"CJT","transit":false,"station_name":"Cilejit","time":6,"i_lat":-6.354349,"line":3,"i_long":106.508482,"distance":2675,"is_transit":false},{"time":9,"station_id":"PRP","i_lat":-6.3441410000000005,"is_transit":false,"line":6,"distance":7025,"i_long":106.568863,"station_name":"Parung Panjang","transit":false},{"i_lat":-6.329547,"is_transit":false,"i_long":106.617853,"distance":5968,"station_name":"Cicayur","time":8,"transit":false,"station_id":"CC","line":3},{"line":3,"transit":false,"i_lat":-6.32484,"is_transit":false,"station_id":"CSK","time":4,"station_name":"Cisauk","distance":2519,"i_long":106.640411},{"i_lat":-6.319871,"station_name":"Serpong","station_id":"SRP","line":6,"transit":false,"i_long":106.66566,"time":4,"distance":1784,"is_transit":false},{"station_name":"Rawa Buntu","time":4,"distance":2413,"transit":false,"is_transit":false,"station_id":"RU","i_lat":-6.314823,"i_long":106.675475,"line":6},{"station_name":"Sudimara","line":6,"distance":4566,"station_id":"SDM","transit":false,"i_lat":-6.296963,"time":6,"i_long":106.712277,"is_transit":false},{"transit":false,"distance":1994,"is_transit":false,"time":4,"i_lat":-6.288927,"line":6,"station_name":"Jurangmangu","station_id":"JMU","i_long":106.728916},{"line":6,"i_long":106.74273,"station_name":"Pondokranji","distance":2179,"transit":false,"is_transit":false,"station_id":"PDJ","time":3,"i_lat":-6.276362},{"is_transit":false,"distance":6218,"i_lat":-6.237242,"transit":false,"time":8,"station_id":"KBY","i_long":106.780334,"line":6,"station_name":"Kebayoran"},{"is_transit":false,"time":7,"station_name":"Palmerah","station_id":"PLM","transit":false,"distance":3737,"i_lat":-6.207404,"line":6,"i_long":106.79689},{"time":6,"i_lat":-6.185545,"transit":true,"line":1,"distance":3191,"station_name":"Tanah Abang","station_id":"THB","i_long":106.811091,"is_transit":true},{"distance":3632,"station_id":"DU","i_long":106.800832,"is_transit":true,"time":8,"i_lat":-6.155215,"transit":true,"line":1,"station_name":"Duri"},{"station_name":"Grogol","is_transit":false,"distance":1700,"time":3,"line":5,"i_lat":-6.162021,"i_long":106.788277,"transit":false,"station_id":"GGL"},{"i_long":106.771379,"time":2,"distance":2036,"i_lat":-6.161433,"station_name":"Pesing","station_id":"PSG","is_transit":false,"line":5,"transit":false},{"station_id":"TKO","time":2,"station_name":"Taman Kota","is_transit":false,"distance":1614,"transit":false,"i_long":106.756522,"line":5,"i_lat":-6.1587309999999995},{"line":5,"distance":2334,"is_transit":false,"i_lat":-6.159876,"transit":false,"i_long":106.737035,"station_id":"BOI","station_name":"Bojongindah","time":2},{"station_id":"RW","distance":1152,"time":4,"station_name":"Rawa Buaya","is_transit":false,"transit":false,"i_long":106.723064,"line":5,"i_lat":-6.162758},{"i_lat":-6.166068,"i_long":106.701612,"distance":2504,"time":3,"is_transit":false,"transit":false,"line":5,"station_id":"KDS","station_name":"Kalideres"},{"line":5,"transit":false,"distance":2548,"station_id":"PI","time":3,"i_lat":-6.169933,"station_name":"Poris","is_transit":false,"i_long":106.679458},{"transit":false,"station_id":"BPR","distance":1834,"i_long":106.665036,"station_name":"Batuceper","is_transit":false,"time":3,"i_lat":-6.171811,"line":5},{"transit":false,"i_long":106.64657,"station_name":"Tanah Tinggi","station_id":"TTI","time":3,"line":5,"is_transit":false,"distance":2028,"i_lat":-6.17331},{"is_transit":false,"distance":1547,"station_id":"TNG","i_lat":-6.176583,"line":5,"station_name":"Tangerang","i_long":106.632761,"transit":false,"time":3}],[{"station_name":"Cikoya","distance":0,"station_id":"CKY","transit":false,"time":0,"line":3,"i_long":106.411216,"i_lat":-6.33561,"is_transit":false},{"line":6,"distance":2651,"i_lat":-6.328533,"i_long":106.425991,"station_id":"TGS","is_transit":false,"time":3,"transit":false,"station_name":"Tigaraksa"},{"station_name":"Tenjo","transit":false,"time":5,"station_id":"TEJ","i_long":106.460812,"line":6,"is_transit":false,"distance":2974,"i_lat":-6.327251},{"transit":false,"line":0,"is_transit":false,"i_lat":-6.338021,"station_name":"Daru","station_id":"DAR","time":5,"distance":3902,"i_long":106.491338},{"line":3,"station_id":"CJT","is_transit":false,"distance":2675,"station_name":"Cilejit","time":6,"i_long":106.508482,"transit":false,"i_lat":-6.354349},{"time":9,"station_name":"Parung Panjang","transit":false,"i_long":106.568863,"distance":7025,"i_lat":-6.3441410000000005,"station_id":"PRP","is_transit":false,"line":6},{"i_long":106.617853,"station_id":"CC","distance":5968,"transit":false,"line":3,"is_transit":false,"station_name":"Cicayur","time":8,"i_lat":-6.329547},{"station_id":"CSK","time":4,"i_lat":-6.32484,"distance":2519,"transit":false,"i_long":106.640411,"is_transit":false,"line":3,"station_name":"Cisauk"},{"distance":1784,"is_transit":false,"station_id":"SRP","transit":false,"time":4,"i_long":106.66566,"station_name":"Serpong","line":6,"i_lat":-6.319871},{"transit":false,"time":4,"station_id":"RU","line":6,"i_lat":-6.314823,"station_name":"Rawa Buntu","is_transit":false,"distance":2413,"i_long":106.675475},{"is_transit":false,"i_lat":-6.296963,"distance":4566,"station_name":"Sudimara","line":6,"transit":false,"station_id":"SDM","time":6,"i_long":106.712277},{"time":4,"station_id":"JMU","line":6,"i_long":106.728916,"i_lat":-6.288927,"is_transit":false,"distance":1994,"station_name":"Jurangmangu","transit":false},{"station_name":"Pondokranji","is_transit":false,"transit":false,"station_id":"PDJ","time":3,"line":6,"distance":2179,"i_long":106.74273,"i_lat":-6.276362},{"is_transit":false,"station_id":"KBY","station_name":"Kebayoran","line":6,"transit":false,"distance":6218,"i_lat":-6.237242,"time":8,"i_long":106.780334},{"line":6,"i_long":106.79689,"distance":3737,"time":7,"station_id":"PLM","i_lat":-6.207404,"station_name":"Palmerah","is_transit":false,"transit":false},{"distance":3191,"time":6,"i_lat":-6.185545,"station_id":"THB","line":1,"transit":true,"is_transit":true,"station_name":"Tanah Abang","i_long":106.811091},{"is_transit":false,"station_id":"KAT","line":1,"time":5,"station_name":"Karet","i_long":106.816351,"i_lat":-6.20132,"transit":false,"distance":2029},{"time":1,"is_transit":false,"distance":471,"line":1,"station_name":"Sudirman Baru","station_id":"SUDB","transit":false,"i_lat":-6.201433,"i_long":106.819881},{"distance":280,"i_lat":-6.202263,"time":1,"is_transit":false,"transit":false,"station_name":"Sudirman","i_long":106.822649,"line":1,"station_id":"SUD"},{"line":2,"time":4,"distance":3186,"station_name":"Manggarai","transit":true,"i_lat":-6.209883,"is_transit":true,"i_long":106.84912,"station_id":"MRI"},{"distance":1590,"i_long":106.840169,"station_name":"Cikini","transit":false,"is_transit":false,"station_id":"CKI","line":2,"i_lat":-6.198556,"time":4},{"transit":false,"line":2,"distance":1750,"i_lat":-6.186295,"time":3,"station_name":"Gondangdia","station_id":"GDD","is_transit":false,"i_long":106.832183},{"is_transit":false,"i_long":106.828284,"station_name":"Juanda","i_lat":-6.166716,"distance":2015,"transit":false,"line":2,"station_id":"JUA","time":4},{"distance":1149,"station_name":"Sawah Besar","is_transit":false,"line":2,"transit":false,"i_long":106.827103,"station_id":"SW","time":2,"i_lat":-6.160725},{"i_lat":-6.149769,"is_transit":false,"distance":906,"station_name":"Manggabesar","station_id":"MGB","i_long":106.82482,"line":2,"transit":false,"time":2},{"i_long":106.820901,"time":2,"station_name":"Jayakarta","is_transit":false,"station_id":"JAY","transit":false,"i_lat":-6.141205,"line":2,"distance":1080},{"station_name":"Jakarta Kota","time":4,"i_lat":-6.137569,"distance":1264,"transit":true,"station_id":"JAKK","i_long":106.812439,"line":2,"is_transit":true},{"i_long":106.826365,"station_name":"Kampung Bandan","transit":true,"time":3,"distance":1364,"station_id":"KPB","is_transit":true,"line":4,"i_lat":-6.132549},{"station_name":"Angke","line":1,"time":9,"is_transit":false,"distance":4102,"transit":false,"station_id":"AK","i_long":106.79867,"i_lat":-6.144674},{"is_transit":true,"station_id":"DU","line":1,"i_lat":-6.155215,"time":4,"station_name":"Duri","i_long":106.800832,"distance":1230,"transit":true},{"distance":1700,"i_lat":-6.162021,"transit":false,"time":3,"station_id":"GGL","i_long":106.788277,"is_transit":false,"line":5,"station_name":"Grogol"},{"time":2,"i_lat":-6.161433,"line":5,"station_name":"Pesing","transit":false,"is_transit":false,"i_long":106.771379,"distance":2036,"station_id":"PSG"},{"station_id":"TKO","transit":false,"is_transit":false,"station_name":"Taman Kota","distance":1614,"i_lat":-6.1587309999999995,"i_long":106.756522,"line":5,"time":2},{"transit":false,"i_long":106.737035,"station_name":"Bojongindah","station_id":"BOI","is_transit":false,"distance":2334,"time":2,"i_lat":-6.159876,"line":5},{"is_transit":false,"station_name":"Rawa Buaya","station_id":"RW","transit":false,"i_lat":-6.162758,"time":4,"line":5,"i_long":106.723064,"distance":1152},{"line":5,"time":3,"i_lat":-6.166068,"is_transit":false,"station_name":"Kalideres","distance":2504,"station_id":"KDS","transit":false,"i_long":106.701612},{"line":5,"station_name":"Poris","distance":2548,"time":3,"station_id":"PI","is_transit":false,"transit":false,"i_lat":-6.169933,"i_long":106.679458},{"time":3,"station_name":"Batuceper","i_long":106.665036,"is_transit":false,"distance":1834,"i_lat":-6.171811,"transit":false,"station_id":"BPR","line":5},{"station_name":"Tanah Tinggi","i_lat":-6.17331,"distance":2028,"i_long":106.64657,"transit":false,"station_id":"TTI","time":3,"line":5,"is_transit":false},{"time":3,"is_transit":false,"station_name":"Tangerang","transit":false,"i_long":106.632761,"i_lat":-6.176583,"line":5,"station_id":"TNG","distance":1547}],[{"line":3,"transit":false,"distance":0,"time":0,"i_lat":-6.33561,"station_name":"Cikoya","station_id":"CKY","i_long":106.411216,"is_transit":false},{"distance":2651,"i_lat":-6.328533,"line":6,"station_id":"TGS","i_long":106.425991,"station_name":"Tigaraksa","transit":false,"is_transit":false,"time":3},{"distance":2974,"station_name":"Tenjo","transit":false,"is_transit":false,"station_id":"TEJ","i_lat":-6.327251,"i_long":106.460812,"time":5,"line":6},{"is_transit":false,"transit":false,"i_lat":-6.338021,"i_long":106.491338,"time":5,"station_id":"DAR","station_name":"Daru","line":0,"distance":3902},{"station_name":"Cilejit","i_lat":-6.354349,"time":6,"transit":false,"distance":2675,"i_long":106.508482,"is_transit":false,"station_id":"CJT","line":3},{"station_id":"PRP","is_transit":false,"time":9,"i_long":106.568863,"line":6,"i_lat":-6.3441410000000005,"station_name":"Parung Panjang","transit":false,"distance":7025},{"is_transit":false,"distance":5968,"time":8,"station_id":"CC","station_name":"Cicayur","transit":false,"i_long":106.617853,"i_lat":-6.329547,"line":3},{"transit":false,"station_id":"CSK","i_lat":-6.32484,"i_long":106.640411,"is_transit":false,"distance":2519,"time":4,"line":3,"station_name":"Cisauk"},{"i_lat":-6.319871,"time":4,"line":6,"transit":false,"station_id":"SRP","distance":1784,"is_transit":false,"station_name":"Serpong","i_long":106.66566},{"transit":false,"station_name":"Rawa Buntu","i_lat":-6.314823,"line":6,"i_long":106.675475,"time":4,"station_id":"RU","is_transit":false,"distance":2413},{"station_name":"Sudimara","i_long":106.712277,"is_transit":false,"distance":4566,"station_id":"SDM","i_lat":-6.296963,"line":6,"transit":false,"time":6},{"line":6,"is_transit":false,"i_long":106.728916,"distance":1994,"time":4,"i_lat":-6.288927,"station_name":"Jurangmangu","transit":false,"station_id":"JMU"},{"i_long":106.74273,"station_name":"Pondokranji","distance":2179,"transit":false,"time":3,"station_id":"PDJ","is_transit":false,"i_lat":-6.276362,"line":6},{"time":8,"i_lat":-6.237242,"distance":6218,"station_name":"Kebayoran","transit":false,"station_id":"KBY","i_long":106.780334,"is_transit":false,"line":6},{"is_transit":false,"station_name":"Palmerah","distance":3737,"station_id":"PLM","i_long":106.79689,"transit":false,"time":7,"i_lat":-6.207404,"line":6},{"is_transit":true,"distance":3191,"station_name":"Tanah Abang","i_lat":-6.185545,"station_id":"THB","transit":true,"time":6,"line":1,"i_long":106.811091},{"i_lat":-6.20132,"i_long":106.816351,"station_id":"KAT","is_transit":false,"transit":false,"time":5,"station_name":"Karet","line":1,"distance":2029},{"station_name":"Sudirman Baru","time":1,"i_lat":-6.201433,"distance":471,"transit":false,"is_transit":false,"i_long":106.819881,"station_id":"SUDB","line":1},{"station_name":"Sudirman","i_lat":-6.202263,"distance":280,"line":1,"is_transit":false,"i_long":106.822649,"time":1,"station_id":"SUD","transit":false},{"time":4,"i_long":106.84912,"is_transit":false,"station_name":"Manggarai","station_id":"MRI","distance":3186,"i_lat":-6.209883,"line":2,"transit":false},{"i_lat":-6.212485,"line":1,"is_transit":false,"station_id":"MTR","station_name":"Matraman","time":2,"i_long":106.858896,"transit":false,"distance":1275},{"station_name":"Jatinegara","transit":true,"distance":1377,"is_transit":true,"i_lat":-6.215091,"line":1,"time":8,"station_id":"JNG","i_long":106.86807400000001},{"line":11,"station_id":"POK","i_lat":-6.209188,"is_transit":false,"station_name":"Pondok Jati","distance":1236,"time":2,"i_long":106.861737,"transit":false},{"distance":1829,"time":2,"transit":false,"i_lat":-6.193792,"i_long":106.855437,"is_transit":false,"line":11,"station_name":"Kramat","station_id":"KMT"},{"station_id":"GST","station_name":"Gang Sentiong","is_transit":false,"time":1,"i_lat":-6.185975,"transit":false,"line":11,"distance":973,"i_long":106.850107},{"line":11,"distance":1567,"station_name":"Pasar Senen","time":8,"is_transit":false,"i_lat":-6.174784,"transit":false,"i_long":106.84368,"station_id":"PSE"},{"time":4,"i_long":106.839204,"station_name":"Kemayoran","i_lat":-6.161728,"line":11,"is_transit":false,"transit":false,"distance":1436,"station_id":"KMO"},{"station_name":"Rajawali","i_long":106.836569,"transit":false,"time":5,"i_lat":-6.14505,"line":11,"distance":1901,"station_id":"RJW","is_transit":false},{"station_name":"Kampung Bandan","transit":true,"time":3,"i_long":106.826365,"distance":1444,"i_lat":-6.132549,"line":4,"station_id":"KPB","is_transit":true},{"is_transit":false,"station_name":"Angke","transit":false,"i_long":106.79867,"station_id":"AK","time":9,"line":1,"distance":4102,"i_lat":-6.144674},{"station_name":"Duri","is_transit":true,"line":1,"time":4,"station_id":"DU","transit":true,"distance":1230,"i_long":106.800832,"i_lat":-6.155215},{"is_transit":false,"station_name":"Grogol","transit":false,"station_id":"GGL","i_lat":-6.162021,"i_long":106.788277,"line":5,"time":3,"distance":1700},{"i_long":106.771379,"is_transit":false,"station_name":"Pesing","distance":2036,"transit":false,"i_lat":-6.161433,"station_id":"PSG","time":2,"line":5},{"distance":1614,"station_id":"TKO","is_transit":false,"station_name":"Taman Kota","time":2,"i_long":106.756522,"transit":false,"i_lat":-6.1587309999999995,"line":5},{"line":5,"station_id":"BOI","i_lat":-6.159876,"is_transit":false,"distance":2334,"time":2,"station_name":"Bojongindah","i_long":106.737035,"transit":false},{"transit":false,"i_lat":-6.162758,"i_long":106.723064,"station_id":"RW","station_name":"Rawa Buaya","time":4,"line":5,"distance":1152,"is_transit":false},{"i_long":106.701612,"transit":false,"is_transit":false,"i_lat":-6.166068,"station_id":"KDS","line":5,"station_name":"Kalideres","distance":2504,"time":3},{"transit":false,"i_lat":-6.169933,"i_long":106.679458,"station_name":"Poris","station_id":"PI","distance":2548,"is_transit":false,"time":3,"line":5},{"i_long":106.665036,"station_name":"Batuceper","time":3,"is_transit":false,"station_id":"BPR","distance":1834,"i_lat":-6.171811,"line":5,"transit":false},{"i_long":106.64657,"time":3,"transit":false,"station_id":"TTI","distance":2028,"is_transit":false,"i_lat":-6.17331,"line":5,"station_name":"Tanah Tinggi"},{"i_lat":-6.176583,"is_transit":false,"distance":1547,"station_name":"Tangerang","i_long":106.632761,"line":5,"time":3,"station_id":"TNG","transit":false}]]}