{"data":[[{"line":3,"time":0,"station_id":"CKY","station_name":"Cikoya","transit":false,"distance":0,"i_lat":-6.33561,"i_long":106.411216,"is_transit":false},{"station_name":"Tigaraksa","station_id":"TGS","distance":2651,"is_transit":false,"time":3,"transit":false,"i_long":106.425991,"line":6,"i_lat":-6.328533},{"time":5,"line":6,"station_name":"Tenjo","transit":false,"is_transit":false,"station_id":"TEJ","distance":2974,"i_lat":-6.327251,"i_long":106.460812},{"i_lat":-6.338021,"line":0,"is_transit":false,"time":5,"transit":false,"i_long":106.491338,"station_id":"DAR","distance":3902,"station_name":"Daru"},{"station_name":"Cilejit","is_transit":false,"station_id":"CJT","distance":2675,"i_long":106.508482,"line":3,"time":6,"transit":false,"i_lat":-6.354349},{"distance":7025,"transit":false,"line":6,"station_id":"PRP","station_name":"Parung Panjang","i_long":106.568863,"i_lat":-6.3441410000000005,"is_transit":false,"time":9},{"distance":5968,"line":3,"transit":false,"station_id":"CC","station_name":"Cicayur","i_lat":-6.329547,"is_transit":false,"time":8,"i_long":106.617853},{"transit":false,"station_id":"CSK","line":3,"is_transit":false,"station_name":"Cisauk","i_long":106.640411,"i_lat":-6.32484,"time":4,"distance":2519},{"station_id":"SRP","i_long":106.66566,"line":6,"station_name":"Serpong","is_transit":false,"time":4,"transit":false,"i_lat":-6.319871,"distance":1784},{"distance":2413,"transit":false,"time":4,"station_name":"Rawa Buntu","line":6,"i_lat":-6.314823,"is_transit":false,"station_id":"RU","i_long":106.675475},{"station_name":"Sudimara","i_lat":-6.296963,"time":6,"distance":4566,"i_long":106.712277,"transit":false,"is_transit":false,"station_id":"SDM","line":6},{"time":4,"transit":false,"distance":1994,"is_transit":false,"i_lat":-6.288927,"line":6,"station_name":"Jurangmangu","i_long":106.728916,"station_id":"JMU"},{"time":3,"transit":false,"line":6,"distance":2179,"station_name":"Pondokranji","i_lat":-6.276362,"is_transit":false,"i_long":106.74273,"station_id":"PDJ"},{"distance":6218,"time":8,"i_long":106.780334,"station_name":"Kebayoran","station_id":"KBY","is_transit":false,"i_lat":-6.237242,"transit":false,"line":6},{"line":6,"station_name":"Palmerah","time":7,"station_id":"PLM","distance":3737,"is_transit":false,"transit":false,"i_lat":-6.207404,"i_long":106.79689},{"line":1,"is_transit":true,"time":6,"station_name":"Tanah Abang","station_id":"THB","i_lat":-6.185545,"transit":true,"i_long":106.811091,"distance":3191},{"is_transit":false,"transit":false,"time":5,"i_long":106.816351,"line":1,"station_id":"KAT","station_name":"Karet","i_lat":-6.20132,"distance":2029},{"transit":false,"station_id":"SUDB","time":1,"i_long":106.819881,"distance":471,"station_name":"Sudirman Baru","line":1,"i_lat":-6.201433,"is_transit":false},{"time":1,"is_transit":false,"line":1,"station_id":"SUD","station_name":"Sudirman","distance":280,"transit":false,"i_lat":-6.202263,"i_long":106.822649},{"time":4,"transit":true,"distance":3186,"i_long":106.84912,"station_name":"Manggarai","is_transit":true,"i_lat":-6.209883,"line":2,"station_id":"MRI"},{"line":2,"i_long":106.857948,"station_name":"Tebet","i_lat":-6.226659,"transit":false,"is_transit":false,"distance":2610,"time":4,"station_id":"TEB"},{"line":2,"distance":1230,"transit":false,"time":2,"is_transit":false,"station_id":"CW","i_lat":-6.242512,"i_long":106.856607,"station_name":"Cawang"},{"i_lat":-6.255332,"time":3,"station_name":"Duren Kalibata","distance":1546,"line":2,"is_transit":false,"i_long":106.85449,"transit":false,"station_id":"DRN"},{"station_id":"PSMB","transit":false,"i_long":106.851577,"time":2,"station_name":"Pasar Minggu Baru","distance":824,"is_transit":false,"line":2,"i_lat":-6.263214},{"time":2,"i_lat":-6.2842400000000005,"station_id":"PSM","transit":false,"i_long":106.843999,"is_transit":false,"station_name":"Pasar Minggu","distance":2380,"line":2},{"distance":2820,"line":2,"is_transit":false,"time":4,"i_long":106.838896,"station_id":"TNT","station_name":"Tanjung Barat","i_lat":-6.3080680000000005,"transit":false},{"is_transit":false,"time":3,"transit":false,"station_name":"Lenteng Agung","distance":2671,"i_lat":-6.330363,"line":2,"station_id":"LNA","i_long":106.832616}],[{"transit":false,"station_name":"Cikoya","distance":0,"line":3,"station_id":"CKY","i_lat":-6.33561,"i_long":106.411216,"is_transit":false,"time":0},{"is_transit":false,"time":3,"transit":false,"distance":2651,"station_name":"Tigaraksa","i_long":106.425991,"station_id":"TGS","line":6,"i_lat":-6.328533},{"i_lat":-6.327251,"time":5,"i_long":106.460812,"line":6,"distance":2974,"transit":false,"station_name":"Tenjo","is_transit":false,"station_id":"TEJ"},{"station_id":"DAR","time":5,"is_transit":false,"transit":false,"i_lat":-6.338021,"distance":3902,"station_name":"Daru","i_long":106.491338,"line":0},{"line":3,"station_id":"CJT","transit":false,"time":6,"is_transit":false,"i_long":106.508482,"distance":2675,"station_name":"Cilejit","i_lat":-6.354349},{"is_transit":false,"station_id":"PRP","transit":false,"time":9,"distance":7025,"station_name":"Parung Panjang","line":6,"i_lat":-6.3441410000000005,"i_long":106.568863},{"transit":false,"distance":5968,"station_name":"Cicayur","is_transit":false,"i_long":106.617853,"line":3,"i_lat":-6.329547,"time":8,"station_id":"CC"},{"time":4,"line":3,"distance":2519,"is_transit":false,"i_long":106.640411,"station_id":"CSK","transit":false,"station_name":"Cisauk","i_lat":-6.32484},{"distance":1784,"station_name":"Serpong","line":6,"i_long":106.66566,"station_id":"SRP","time":4,"i_lat":-6.319871,"is_transit":false,"transit":false},{"station_id":"RU","station_name":"Rawa Buntu","is_transit":false,"transit":false,"distance":2413,"i_lat":-6.314823,"line":6,"i_long":106.675475,"time":4},{"i_lat":-6.296963,"i_long":106.712277,"line":6,"station_id":"SDM","transit":false,"station_name":"Sudimara","is_transit":false,"time":6,"distance":4566},{"i_long":106.728916,"distance":1994,"is_transit":false,"i_lat":-6.288927,"station_name":"Jurangmangu","line":6,"station_id":"JMU","transit":false,"time":4},{"is_transit":false,"station_id":"PDJ","transit":false,"time":3,"distance":2179,"i_long":106.74273,"station_name":"Pondokranji","line":6,"i_lat":-6.276362},{"i_lat":-6.237242,"transit":false,"line":6,"station_name":"Kebayoran","is_transit":false,"time":8,"station_id":"KBY","i_long":106.780334,"distance":6218},{"i_long":106.79689,"distance":3737,"time":7,"station_name":"Palmerah","i_lat":-6.207404,"station_id":"PLM","transit":false,"is_transit":false,"line":6},{"distance":3191,"transit":true,"station_name":"Tanah Abang","i_lat":-6.185545,"is_transit":true,"time":6,"station_id":"THB","i_long":106.811091,"line":1},{"transit":false,"i_long":106.800832,"station_name":"Duri","is_transit":false,"distance":3632,"station_id":"DU","i_lat":-6.155215,"time":8,"line":1},{"time":4,"i_lat":-6.144674,"i_long":106.79867,"distance":1230,"is_transit":false,"transit":false,"station_name":"Angke","line":1,"station_id":"AK"},{"distance":4102,"station_id":"KPB","is_transit":true,"i_lat":-6.132549,"transit":true,"i_long":106.826365,"time":9,"line":4,"station_name":"Kampung Bandan"},{"i_long":106.812439,"station_id":"JAKK","i_lat":-6.137569,"is_transit":true,"time":3,"transit":true,"distance":1364,"line":2,"station_name":"Jakarta Kota"},{"transit":false,"time":4,"line":2,"distance":1264,"station_id":"JAY","i_long":106.820901,"station_name":"Jayakarta","is_transit":false,"i_lat":-6.141205},{"transit":false,"is_transit":false,"station_name":"Manggabesar","line":2,"time":2,"i_lat":-6.149769,"i_long":106.82482,"distance":1080,"station_id":"MGB"},{"transit":false,"is_transit":false,"i_long":106.827103,"distance":906,"line":2,"i_lat":-6.160725,"time":2,"station_id":"SW","station_name":"Sawah Besar"},{"station_name":"Juanda","is_transit":false,"transit":false,"time":2,"distance":1149,"i_lat":-6.166716,"line":2,"i_long":106.828284,"station_id":"JUA"},{"time":4,"station_id":"GDD","i_long":106.832183,"transit":false,"line":2,"station_name":"Gondangdia","is_transit":false,"distance":2015,"i_lat":-6.186295},{"is_transit":false,"station_name":"Cikini","transit":false,"line":2,"distance":1750,"i_lat":-6.198556,"time":3,"station_id":"CKI","i_long":106.840169},{"station_id":"MRI","transit":false,"i_lat":-6.209883,"line":2,"time":4,"is_transit":false,"distance":1590,"i_long":106.84912,"station_name":"Manggarai"},{"i_long":106.857948,"time":4,"transit":false,"station_name":"Tebet","distance":2610,"station_id":"TEB","i_lat":-6.226659,"line":2,"is_transit":false},{"time":2,"transit":false,"is_transit":false,"i_lat":-6.242512,"i_long":106.856607,"distance":1230,"line":2,"station_id":"CW","station_name":"Cawang"},{"transit":false,"station_id":"DRN","i_long":106.85449,"time":3,"i_lat":-6.255332,"station_name":"Duren Kalibata","distance":1546,"is_transit":false,"line":2},{"is_transit":false,"i_lat":-6.263214,"line":2,"station_id":"PSMB","time":2,"station_name":"Pasar Minggu Baru","distance":824,"i_long":106.851577,"transit":false},{"time":2,"station_id":"PSM","line":2,"distance":2380,"i_lat":-6.2842400000000005,"transit":false,"station_name":"Pasar Minggu","i_long":106.843999,"is_transit":false},{"i_lat":-6.3080680000000005,"line":2,"distance":2820,"is_transit":false,"transit":false,"time":4,"station_name":"Tanjung Barat","i_long":106.838896,"station_id":"TNT"},{"station_id":"LNA","line":2,"station_name":"Lenteng Agung","is_transit":false,"time":3,"transit":false,"i_lat":-6.330363,"i_long":106.832616,"distance":2671}],[{"is_transit":false,"station_id":"CKY","line":3,"i_long":106.411216,"transit":false,"station_name":"Cikoya","i_lat":-6.33561,"time":0,"distance":0},{"distance":2651,"line":6,"transit":false,"i_long":106.425991,"time":3,"station_id":"TGS","station_name":"Tigaraksa","is_transit":false,"i_lat":-6.328533},{"time":5,"is_transit":false,"distance":2974,"line":6,"station_name":"Tenjo","station_id":"TEJ","transit":false,"i_lat":-6.327251,"i_long":106.460812},{"distance":3902,"i_lat":-6.338021,"time":5,"is_transit":false,"transit":false,"station_name":"Daru","i_long":106.491338,"line":0,"station_id":"DAR"},{"line":3,"time":6,"distance":2675,"station_name":"Cilejit","transit":false,"i_lat":-6.354349,"is_transit":false,"i_long":106.508482,"station_id":"CJT"},{"distance":7025,"i_long":106.568863,"station_name":"Parung Panjang","transit":false,"is_transit":false,"station_id":"PRP","line":6,"i_lat":-6.3441410000000005,"time":9},{"transit":false,"line":3,"distance":5968,"i_lat":-6.329547,"time":8,"station_name":"Cicayur","station_id":"CC","is_transit":false,"i_long":106.617853},{"is_transit":false,"i_long":106.640411,"station_name":"Cisauk","i_lat":-6.32484,"distance":2519,"transit":false,"line":3,"station_id":"CSK","time":4},{"distance":1784,"station_name":"Serpong","is_transit":false,"line":6,"transit":false,"i_long":106.66566,"station_id":"SRP","time":4,"i_lat":-6.319871},{"i_lat":-6.314823,"is_transit":false,"distance":2413,"station_name":"Rawa Buntu","station_id":"RU","i_long":106.675475,"line":6,"transit":false,"time":4},{"i_long":106.712277,"time":6,"station_name":"Sudimara","is_transit":false,"station_id":"SDM","transit":false,"i_lat":-6.296963,"line":6,"distance":4566},{"time":4,"station_name":"Jurangmangu","i_lat":-6.288927,"transit":false,"distance":1994,"station_id":"JMU","i_long":106.728916,"line":6,"is_transit":false},{"i_long":106.74273,"station_name":"Pondokranji","transit":false,"time":3,"distance":2179,"station_id":"PDJ","is_transit":false,"line":6,"i_lat":-6.276362},{"station_name":"Kebayoran","line":6,"time":8,"is_transit":false,"distance":6218,"transit":false,"station_id":"KBY","i_long":106.780334,"i_lat":-6.237242},{"is_transit":false,"station_id":"PLM","line":6,"i_lat":-6.207404,"time":7,"station_name":"Palmerah","i_long":106.79689,"distance":3737,"transit":false},{"distance":3191,"i_lat":-6.185545,"time":6,"transit":true,"station_id":"THB","i_long":106.811091,"is_transit":true,"line":1,"station_name":"Tanah Abang"},{"time":8,"i_lat":-6.155215,"line":1,"station_name":"Duri","transit":false,"is_transit":false,"i_long":106.800832,"distance":3632,"station_id":"DU"},{"station_id":"AK","transit":false,"is_transit":false,"station_name":"Angke","distance":1230,"i_lat":-6.144674,"i_long":106.79867,"line":1,"time":4},{"distance":4102,"station_name":"Kampung Bandan","station_id":"KPB","i_long":106.826365,"is_transit":true,"line":4,"transit":true,"time":9,"i_lat":-6.132549},{"station_id":"RJW","i_long":106.836569,"time":3,"i_lat":-6.14505,"transit":false,"line":11,"station_name":"Rajawali","distance":1444,"is_transit":false},{"station_name":"Kemayoran","line":11,"station_id":"KMO","i_lat":-6.161728,"time":5,"transit":false,"is_transit":false,"distance":1901,"i_long":106.839204},{"station_id":"PSE","time":4,"is_transit":false,"distance":1436,"station_name":"Pasar Senen","i_lat":-6.174784,"i_long":106.84368,"transit":false,"line":11},{"is_transit":false,"i_long":106.850107,"line":11,"transit":false,"time":8,"i_lat":-6.185975,"station_name":"Gang Sentiong","distance":1567,"station_id":"GST"},{"station_name":"Kramat","transit":false,"distance":973,"is_transit":false,"station_id":"KMT","line":11,"i_lat":-6.193792,"time":1,"i_long":106.855437},{"i_lat":-6.209188,"i_long":106.861737,"time":2,"is_transit":false,"station_id":"POK","station_name":"Pondok Jati","distance":1829,"transit":false,"line":11},{"i_long":106.86807400000001,"is_transit":true,"transit":true,"time":9,"station_name":"Jatinegara","station_id":"JNG","line":1,"i_lat":-6.215091,"distance":1236},{"line":1,"is_transit":false,"distance":1377,"station_name":"Matraman","i_long":106.858896,"transit":false,"time":2,"i_lat":-6.212485,"station_id":"MTR"},{"station_name":"Manggarai","i_lat":-6.209883,"distance":1275,"is_transit":true,"station_id":"MRI","i_long":106.84912,"time":2,"transit":true,"line":2},{"is_transit":false,"transit":false,"distance":2610,"i_lat":-6.226659,"i_long":106.857948,"station_id":"TEB","time":4,"line":2,"station_name":"Tebet"},{"time":2,"i_long":106.856607,"line":2,"is_transit":false,"station_id":"CW","station_name":"Cawang","transit":false,"distance":1230,"i_lat":-6.242512},{"is_transit":false,"line":2,"i_long":106.85449,"station_id":"DRN","transit":false,"distance":1546,"station_name":"Duren Kalibata","time":3,"i_lat":-6.255332},{"i_lat":-6.263214,"time":2,"station_id":"PSMB","line":2,"station_name":"Pasar Minggu Baru","is_transit":false,"transit":false,"distance":824,"i_long":106.851577},{"i_lat":-6.2842400000000005,"station_name":"Pasar Minggu","i_long":106.843999,"line":2,"station_id":"PSM","transit":false,"is_transit":false,"time":2,"distance":2380},{"i_lat":-6.3080680000000005,"time":4,"line":2,"transit":false,"station_id":"TNT","distance":2820,"is_transit":false,"station_name":"Tanjung Barat","i_long":106.838896},{"transit":false,"station_name":"Lenteng Agung","i_lat":-6.330363,"line":2,"i_long":106.832616,"time":3,"station_id":"LNA","is_transit":false,"distance":2671}]]}