{"data":[[{"transit":false,"line":3,"is_transit":false,"i_long":106.411216,"station_name":"Cikoya","time":0,"station_id":"CKY","i_lat":-6.33561,"distance":0},{"line":6,"i_lat":-6.328533,"is_transit":false,"station_name":"Tigaraksa","time":3,"transit":false,"station_id":"TGS","i_long":106.425991,"distance":2651},{"i_lat":-6.327251,"station_id":"TEJ","is_transit":false,"time":5,"station_name":"Tenjo","i_long":106.460812,"line":6,"transit":false,"distance":2974},{"line":0,"distance":3902,"is_transit":false,"i_long":106.491338,"station_id":"DAR","station_name":"Daru","time":5,"i_lat":-6.338021,"transit":false},{"station_name":"Cilejit","is_transit":false,"station_id":"CJT","i_long":106.508482,"distance":2675,"time":6,"i_lat":-6.354349,"transit":false,"line":3},{"line":6,"is_transit":false,"station_id":"PRP","distance":7025,"time":9,"transit":false,"station_name":"Parung Panjang","i_lat":-6.3441410000000005,"i_long":106.568863}]]}