{"data":[[{"transit":false,"line":3,"is_transit":false,"time":0,"i_lat":-6.33561,"i_long":106.411216,"station_id":"CKY","distance":0,"station_name":"Cikoya"},{"distance":2651,"station_name":"Tigaraksa","time":3,"i_long":106.425991,"line":6,"is_transit":false,"station_id":"TGS","i_lat":-6.328533,"transit":false},{"station_name":"Tenjo","distance":2974,"station_id":"TEJ","transit":false,"i_long":106.460812,"line":6,"i_lat":-6.327251,"is_transit":false,"time":5},{"distance":3902,"is_transit":false,"station_id":"DAR","i_long":106.491338,"station_name":"Daru","time":5,"line":0,"transit":false,"i_lat":-6.338021},{"time":6,"distance":2675,"station_id":"CJT","station_name":"Cilejit","line":3,"transit":false,"i_long":106.508482,"is_transit":false,"i_lat":-6.354349},{"station_name":"Parung Panjang","transit":false,"time":9,"station_id":"PRP","distance":7025,"i_lat":-6.3441410000000005,"line":6,"is_transit":false,"i_long":106.568863},{"distance":5968,"station_id":"CC","station_name":"Cicayur","is_transit":false,"line":3,"transit":false,"time":8,"i_lat":-6.329547,"i_long":106.617853},{"i_long":106.640411,"line":3,"time":4,"transit":false,"station_id":"CSK","i_lat":-6.32484,"distance":2519,"station_name":"Cisauk","is_transit":false},{"station_name":"Serpong","line":6,"i_long":106.66566,"station_id":"SRP","transit":false,"is_transit":false,"time":4,"distance":1784,"i_lat":-6.319871},{"is_transit":false,"distance":2413,"time":4,"station_name":"Rawa Buntu","i_long":106.675475,"i_lat":-6.314823,"line":6,"transit":false,"station_id":"RU"},{"i_long":106.712277,"line":6,"distance":4566,"i_lat":-6.296963,"is_transit":false,"time":6,"station_id":"SDM","station_name":"Sudimara","transit":false},{"line":6,"is_transit":false,"i_long":106.728916,"time":4,"distance":1994,"i_lat":-6.288927,"station_name":"Jurangmangu","station_id":"JMU","transit":false},{"i_long":106.74273,"distance":2179,"station_name":"Pondokranji","transit":false,"line":6,"is_transit":false,"time":3,"i_lat":-6.276362,"station_id":"PDJ"},{"station_id":"KBY","station_name":"Kebayoran","distance":6218,"transit":false,"line":6,"i_lat":-6.237242,"is_transit":false,"time":8,"i_long":106.780334},{"line":6,"time":7,"is_transit":false,"station_id":"PLM","distance":3737,"i_lat":-6.207404,"station_name":"Palmerah","transit":false,"i_long":106.79689},{"time":6,"distance":3191,"station_id":"THB","line":1,"station_name":"Tanah Abang","is_transit":true,"i_lat":-6.185545,"i_long":106.811091,"transit":true},{"is_transit":true,"i_lat":-6.155215,"station_id":"DU","line":1,"station_name":"Duri","time":8,"i_long":106.800832,"transit":true,"distance":3632},{"station_id":"GRG","station_name":"Grogol","line":5,"i_lat":-6.162021,"i_long":106.788277,"is_transit":false,"time":3,"distance":1700,"transit":false},{"is_transit":false,"transit":false,"i_long":106.771379,"line":5,"distance":2036,"station_name":"Pesing","time":2,"i_lat":-6.161433,"station_id":"PSG"},{"i_lat":-6.1587309999999995,"station_id":"TKO","transit":false,"distance":1614,"i_long":106.756522,"station_name":"Taman Kota","is_transit":false,"line":5,"time":2},{"transit":false,"i_lat":-6.159876,"i_long":106.737035,"station_id":"BOI","distance":2334,"line":5,"station_name":"Bojongindah","is_transit":false,"time":2},{"is_transit":false,"time":4,"station_id":"RW","line":5,"i_lat":-6.162758,"i_long":106.723064,"transit":false,"distance":1152,"station_name":"Rawa Buaya"},{"station_name":"Kalideres","is_transit":false,"time":3,"distance":2504,"line":5,"i_lat":-6.166068,"i_long":106.701612,"station_id":"KDS","transit":false},{"is_transit":false,"station_id":"PI","station_name":"Poris","distance":2548,"i_lat":-6.169933,"i_long":106.679458,"line":5,"time":3,"transit":false},{"is_transit":false,"i_lat":-6.171811,"i_long":106.665036,"station_name":"Batuceper","station_id":"BPR","time":3,"distance":1834,"transit":false,"line":5},{"station_name":"Tanah Tinggi","distance":2028,"i_long":106.64657,"time":3,"station_id":"THI","i_lat":-6.17331,"transit":false,"is_transit":false,"line":5}],[{"transit":false,"time":0,"i_lat":-6.33561,"station_id":"CKY","i_long":106.411216,"line":3,"is_transit":false,"station_name":"Cikoya","distance":0},{"time":3,"transit":false,"is_transit":false,"distance":2651,"i_lat":-6.328533,"line":6,"station_name":"Tigaraksa","i_long":106.425991,"station_id":"TGS"},{"station_name":"Tenjo","station_id":"TEJ","is_transit":false,"transit":false,"line":6,"time":5,"i_lat":-6.327251,"i_long":106.460812,"distance":2974},{"station_name":"Daru","i_long":106.491338,"time":5,"i_lat":-6.338021,"is_transit":false,"transit":false,"line":0,"station_id":"DAR","distance":3902},{"i_long":106.508482,"time":6,"distance":2675,"station_name":"Cilejit","i_lat":-6.354349,"line":3,"transit":false,"is_transit":false,"station_id":"CJT"},{"station_id":"PRP","station_name":"Parung Panjang","is_transit":false,"line":6,"i_lat":-6.3441410000000005,"transit":false,"time":9,"distance":7025,"i_long":106.568863},{"time":8,"station_id":"CC","station_name":"Cicayur","i_lat":-6.329547,"transit":false,"line":3,"i_long":106.617853,"distance":5968,"is_transit":false},{"distance":2519,"transit":false,"is_transit":false,"i_lat":-6.32484,"i_long":106.640411,"time":4,"line":3,"station_name":"Cisauk","station_id":"CSK"},{"i_lat":-6.319871,"distance":1784,"station_name":"Serpong","is_transit":false,"time":4,"line":6,"transit":false,"station_id":"SRP","i_long":106.66566},{"line":6,"time":4,"distance":2413,"station_name":"Rawa Buntu","transit":false,"is_transit":false,"i_lat":-6.314823,"i_long":106.675475,"station_id":"RU"},{"i_lat":-6.296963,"line":6,"is_transit":false,"time":6,"station_id":"SDM","distance":4566,"transit":false,"i_long":106.712277,"station_name":"Sudimara"},{"distance":1994,"line":6,"i_lat":-6.288927,"i_long":106.728916,"station_id":"JMU","station_name":"Jurangmangu","time":4,"is_transit":false,"transit":false},{"station_id":"PDJ","time":3,"line":6,"transit":false,"i_long":106.74273,"i_lat":-6.276362,"is_transit":false,"distance":2179,"station_name":"Pondokranji"},{"time":8,"station_id":"KBY","i_long":106.780334,"station_name":"Kebayoran","transit":false,"i_lat":-6.237242,"is_transit":false,"distance":6218,"line":6},{"line":6,"is_transit":false,"i_lat":-6.207404,"station_name":"Palmerah","station_id":"PLM","transit":false,"time":7,"distance":3737,"i_long":106.79689},{"transit":true,"i_long":106.811091,"station_name":"Tanah Abang","is_transit":true,"distance":3191,"i_lat":-6.185545,"line":1,"station_id":"THB","time":6},{"transit":false,"line":1,"i_lat":-6.20132,"station_id":"KAT","is_transit":false,"station_name":"Karet","time":5,"i_long":106.816351,"distance":2029},{"is_transit":false,"time":1,"station_name":"Sudirman Baru","distance":471,"i_lat":-6.201433,"line":1,"i_long":106.819881,"station_id":"SUDB","transit":false},{"station_id":"SUD","is_transit":false,"transit":false,"time":1,"i_lat":-6.202263,"station_name":"Sudirman","i_long":106.822649,"line":1,"distance":280},{"time":4,"station_id":"MRI","station_name":"Manggarai","is_transit":true,"i_lat":-6.209883,"transit":true,"distance":3186,"i_long":106.84912,"line":2},{"station_id":"CKI","transit":false,"station_name":"Cikini","i_lat":-6.198556,"line":2,"time":4,"distance":1590,"i_long":106.840169,"is_transit":false},{"transit":false,"i_lat":-6.186295,"distance":1750,"i_long":106.832183,"is_transit":false,"station_id":"GDD","time":3,"line":2,"station_name":"Gondangdia"},{"i_long":106.828284,"transit":false,"station_id":"JUA","is_transit":false,"line":2,"distance":2015,"i_lat":-6.166716,"station_name":"Juanda","time":4},{"is_transit":false,"transit":false,"station_name":"Sawah Besar","distance":1149,"i_long":106.827103,"station_id":"SW","i_lat":-6.160725,"line":2,"time":2},{"distance":906,"is_transit":false,"i_long":106.82482,"transit":false,"line":2,"station_id":"MGB","station_name":"Manggabesar","i_lat":-6.149769,"time":2},{"station_id":"JAY","i_lat":-6.141205,"station_name":"Jayakarta","transit":false,"distance":1080,"is_transit":false,"time":2,"i_long":106.820901,"line":2},{"is_transit":true,"station_id":"JAKK","distance":1264,"i_lat":-6.137569,"i_long":106.812439,"station_name":"Jakarta Kota","time":4,"transit":true,"line":2},{"i_long":106.826365,"line":4,"distance":1364,"transit":true,"is_transit":true,"station_id":"KPB","i_lat":-6.132549,"station_name":"Kampung Bandan","time":3},{"line":1,"station_name":"Angke","time":9,"station_id":"AK","i_lat":-6.144674,"i_long":106.79867,"distance":4102,"transit":false,"is_transit":false},{"i_long":106.800832,"distance":1230,"i_lat":-6.155215,"station_id":"DU","station_name":"Duri","time":4,"transit":true,"is_transit":true,"line":1},{"is_transit":false,"i_long":106.788277,"station_id":"GRG","i_lat":-6.162021,"line":5,"transit":false,"distance":1700,"station_name":"Grogol","time":3},{"transit":false,"is_transit":false,"station_id":"PSG","i_long":106.771379,"time":2,"i_lat":-6.161433,"station_name":"Pesing","line":5,"distance":2036},{"time":2,"line":5,"station_id":"TKO","is_transit":false,"transit":false,"i_long":106.756522,"station_name":"Taman Kota","i_lat":-6.1587309999999995,"distance":1614},{"is_transit":false,"line":5,"transit":false,"i_lat":-6.159876,"time":2,"station_name":"Bojongindah","i_long":106.737035,"distance":2334,"station_id":"BOI"},{"i_lat":-6.162758,"is_transit":false,"time":4,"i_long":106.723064,"distance":1152,"station_id":"RW","line":5,"station_name":"Rawa Buaya","transit":false},{"is_transit":false,"distance":2504,"station_name":"Kalideres","i_long":106.701612,"i_lat":-6.166068,"station_id":"KDS","time":3,"transit":false,"line":5},{"distance":2548,"time":3,"station_name":"Poris","station_id":"PI","is_transit":false,"transit":false,"line":5,"i_lat":-6.169933,"i_long":106.679458},{"i_lat":-6.171811,"station_id":"BPR","time":3,"i_long":106.665036,"is_transit":false,"distance":1834,"transit":false,"station_name":"Batuceper","line":5},{"station_name":"Tanah Tinggi","is_transit":false,"time":3,"distance":2028,"i_lat":-6.17331,"i_long":106.64657,"transit":false,"station_id":"THI","line":5}],[{"line":3,"distance":0,"time":0,"transit":false,"i_lat":-6.33561,"i_long":106.411216,"station_name":"Cikoya","station_id":"CKY","is_transit":false},{"i_lat":-6.328533,"line":6,"transit":false,"station_id":"TGS","station_name":"Tigaraksa","distance":2651,"i_long":106.425991,"is_transit":false,"time":3},{"station_id":"TEJ","transit":false,"i_lat":-6.327251,"line":6,"distance":2974,"station_name":"Tenjo","i_long":106.460812,"is_transit":false,"time":5},{"i_long":106.491338,"time":5,"station_id":"DAR","transit":false,"line":0,"i_lat":-6.338021,"is_transit":false,"station_name":"Daru","distance":3902},{"line":3,"station_id":"CJT","station_name":"Cilejit","transit":false,"i_lat":-6.354349,"is_transit":false,"i_long":106.508482,"time":6,"distance":2675},{"time":9,"is_transit":false,"i_long":106.568863,"i_lat":-6.3441410000000005,"line":6,"distance":7025,"station_name":"Parung Panjang","transit":false,"station_id":"PRP"},{"is_transit":false,"i_lat":-6.329547,"station_id":"CC","distance":5968,"transit":false,"line":3,"station_name":"Cicayur","time":8,"i_long":106.617853},{"i_long":106.640411,"i_lat":-6.32484,"station_id":"CSK","is_transit":false,"distance":2519,"line":3,"station_name":"Cisauk","transit":false,"time":4},{"i_long":106.66566,"distance":1784,"station_name":"Serpong","line":6,"i_lat":-6.319871,"time":4,"station_id":"SRP","transit":false,"is_transit":false},{"transit":false,"line":6,"i_lat":-6.314823,"distance":2413,"is_transit":false,"station_id":"RU","time":4,"i_long":106.675475,"station_name":"Rawa Buntu"},{"station_id":"SDM","is_transit":false,"i_long":106.712277,"transit":false,"i_lat":-6.296963,"time":6,"line":6,"station_name":"Sudimara","distance":4566},{"station_id":"JMU","station_name":"Jurangmangu","is_transit":false,"time":4,"distance":1994,"line":6,"transit":false,"i_lat":-6.288927,"i_long":106.728916},{"i_lat":-6.276362,"transit":false,"station_name":"Pondokranji","distance":2179,"i_long":106.74273,"line":6,"is_transit":false,"time":3,"station_id":"PDJ"},{"line":6,"time":8,"i_lat":-6.237242,"station_id":"KBY","is_transit":false,"station_name":"Kebayoran","distance":6218,"transit":false,"i_long":106.780334},{"i_lat":-6.207404,"line":6,"station_name":"Palmerah","station_id":"PLM","distance":3737,"i_long":106.79689,"time":7,"is_transit":false,"transit":false},{"line":1,"i_lat":-6.185545,"is_transit":true,"station_id":"THB","distance":3191,"transit":true,"i_long":106.811091,"station_name":"Tanah Abang","time":6},{"line":1,"station_id":"KAT","transit":false,"distance":2029,"is_transit":false,"i_lat":-6.20132,"station_name":"Karet","i_long":106.816351,"time":5},{"distance":471,"station_id":"SUDB","transit":false,"time":1,"i_lat":-6.201433,"is_transit":false,"line":1,"station_name":"Sudirman Baru","i_long":106.819881},{"time":1,"i_lat":-6.202263,"station_id":"SUD","i_long":106.822649,"station_name":"Sudirman","distance":280,"is_transit":false,"transit":false,"line":1},{"station_id":"MRI","distance":3186,"transit":false,"i_long":106.84912,"is_transit":false,"i_lat":-6.209883,"line":2,"station_name":"Manggarai","time":4},{"is_transit":false,"station_id":"MTR","time":2,"distance":1275,"i_long":106.858896,"transit":false,"i_lat":-6.212485,"line":1,"station_name":"Matraman"},{"transit":true,"station_id":"JNG","time":8,"i_long":106.86807400000001,"line":1,"is_transit":true,"station_name":"Jatinegara","distance":1377,"i_lat":-6.215091},{"line":11,"station_name":"Pondok Jati","transit":false,"station_id":"POK","is_transit":false,"i_lat":-6.209188,"time":2,"distance":1236,"i_long":106.861737},{"station_id":"KMT","is_transit":false,"i_lat":-6.193792,"transit":false,"time":2,"i_long":106.855437,"distance":1829,"line":11,"station_name":"Kramat"},{"i_lat":-6.185975,"line":11,"is_transit":false,"i_long":106.850107,"station_name":"Gang Sentiong","time":1,"distance":973,"transit":false,"station_id":"GST"},{"is_transit":false,"distance":1567,"line":11,"station_name":"Pasar Senen","station_id":"PSE","transit":false,"i_long":106.84368,"i_lat":-6.174784,"time":8},{"distance":1436,"station_id":"KMO","line":11,"time":4,"station_name":"Kemayoran","transit":false,"i_long":106.839204,"i_lat":-6.161728,"is_transit":false},{"is_transit":false,"station_name":"Rajawali","i_lat":-6.14505,"transit":false,"i_long":106.836569,"distance":1901,"line":11,"station_id":"RJW","time":5},{"station_id":"KPB","line":4,"i_long":106.826365,"time":3,"is_transit":true,"distance":1444,"station_name":"Kampung Bandan","transit":true,"i_lat":-6.132549},{"time":9,"station_name":"Angke","transit":false,"i_lat":-6.144674,"i_long":106.79867,"station_id":"AK","is_transit":false,"line":1,"distance":4102},{"station_id":"DU","time":4,"transit":true,"is_transit":true,"line":1,"i_lat":-6.155215,"distance":1230,"station_name":"Duri","i_long":106.800832},{"i_long":106.788277,"line":5,"station_name":"Grogol","station_id":"GRG","distance":1700,"is_transit":false,"time":3,"transit":false,"i_lat":-6.162021},{"i_long":106.771379,"line":5,"distance":2036,"station_id":"PSG","station_name":"Pesing","time":2,"is_transit":false,"transit":false,"i_lat":-6.161433},{"distance":1614,"station_name":"Taman Kota","station_id":"TKO","transit":false,"i_lat":-6.1587309999999995,"time":2,"line":5,"is_transit":false,"i_long":106.756522},{"is_transit":false,"station_name":"Bojongindah","distance":2334,"time":2,"station_id":"BOI","i_long":106.737035,"line":5,"transit":false,"i_lat":-6.159876},{"distance":1152,"i_long":106.723064,"transit":false,"i_lat":-6.162758,"is_transit":false,"line":5,"time":4,"station_id":"RW","station_name":"Rawa Buaya"},{"distance":2504,"transit":false,"station_name":"Kalideres","is_transit":false,"time":3,"station_id":"KDS","i_lat":-6.166068,"i_long":106.701612,"line":5},{"i_lat":-6.169933,"distance":2548,"is_transit":false,"i_long":106.679458,"transit":false,"line":5,"time":3,"station_id":"PI","station_name":"Poris"},{"i_long":106.665036,"station_name":"Batuceper","is_transit":false,"line":5,"station_id":"BPR","transit":false,"time":3,"i_lat":-6.171811,"distance":1834},{"station_id":"THI","transit":false,"time":3,"is_transit":false,"i_long":106.64657,"i_lat":-6.17331,"line":5,"distance":2028,"station_name":"Tanah Tinggi"}]]}