{"data":[[{"line":3,"station_id":"CKY","i_lat":-6.33561,"station_name":"Cikoya","i_long":106.411216,"is_transit":false,"distance":0,"transit":false,"time":0},{"transit":false,"i_lat":-6.328533,"station_name":"Tigaraksa","time":3,"i_long":106.425991,"is_transit":false,"station_id":"TGS","distance":2651,"line":6},{"i_lat":-6.327251,"i_long":106.460812,"line":6,"station_name":"Tenjo","time":5,"distance":2974,"transit":false,"is_transit":false,"station_id":"TEJ"},{"station_name":"Daru","i_long":106.491338,"time":5,"distance":3902,"transit":false,"i_lat":-6.338021,"line":0,"is_transit":false,"station_id":"DAR"},{"distance":2675,"i_long":106.508482,"station_id":"CJT","is_transit":false,"line":3,"time":6,"transit":false,"i_lat":-6.354349,"station_name":"Cilejit"},{"distance":7025,"i_long":106.568863,"station_name":"Parung Panjang","i_lat":-6.3441410000000005,"station_id":"PRP","time":9,"line":6,"is_transit":false,"transit":false},{"station_id":"CC","time":8,"distance":5968,"station_name":"Cicayur","is_transit":false,"transit":false,"i_long":106.617853,"line":3,"i_lat":-6.329547},{"i_lat":-6.32484,"transit":false,"time":4,"is_transit":false,"station_id":"CSK","i_long":106.640411,"station_name":"Cisauk","line":3,"distance":2519},{"distance":1784,"station_name":"Serpong","line":6,"is_transit":false,"time":4,"i_long":106.66566,"i_lat":-6.319871,"transit":false,"station_id":"SRP"},{"distance":2413,"is_transit":false,"station_id":"RU","i_lat":-6.314823,"station_name":"Rawa Buntu","line":6,"transit":false,"time":4,"i_long":106.675475},{"i_long":106.712277,"time":6,"is_transit":false,"transit":false,"distance":4566,"station_name":"Sudimara","line":6,"i_lat":-6.296963,"station_id":"SDM"},{"station_name":"Jurangmangu","station_id":"JMU","time":4,"transit":false,"line":6,"i_long":106.728916,"distance":1994,"i_lat":-6.288927,"is_transit":false},{"i_long":106.74273,"line":6,"is_transit":false,"station_id":"PDJ","time":3,"transit":false,"i_lat":-6.276362,"distance":2179,"station_name":"Pondokranji"},{"i_lat":-6.237242,"is_transit":false,"transit":false,"distance":6218,"i_long":106.780334,"station_name":"Kebayoran","station_id":"KBY","line":6,"time":8},{"time":7,"distance":3737,"station_name":"Palmerah","i_lat":-6.207404,"station_id":"PLM","i_long":106.79689,"transit":false,"line":6,"is_transit":false},{"station_name":"Tanah Abang","line":1,"transit":true,"distance":3191,"time":6,"station_id":"THB","i_lat":-6.185545,"is_transit":true,"i_long":106.811091},{"i_long":106.816351,"distance":2029,"is_transit":false,"station_name":"Karet","time":5,"transit":false,"i_lat":-6.20132,"station_id":"KAT","line":1},{"time":1,"i_lat":-6.201433,"station_name":"Sudirman Baru","i_long":106.819881,"transit":false,"line":1,"is_transit":false,"distance":471,"station_id":"SUDB"},{"transit":false,"i_long":106.822649,"distance":280,"time":1,"station_id":"SUD","line":1,"i_lat":-6.202263,"is_transit":false,"station_name":"Sudirman"},{"line":2,"time":4,"i_long":106.84912,"station_name":"Manggarai","transit":false,"is_transit":false,"station_id":"MRI","distance":3186,"i_lat":-6.209883},{"i_lat":-6.212485,"station_id":"MTR","line":1,"station_name":"Matraman","transit":false,"i_long":106.858896,"is_transit":false,"distance":1275,"time":2},{"transit":false,"i_lat":-6.215091,"time":8,"distance":1377,"i_long":106.86807400000001,"line":1,"station_name":"Jatinegara","station_id":"JNG","is_transit":false},{"distance":3395,"station_name":"Klender","i_lat":-6.2135,"line":1,"transit":false,"i_long":106.899548,"is_transit":false,"station_id":"KLD","time":3},{"station_id":"BUA","i_long":106.922662,"line":1,"i_lat":-6.215568,"is_transit":false,"transit":false,"distance":3100,"time":2,"station_name":"Buaran"},{"i_lat":-6.217455,"i_long":106.939679,"line":1,"distance":1305,"station_name":"Klenderbaru","station_id":"KLDB","is_transit":false,"transit":false,"time":1},{"transit":false,"time":8,"distance":1385,"is_transit":false,"i_long":106.951283,"i_lat":-6.219053,"station_name":"Cakung","station_id":"CUK","line":1},{"i_long":106.977657,"is_transit":false,"transit":false,"time":3,"line":1,"i_lat":-6.224515,"station_id":"KRI","distance":3097,"station_name":"Kranji"},{"transit":false,"time":4,"i_lat":-6.236616,"line":1,"station_name":"Bekasi","is_transit":false,"station_id":"BKS","distance":2520,"i_long":106.997013},{"distance":2368,"transit":false,"is_transit":false,"time":2,"i_long":107.016735,"line":1,"station_name":"Bekasi Timur","i_lat":-6.248029,"station_id":"BKST"},{"i_lat":-6.258864,"line":1,"is_transit":false,"distance":4460,"transit":false,"station_id":"TB","time":7,"i_long":107.055722,"station_name":"Tambun"}],[{"transit":false,"distance":0,"is_transit":false,"time":0,"i_long":106.411216,"line":3,"station_id":"CKY","station_name":"Cikoya","i_lat":-6.33561},{"is_transit":false,"station_name":"Tigaraksa","transit":false,"line":6,"distance":2651,"i_long":106.425991,"i_lat":-6.328533,"time":3,"station_id":"TGS"},{"distance":2974,"station_id":"TEJ","station_name":"Tenjo","is_transit":false,"i_lat":-6.327251,"i_long":106.460812,"time":5,"line":6,"transit":false},{"transit":false,"is_transit":false,"station_name":"Daru","station_id":"DAR","i_lat":-6.338021,"time":5,"line":0,"distance":3902,"i_long":106.491338},{"is_transit":false,"line":3,"distance":2675,"i_long":106.508482,"station_id":"CJT","station_name":"Cilejit","time":6,"transit":false,"i_lat":-6.354349},{"i_long":106.568863,"time":9,"distance":7025,"line":6,"is_transit":false,"station_name":"Parung Panjang","transit":false,"i_lat":-6.3441410000000005,"station_id":"PRP"},{"is_transit":false,"i_long":106.617853,"distance":5968,"station_id":"CC","transit":false,"i_lat":-6.329547,"time":8,"station_name":"Cicayur","line":3},{"distance":2519,"transit":false,"i_long":106.640411,"line":3,"station_id":"CSK","station_name":"Cisauk","is_transit":false,"i_lat":-6.32484,"time":4},{"station_name":"Serpong","transit":false,"line":6,"is_transit":false,"time":4,"i_long":106.66566,"i_lat":-6.319871,"station_id":"SRP","distance":1784},{"distance":2413,"i_lat":-6.314823,"line":6,"i_long":106.675475,"station_id":"RU","is_transit":false,"time":4,"station_name":"Rawa Buntu","transit":false},{"i_long":106.712277,"time":6,"is_transit":false,"station_id":"SDM","i_lat":-6.296963,"distance":4566,"transit":false,"line":6,"station_name":"Sudimara"},{"line":6,"is_transit":false,"transit":false,"i_long":106.728916,"distance":1994,"i_lat":-6.288927,"station_id":"JMU","time":4,"station_name":"Jurangmangu"},{"station_id":"PDJ","i_lat":-6.276362,"line":6,"is_transit":false,"distance":2179,"station_name":"Pondokranji","transit":false,"i_long":106.74273,"time":3},{"time":8,"is_transit":false,"station_name":"Kebayoran","i_long":106.780334,"i_lat":-6.237242,"distance":6218,"transit":false,"line":6,"station_id":"KBY"},{"time":7,"transit":false,"station_id":"PLM","distance":3737,"line":6,"i_long":106.79689,"is_transit":false,"i_lat":-6.207404,"station_name":"Palmerah"},{"station_name":"Tanah Abang","transit":true,"i_lat":-6.185545,"station_id":"THB","time":6,"is_transit":true,"i_long":106.811091,"line":1,"distance":3191},{"transit":false,"i_long":106.800832,"is_transit":false,"station_id":"DU","line":1,"distance":3632,"i_lat":-6.155215,"time":8,"station_name":"Duri"},{"station_name":"Angke","line":1,"station_id":"AK","i_long":106.79867,"time":4,"distance":1230,"is_transit":false,"transit":false,"i_lat":-6.144674},{"station_name":"Kampung Bandan","is_transit":true,"time":9,"station_id":"KPB","i_lat":-6.132549,"line":4,"transit":true,"i_long":106.826365,"distance":4102},{"transit":false,"station_name":"Rajawali","distance":1444,"line":11,"i_lat":-6.14505,"i_long":106.836569,"time":3,"is_transit":false,"station_id":"RJW"},{"i_lat":-6.161728,"station_name":"Kemayoran","i_long":106.839204,"transit":false,"station_id":"KMO","time":5,"distance":1901,"line":11,"is_transit":false},{"i_lat":-6.174784,"is_transit":false,"station_id":"PSE","station_name":"Pasar Senen","i_long":106.84368,"transit":false,"line":11,"time":4,"distance":1436},{"line":11,"i_long":106.850107,"distance":1567,"station_name":"Gang Sentiong","is_transit":false,"transit":false,"time":8,"station_id":"GST","i_lat":-6.185975},{"is_transit":false,"i_long":106.855437,"station_name":"Kramat","distance":973,"transit":false,"i_lat":-6.193792,"line":11,"station_id":"KMT","time":1},{"line":11,"station_id":"POK","station_name":"Pondok Jati","distance":1829,"transit":false,"time":2,"i_long":106.861737,"is_transit":false,"i_lat":-6.209188},{"station_name":"Jatinegara","i_lat":-6.215091,"i_long":106.86807400000001,"is_transit":true,"station_id":"JNG","transit":true,"distance":1236,"line":1,"time":9},{"i_lat":-6.2135,"i_long":106.899548,"time":3,"station_name":"Klender","line":1,"station_id":"KLD","is_transit":false,"distance":3395,"transit":false},{"transit":false,"station_id":"BUA","is_transit":false,"time":2,"line":1,"distance":3100,"station_name":"Buaran","i_lat":-6.215568,"i_long":106.922662},{"i_lat":-6.217455,"transit":false,"line":1,"station_id":"KLDB","distance":1305,"station_name":"Klenderbaru","time":1,"i_long":106.939679,"is_transit":false},{"i_lat":-6.219053,"station_name":"Cakung","i_long":106.951283,"line":1,"is_transit":false,"distance":1385,"station_id":"CUK","time":8,"transit":false},{"line":1,"transit":false,"station_name":"Kranji","distance":3097,"time":3,"is_transit":false,"station_id":"KRI","i_lat":-6.224515,"i_long":106.977657},{"transit":false,"line":1,"station_id":"BKS","distance":2520,"station_name":"Bekasi","i_long":106.997013,"time":4,"i_lat":-6.236616,"is_transit":false},{"transit":false,"station_name":"Bekasi Timur","i_lat":-6.248029,"time":2,"distance":2368,"is_transit":false,"i_long":107.016735,"station_id":"BKST","line":1},{"time":7,"station_id":"TB","distance":4460,"station_name":"Tambun","transit":false,"line":1,"is_transit":false,"i_lat":-6.258864,"i_long":107.055722}],[{"line":3,"station_name":"Cikoya","station_id":"CKY","i_lat":-6.33561,"i_long":106.411216,"distance":0,"transit":false,"time":0,"is_transit":false},{"i_long":106.425991,"is_transit":false,"i_lat":-6.328533,"line":6,"transit":false,"distance":2651,"time":3,"station_name":"Tigaraksa","station_id":"TGS"},{"i_lat":-6.327251,"line":6,"i_long":106.460812,"distance":2974,"station_name":"Tenjo","station_id":"TEJ","is_transit":false,"time":5,"transit":false},{"time":5,"distance":3902,"i_lat":-6.338021,"station_name":"Daru","i_long":106.491338,"line":0,"is_transit":false,"station_id":"DAR","transit":false},{"i_lat":-6.354349,"line":3,"station_name":"Cilejit","i_long":106.508482,"is_transit":false,"station_id":"CJT","distance":2675,"time":6,"transit":false},{"station_id":"PRP","line":6,"i_long":106.568863,"station_name":"Parung Panjang","i_lat":-6.3441410000000005,"time":9,"distance":7025,"transit":false,"is_transit":false},{"is_transit":false,"transit":false,"line":3,"distance":5968,"i_long":106.617853,"station_id":"CC","time":8,"i_lat":-6.329547,"station_name":"Cicayur"},{"is_transit":false,"i_lat":-6.32484,"time":4,"transit":false,"i_long":106.640411,"distance":2519,"station_id":"CSK","station_name":"Cisauk","line":3},{"distance":1784,"i_lat":-6.319871,"line":6,"i_long":106.66566,"is_transit":false,"station_id":"SRP","station_name":"Serpong","transit":false,"time":4},{"is_transit":false,"transit":false,"station_name":"Rawa Buntu","line":6,"station_id":"RU","distance":2413,"i_long":106.675475,"i_lat":-6.314823,"time":4},{"time":6,"transit":false,"i_long":106.712277,"line":6,"station_id":"SDM","i_lat":-6.296963,"is_transit":false,"distance":4566,"station_name":"Sudimara"},{"distance":1994,"transit":false,"i_long":106.728916,"line":6,"time":4,"is_transit":false,"station_id":"JMU","i_lat":-6.288927,"station_name":"Jurangmangu"},{"station_id":"PDJ","is_transit":false,"time":3,"distance":2179,"transit":false,"i_lat":-6.276362,"i_long":106.74273,"station_name":"Pondokranji","line":6},{"i_lat":-6.237242,"is_transit":false,"i_long":106.780334,"time":8,"line":6,"station_id":"KBY","distance":6218,"station_name":"Kebayoran","transit":false},{"time":7,"distance":3737,"is_transit":false,"station_id":"PLM","i_lat":-6.207404,"line":6,"i_long":106.79689,"station_name":"Palmerah","transit":false},{"distance":3191,"i_long":106.811091,"station_id":"THB","i_lat":-6.185545,"line":1,"is_transit":true,"time":6,"station_name":"Tanah Abang","transit":true},{"time":8,"line":1,"station_name":"Duri","i_long":106.800832,"i_lat":-6.155215,"station_id":"DU","is_transit":false,"transit":false,"distance":3632},{"is_transit":false,"time":4,"station_id":"AK","i_long":106.79867,"i_lat":-6.144674,"line":1,"distance":1230,"station_name":"Angke","transit":false},{"time":9,"is_transit":true,"station_name":"Kampung Bandan","distance":4102,"i_lat":-6.132549,"transit":true,"line":4,"i_long":106.826365,"station_id":"KPB"},{"i_lat":-6.137569,"station_name":"Jakarta Kota","time":3,"transit":true,"i_long":106.812439,"is_transit":true,"line":2,"distance":1364,"station_id":"JAKK"},{"line":2,"transit":false,"station_name":"Jayakarta","i_long":106.820901,"i_lat":-6.141205,"time":4,"station_id":"JAY","distance":1264,"is_transit":false},{"station_id":"MGB","distance":1080,"transit":false,"line":2,"i_long":106.82482,"time":2,"is_transit":false,"station_name":"Manggabesar","i_lat":-6.149769},{"transit":false,"is_transit":false,"i_long":106.827103,"station_id":"SW","time":2,"distance":906,"i_lat":-6.160725,"station_name":"Sawah Besar","line":2},{"transit":false,"i_lat":-6.166716,"time":2,"line":2,"is_transit":false,"station_name":"Juanda","station_id":"JUA","distance":1149,"i_long":106.828284},{"station_id":"GDD","i_long":106.832183,"is_transit":false,"distance":2015,"transit":false,"line":2,"station_name":"Gondangdia","time":4,"i_lat":-6.186295},{"station_name":"Cikini","i_lat":-6.198556,"time":3,"i_long":106.840169,"line":2,"is_transit":false,"distance":1750,"station_id":"CKI","transit":false},{"i_long":106.84912,"distance":1590,"station_id":"MRI","transit":true,"i_lat":-6.209883,"is_transit":true,"station_name":"Manggarai","time":4,"line":2},{"i_long":106.858896,"time":2,"station_id":"MTR","transit":false,"is_transit":false,"distance":1275,"station_name":"Matraman","i_lat":-6.212485,"line":1},{"i_long":106.86807400000001,"distance":1377,"station_name":"Jatinegara","time":8,"i_lat":-6.215091,"is_transit":false,"line":1,"station_id":"JNG","transit":false},{"i_long":106.899548,"is_transit":false,"station_id":"KLD","transit":false,"i_lat":-6.2135,"line":1,"station_name":"Klender","distance":3395,"time":3},{"transit":false,"is_transit":false,"time":2,"station_name":"Buaran","i_lat":-6.215568,"line":1,"distance":3100,"station_id":"BUA","i_long":106.922662},{"transit":false,"station_id":"KLDB","station_name":"Klenderbaru","distance":1305,"i_lat":-6.217455,"i_long":106.939679,"line":1,"time":1,"is_transit":false},{"transit":false,"distance":1385,"is_transit":false,"time":8,"station_name":"Cakung","i_lat":-6.219053,"i_long":106.951283,"line":1,"station_id":"CUK"},{"i_long":106.977657,"i_lat":-6.224515,"time":3,"distance":3097,"station_name":"Kranji","is_transit":false,"transit":false,"line":1,"station_id":"KRI"},{"station_id":"BKS","i_lat":-6.236616,"line":1,"transit":false,"is_transit":false,"time":4,"distance":2520,"station_name":"Bekasi","i_long":106.997013},{"transit":false,"line":1,"is_transit":false,"i_long":107.016735,"station_id":"BKST","time":2,"i_lat":-6.248029,"distance":2368,"station_name":"Bekasi Timur"},{"station_name":"Tambun","i_long":107.055722,"i_lat":-6.258864,"is_transit":false,"distance":4460,"line":1,"time":7,"station_id":"TB","transit":false}],[{"i_long":106.411216,"is_transit":false,"distance":0,"station_id":"CKY","time":0,"transit":false,"i_lat":-6.33561,"line":3,"station_name":"Cikoya"},{"is_transit":false,"distance":2651,"i_long":106.425991,"station_name":"Tigaraksa","line":6,"time":3,"transit":false,"station_id":"TGS","i_lat":-6.328533},{"station_name":"Tenjo","station_id":"TEJ","time":5,"i_lat":-6.327251,"line":6,"is_transit":false,"i_long":106.460812,"transit":false,"distance":2974},{"transit":false,"line":0,"i_lat":-6.338021,"distance":3902,"is_transit":false,"i_long":106.491338,"station_id":"DAR","time":5,"station_name":"Daru"},{"time":6,"i_long":106.508482,"line":3,"transit":false,"i_lat":-6.354349,"station_name":"Cilejit","station_id":"CJT","distance":2675,"is_transit":false},{"distance":7025,"i_long":106.568863,"transit":false,"station_name":"Parung Panjang","station_id":"PRP","time":9,"i_lat":-6.3441410000000005,"line":6,"is_transit":false},{"station_name":"Cicayur","time":8,"transit":false,"station_id":"CC","distance":5968,"is_transit":false,"i_long":106.617853,"i_lat":-6.329547,"line":3},{"time":4,"transit":false,"station_id":"CSK","i_long":106.640411,"line":3,"is_transit":false,"distance":2519,"i_lat":-6.32484,"station_name":"Cisauk"},{"line":6,"station_name":"Serpong","station_id":"SRP","time":4,"i_lat":-6.319871,"distance":1784,"i_long":106.66566,"is_transit":false,"transit":false},{"i_long":106.675475,"is_transit":false,"station_id":"RU","i_lat":-6.314823,"time":4,"station_name":"Rawa Buntu","transit":false,"distance":2413,"line":6},{"distance":4566,"station_name":"Sudimara","line":6,"station_id":"SDM","i_long":106.712277,"is_transit":false,"transit":false,"i_lat":-6.296963,"time":6},{"distance":1994,"transit":false,"is_transit":false,"i_long":106.728916,"i_lat":-6.288927,"line":6,"station_name":"Jurangmangu","station_id":"JMU","time":4},{"line":6,"i_long":106.74273,"station_id":"PDJ","transit":false,"time":3,"is_transit":false,"station_name":"Pondokranji","distance":2179,"i_lat":-6.276362},{"station_id":"KBY","transit":false,"station_name":"Kebayoran","i_long":106.780334,"line":6,"is_transit":false,"time":8,"i_lat":-6.237242,"distance":6218},{"is_transit":false,"station_id":"PLM","transit":false,"station_name":"Palmerah","i_long":106.79689,"time":7,"line":6,"distance":3737,"i_lat":-6.207404},{"i_lat":-6.185545,"station_id":"THB","i_long":106.811091,"is_transit":true,"station_name":"Tanah Abang","time":6,"line":1,"transit":true,"distance":3191},{"time":5,"line":1,"station_id":"KAT","is_transit":false,"distance":2029,"transit":false,"i_lat":-6.20132,"i_long":106.816351,"station_name":"Karet"},{"distance":471,"i_long":106.819881,"transit":false,"time":1,"is_transit":false,"station_name":"Sudirman Baru","i_lat":-6.201433,"line":1,"station_id":"SUDB"},{"i_long":106.822649,"line":1,"station_name":"Sudirman","distance":280,"i_lat":-6.202263,"transit":false,"is_transit":false,"station_id":"SUD","time":1},{"time":4,"distance":3186,"station_name":"Manggarai","i_long":106.84912,"transit":true,"i_lat":-6.209883,"line":2,"station_id":"MRI","is_transit":true},{"i_long":106.840169,"is_transit":false,"station_name":"Cikini","transit":false,"distance":1590,"i_lat":-6.198556,"station_id":"CKI","line":2,"time":4},{"distance":1750,"station_name":"Gondangdia","i_long":106.832183,"station_id":"GDD","line":2,"is_transit":false,"time":3,"i_lat":-6.186295,"transit":false},{"is_transit":false,"station_id":"JUA","distance":2015,"i_long":106.828284,"i_lat":-6.166716,"transit":false,"line":2,"station_name":"Juanda","time":4},{"station_name":"Sawah Besar","station_id":"SW","transit":false,"time":2,"is_transit":false,"i_long":106.827103,"distance":1149,"line":2,"i_lat":-6.160725},{"station_id":"MGB","i_long":106.82482,"distance":906,"transit":false,"i_lat":-6.149769,"time":2,"station_name":"Manggabesar","is_transit":false,"line":2},{"time":2,"transit":false,"station_name":"Jayakarta","i_lat":-6.141205,"is_transit":false,"distance":1080,"i_long":106.820901,"line":2,"station_id":"JAY"},{"station_name":"Jakarta Kota","distance":1264,"is_transit":true,"i_lat":-6.137569,"time":4,"transit":true,"station_id":"JAKK","i_long":106.812439,"line":2},{"line":4,"time":3,"transit":true,"i_lat":-6.132549,"is_transit":true,"station_id":"KPB","i_long":106.826365,"distance":1364,"station_name":"Kampung Bandan"},{"is_transit":false,"i_lat":-6.14505,"line":11,"distance":1444,"time":3,"station_id":"RJW","station_name":"Rajawali","transit":false,"i_long":106.836569},{"distance":1901,"is_transit":false,"station_name":"Kemayoran","i_lat":-6.161728,"transit":false,"line":11,"station_id":"KMO","time":5,"i_long":106.839204},{"line":11,"transit":false,"is_transit":false,"time":4,"distance":1436,"station_name":"Pasar Senen","station_id":"PSE","i_lat":-6.174784,"i_long":106.84368},{"i_long":106.850107,"station_id":"GST","distance":1567,"is_transit":false,"time":8,"transit":false,"i_lat":-6.185975,"station_name":"Gang Sentiong","line":11},{"station_name":"Kramat","station_id":"KMT","line":11,"i_long":106.855437,"distance":973,"transit":false,"time":1,"is_transit":false,"i_lat":-6.193792},{"i_long":106.861737,"line":11,"transit":false,"distance":1829,"is_transit":false,"time":2,"station_id":"POK","station_name":"Pondok Jati","i_lat":-6.209188},{"i_lat":-6.215091,"transit":true,"time":9,"is_transit":true,"distance":1236,"station_name":"Jatinegara","i_long":106.86807400000001,"line":1,"station_id":"JNG"},{"time":3,"station_id":"KLD","is_transit":false,"i_lat":-6.2135,"i_long":106.899548,"transit":false,"distance":3395,"station_name":"Klender","line":1},{"station_name":"Buaran","distance":3100,"i_lat":-6.215568,"i_long":106.922662,"transit":false,"line":1,"time":2,"station_id":"BUA","is_transit":false},{"i_long":106.939679,"time":1,"distance":1305,"station_id":"KLDB","i_lat":-6.217455,"station_name":"Klenderbaru","line":1,"transit":false,"is_transit":false},{"station_name":"Cakung","is_transit":false,"i_long":106.951283,"station_id":"CUK","distance":1385,"i_lat":-6.219053,"time":8,"line":1,"transit":false},{"i_lat":-6.224515,"line":1,"station_id":"KRI","station_name":"Kranji","i_long":106.977657,"distance":3097,"is_transit":false,"time":3,"transit":false},{"time":4,"station_id":"BKS","i_lat":-6.236616,"line":1,"is_transit":false,"station_name":"Bekasi","distance":2520,"transit":false,"i_long":106.997013},{"station_id":"BKST","time":2,"is_transit":false,"distance":2368,"station_name":"Bekasi Timur","transit":false,"i_lat":-6.248029,"i_long":107.016735,"line":1},{"i_lat":-6.258864,"transit":false,"line":1,"distance":4460,"i_long":107.055722,"station_name":"Tambun","is_transit":false,"time":7,"station_id":"TB"}]]}