{"data":[[{"station_id":"CKY","is_transit":false,"line":3,"time":0,"distance":0,"i_long":106.411216,"i_lat":-6.33561,"station_name":"Cikoya","transit":false},{"station_name":"Tigaraksa","is_transit":false,"i_lat":-6.328533,"transit":false,"line":6,"station_id":"TGS","distance":2651,"i_long":106.425991,"time":3},{"time":5,"i_long":106.460812,"is_transit":false,"line":6,"distance":2974,"transit":false,"station_name":"Tenjo","i_lat":-6.327251,"station_id":"TEJ"},{"i_lat":-6.338021,"station_name":"Daru","i_long":106.491338,"distance":3902,"is_transit":false,"time":5,"transit":false,"station_id":"DAR","line":0},{"transit":false,"station_name":"Cilejit","i_long":106.508482,"distance":2675,"station_id":"CJT","is_transit":false,"time":6,"i_lat":-6.354349,"line":3},{"distance":7025,"station_name":"Parung Panjang","station_id":"PRP","i_long":106.568863,"is_transit":false,"line":6,"time":9,"i_lat":-6.3441410000000005,"transit":false},{"distance":5968,"i_lat":-6.329547,"station_name":"Cicayur","time":8,"station_id":"CC","transit":false,"is_transit":false,"i_long":106.617853,"line":3},{"transit":false,"i_long":106.640411,"line":3,"station_name":"Cisauk","time":4,"distance":2519,"i_lat":-6.32484,"station_id":"CSK","is_transit":false},{"is_transit":false,"time":4,"transit":false,"i_long":106.66566,"station_id":"SRP","line":6,"distance":1784,"station_name":"Serpong","i_lat":-6.319871},{"i_long":106.675475,"i_lat":-6.314823,"station_id":"RU","station_name":"Rawa Buntu","distance":2413,"transit":false,"time":4,"line":6,"is_transit":false},{"station_name":"Sudimara","is_transit":false,"station_id":"SDM","i_lat":-6.296963,"transit":false,"time":6,"i_long":106.712277,"line":6,"distance":4566},{"distance":1994,"line":6,"station_name":"Jurangmangu","time":4,"transit":false,"is_transit":false,"i_lat":-6.288927,"i_long":106.728916,"station_id":"JMU"},{"time":3,"i_long":106.74273,"i_lat":-6.276362,"is_transit":false,"transit":false,"distance":2179,"line":6,"station_id":"PDJ","station_name":"Pondokranji"},{"i_long":106.780334,"station_id":"KBY","is_transit":false,"time":8,"distance":6218,"station_name":"Kebayoran","i_lat":-6.237242,"transit":false,"line":6},{"transit":false,"time":7,"station_name":"Palmerah","distance":3737,"i_long":106.79689,"line":6,"i_lat":-6.207404,"station_id":"PLM","is_transit":false},{"i_long":106.811091,"station_id":"THB","i_lat":-6.185545,"distance":3191,"line":1,"transit":true,"is_transit":true,"station_name":"Tanah Abang","time":6},{"line":1,"is_transit":false,"time":8,"i_lat":-6.155215,"distance":3632,"station_id":"DU","station_name":"Duri","i_long":106.800832,"transit":false},{"transit":false,"station_id":"AK","i_lat":-6.144674,"station_name":"Angke","is_transit":false,"line":1,"time":4,"i_long":106.79867,"distance":1230},{"is_transit":true,"i_lat":-6.132549,"station_name":"Kampung Bandan","station_id":"KPB","i_long":106.826365,"distance":4102,"time":9,"transit":true,"line":4},{"line":2,"distance":1364,"i_lat":-6.137569,"i_long":106.812439,"is_transit":true,"transit":true,"time":3,"station_name":"Jakarta Kota","station_id":"JAKK"},{"station_id":"JAY","is_transit":false,"transit":false,"station_name":"Jayakarta","line":2,"i_lat":-6.141205,"distance":1264,"time":4,"i_long":106.820901},{"line":2,"transit":false,"station_name":"Manggabesar","distance":1080,"time":2,"i_lat":-6.149769,"i_long":106.82482,"is_transit":false,"station_id":"MGB"},{"i_long":106.827103,"time":2,"is_transit":false,"station_name":"Sawah Besar","transit":false,"i_lat":-6.160725,"station_id":"SW","distance":906,"line":2}],[{"distance":0,"transit":false,"time":0,"i_long":106.411216,"station_name":"Cikoya","station_id":"CKY","line":3,"i_lat":-6.33561,"is_transit":false},{"station_name":"Tigaraksa","i_long":106.425991,"transit":false,"time":3,"line":6,"is_transit":false,"distance":2651,"i_lat":-6.328533,"station_id":"TGS"},{"station_name":"Tenjo","distance":2974,"transit":false,"is_transit":false,"i_lat":-6.327251,"time":5,"station_id":"TEJ","i_long":106.460812,"line":6},{"is_transit":false,"station_id":"DAR","station_name":"Daru","transit":false,"line":0,"i_long":106.491338,"i_lat":-6.338021,"distance":3902,"time":5},{"i_long":106.508482,"is_transit":false,"i_lat":-6.354349,"line":3,"time":6,"distance":2675,"transit":false,"station_name":"Cilejit","station_id":"CJT"},{"station_name":"Parung Panjang","station_id":"PRP","i_long":106.568863,"distance":7025,"i_lat":-6.3441410000000005,"line":6,"time":9,"transit":false,"is_transit":false},{"line":3,"i_lat":-6.329547,"distance":5968,"transit":false,"time":8,"i_long":106.617853,"station_name":"Cicayur","station_id":"CC","is_transit":false},{"i_lat":-6.32484,"station_name":"Cisauk","distance":2519,"transit":false,"time":4,"i_long":106.640411,"station_id":"CSK","line":3,"is_transit":false},{"station_id":"SRP","time":4,"distance":1784,"station_name":"Serpong","is_transit":false,"i_lat":-6.319871,"transit":false,"i_long":106.66566,"line":6},{"station_id":"RU","time":4,"station_name":"Rawa Buntu","i_long":106.675475,"transit":false,"i_lat":-6.314823,"distance":2413,"is_transit":false,"line":6},{"station_id":"SDM","i_lat":-6.296963,"distance":4566,"is_transit":false,"time":6,"station_name":"Sudimara","transit":false,"i_long":106.712277,"line":6},{"i_lat":-6.288927,"station_name":"Jurangmangu","distance":1994,"time":4,"is_transit":false,"line":6,"transit":false,"i_long":106.728916,"station_id":"JMU"},{"time":3,"station_name":"Pondokranji","transit":false,"i_lat":-6.276362,"station_id":"PDJ","is_transit":false,"distance":2179,"i_long":106.74273,"line":6},{"transit":false,"distance":6218,"station_id":"KBY","line":6,"station_name":"Kebayoran","time":8,"is_transit":false,"i_long":106.780334,"i_lat":-6.237242},{"distance":3737,"station_name":"Palmerah","line":6,"is_transit":false,"station_id":"PLM","i_lat":-6.207404,"time":7,"i_long":106.79689,"transit":false},{"distance":3191,"line":1,"station_name":"Tanah Abang","time":6,"transit":true,"is_transit":true,"station_id":"THB","i_lat":-6.185545,"i_long":106.811091},{"distance":2029,"time":5,"i_long":106.816351,"line":1,"station_name":"Karet","i_lat":-6.20132,"station_id":"KAT","transit":false,"is_transit":false},{"is_transit":false,"station_id":"SUDB","i_lat":-6.201433,"transit":false,"i_long":106.819881,"distance":471,"time":1,"line":1,"station_name":"Sudirman Baru"},{"time":1,"i_long":106.822649,"i_lat":-6.202263,"is_transit":false,"line":1,"distance":280,"station_name":"Sudirman","station_id":"SUD","transit":false},{"time":4,"station_name":"Manggarai","line":2,"is_transit":true,"transit":true,"station_id":"MRI","i_lat":-6.209883,"distance":3186,"i_long":106.84912},{"i_long":106.840169,"is_transit":false,"transit":false,"station_id":"CKI","distance":1590,"time":4,"line":2,"i_lat":-6.198556,"station_name":"Cikini"},{"i_long":106.832183,"station_name":"Gondangdia","distance":1750,"transit":false,"is_transit":false,"line":2,"station_id":"GDD","i_lat":-6.186295,"time":3},{"distance":2015,"time":4,"station_id":"JUA","line":2,"station_name":"Juanda","transit":false,"i_lat":-6.166716,"is_transit":false,"i_long":106.828284},{"is_transit":false,"line":2,"station_name":"Sawah Besar","station_id":"SW","time":2,"transit":false,"distance":1149,"i_lat":-6.160725,"i_long":106.827103}],[{"station_id":"CKY","transit":false,"i_lat":-6.33561,"i_long":106.411216,"station_name":"Cikoya","time":0,"distance":0,"line":3,"is_transit":false},{"distance":2651,"time":3,"i_long":106.425991,"transit":false,"station_name":"Tigaraksa","is_transit":false,"i_lat":-6.328533,"line":6,"station_id":"TGS"},{"distance":2974,"station_id":"TEJ","transit":false,"i_long":106.460812,"is_transit":false,"i_lat":-6.327251,"line":6,"station_name":"Tenjo","time":5},{"station_name":"Daru","is_transit":false,"transit":false,"time":5,"i_long":106.491338,"station_id":"DAR","distance":3902,"line":0,"i_lat":-6.338021},{"station_id":"CJT","transit":false,"is_transit":false,"i_lat":-6.354349,"i_long":106.508482,"station_name":"Cilejit","line":3,"distance":2675,"time":6},{"distance":7025,"station_name":"Parung Panjang","station_id":"PRP","is_transit":false,"time":9,"line":6,"i_lat":-6.3441410000000005,"transit":false,"i_long":106.568863},{"station_name":"Cicayur","distance":5968,"i_lat":-6.329547,"station_id":"CC","i_long":106.617853,"transit":false,"is_transit":false,"time":8,"line":3},{"time":4,"station_id":"CSK","i_long":106.640411,"station_name":"Cisauk","is_transit":false,"transit":false,"line":3,"distance":2519,"i_lat":-6.32484},{"time":4,"i_long":106.66566,"is_transit":false,"station_id":"SRP","i_lat":-6.319871,"line":6,"station_name":"Serpong","transit":false,"distance":1784},{"time":4,"i_long":106.675475,"line":6,"transit":false,"station_id":"RU","distance":2413,"i_lat":-6.314823,"is_transit":false,"station_name":"Rawa Buntu"},{"line":6,"time":6,"station_id":"SDM","i_lat":-6.296963,"distance":4566,"transit":false,"station_name":"Sudimara","i_long":106.712277,"is_transit":false},{"time":4,"distance":1994,"station_name":"Jurangmangu","transit":false,"i_lat":-6.288927,"i_long":106.728916,"is_transit":false,"station_id":"JMU","line":6},{"distance":2179,"is_transit":false,"transit":false,"station_name":"Pondokranji","i_lat":-6.276362,"i_long":106.74273,"station_id":"PDJ","line":6,"time":3},{"i_long":106.780334,"time":8,"line":6,"distance":6218,"i_lat":-6.237242,"is_transit":false,"station_name":"Kebayoran","station_id":"KBY","transit":false},{"i_long":106.79689,"transit":false,"station_id":"PLM","station_name":"Palmerah","time":7,"is_transit":false,"i_lat":-6.207404,"line":6,"distance":3737},{"is_transit":true,"i_lat":-6.185545,"distance":3191,"station_id":"THB","time":6,"i_long":106.811091,"transit":true,"line":1,"station_name":"Tanah Abang"},{"line":1,"station_name":"Duri","station_id":"DU","i_lat":-6.155215,"distance":3632,"transit":false,"i_long":106.800832,"is_transit":false,"time":8},{"station_name":"Angke","is_transit":false,"distance":1230,"time":4,"i_lat":-6.144674,"station_id":"AK","line":1,"i_long":106.79867,"transit":false},{"station_id":"KPB","time":9,"i_long":106.826365,"is_transit":true,"i_lat":-6.132549,"distance":4102,"transit":true,"line":4,"station_name":"Kampung Bandan"},{"i_lat":-6.14505,"station_name":"Rajawali","line":11,"is_transit":false,"time":3,"station_id":"RJW","distance":1444,"transit":false,"i_long":106.836569},{"station_id":"KMO","transit":false,"line":11,"distance":1901,"i_long":106.839204,"is_transit":false,"i_lat":-6.161728,"time":5,"station_name":"Kemayoran"},{"station_name":"Pasar Senen","station_id":"PSE","i_long":106.84368,"line":11,"distance":1436,"transit":false,"is_transit":false,"time":4,"i_lat":-6.174784},{"i_lat":-6.185975,"distance":1567,"is_transit":false,"i_long":106.850107,"station_id":"GST","line":11,"transit":false,"time":8,"station_name":"Gang Sentiong"},{"distance":973,"time":1,"station_name":"Kramat","line":11,"transit":false,"i_lat":-6.193792,"i_long":106.855437,"is_transit":false,"station_id":"KMT"},{"distance":1829,"station_name":"Pondok Jati","time":2,"i_lat":-6.209188,"i_long":106.861737,"line":11,"is_transit":false,"station_id":"POK","transit":false},{"line":1,"is_transit":true,"station_id":"JNG","transit":true,"distance":1236,"time":9,"i_lat":-6.215091,"station_name":"Jatinegara","i_long":106.86807400000001},{"i_lat":-6.212485,"time":2,"transit":false,"distance":1377,"station_name":"Matraman","station_id":"MTR","is_transit":false,"i_long":106.858896,"line":1},{"i_lat":-6.209883,"is_transit":true,"station_id":"MRI","i_long":106.84912,"line":2,"distance":1275,"transit":true,"station_name":"Manggarai","time":2},{"time":4,"transit":false,"station_id":"CKI","i_lat":-6.198556,"is_transit":false,"station_name":"Cikini","line":2,"distance":1590,"i_long":106.840169},{"is_transit":false,"time":3,"i_lat":-6.186295,"i_long":106.832183,"line":2,"station_id":"GDD","station_name":"Gondangdia","transit":false,"distance":1750},{"line":2,"time":4,"distance":2015,"station_id":"JUA","i_lat":-6.166716,"i_long":106.828284,"station_name":"Juanda","is_transit":false,"transit":false},{"time":2,"i_lat":-6.160725,"distance":1149,"i_long":106.827103,"station_name":"Sawah Besar","transit":false,"is_transit":false,"line":2,"station_id":"SW"}],[{"station_name":"Cikoya","is_transit":false,"transit":false,"line":3,"time":0,"station_id":"CKY","i_long":106.411216,"distance":0,"i_lat":-6.33561},{"station_id":"TGS","line":6,"distance":2651,"i_lat":-6.328533,"time":3,"station_name":"Tigaraksa","i_long":106.425991,"is_transit":false,"transit":false},{"time":5,"station_name":"Tenjo","i_lat":-6.327251,"is_transit":false,"distance":2974,"transit":false,"i_long":106.460812,"station_id":"TEJ","line":6},{"station_name":"Daru","distance":3902,"line":0,"i_lat":-6.338021,"time":5,"transit":false,"i_long":106.491338,"station_id":"DAR","is_transit":false},{"i_lat":-6.354349,"line":3,"station_name":"Cilejit","transit":false,"time":6,"i_long":106.508482,"is_transit":false,"station_id":"CJT","distance":2675},{"station_id":"PRP","distance":7025,"time":9,"station_name":"Parung Panjang","transit":false,"line":6,"i_long":106.568863,"i_lat":-6.3441410000000005,"is_transit":false},{"line":3,"station_id":"CC","station_name":"Cicayur","time":8,"i_lat":-6.329547,"distance":5968,"is_transit":false,"i_long":106.617853,"transit":false},{"time":4,"i_long":106.640411,"station_name":"Cisauk","transit":false,"line":3,"i_lat":-6.32484,"is_transit":false,"station_id":"CSK","distance":2519},{"i_lat":-6.319871,"time":4,"station_id":"SRP","station_name":"Serpong","transit":false,"is_transit":false,"distance":1784,"i_long":106.66566,"line":6},{"distance":2413,"is_transit":false,"transit":false,"time":4,"line":6,"i_long":106.675475,"station_id":"RU","station_name":"Rawa Buntu","i_lat":-6.314823},{"station_name":"Sudimara","time":6,"is_transit":false,"distance":4566,"i_long":106.712277,"transit":false,"i_lat":-6.296963,"station_id":"SDM","line":6},{"time":4,"i_lat":-6.288927,"transit":false,"distance":1994,"station_id":"JMU","i_long":106.728916,"is_transit":false,"station_name":"Jurangmangu","line":6},{"is_transit":false,"time":3,"i_long":106.74273,"i_lat":-6.276362,"transit":false,"distance":2179,"line":6,"station_name":"Pondokranji","station_id":"PDJ"},{"distance":6218,"station_name":"Kebayoran","transit":false,"is_transit":false,"time":8,"i_lat":-6.237242,"i_long":106.780334,"line":6,"station_id":"KBY"},{"distance":3737,"station_id":"PLM","line":6,"i_lat":-6.207404,"is_transit":false,"transit":false,"station_name":"Palmerah","time":7,"i_long":106.79689},{"i_long":106.811091,"is_transit":true,"station_name":"Tanah Abang","distance":3191,"time":6,"transit":true,"station_id":"THB","i_lat":-6.185545,"line":1},{"is_transit":false,"i_lat":-6.20132,"line":1,"station_id":"KAT","time":5,"i_long":106.816351,"transit":false,"station_name":"Karet","distance":2029},{"i_long":106.819881,"is_transit":false,"time":1,"i_lat":-6.201433,"station_id":"SUDB","line":1,"distance":471,"station_name":"Sudirman Baru","transit":false},{"time":1,"distance":280,"transit":false,"i_long":106.822649,"line":1,"is_transit":false,"station_name":"Sudirman","station_id":"SUD","i_lat":-6.202263},{"is_transit":false,"station_id":"MRI","station_name":"Manggarai","time":4,"distance":3186,"transit":false,"i_long":106.84912,"line":2,"i_lat":-6.209883},{"i_lat":-6.212485,"transit":false,"i_long":106.858896,"line":1,"station_name":"Matraman","station_id":"MTR","distance":1275,"is_transit":false,"time":2},{"station_name":"Jatinegara","line":1,"i_lat":-6.215091,"station_id":"JNG","is_transit":true,"time":8,"distance":1377,"transit":true,"i_long":106.86807400000001},{"station_name":"Pondok Jati","i_long":106.861737,"i_lat":-6.209188,"transit":false,"distance":1236,"station_id":"POK","line":11,"is_transit":false,"time":2},{"station_name":"Kramat","transit":false,"time":2,"i_lat":-6.193792,"line":11,"station_id":"KMT","is_transit":false,"distance":1829,"i_long":106.855437},{"transit":false,"i_lat":-6.185975,"line":11,"station_id":"GST","i_long":106.850107,"is_transit":false,"station_name":"Gang Sentiong","distance":973,"time":1},{"is_transit":false,"time":8,"station_name":"Pasar Senen","station_id":"PSE","i_lat":-6.174784,"distance":1567,"transit":false,"i_long":106.84368,"line":11},{"station_id":"KMO","i_long":106.839204,"i_lat":-6.161728,"station_name":"Kemayoran","line":11,"is_transit":false,"distance":1436,"time":4,"transit":false},{"i_lat":-6.14505,"distance":1901,"transit":false,"is_transit":false,"time":5,"station_id":"RJW","station_name":"Rajawali","i_long":106.836569,"line":11},{"station_name":"Kampung Bandan","station_id":"KPB","distance":1444,"transit":true,"is_transit":true,"i_lat":-6.132549,"line":4,"i_long":106.826365,"time":3},{"distance":1364,"i_lat":-6.137569,"station_id":"JAKK","line":2,"transit":true,"i_long":106.812439,"time":3,"station_name":"Jakarta Kota","is_transit":true},{"i_lat":-6.141205,"is_transit":false,"time":4,"i_long":106.820901,"transit":false,"line":2,"station_id":"JAY","distance":1264,"station_name":"Jayakarta"},{"transit":false,"time":2,"is_transit":false,"distance":1080,"i_long":106.82482,"line":2,"station_name":"Manggabesar","i_lat":-6.149769,"station_id":"MGB"},{"i_long":106.827103,"line":2,"is_transit":false,"distance":906,"time":2,"station_name":"Sawah Besar","station_id":"SW","transit":false,"i_lat":-6.160725}]]}