{"data":[[{"distance":0,"transit":false,"i_lat":-6.33561,"station_id":"CKY","station_name":"Cikoya","is_transit":false,"i_long":106.411216,"line":3,"time":0},{"station_id":"TGS","is_transit":false,"i_long":106.425991,"line":6,"station_name":"Tigaraksa","time":3,"transit":false,"distance":2651,"i_lat":-6.328533},{"station_name":"Tenjo","transit":false,"distance":2974,"station_id":"TEJ","time":5,"is_transit":false,"i_long":106.460812,"line":6,"i_lat":-6.327251},{"station_id":"DAR","i_lat":-6.338021,"distance":3902,"transit":false,"i_long":106.491338,"is_transit":false,"line":0,"time":5,"station_name":"Daru"},{"distance":2675,"station_id":"CJT","is_transit":false,"i_long":106.508482,"i_lat":-6.354349,"line":3,"time":6,"transit":false,"station_name":"Cilejit"},{"time":9,"transit":false,"distance":7025,"line":6,"i_lat":-6.3441410000000005,"i_long":106.568863,"is_transit":false,"station_id":"PRP","station_name":"Parung Panjang"},{"is_transit":false,"distance":5968,"station_name":"Cicayur","transit":false,"station_id":"CC","i_lat":-6.329547,"i_long":106.617853,"line":3,"time":8},{"i_long":106.640411,"distance":2519,"station_id":"CSK","line":3,"transit":false,"time":4,"i_lat":-6.32484,"station_name":"Cisauk","is_transit":false},{"station_name":"Serpong","is_transit":false,"i_long":106.66566,"i_lat":-6.319871,"time":4,"transit":false,"line":6,"station_id":"SRP","distance":1784},{"time":4,"i_lat":-6.314823,"i_long":106.675475,"distance":2413,"is_transit":false,"transit":false,"station_id":"RU","station_name":"Rawa Buntu","line":6},{"is_transit":false,"line":6,"distance":4566,"time":6,"station_name":"Sudimara","i_lat":-6.296963,"station_id":"SDM","transit":false,"i_long":106.712277},{"line":6,"i_long":106.728916,"is_transit":false,"i_lat":-6.288927,"time":4,"distance":1994,"station_id":"JMU","station_name":"Jurangmangu","transit":false},{"station_id":"PDJ","is_transit":false,"station_name":"Pondokranji","transit":false,"i_lat":-6.276362,"time":3,"i_long":106.74273,"distance":2179,"line":6},{"i_long":106.780334,"i_lat":-6.237242,"time":8,"station_id":"KBY","station_name":"Kebayoran","transit":false,"distance":6218,"is_transit":false,"line":6},{"is_transit":false,"distance":3737,"line":6,"transit":false,"station_name":"Palmerah","station_id":"PLM","i_lat":-6.207404,"time":7,"i_long":106.79689},{"time":6,"line":1,"transit":true,"station_id":"THB","i_long":106.811091,"station_name":"Tanah Abang","i_lat":-6.185545,"is_transit":true,"distance":3191},{"station_id":"KAT","transit":false,"station_name":"Karet","i_lat":-6.20132,"i_long":106.816351,"line":1,"is_transit":false,"distance":2029,"time":5},{"distance":471,"line":1,"time":1,"transit":false,"station_id":"SUDB","is_transit":false,"i_lat":-6.201433,"i_long":106.819881,"station_name":"Sudirman Baru"},{"transit":false,"station_name":"Sudirman","i_long":106.822649,"station_id":"SUD","line":1,"time":1,"is_transit":false,"i_lat":-6.202263,"distance":280}],[{"transit":false,"station_name":"Cikoya","i_lat":-6.33561,"i_long":106.411216,"time":0,"distance":0,"station_id":"CKY","is_transit":false,"line":3},{"i_long":106.425991,"time":3,"transit":false,"i_lat":-6.328533,"line":6,"station_name":"Tigaraksa","distance":2651,"is_transit":false,"station_id":"TGS"},{"transit":false,"time":5,"is_transit":false,"station_name":"Tenjo","i_long":106.460812,"distance":2974,"line":6,"station_id":"TEJ","i_lat":-6.327251},{"station_name":"Daru","i_long":106.491338,"is_transit":false,"line":0,"station_id":"DAR","distance":3902,"transit":false,"i_lat":-6.338021,"time":5},{"i_lat":-6.354349,"transit":false,"distance":2675,"time":6,"station_id":"CJT","line":3,"station_name":"Cilejit","i_long":106.508482,"is_transit":false},{"transit":false,"station_name":"Parung Panjang","station_id":"PRP","i_long":106.568863,"line":6,"distance":7025,"is_transit":false,"i_lat":-6.3441410000000005,"time":9},{"i_lat":-6.329547,"time":8,"distance":5968,"station_name":"Cicayur","station_id":"CC","transit":false,"line":3,"i_long":106.617853,"is_transit":false},{"i_lat":-6.32484,"station_name":"Cisauk","is_transit":false,"transit":false,"i_long":106.640411,"line":3,"distance":2519,"station_id":"CSK","time":4},{"i_long":106.66566,"i_lat":-6.319871,"is_transit":false,"time":4,"station_name":"Serpong","station_id":"SRP","transit":false,"distance":1784,"line":6},{"transit":false,"time":4,"distance":2413,"station_id":"RU","station_name":"Rawa Buntu","is_transit":false,"i_lat":-6.314823,"i_long":106.675475,"line":6},{"distance":4566,"station_id":"SDM","station_name":"Sudimara","is_transit":false,"time":6,"transit":false,"line":6,"i_long":106.712277,"i_lat":-6.296963},{"station_name":"Jurangmangu","i_lat":-6.288927,"time":4,"line":6,"transit":false,"station_id":"JMU","is_transit":false,"i_long":106.728916,"distance":1994},{"station_id":"PDJ","station_name":"Pondokranji","is_transit":false,"i_lat":-6.276362,"distance":2179,"i_long":106.74273,"time":3,"line":6,"transit":false},{"station_name":"Kebayoran","line":6,"time":8,"is_transit":false,"distance":6218,"station_id":"KBY","i_lat":-6.237242,"i_long":106.780334,"transit":false},{"station_name":"Palmerah","i_lat":-6.207404,"i_long":106.79689,"station_id":"PLM","time":7,"is_transit":false,"distance":3737,"line":6,"transit":false},{"station_id":"THB","time":6,"i_long":106.811091,"i_lat":-6.185545,"station_name":"Tanah Abang","transit":true,"is_transit":true,"distance":3191,"line":1},{"i_lat":-6.155215,"transit":false,"station_name":"Duri","time":8,"distance":3632,"is_transit":false,"i_long":106.800832,"line":1,"station_id":"DU"},{"i_long":106.79867,"station_id":"AK","distance":1230,"station_name":"Angke","transit":false,"line":1,"is_transit":false,"i_lat":-6.144674,"time":4},{"station_name":"Kampung Bandan","is_transit":true,"i_lat":-6.132549,"distance":4102,"i_long":106.826365,"time":9,"transit":true,"line":4,"station_id":"KPB"},{"distance":1364,"transit":true,"station_id":"JAKK","station_name":"Jakarta Kota","i_lat":-6.137569,"line":2,"is_transit":true,"time":3,"i_long":106.812439},{"line":2,"distance":1264,"i_long":106.820901,"transit":false,"time":4,"station_id":"JAY","is_transit":false,"i_lat":-6.141205,"station_name":"Jayakarta"},{"distance":1080,"station_name":"Manggabesar","is_transit":false,"i_long":106.82482,"line":2,"transit":false,"station_id":"MGB","i_lat":-6.149769,"time":2},{"is_transit":false,"transit":false,"station_name":"Sawah Besar","time":2,"station_id":"SW","i_long":106.827103,"distance":906,"i_lat":-6.160725,"line":2},{"i_long":106.828284,"transit":false,"is_transit":false,"station_id":"JUA","station_name":"Juanda","distance":1149,"line":2,"i_lat":-6.166716,"time":2},{"station_id":"GDD","distance":2015,"is_transit":false,"i_long":106.832183,"transit":false,"i_lat":-6.186295,"station_name":"Gondangdia","time":4,"line":2},{"is_transit":false,"transit":false,"station_id":"CKI","time":3,"i_lat":-6.198556,"distance":1750,"station_name":"Cikini","line":2,"i_long":106.840169},{"i_long":106.84912,"line":2,"i_lat":-6.209883,"time":4,"distance":1590,"transit":true,"station_name":"Manggarai","is_transit":true,"station_id":"MRI"},{"line":1,"transit":false,"i_long":106.822649,"station_name":"Sudirman","time":4,"i_lat":-6.202263,"station_id":"SUD","is_transit":false,"distance":3186}],[{"line":3,"transit":false,"distance":0,"i_lat":-6.33561,"i_long":106.411216,"time":0,"station_id":"CKY","is_transit":false,"station_name":"Cikoya"},{"i_long":106.425991,"station_name":"Tigaraksa","transit":false,"station_id":"TGS","is_transit":false,"distance":2651,"line":6,"i_lat":-6.328533,"time":3},{"transit":false,"station_name":"Tenjo","line":6,"station_id":"TEJ","time":5,"i_long":106.460812,"is_transit":false,"distance":2974,"i_lat":-6.327251},{"station_id":"DAR","is_transit":false,"distance":3902,"i_long":106.491338,"line":0,"station_name":"Daru","transit":false,"time":5,"i_lat":-6.338021},{"transit":false,"is_transit":false,"i_long":106.508482,"time":6,"station_name":"Cilejit","distance":2675,"i_lat":-6.354349,"line":3,"station_id":"CJT"},{"station_id":"PRP","line":6,"i_lat":-6.3441410000000005,"transit":false,"station_name":"Parung Panjang","time":9,"is_transit":false,"distance":7025,"i_long":106.568863},{"transit":false,"i_long":106.617853,"i_lat":-6.329547,"station_id":"CC","station_name":"Cicayur","is_transit":false,"line":3,"distance":5968,"time":8},{"i_lat":-6.32484,"transit":false,"station_id":"CSK","i_long":106.640411,"line":3,"is_transit":false,"distance":2519,"station_name":"Cisauk","time":4},{"transit":false,"station_name":"Serpong","time":4,"is_transit":false,"distance":1784,"line":6,"i_lat":-6.319871,"station_id":"SRP","i_long":106.66566},{"time":4,"transit":false,"station_id":"RU","is_transit":false,"distance":2413,"i_long":106.675475,"i_lat":-6.314823,"line":6,"station_name":"Rawa Buntu"},{"i_lat":-6.296963,"i_long":106.712277,"line":6,"is_transit":false,"station_name":"Sudimara","time":6,"transit":false,"station_id":"SDM","distance":4566},{"is_transit":false,"transit":false,"line":6,"station_name":"Jurangmangu","station_id":"JMU","distance":1994,"i_long":106.728916,"i_lat":-6.288927,"time":4},{"distance":2179,"time":3,"station_name":"Pondokranji","station_id":"PDJ","i_long":106.74273,"line":6,"transit":false,"is_transit":false,"i_lat":-6.276362},{"station_name":"Kebayoran","station_id":"KBY","time":8,"distance":6218,"transit":false,"i_lat":-6.237242,"is_transit":false,"i_long":106.780334,"line":6},{"distance":3737,"time":7,"transit":false,"station_name":"Palmerah","station_id":"PLM","i_lat":-6.207404,"is_transit":false,"i_long":106.79689,"line":6},{"time":6,"transit":true,"distance":3191,"i_lat":-6.185545,"line":1,"station_name":"Tanah Abang","is_transit":true,"i_long":106.811091,"station_id":"THB"},{"i_lat":-6.155215,"transit":false,"station_id":"DU","distance":3632,"i_long":106.800832,"line":1,"station_name":"Duri","time":8,"is_transit":false},{"is_transit":false,"transit":false,"station_id":"AK","time":4,"i_lat":-6.144674,"station_name":"Angke","distance":1230,"line":1,"i_long":106.79867},{"i_lat":-6.132549,"i_long":106.826365,"distance":4102,"time":9,"line":4,"station_name":"Kampung Bandan","station_id":"KPB","transit":true,"is_transit":true},{"station_id":"RJW","transit":false,"station_name":"Rajawali","time":3,"distance":1444,"is_transit":false,"i_lat":-6.14505,"i_long":106.836569,"line":11},{"time":5,"station_id":"KMO","i_lat":-6.161728,"i_long":106.839204,"is_transit":false,"line":11,"station_name":"Kemayoran","transit":false,"distance":1901},{"i_lat":-6.174784,"i_long":106.84368,"is_transit":false,"distance":1436,"line":11,"transit":false,"time":4,"station_id":"PSE","station_name":"Pasar Senen"},{"time":8,"transit":false,"i_lat":-6.185975,"i_long":106.850107,"station_id":"GST","station_name":"Gang Sentiong","is_transit":false,"distance":1567,"line":11},{"transit":false,"is_transit":false,"time":1,"line":11,"station_name":"Kramat","i_long":106.855437,"station_id":"KMT","distance":973,"i_lat":-6.193792},{"time":2,"i_lat":-6.209188,"is_transit":false,"station_name":"Pondok Jati","i_long":106.861737,"distance":1829,"line":11,"station_id":"POK","transit":false},{"time":9,"i_lat":-6.215091,"station_id":"JNG","is_transit":true,"station_name":"Jatinegara","i_long":106.86807400000001,"line":1,"distance":1236,"transit":true},{"transit":false,"i_lat":-6.212485,"i_long":106.858896,"line":1,"station_id":"MTR","is_transit":false,"station_name":"Matraman","distance":1377,"time":2},{"i_long":106.84912,"station_id":"MRI","station_name":"Manggarai","is_transit":false,"time":2,"distance":1275,"transit":false,"i_lat":-6.209883,"line":2},{"transit":false,"line":1,"distance":3186,"time":4,"i_long":106.822649,"station_name":"Sudirman","is_transit":false,"station_id":"SUD","i_lat":-6.202263}]]}