{"data":[[{"i_lat":-6.33561,"transit":false,"line":3,"i_long":106.411216,"station_id":"CKY","distance":0,"station_name":"Cikoya","time":0,"is_transit":false},{"is_transit":false,"time":3,"station_id":"TGS","station_name":"Tigaraksa","i_long":106.425991,"i_lat":-6.328533,"distance":2651,"transit":false,"line":6},{"i_lat":-6.327251,"i_long":106.460812,"station_name":"Tenjo","is_transit":false,"station_id":"TEJ","distance":2974,"time":5,"line":6,"transit":false},{"transit":false,"i_lat":-6.338021,"station_name":"Daru","distance":3902,"time":5,"line":0,"is_transit":false,"station_id":"DAR","i_long":106.491338},{"time":6,"transit":false,"station_id":"CJT","i_long":106.508482,"i_lat":-6.354349,"distance":2675,"station_name":"Cilejit","line":3,"is_transit":false},{"station_name":"Parung Panjang","time":9,"distance":7025,"is_transit":false,"i_long":106.568863,"transit":false,"line":6,"station_id":"PRP","i_lat":-6.3441410000000005},{"i_long":106.617853,"transit":false,"is_transit":false,"i_lat":-6.329547,"station_name":"Cicayur","distance":5968,"station_id":"CC","line":3,"time":8},{"i_lat":-6.32484,"i_long":106.640411,"time":4,"station_name":"Cisauk","station_id":"CSK","line":3,"transit":false,"distance":2519,"is_transit":false},{"time":4,"distance":1784,"i_lat":-6.319871,"is_transit":false,"transit":false,"station_name":"Serpong","i_long":106.66566,"station_id":"SRP","line":6},{"i_lat":-6.314823,"distance":2413,"station_id":"RU","is_transit":false,"transit":false,"line":6,"time":4,"station_name":"Rawa Buntu","i_long":106.675475}]]}