{"data":[[{"transit":false,"station_name":"Cikoya","line":3,"time":0,"is_transit":false,"i_lat":-6.33561,"distance":0,"i_long":106.411216,"station_id":"CKY"},{"i_long":106.425991,"transit":false,"station_id":"TGS","time":3,"distance":2651,"i_lat":-6.328533,"line":6,"is_transit":false,"station_name":"Tigaraksa"},{"distance":2974,"is_transit":false,"station_name":"Tenjo","station_id":"TEJ","i_long":106.460812,"time":5,"i_lat":-6.327251,"line":6,"transit":false},{"time":5,"is_transit":false,"station_id":"DAR","distance":3902,"i_long":106.491338,"line":0,"transit":false,"i_lat":-6.338021,"station_name":"Daru"},{"line":3,"transit":false,"station_name":"Cilejit","distance":2675,"time":6,"is_transit":false,"station_id":"CJT","i_lat":-6.354349,"i_long":106.508482},{"is_transit":false,"station_id":"PRP","station_name":"Parung Panjang","i_long":106.568863,"line":6,"transit":false,"distance":7025,"i_lat":-6.3441410000000005,"time":9},{"i_lat":-6.329547,"station_id":"CC","time":8,"distance":5968,"line":3,"is_transit":false,"transit":false,"station_name":"Cicayur","i_long":106.617853},{"i_long":106.640411,"i_lat":-6.32484,"station_name":"Cisauk","line":3,"station_id":"CSK","transit":false,"time":4,"is_transit":false,"distance":2519},{"is_transit":false,"station_name":"Serpong","i_lat":-6.319871,"time":4,"transit":false,"i_long":106.66566,"line":6,"distance":1784,"station_id":"SRP"},{"distance":2413,"is_transit":false,"transit":false,"i_long":106.675475,"station_id":"RU","time":4,"station_name":"Rawa Buntu","line":6,"i_lat":-6.314823},{"distance":4566,"i_long":106.712277,"is_transit":false,"line":6,"transit":false,"i_lat":-6.296963,"station_id":"SDM","station_name":"Sudimara","time":6},{"i_long":106.728916,"transit":false,"i_lat":-6.288927,"line":6,"station_id":"JMU","time":4,"distance":1994,"is_transit":false,"station_name":"Jurangmangu"},{"station_name":"Pondokranji","station_id":"PDJ","line":6,"is_transit":false,"i_lat":-6.276362,"i_long":106.74273,"transit":false,"time":3,"distance":2179},{"is_transit":false,"distance":6218,"station_name":"Kebayoran","line":6,"i_lat":-6.237242,"time":8,"transit":false,"station_id":"KBY","i_long":106.780334},{"line":6,"transit":false,"station_id":"PLM","station_name":"Palmerah","i_lat":-6.207404,"time":7,"i_long":106.79689,"distance":3737,"is_transit":false},{"distance":3191,"transit":true,"i_long":106.811091,"is_transit":true,"station_id":"THB","line":1,"station_name":"Tanah Abang","i_lat":-6.185545,"time":6},{"i_long":106.816351,"line":1,"station_id":"KAT","time":5,"distance":2029,"is_transit":false,"i_lat":-6.20132,"transit":false,"station_name":"Karet"},{"station_name":"Sudirman Baru","distance":471,"is_transit":false,"station_id":"SUDB","i_long":106.819881,"time":1,"line":1,"i_lat":-6.201433,"transit":false},{"time":1,"is_transit":false,"station_id":"SUD","transit":false,"station_name":"Sudirman","i_lat":-6.202263,"line":1,"distance":280,"i_long":106.822649},{"line":2,"distance":3186,"time":4,"station_id":"MRI","station_name":"Manggarai","i_lat":-6.209883,"is_transit":true,"transit":true,"i_long":106.84912},{"i_lat":-6.226659,"station_id":"TEB","time":4,"distance":2610,"i_long":106.857948,"line":2,"is_transit":false,"station_name":"Tebet","transit":false},{"transit":false,"i_lat":-6.242512,"distance":1230,"line":2,"station_name":"Cawang","i_long":106.856607,"is_transit":false,"station_id":"CW","time":2},{"is_transit":false,"station_id":"DRN","transit":false,"station_name":"Duren Kalibata","i_lat":-6.255332,"distance":1546,"i_long":106.85449,"time":3,"line":2},{"distance":824,"station_name":"Pasar Minggu Baru","time":2,"i_long":106.851577,"station_id":"PSMB","transit":false,"line":2,"is_transit":false,"i_lat":-6.263214},{"transit":false,"i_long":106.843999,"distance":2380,"station_id":"PSM","time":2,"station_name":"Pasar Minggu","i_lat":-6.2842400000000005,"line":2,"is_transit":false},{"station_name":"Tanjung Barat","i_lat":-6.3080680000000005,"distance":2820,"station_id":"TNT","i_long":106.838896,"line":2,"time":4,"transit":false,"is_transit":false},{"time":3,"i_lat":-6.330363,"line":2,"station_id":"LNA","transit":false,"distance":2671,"station_name":"Lenteng Agung","i_long":106.832616,"is_transit":false}],[{"station_id":"CKY","station_name":"Cikoya","is_transit":false,"i_lat":-6.33561,"i_long":106.411216,"line":3,"transit":false,"distance":0,"time":0},{"time":3,"distance":2651,"transit":false,"i_lat":-6.328533,"line":6,"i_long":106.425991,"station_name":"Tigaraksa","station_id":"TGS","is_transit":false},{"transit":false,"i_lat":-6.327251,"i_long":106.460812,"distance":2974,"station_name":"Tenjo","time":5,"is_transit":false,"line":6,"station_id":"TEJ"},{"station_id":"DAR","line":0,"is_transit":false,"transit":false,"distance":3902,"i_lat":-6.338021,"time":5,"station_name":"Daru","i_long":106.491338},{"station_name":"Cilejit","time":6,"station_id":"CJT","distance":2675,"transit":false,"i_long":106.508482,"line":3,"i_lat":-6.354349,"is_transit":false},{"line":6,"i_lat":-6.3441410000000005,"transit":false,"time":9,"station_id":"PRP","i_long":106.568863,"distance":7025,"is_transit":false,"station_name":"Parung Panjang"},{"time":8,"transit":false,"i_long":106.617853,"i_lat":-6.329547,"line":3,"station_name":"Cicayur","distance":5968,"is_transit":false,"station_id":"CC"},{"station_id":"CSK","distance":2519,"is_transit":false,"station_name":"Cisauk","transit":false,"time":4,"i_lat":-6.32484,"line":3,"i_long":106.640411},{"is_transit":false,"station_name":"Serpong","transit":false,"i_lat":-6.319871,"i_long":106.66566,"distance":1784,"time":4,"station_id":"SRP","line":6},{"distance":2413,"station_id":"RU","time":4,"line":6,"is_transit":false,"transit":false,"i_lat":-6.314823,"i_long":106.675475,"station_name":"Rawa Buntu"},{"i_lat":-6.296963,"transit":false,"line":6,"station_name":"Sudimara","i_long":106.712277,"station_id":"SDM","is_transit":false,"time":6,"distance":4566},{"line":6,"time":4,"i_lat":-6.288927,"station_name":"Jurangmangu","i_long":106.728916,"transit":false,"station_id":"JMU","is_transit":false,"distance":1994},{"i_long":106.74273,"line":6,"is_transit":false,"i_lat":-6.276362,"distance":2179,"station_id":"PDJ","transit":false,"time":3,"station_name":"Pondokranji"},{"transit":false,"i_long":106.780334,"station_name":"Kebayoran","i_lat":-6.237242,"is_transit":false,"station_id":"KBY","line":6,"time":8,"distance":6218},{"distance":3737,"station_id":"PLM","station_name":"Palmerah","i_lat":-6.207404,"time":7,"is_transit":false,"i_long":106.79689,"line":6,"transit":false},{"i_lat":-6.185545,"station_id":"THB","station_name":"Tanah Abang","time":6,"distance":3191,"is_transit":true,"i_long":106.811091,"transit":true,"line":1},{"line":1,"time":8,"i_lat":-6.155215,"station_name":"Duri","i_long":106.800832,"transit":false,"distance":3632,"is_transit":false,"station_id":"DU"},{"i_lat":-6.144674,"station_id":"AK","time":4,"line":1,"is_transit":false,"transit":false,"distance":1230,"station_name":"Angke","i_long":106.79867},{"transit":true,"station_name":"Kampung Bandan","is_transit":true,"station_id":"KPB","i_lat":-6.132549,"line":4,"distance":4102,"i_long":106.826365,"time":9},{"i_long":106.812439,"station_id":"JAKK","line":2,"distance":1364,"station_name":"Jakarta Kota","is_transit":true,"i_lat":-6.137569,"time":3,"transit":true},{"is_transit":false,"i_lat":-6.141205,"line":2,"time":4,"distance":1264,"i_long":106.820901,"station_id":"JAY","transit":false,"station_name":"Jayakarta"},{"i_lat":-6.149769,"is_transit":false,"station_id":"MGB","line":2,"distance":1080,"i_long":106.82482,"station_name":"Manggabesar","time":2,"transit":false},{"i_long":106.827103,"distance":906,"time":2,"line":2,"is_transit":false,"station_name":"Sawah Besar","station_id":"SW","transit":false,"i_lat":-6.160725},{"is_transit":false,"station_id":"JUA","time":2,"distance":1149,"line":2,"transit":false,"i_lat":-6.166716,"i_long":106.828284,"station_name":"Juanda"},{"transit":false,"time":4,"station_name":"Gondangdia","i_long":106.832183,"is_transit":false,"station_id":"GDD","line":2,"i_lat":-6.186295,"distance":2015},{"time":3,"i_lat":-6.198556,"station_id":"CKI","station_name":"Cikini","distance":1750,"i_long":106.840169,"line":2,"transit":false,"is_transit":false},{"station_id":"MRI","time":4,"line":2,"is_transit":false,"station_name":"Manggarai","i_long":106.84912,"i_lat":-6.209883,"distance":1590,"transit":false},{"transit":false,"distance":2610,"time":4,"i_long":106.857948,"line":2,"i_lat":-6.226659,"station_id":"TEB","station_name":"Tebet","is_transit":false},{"station_id":"CW","line":2,"distance":1230,"i_long":106.856607,"i_lat":-6.242512,"station_name":"Cawang","transit":false,"is_transit":false,"time":2},{"line":2,"station_name":"Duren Kalibata","distance":1546,"time":3,"transit":false,"i_lat":-6.255332,"is_transit":false,"i_long":106.85449,"station_id":"DRN"},{"line":2,"distance":824,"i_lat":-6.263214,"is_transit":false,"transit":false,"time":2,"station_id":"PSMB","i_long":106.851577,"station_name":"Pasar Minggu Baru"},{"distance":2380,"transit":false,"time":2,"is_transit":false,"station_name":"Pasar Minggu","i_lat":-6.2842400000000005,"station_id":"PSM","line":2,"i_long":106.843999},{"i_lat":-6.3080680000000005,"time":4,"transit":false,"station_id":"TNT","line":2,"station_name":"Tanjung Barat","i_long":106.838896,"is_transit":false,"distance":2820},{"distance":2671,"station_id":"LNA","time":3,"i_lat":-6.330363,"is_transit":false,"line":2,"station_name":"Lenteng Agung","transit":false,"i_long":106.832616}],[{"i_lat":-6.33561,"is_transit":false,"distance":0,"time":0,"station_id":"CKY","line":3,"station_name":"Cikoya","i_long":106.411216,"transit":false},{"distance":2651,"i_long":106.425991,"is_transit":false,"transit":false,"station_id":"TGS","time":3,"station_name":"Tigaraksa","i_lat":-6.328533,"line":6},{"is_transit":false,"i_lat":-6.327251,"i_long":106.460812,"distance":2974,"line":6,"station_name":"Tenjo","time":5,"transit":false,"station_id":"TEJ"},{"is_transit":false,"distance":3902,"station_id":"DAR","station_name":"Daru","i_long":106.491338,"line":0,"transit":false,"i_lat":-6.338021,"time":5},{"station_name":"Cilejit","time":6,"is_transit":false,"i_lat":-6.354349,"line":3,"transit":false,"distance":2675,"i_long":106.508482,"station_id":"CJT"},{"i_long":106.568863,"transit":false,"station_name":"Parung Panjang","is_transit":false,"station_id":"PRP","i_lat":-6.3441410000000005,"time":9,"line":6,"distance":7025},{"distance":5968,"time":8,"is_transit":false,"station_id":"CC","transit":false,"station_name":"Cicayur","i_long":106.617853,"line":3,"i_lat":-6.329547},{"distance":2519,"station_id":"CSK","station_name":"Cisauk","line":3,"time":4,"i_lat":-6.32484,"i_long":106.640411,"is_transit":false,"transit":false},{"distance":1784,"i_long":106.66566,"station_name":"Serpong","time":4,"transit":false,"line":6,"is_transit":false,"i_lat":-6.319871,"station_id":"SRP"},{"i_lat":-6.314823,"line":6,"is_transit":false,"distance":2413,"i_long":106.675475,"time":4,"station_id":"RU","station_name":"Rawa Buntu","transit":false},{"station_name":"Sudimara","distance":4566,"is_transit":false,"station_id":"SDM","i_lat":-6.296963,"i_long":106.712277,"transit":false,"time":6,"line":6},{"is_transit":false,"time":4,"i_lat":-6.288927,"transit":false,"station_name":"Jurangmangu","i_long":106.728916,"line":6,"distance":1994,"station_id":"JMU"},{"transit":false,"line":6,"i_long":106.74273,"station_name":"Pondokranji","i_lat":-6.276362,"time":3,"station_id":"PDJ","is_transit":false,"distance":2179},{"i_long":106.780334,"distance":6218,"station_id":"KBY","i_lat":-6.237242,"transit":false,"is_transit":false,"line":6,"time":8,"station_name":"Kebayoran"},{"time":7,"is_transit":false,"i_lat":-6.207404,"line":6,"station_name":"Palmerah","i_long":106.79689,"distance":3737,"transit":false,"station_id":"PLM"},{"time":6,"transit":true,"i_lat":-6.185545,"distance":3191,"station_name":"Tanah Abang","line":1,"station_id":"THB","i_long":106.811091,"is_transit":true},{"station_id":"DU","is_transit":false,"transit":false,"time":8,"distance":3632,"i_lat":-6.155215,"i_long":106.800832,"line":1,"station_name":"Duri"},{"is_transit":false,"transit":false,"line":1,"i_lat":-6.144674,"i_long":106.79867,"station_id":"AK","time":4,"distance":1230,"station_name":"Angke"},{"station_id":"KPB","line":4,"time":9,"transit":true,"station_name":"Kampung Bandan","is_transit":true,"i_lat":-6.132549,"i_long":106.826365,"distance":4102},{"line":11,"i_long":106.836569,"distance":1444,"i_lat":-6.14505,"is_transit":false,"station_id":"RJW","transit":false,"time":3,"station_name":"Rajawali"},{"station_id":"KMO","station_name":"Kemayoran","i_long":106.839204,"distance":1901,"is_transit":false,"transit":false,"line":11,"i_lat":-6.161728,"time":5},{"station_name":"Pasar Senen","station_id":"PSE","i_long":106.84368,"line":11,"i_lat":-6.174784,"transit":false,"distance":1436,"is_transit":false,"time":4},{"i_lat":-6.185975,"i_long":106.850107,"transit":false,"line":11,"distance":1567,"time":8,"is_transit":false,"station_id":"GST","station_name":"Gang Sentiong"},{"line":11,"station_name":"Kramat","i_lat":-6.193792,"distance":973,"transit":false,"time":1,"i_long":106.855437,"station_id":"KMT","is_transit":false},{"distance":1829,"time":2,"is_transit":false,"station_id":"POK","i_lat":-6.209188,"i_long":106.861737,"station_name":"Pondok Jati","transit":false,"line":11},{"line":1,"is_transit":true,"i_long":106.86807400000001,"time":9,"transit":true,"station_id":"JNG","i_lat":-6.215091,"station_name":"Jatinegara","distance":1236},{"line":1,"time":2,"is_transit":false,"station_id":"MTR","station_name":"Matraman","i_long":106.858896,"distance":1377,"transit":false,"i_lat":-6.212485},{"i_lat":-6.209883,"station_name":"Manggarai","i_long":106.84912,"station_id":"MRI","line":2,"time":2,"is_transit":true,"distance":1275,"transit":true},{"i_long":106.857948,"i_lat":-6.226659,"line":2,"is_transit":false,"distance":2610,"station_id":"TEB","station_name":"Tebet","time":4,"transit":false},{"line":2,"distance":1230,"is_transit":false,"i_lat":-6.242512,"i_long":106.856607,"station_id":"CW","time":2,"station_name":"Cawang","transit":false},{"i_long":106.85449,"distance":1546,"time":3,"i_lat":-6.255332,"station_id":"DRN","line":2,"station_name":"Duren Kalibata","is_transit":false,"transit":false},{"distance":824,"station_id":"PSMB","station_name":"Pasar Minggu Baru","is_transit":false,"i_lat":-6.263214,"transit":false,"line":2,"i_long":106.851577,"time":2},{"transit":false,"distance":2380,"i_long":106.843999,"station_id":"PSM","station_name":"Pasar Minggu","i_lat":-6.2842400000000005,"is_transit":false,"time":2,"line":2},{"time":4,"is_transit":false,"station_id":"TNT","i_long":106.838896,"station_name":"Tanjung Barat","line":2,"distance":2820,"transit":false,"i_lat":-6.3080680000000005},{"station_name":"Lenteng Agung","line":2,"i_long":106.832616,"transit":false,"is_transit":false,"time":3,"i_lat":-6.330363,"distance":2671,"station_id":"LNA"}]]}