{"data":[[{"station_name":"Cikoya","is_transit":false,"transit":false,"time":0,"line":3,"station_id":"CKY","i_long":106.411216,"i_lat":-6.33561,"distance":0},{"distance":2651,"i_long":106.425991,"station_name":"Tigaraksa","time":3,"is_transit":false,"station_id":"TGS","i_lat":-6.328533,"line":6,"transit":false},{"transit":false,"station_name":"Tenjo","station_id":"TEJ","line":6,"distance":2974,"i_long":106.460812,"i_lat":-6.327251,"is_transit":false,"time":5},{"is_transit":false,"distance":3902,"line":0,"station_id":"DAR","transit":false,"time":5,"station_name":"Daru","i_lat":-6.338021,"i_long":106.491338},{"i_lat":-6.354349,"station_name":"Cilejit","transit":false,"is_transit":false,"time":6,"line":3,"distance":2675,"station_id":"CJT","i_long":106.508482},{"station_id":"PRP","i_lat":-6.3441410000000005,"i_long":106.568863,"distance":7025,"line":6,"station_name":"Parung Panjang","transit":false,"is_transit":false,"time":9},{"distance":5968,"transit":false,"i_lat":-6.329547,"line":3,"station_id":"CC","i_long":106.617853,"station_name":"Cicayur","is_transit":false,"time":8},{"distance":2519,"transit":false,"station_id":"CSK","line":3,"time":4,"station_name":"Cisauk","is_transit":false,"i_lat":-6.32484,"i_long":106.640411},{"distance":1784,"station_name":"Serpong","is_transit":false,"line":6,"i_long":106.66566,"time":4,"transit":false,"station_id":"SRP","i_lat":-6.319871}]]}