{"data":[[{"station_id":"CKY","time":0,"transit":false,"i_lat":-6.33561,"station_name":"Cikoya","i_long":106.411216,"distance":0,"is_transit":false,"line":3},{"time":3,"station_name":"Tigaraksa","distance":2651,"i_long":106.425991,"station_id":"TGS","line":6,"i_lat":-6.328533,"is_transit":false,"transit":false},{"time":5,"distance":2974,"station_name":"Tenjo","i_long":106.460812,"i_lat":-6.327251,"station_id":"TEJ","is_transit":false,"transit":false,"line":6},{"transit":false,"time":5,"i_long":106.491338,"line":0,"distance":3902,"station_name":"Daru","station_id":"DAR","is_transit":false,"i_lat":-6.338021},{"line":3,"time":6,"station_name":"Cilejit","i_long":106.508482,"station_id":"CJT","distance":2675,"i_lat":-6.354349,"is_transit":false,"transit":false},{"i_long":106.568863,"transit":false,"time":9,"is_transit":false,"station_id":"PRP","station_name":"Parung Panjang","distance":7025,"i_lat":-6.3441410000000005,"line":6},{"station_name":"Cicayur","i_long":106.617853,"distance":5968,"line":3,"time":8,"is_transit":false,"transit":false,"station_id":"CC","i_lat":-6.329547},{"line":3,"distance":2519,"station_name":"Cisauk","station_id":"CSK","is_transit":false,"transit":false,"time":4,"i_long":106.640411,"i_lat":-6.32484},{"station_name":"Serpong","time":4,"distance":1784,"station_id":"SRP","is_transit":false,"i_long":106.66566,"i_lat":-6.319871,"line":6,"transit":false},{"i_long":106.675475,"i_lat":-6.314823,"station_id":"RU","is_transit":false,"line":6,"station_name":"Rawa Buntu","distance":2413,"transit":false,"time":4},{"i_long":106.712277,"transit":false,"station_name":"Sudimara","distance":4566,"i_lat":-6.296963,"is_transit":false,"station_id":"SDM","line":6,"time":6},{"station_id":"JMU","station_name":"Jurangmangu","is_transit":false,"line":6,"i_lat":-6.288927,"distance":1994,"i_long":106.728916,"time":4,"transit":false},{"distance":2179,"is_transit":false,"time":3,"i_lat":-6.276362,"line":6,"station_id":"PDJ","transit":false,"i_long":106.74273,"station_name":"Pondokranji"},{"station_id":"KBY","distance":6218,"is_transit":false,"i_long":106.780334,"transit":false,"time":8,"line":6,"station_name":"Kebayoran","i_lat":-6.237242},{"line":6,"is_transit":false,"time":7,"distance":3737,"i_long":106.79689,"station_id":"PLM","station_name":"Palmerah","transit":false,"i_lat":-6.207404},{"is_transit":true,"transit":true,"time":6,"distance":3191,"i_long":106.811091,"station_name":"Tanah Abang","station_id":"THB","i_lat":-6.185545,"line":1},{"time":5,"station_id":"KAT","i_long":106.816351,"line":1,"transit":false,"distance":2029,"station_name":"Karet","i_lat":-6.20132,"is_transit":false},{"station_id":"SUDB","transit":false,"line":1,"time":1,"distance":471,"station_name":"Sudirman Baru","i_lat":-6.201433,"i_long":106.819881,"is_transit":false},{"station_name":"Sudirman","time":1,"transit":false,"line":1,"i_lat":-6.202263,"station_id":"SUD","distance":280,"is_transit":false,"i_long":106.822649},{"line":2,"transit":true,"station_id":"MRI","distance":3186,"is_transit":true,"i_long":106.84912,"time":4,"i_lat":-6.209883,"station_name":"Manggarai"},{"time":4,"i_lat":-6.226659,"transit":false,"distance":2610,"station_id":"TEB","is_transit":false,"station_name":"Tebet","line":2,"i_long":106.857948},{"line":2,"distance":1230,"i_long":106.856607,"station_name":"Cawang","is_transit":false,"transit":false,"station_id":"CW","time":2,"i_lat":-6.242512},{"i_long":106.85449,"station_name":"Duren Kalibata","transit":false,"i_lat":-6.255332,"line":2,"distance":1546,"station_id":"DRN","is_transit":false,"time":3},{"line":2,"transit":false,"distance":824,"time":2,"station_name":"Pasar Minggu Baru","i_long":106.851577,"station_id":"PSMB","is_transit":false,"i_lat":-6.263214},{"distance":2380,"station_id":"PSM","is_transit":false,"i_lat":-6.2842400000000005,"line":2,"station_name":"Pasar Minggu","transit":false,"time":2,"i_long":106.843999}],[{"i_lat":-6.33561,"is_transit":false,"line":3,"i_long":106.411216,"station_id":"CKY","transit":false,"time":0,"distance":0,"station_name":"Cikoya"},{"time":3,"i_long":106.425991,"line":6,"station_id":"TGS","distance":2651,"transit":false,"i_lat":-6.328533,"is_transit":false,"station_name":"Tigaraksa"},{"station_id":"TEJ","i_long":106.460812,"transit":false,"is_transit":false,"line":6,"time":5,"i_lat":-6.327251,"station_name":"Tenjo","distance":2974},{"time":5,"transit":false,"station_name":"Daru","station_id":"DAR","is_transit":false,"distance":3902,"i_long":106.491338,"i_lat":-6.338021,"line":0},{"i_long":106.508482,"station_name":"Cilejit","time":6,"i_lat":-6.354349,"distance":2675,"transit":false,"station_id":"CJT","line":3,"is_transit":false},{"distance":7025,"station_name":"Parung Panjang","is_transit":false,"transit":false,"time":9,"station_id":"PRP","i_long":106.568863,"line":6,"i_lat":-6.3441410000000005},{"is_transit":false,"time":8,"station_id":"CC","i_lat":-6.329547,"line":3,"distance":5968,"station_name":"Cicayur","i_long":106.617853,"transit":false},{"i_lat":-6.32484,"distance":2519,"i_long":106.640411,"transit":false,"station_name":"Cisauk","line":3,"is_transit":false,"station_id":"CSK","time":4},{"distance":1784,"station_name":"Serpong","station_id":"SRP","is_transit":false,"i_lat":-6.319871,"transit":false,"time":4,"i_long":106.66566,"line":6},{"i_lat":-6.314823,"time":4,"i_long":106.675475,"station_id":"RU","station_name":"Rawa Buntu","is_transit":false,"distance":2413,"transit":false,"line":6},{"station_id":"SDM","i_long":106.712277,"i_lat":-6.296963,"is_transit":false,"distance":4566,"station_name":"Sudimara","transit":false,"line":6,"time":6},{"is_transit":false,"line":6,"station_id":"JMU","station_name":"Jurangmangu","transit":false,"distance":1994,"i_lat":-6.288927,"i_long":106.728916,"time":4},{"station_name":"Pondokranji","i_lat":-6.276362,"is_transit":false,"station_id":"PDJ","transit":false,"time":3,"distance":2179,"i_long":106.74273,"line":6},{"distance":6218,"i_long":106.780334,"is_transit":false,"time":8,"line":6,"station_name":"Kebayoran","i_lat":-6.237242,"station_id":"KBY","transit":false},{"time":7,"distance":3737,"station_id":"PLM","i_lat":-6.207404,"i_long":106.79689,"is_transit":false,"line":6,"station_name":"Palmerah","transit":false},{"station_id":"THB","time":6,"i_long":106.811091,"i_lat":-6.185545,"station_name":"Tanah Abang","transit":true,"distance":3191,"is_transit":true,"line":1},{"i_lat":-6.155215,"line":1,"station_name":"Duri","time":8,"i_long":106.800832,"is_transit":false,"station_id":"DU","transit":false,"distance":3632},{"station_id":"AK","time":4,"i_lat":-6.144674,"i_long":106.79867,"line":1,"distance":1230,"is_transit":false,"transit":false,"station_name":"Angke"},{"i_lat":-6.132549,"transit":true,"station_name":"Kampung Bandan","station_id":"KPB","time":9,"distance":4102,"line":4,"is_transit":true,"i_long":106.826365},{"is_transit":true,"distance":1364,"i_lat":-6.137569,"transit":true,"line":2,"time":3,"i_long":106.812439,"station_name":"Jakarta Kota","station_id":"JAKK"},{"transit":false,"time":4,"station_id":"JAY","i_lat":-6.141205,"i_long":106.820901,"distance":1264,"line":2,"station_name":"Jayakarta","is_transit":false},{"i_lat":-6.149769,"time":2,"station_id":"MGB","i_long":106.82482,"is_transit":false,"distance":1080,"station_name":"Manggabesar","transit":false,"line":2},{"distance":906,"i_lat":-6.160725,"line":2,"station_name":"Sawah Besar","is_transit":false,"station_id":"SW","time":2,"transit":false,"i_long":106.827103},{"station_id":"JUA","station_name":"Juanda","is_transit":false,"distance":1149,"line":2,"time":2,"i_long":106.828284,"transit":false,"i_lat":-6.166716},{"distance":2015,"line":2,"is_transit":false,"i_lat":-6.186295,"i_long":106.832183,"transit":false,"station_id":"GDD","time":4,"station_name":"Gondangdia"},{"transit":false,"station_id":"CKI","line":2,"i_long":106.840169,"is_transit":false,"station_name":"Cikini","time":3,"distance":1750,"i_lat":-6.198556},{"distance":1590,"line":2,"is_transit":false,"i_long":106.84912,"transit":false,"station_id":"MRI","time":4,"station_name":"Manggarai","i_lat":-6.209883},{"is_transit":false,"i_lat":-6.226659,"line":2,"time":4,"distance":2610,"station_id":"TEB","i_long":106.857948,"transit":false,"station_name":"Tebet"},{"distance":1230,"station_id":"CW","i_lat":-6.242512,"time":2,"transit":false,"station_name":"Cawang","is_transit":false,"line":2,"i_long":106.856607},{"station_id":"DRN","time":3,"i_long":106.85449,"station_name":"Duren Kalibata","distance":1546,"is_transit":false,"line":2,"transit":false,"i_lat":-6.255332},{"distance":824,"transit":false,"i_lat":-6.263214,"station_name":"Pasar Minggu Baru","station_id":"PSMB","i_long":106.851577,"line":2,"time":2,"is_transit":false},{"i_lat":-6.2842400000000005,"i_long":106.843999,"distance":2380,"station_name":"Pasar Minggu","transit":false,"station_id":"PSM","line":2,"time":2,"is_transit":false}],[{"distance":0,"i_long":106.411216,"is_transit":false,"transit":false,"line":3,"station_id":"CKY","station_name":"Cikoya","time":0,"i_lat":-6.33561},{"station_name":"Tigaraksa","time":3,"i_lat":-6.328533,"line":6,"distance":2651,"is_transit":false,"i_long":106.425991,"transit":false,"station_id":"TGS"},{"time":5,"station_id":"TEJ","station_name":"Tenjo","distance":2974,"i_long":106.460812,"i_lat":-6.327251,"line":6,"is_transit":false,"transit":false},{"line":0,"transit":false,"i_long":106.491338,"time":5,"distance":3902,"i_lat":-6.338021,"station_id":"DAR","station_name":"Daru","is_transit":false},{"station_id":"CJT","time":6,"i_lat":-6.354349,"line":3,"transit":false,"is_transit":false,"i_long":106.508482,"distance":2675,"station_name":"Cilejit"},{"i_long":106.568863,"station_id":"PRP","transit":false,"station_name":"Parung Panjang","time":9,"distance":7025,"line":6,"is_transit":false,"i_lat":-6.3441410000000005},{"i_long":106.617853,"station_name":"Cicayur","time":8,"is_transit":false,"transit":false,"line":3,"i_lat":-6.329547,"station_id":"CC","distance":5968},{"station_id":"CSK","line":3,"time":4,"transit":false,"distance":2519,"station_name":"Cisauk","i_lat":-6.32484,"is_transit":false,"i_long":106.640411},{"station_name":"Serpong","time":4,"line":6,"distance":1784,"station_id":"SRP","i_lat":-6.319871,"i_long":106.66566,"is_transit":false,"transit":false},{"station_id":"RU","is_transit":false,"i_lat":-6.314823,"i_long":106.675475,"station_name":"Rawa Buntu","line":6,"distance":2413,"transit":false,"time":4},{"time":6,"i_lat":-6.296963,"station_name":"Sudimara","transit":false,"line":6,"station_id":"SDM","is_transit":false,"i_long":106.712277,"distance":4566},{"distance":1994,"transit":false,"i_lat":-6.288927,"station_name":"Jurangmangu","time":4,"station_id":"JMU","is_transit":false,"i_long":106.728916,"line":6},{"i_lat":-6.276362,"transit":false,"time":3,"distance":2179,"station_id":"PDJ","station_name":"Pondokranji","line":6,"i_long":106.74273,"is_transit":false},{"station_id":"KBY","station_name":"Kebayoran","is_transit":false,"i_lat":-6.237242,"distance":6218,"transit":false,"time":8,"i_long":106.780334,"line":6},{"distance":3737,"line":6,"time":7,"i_long":106.79689,"i_lat":-6.207404,"station_id":"PLM","transit":false,"is_transit":false,"station_name":"Palmerah"},{"transit":true,"distance":3191,"station_id":"THB","line":1,"time":6,"is_transit":true,"station_name":"Tanah Abang","i_long":106.811091,"i_lat":-6.185545},{"time":8,"i_lat":-6.155215,"is_transit":false,"distance":3632,"transit":false,"station_id":"DU","i_long":106.800832,"line":1,"station_name":"Duri"},{"is_transit":false,"i_long":106.79867,"i_lat":-6.144674,"distance":1230,"line":1,"station_id":"AK","time":4,"transit":false,"station_name":"Angke"},{"station_name":"Kampung Bandan","is_transit":true,"transit":true,"i_lat":-6.132549,"line":4,"distance":4102,"station_id":"KPB","time":9,"i_long":106.826365},{"station_name":"Rajawali","line":11,"station_id":"RJW","is_transit":false,"transit":false,"distance":1444,"i_lat":-6.14505,"time":3,"i_long":106.836569},{"time":5,"is_transit":false,"station_id":"KMO","distance":1901,"transit":false,"i_lat":-6.161728,"i_long":106.839204,"line":11,"station_name":"Kemayoran"},{"station_id":"PSE","transit":false,"i_long":106.84368,"time":4,"distance":1436,"station_name":"Pasar Senen","is_transit":false,"line":11,"i_lat":-6.174784},{"i_lat":-6.185975,"i_long":106.850107,"station_id":"GST","time":8,"distance":1567,"is_transit":false,"transit":false,"line":11,"station_name":"Gang Sentiong"},{"is_transit":false,"distance":973,"i_long":106.855437,"i_lat":-6.193792,"station_name":"Kramat","line":11,"station_id":"KMT","time":1,"transit":false},{"distance":1829,"station_id":"POK","i_lat":-6.209188,"line":11,"station_name":"Pondok Jati","time":2,"transit":false,"is_transit":false,"i_long":106.861737},{"time":9,"station_name":"Jatinegara","i_long":106.86807400000001,"distance":1236,"transit":true,"line":1,"station_id":"JNG","i_lat":-6.215091,"is_transit":true},{"distance":1377,"station_name":"Matraman","transit":false,"is_transit":false,"line":1,"station_id":"MTR","i_long":106.858896,"time":2,"i_lat":-6.212485},{"line":2,"station_id":"MRI","i_lat":-6.209883,"distance":1275,"transit":true,"station_name":"Manggarai","i_long":106.84912,"time":2,"is_transit":true},{"station_name":"Tebet","transit":false,"i_long":106.857948,"time":4,"line":2,"station_id":"TEB","is_transit":false,"i_lat":-6.226659,"distance":2610},{"i_lat":-6.242512,"time":2,"i_long":106.856607,"line":2,"station_id":"CW","station_name":"Cawang","transit":false,"distance":1230,"is_transit":false},{"i_long":106.85449,"station_id":"DRN","i_lat":-6.255332,"is_transit":false,"line":2,"station_name":"Duren Kalibata","transit":false,"time":3,"distance":1546},{"distance":824,"time":2,"station_id":"PSMB","i_lat":-6.263214,"is_transit":false,"station_name":"Pasar Minggu Baru","transit":false,"i_long":106.851577,"line":2},{"i_long":106.843999,"line":2,"distance":2380,"transit":false,"station_id":"PSM","is_transit":false,"time":2,"i_lat":-6.2842400000000005,"station_name":"Pasar Minggu"}]]}