{"data":[[{"transit":false,"is_transit":false,"distance":0,"time":0,"station_id":"CKY","i_lat":-6.33561,"i_long":106.411216,"line":0,"station_name":"Cikoya"},{"station_name":"Tigaraksa","distance":2651,"transit":false,"station_id":"TGS","i_lat":-6.328533,"line":6,"i_long":106.425991,"is_transit":false,"time":3},{"station_name":"Tenjo","station_id":"TEJ","is_transit":false,"i_long":106.460812,"distance":2974,"transit":false,"line":6,"time":5,"i_lat":-6.327251},{"distance":3902,"i_lat":-6.338021,"line":0,"station_id":"DAR","i_long":106.491338,"transit":false,"is_transit":false,"time":5,"station_name":"Daru"},{"transit":false,"distance":2675,"station_id":"CJT","station_name":"Cilejit","is_transit":false,"i_lat":-6.354349,"i_long":106.508482,"line":0,"time":6},{"transit":false,"line":6,"distance":7025,"time":9,"station_name":"Parung Panjang","is_transit":false,"i_lat":-6.3441410000000005,"station_id":"PRP","i_long":106.568863},{"line":0,"distance":5968,"station_name":"Cicayur","i_long":106.617853,"time":8,"transit":false,"i_lat":-6.329547,"station_id":"CC","is_transit":false},{"i_lat":-6.32484,"distance":2519,"station_name":"Cisauk","is_transit":false,"i_long":106.640411,"transit":false,"station_id":"CSK","time":4,"line":0},{"line":6,"time":4,"i_long":106.66566,"station_name":"Serpong","station_id":"SRP","is_transit":false,"transit":false,"i_lat":-6.319871,"distance":1784},{"station_name":"Rawa Buntu","line":6,"time":4,"transit":false,"distance":2413,"is_transit":false,"i_lat":-6.314823,"station_id":"RU","i_long":106.675475},{"distance":4566,"transit":false,"station_id":"SDM","time":6,"line":6,"i_lat":-6.296963,"station_name":"Sudimara","is_transit":false,"i_long":106.712277},{"is_transit":false,"transit":false,"time":4,"distance":1994,"station_name":"Jurangmangu","station_id":"JMU","i_lat":-6.288927,"i_long":106.728916,"line":6},{"transit":false,"is_transit":false,"time":3,"distance":2179,"i_lat":-6.276362,"station_id":"PDJ","line":6,"station_name":"Pondokranji","i_long":106.74273},{"transit":false,"station_name":"Kebayoran","line":6,"i_lat":-6.237242,"i_long":106.780334,"is_transit":false,"distance":6218,"station_id":"KBY","time":8},{"station_id":"PLM","i_long":106.79689,"line":6,"transit":false,"distance":3737,"station_name":"Palmerah","is_transit":false,"time":7,"i_lat":-6.207404},{"station_id":"THB","distance":3191,"is_transit":true,"time":6,"station_name":"Tanah Abang","i_lat":-6.185545,"line":1,"i_long":106.811091,"transit":true},{"station_id":"KAT","is_transit":false,"time":5,"transit":false,"distance":2029,"i_long":106.816351,"station_name":"Karet","line":1,"i_lat":-6.20132},{"is_transit":false,"time":1,"distance":471,"station_id":"SUDB","station_name":"Sudirman Baru","line":1,"transit":false,"i_lat":-6.201433,"i_long":106.819881},{"line":1,"is_transit":false,"transit":false,"station_name":"Sudirman","time":1,"distance":280,"station_id":"SUD","i_long":106.822649,"i_lat":-6.202263},{"station_id":"MRI","distance":3186,"station_name":"Manggarai","is_transit":true,"time":4,"i_lat":-6.209883,"i_long":106.84912,"transit":true,"line":0},{"i_long":106.840169,"distance":1590,"station_name":"Cikini","line":0,"station_id":"CKI","i_lat":-6.198556,"is_transit":false,"time":4,"transit":false},{"i_long":106.832183,"line":2,"station_name":"Gondangdia","distance":1750,"station_id":"GDD","is_transit":false,"transit":false,"time":3,"i_lat":-6.186295},{"distance":2015,"i_long":106.828284,"station_id":"JUA","station_name":"Juanda","time":4,"is_transit":false,"line":2,"transit":false,"i_lat":-6.166716}],[{"station_id":"CKY","i_lat":-6.33561,"transit":false,"i_long":106.411216,"is_transit":false,"time":0,"line":0,"distance":0,"station_name":"Cikoya"},{"station_name":"Tigaraksa","time":3,"i_long":106.425991,"station_id":"TGS","distance":2651,"transit":false,"i_lat":-6.328533,"is_transit":false,"line":6},{"is_transit":false,"line":6,"time":5,"station_name":"Tenjo","i_lat":-6.327251,"station_id":"TEJ","distance":2974,"i_long":106.460812,"transit":false},{"line":0,"time":5,"i_lat":-6.338021,"transit":false,"station_name":"Daru","i_long":106.491338,"distance":3902,"station_id":"DAR","is_transit":false},{"time":6,"transit":false,"station_id":"CJT","station_name":"Cilejit","i_lat":-6.354349,"distance":2675,"i_long":106.508482,"line":0,"is_transit":false},{"line":6,"is_transit":false,"i_long":106.568863,"distance":7025,"transit":false,"station_name":"Parung Panjang","i_lat":-6.3441410000000005,"time":9,"station_id":"PRP"},{"station_id":"CC","i_long":106.617853,"time":8,"distance":5968,"is_transit":false,"line":0,"station_name":"Cicayur","transit":false,"i_lat":-6.329547},{"i_lat":-6.32484,"i_long":106.640411,"distance":2519,"time":4,"is_transit":false,"station_name":"Cisauk","station_id":"CSK","line":0,"transit":false},{"line":6,"is_transit":false,"time":4,"i_long":106.66566,"transit":false,"i_lat":-6.319871,"station_name":"Serpong","station_id":"SRP","distance":1784},{"is_transit":false,"line":6,"station_name":"Rawa Buntu","time":4,"station_id":"RU","transit":false,"distance":2413,"i_lat":-6.314823,"i_long":106.675475},{"station_id":"SDM","i_long":106.712277,"transit":false,"is_transit":false,"i_lat":-6.296963,"line":6,"station_name":"Sudimara","time":6,"distance":4566},{"distance":1994,"line":6,"time":4,"i_long":106.728916,"station_name":"Jurangmangu","station_id":"JMU","transit":false,"i_lat":-6.288927,"is_transit":false},{"station_id":"PDJ","distance":2179,"time":3,"i_long":106.74273,"line":6,"transit":false,"is_transit":false,"station_name":"Pondokranji","i_lat":-6.276362},{"line":6,"time":8,"distance":6218,"station_id":"KBY","is_transit":false,"i_long":106.780334,"i_lat":-6.237242,"transit":false,"station_name":"Kebayoran"},{"transit":false,"station_id":"PLM","i_lat":-6.207404,"station_name":"Palmerah","time":7,"distance":3737,"i_long":106.79689,"line":6,"is_transit":false},{"distance":3191,"line":1,"transit":true,"is_transit":true,"i_lat":-6.185545,"station_name":"Tanah Abang","i_long":106.811091,"time":6,"station_id":"THB"},{"time":8,"line":1,"i_lat":-6.155215,"station_id":"DU","is_transit":true,"transit":true,"i_long":106.800832,"distance":3632,"station_name":"Duri"},{"time":4,"is_transit":false,"transit":false,"station_id":"AK","i_long":106.79867,"line":0,"i_lat":-6.144674,"station_name":"Angke","distance":1230},{"time":9,"i_long":106.826365,"i_lat":-6.132549,"station_id":"KPB","transit":false,"is_transit":true,"station_name":"Kampung Bandan","line":0,"distance":4102},{"station_name":"Jakarta Kota","i_long":106.812439,"transit":true,"is_transit":true,"distance":1364,"station_id":"JAKK","time":3,"i_lat":-6.137569,"line":0},{"station_name":"Jayakarta","station_id":"JAY","is_transit":false,"i_long":106.820901,"distance":1264,"i_lat":-6.141205,"line":7,"time":4,"transit":false},{"station_name":"Manggabesar","i_lat":-6.149769,"line":2,"is_transit":false,"station_id":"MGB","time":2,"distance":1080,"i_long":106.82482,"transit":false},{"i_long":106.827103,"transit":false,"i_lat":-6.160725,"distance":906,"time":2,"station_id":"SW","is_transit":false,"station_name":"Sawah Besar","line":2},{"i_lat":-6.166716,"distance":1149,"i_long":106.828284,"is_transit":false,"time":2,"station_name":"Juanda","transit":false,"station_id":"JUA","line":2}],[{"i_long":106.411216,"station_name":"Cikoya","line":0,"time":0,"transit":false,"is_transit":false,"station_id":"CKY","distance":0,"i_lat":-6.33561},{"i_long":106.425991,"i_lat":-6.328533,"distance":2651,"time":3,"station_name":"Tigaraksa","station_id":"TGS","transit":false,"is_transit":false,"line":6},{"distance":2974,"i_long":106.460812,"time":5,"transit":false,"i_lat":-6.327251,"is_transit":false,"station_name":"Tenjo","line":6,"station_id":"TEJ"},{"distance":3902,"is_transit":false,"transit":false,"station_id":"DAR","time":5,"station_name":"Daru","i_long":106.491338,"i_lat":-6.338021,"line":0},{"station_id":"CJT","i_long":106.508482,"i_lat":-6.354349,"line":0,"is_transit":false,"time":6,"station_name":"Cilejit","transit":false,"distance":2675},{"station_name":"Parung Panjang","is_transit":false,"transit":false,"station_id":"PRP","i_long":106.568863,"i_lat":-6.3441410000000005,"time":9,"distance":7025,"line":6},{"station_id":"CC","is_transit":false,"i_lat":-6.329547,"time":8,"distance":5968,"line":0,"i_long":106.617853,"transit":false,"station_name":"Cicayur"},{"station_id":"CSK","time":4,"station_name":"Cisauk","i_long":106.640411,"line":0,"distance":2519,"i_lat":-6.32484,"is_transit":false,"transit":false},{"station_id":"SRP","i_long":106.66566,"time":4,"station_name":"Serpong","is_transit":false,"distance":1784,"line":6,"transit":false,"i_lat":-6.319871},{"station_id":"RU","time":4,"station_name":"Rawa Buntu","transit":false,"is_transit":false,"i_long":106.675475,"line":6,"distance":2413,"i_lat":-6.314823},{"line":6,"is_transit":false,"distance":4566,"station_name":"Sudimara","i_long":106.712277,"time":6,"transit":false,"station_id":"SDM","i_lat":-6.296963},{"distance":1994,"transit":false,"station_id":"JMU","line":6,"time":4,"station_name":"Jurangmangu","is_transit":false,"i_lat":-6.288927,"i_long":106.728916},{"is_transit":false,"i_long":106.74273,"line":6,"i_lat":-6.276362,"distance":2179,"time":3,"transit":false,"station_name":"Pondokranji","station_id":"PDJ"},{"station_name":"Kebayoran","time":8,"station_id":"KBY","is_transit":false,"i_lat":-6.237242,"line":6,"i_long":106.780334,"transit":false,"distance":6218},{"i_long":106.79689,"time":7,"line":6,"is_transit":false,"station_id":"PLM","station_name":"Palmerah","distance":3737,"i_lat":-6.207404,"transit":false},{"station_id":"THB","is_transit":true,"transit":true,"i_long":106.811091,"station_name":"Tanah Abang","time":6,"i_lat":-6.185545,"line":1,"distance":3191},{"transit":true,"i_long":106.800832,"distance":3632,"station_id":"DU","time":8,"station_name":"Duri","i_lat":-6.155215,"is_transit":true,"line":1},{"i_long":106.79867,"line":0,"distance":1230,"station_id":"AK","is_transit":false,"i_lat":-6.144674,"time":4,"station_name":"Angke","transit":false},{"station_id":"KPB","line":0,"time":9,"i_lat":-6.132549,"distance":4102,"station_name":"Kampung Bandan","transit":true,"is_transit":true,"i_long":106.826365},{"station_id":"RJW","transit":false,"i_lat":-6.14505,"i_long":106.836569,"time":3,"station_name":"Rajawali","is_transit":false,"line":11,"distance":1444},{"line":11,"i_lat":-6.161728,"is_transit":false,"distance":1901,"transit":false,"station_id":"KMO","i_long":106.839204,"time":5,"station_name":"Kemayoran"},{"i_long":106.84368,"is_transit":false,"line":11,"time":4,"i_lat":-6.174784,"station_name":"Pasar Senen","transit":false,"distance":1436,"station_id":"PSE"},{"is_transit":false,"transit":false,"station_id":"GST","distance":1567,"i_lat":-6.185975,"i_long":106.850107,"time":8,"station_name":"Gang Sentiong","line":11},{"i_lat":-6.193792,"i_long":106.855437,"line":11,"station_name":"Kramat","station_id":"KMT","distance":973,"transit":false,"is_transit":false,"time":1},{"is_transit":false,"transit":false,"line":11,"station_id":"POK","i_lat":-6.209188,"time":2,"i_long":106.861737,"station_name":"Pondok Jati","distance":1829},{"line":0,"i_lat":-6.215091,"i_long":106.86807400000001,"time":9,"transit":true,"is_transit":true,"distance":1236,"station_name":"Jatinegara","station_id":"JNG"},{"transit":false,"is_transit":false,"i_long":106.858896,"distance":1377,"line":1,"time":2,"station_name":"Matraman","i_lat":-6.212485,"station_id":"MTR"},{"line":0,"is_transit":true,"time":2,"distance":1275,"station_id":"MRI","transit":true,"station_name":"Manggarai","i_long":106.84912,"i_lat":-6.209883},{"station_id":"CKI","time":4,"station_name":"Cikini","transit":false,"i_lat":-6.198556,"line":0,"distance":1590,"i_long":106.840169,"is_transit":false},{"station_id":"GDD","line":2,"i_lat":-6.186295,"i_long":106.832183,"distance":1750,"transit":false,"time":3,"station_name":"Gondangdia","is_transit":false},{"is_transit":false,"distance":2015,"transit":false,"station_name":"Juanda","i_lat":-6.166716,"station_id":"JUA","i_long":106.828284,"time":4,"line":2}],[{"transit":false,"is_transit":false,"line":0,"station_name":"Cikoya","distance":0,"station_id":"CKY","time":0,"i_long":106.411216,"i_lat":-6.33561},{"is_transit":false,"station_name":"Tigaraksa","i_lat":-6.328533,"i_long":106.425991,"line":6,"time":3,"station_id":"TGS","distance":2651,"transit":false},{"i_lat":-6.327251,"is_transit":false,"distance":2974,"time":5,"i_long":106.460812,"transit":false,"station_name":"Tenjo","station_id":"TEJ","line":6},{"transit":false,"station_name":"Daru","i_long":106.491338,"time":5,"station_id":"DAR","is_transit":false,"i_lat":-6.338021,"line":0,"distance":3902},{"i_long":106.508482,"line":0,"time":6,"transit":false,"station_name":"Cilejit","is_transit":false,"i_lat":-6.354349,"station_id":"CJT","distance":2675},{"station_id":"PRP","time":9,"is_transit":false,"i_lat":-6.3441410000000005,"distance":7025,"line":6,"i_long":106.568863,"transit":false,"station_name":"Parung Panjang"},{"i_long":106.617853,"line":0,"distance":5968,"time":8,"station_id":"CC","transit":false,"station_name":"Cicayur","is_transit":false,"i_lat":-6.329547},{"time":4,"station_id":"CSK","is_transit":false,"distance":2519,"transit":false,"station_name":"Cisauk","i_long":106.640411,"line":0,"i_lat":-6.32484},{"is_transit":false,"transit":false,"station_name":"Serpong","distance":1784,"i_lat":-6.319871,"time":4,"i_long":106.66566,"line":6,"station_id":"SRP"},{"time":4,"station_name":"Rawa Buntu","station_id":"RU","is_transit":false,"line":6,"i_lat":-6.314823,"i_long":106.675475,"distance":2413,"transit":false},{"distance":4566,"i_long":106.712277,"is_transit":false,"station_id":"SDM","line":6,"transit":false,"time":6,"station_name":"Sudimara","i_lat":-6.296963},{"i_lat":-6.288927,"station_id":"JMU","time":4,"distance":1994,"transit":false,"station_name":"Jurangmangu","i_long":106.728916,"line":6,"is_transit":false},{"is_transit":false,"time":3,"distance":2179,"line":6,"transit":false,"station_name":"Pondokranji","station_id":"PDJ","i_lat":-6.276362,"i_long":106.74273},{"is_transit":false,"station_id":"KBY","distance":6218,"i_lat":-6.237242,"time":8,"line":6,"i_long":106.780334,"transit":false,"station_name":"Kebayoran"},{"i_lat":-6.207404,"is_transit":false,"station_name":"Palmerah","line":6,"transit":false,"time":7,"station_id":"PLM","distance":3737,"i_long":106.79689},{"is_transit":true,"i_long":106.811091,"transit":true,"i_lat":-6.185545,"line":1,"station_id":"THB","station_name":"Tanah Abang","distance":3191,"time":6},{"station_name":"Karet","distance":2029,"transit":false,"line":1,"station_id":"KAT","i_long":106.816351,"time":5,"i_lat":-6.20132,"is_transit":false},{"transit":false,"is_transit":false,"line":1,"i_lat":-6.201433,"i_long":106.819881,"station_id":"SUDB","distance":471,"station_name":"Sudirman Baru","time":1},{"transit":false,"time":1,"distance":280,"station_id":"SUD","i_long":106.822649,"station_name":"Sudirman","i_lat":-6.202263,"line":1,"is_transit":false},{"station_name":"Manggarai","transit":false,"i_long":106.84912,"line":0,"is_transit":true,"station_id":"MRI","distance":3186,"i_lat":-6.209883,"time":4},{"is_transit":false,"station_id":"MTR","time":2,"line":1,"transit":false,"distance":1275,"i_long":106.858896,"station_name":"Matraman","i_lat":-6.212485},{"station_name":"Jatinegara","station_id":"JNG","distance":1377,"transit":true,"is_transit":true,"i_long":106.86807400000001,"line":0,"i_lat":-6.215091,"time":8},{"time":2,"distance":1236,"is_transit":false,"i_long":106.861737,"line":11,"station_id":"POK","i_lat":-6.209188,"transit":false,"station_name":"Pondok Jati"},{"station_id":"KMT","station_name":"Kramat","transit":false,"is_transit":false,"i_long":106.855437,"time":2,"i_lat":-6.193792,"distance":1829,"line":11},{"is_transit":false,"distance":973,"station_name":"Gang Sentiong","i_lat":-6.185975,"time":1,"station_id":"GST","i_long":106.850107,"transit":false,"line":11},{"transit":false,"is_transit":false,"station_id":"PSE","i_lat":-6.174784,"distance":1567,"line":11,"time":8,"i_long":106.84368,"station_name":"Pasar Senen"},{"transit":false,"i_lat":-6.161728,"station_name":"Kemayoran","is_transit":false,"time":4,"i_long":106.839204,"distance":1436,"station_id":"KMO","line":11},{"station_name":"Rajawali","time":5,"i_lat":-6.14505,"distance":1901,"station_id":"RJW","transit":false,"i_long":106.836569,"line":11,"is_transit":false},{"line":0,"time":3,"is_transit":true,"transit":true,"station_id":"KPB","i_long":106.826365,"i_lat":-6.132549,"distance":1444,"station_name":"Kampung Bandan"},{"station_name":"Jakarta Kota","time":3,"line":0,"station_id":"JAKK","i_long":106.812439,"transit":true,"is_transit":true,"i_lat":-6.137569,"distance":1364},{"i_long":106.820901,"transit":false,"station_name":"Jayakarta","line":7,"time":4,"distance":1264,"station_id":"JAY","is_transit":false,"i_lat":-6.141205},{"time":2,"is_transit":false,"station_id":"MGB","station_name":"Manggabesar","transit":false,"i_lat":-6.149769,"line":2,"distance":1080,"i_long":106.82482},{"station_id":"SW","distance":906,"time":2,"line":2,"station_name":"Sawah Besar","i_lat":-6.160725,"is_transit":false,"transit":false,"i_long":106.827103},{"i_lat":-6.166716,"transit":false,"time":2,"distance":1149,"line":2,"station_id":"JUA","is_transit":false,"i_long":106.828284,"station_name":"Juanda"}]]}