{"data":[[{"i_lat":-6.33561,"station_name":"Cikoya","i_long":106.411216,"time":0,"distance":0,"transit":false,"station_id":"CKY","line":3,"is_transit":false},{"station_name":"Tigaraksa","line":6,"i_lat":-6.328533,"distance":2651,"i_long":106.425991,"transit":false,"station_id":"TGS","is_transit":false,"time":3},{"transit":false,"line":6,"station_name":"Tenjo","station_id":"TEJ","i_long":106.460812,"i_lat":-6.327251,"distance":2974,"time":5,"is_transit":false},{"is_transit":false,"transit":false,"time":5,"station_name":"Daru","line":0,"distance":3902,"i_long":106.491338,"i_lat":-6.338021,"station_id":"DAR"},{"distance":2675,"line":3,"transit":false,"station_name":"Cilejit","time":6,"i_lat":-6.354349,"i_long":106.508482,"station_id":"CJT","is_transit":false},{"is_transit":false,"line":6,"i_long":106.568863,"time":9,"distance":7025,"transit":false,"station_name":"Parung Panjang","i_lat":-6.3441410000000005,"station_id":"PRP"}]]}