{"data":[[{"transit":false,"is_transit":false,"line":3,"i_long":106.411216,"station_name":"Cikoya","station_id":"CKY","i_lat":-6.33561,"time":0,"distance":0},{"i_long":106.425991,"is_transit":false,"transit":false,"station_id":"TGS","i_lat":-6.328533,"distance":2651,"station_name":"Tigaraksa","time":3,"line":6},{"line":6,"transit":false,"station_name":"Tenjo","i_long":106.460812,"station_id":"TEJ","time":5,"distance":2974,"is_transit":false,"i_lat":-6.327251},{"station_name":"Daru","station_id":"DAR","i_lat":-6.338021,"time":5,"distance":3902,"i_long":106.491338,"is_transit":false,"line":0,"transit":false},{"line":3,"i_long":106.508482,"time":6,"is_transit":false,"transit":false,"station_name":"Cilejit","station_id":"CJT","i_lat":-6.354349,"distance":2675},{"station_id":"PRP","station_name":"Parung Panjang","i_long":106.568863,"is_transit":false,"transit":false,"distance":7025,"line":6,"time":9,"i_lat":-6.3441410000000005},{"is_transit":false,"distance":5968,"i_long":106.617853,"station_id":"CC","i_lat":-6.329547,"line":3,"station_name":"Cicayur","time":8,"transit":false},{"station_name":"Cisauk","transit":false,"is_transit":false,"line":3,"distance":2519,"station_id":"CSK","time":4,"i_long":106.640411,"i_lat":-6.32484},{"i_long":106.66566,"line":6,"transit":false,"i_lat":-6.319871,"distance":1784,"time":4,"station_id":"SRP","is_transit":false,"station_name":"Serpong"},{"time":4,"transit":false,"i_lat":-6.314823,"i_long":106.675475,"station_name":"Rawa Buntu","is_transit":false,"line":6,"station_id":"RU","distance":2413},{"station_id":"SDM","is_transit":false,"time":6,"distance":4566,"i_lat":-6.296963,"line":6,"station_name":"Sudimara","i_long":106.712277,"transit":false},{"station_name":"Jurangmangu","station_id":"JMU","time":4,"i_lat":-6.288927,"line":6,"i_long":106.728916,"transit":false,"is_transit":false,"distance":1994},{"i_lat":-6.276362,"station_name":"Pondokranji","is_transit":false,"station_id":"PDJ","distance":2179,"line":6,"i_long":106.74273,"time":3,"transit":false},{"transit":false,"is_transit":false,"time":8,"distance":6218,"i_long":106.780334,"line":6,"station_id":"KBY","station_name":"Kebayoran","i_lat":-6.237242},{"station_id":"PLM","transit":false,"time":7,"distance":3737,"station_name":"Palmerah","i_long":106.79689,"line":6,"is_transit":false,"i_lat":-6.207404},{"transit":true,"station_name":"Tanah Abang","i_long":106.811091,"i_lat":-6.185545,"is_transit":true,"distance":3191,"time":6,"station_id":"THB","line":1},{"station_name":"Karet","line":1,"i_lat":-6.20132,"transit":false,"distance":2029,"time":5,"is_transit":false,"i_long":106.816351,"station_id":"KAT"},{"station_name":"Sudirman Baru","distance":471,"station_id":"SUDB","time":1,"i_lat":-6.201433,"i_long":106.819881,"line":1,"transit":false,"is_transit":false},{"station_id":"SUD","i_long":106.822649,"is_transit":false,"time":1,"transit":false,"i_lat":-6.202263,"station_name":"Sudirman","line":1,"distance":280}],[{"line":3,"transit":false,"i_lat":-6.33561,"station_name":"Cikoya","is_transit":false,"i_long":106.411216,"time":0,"station_id":"CKY","distance":0},{"i_long":106.425991,"station_name":"Tigaraksa","i_lat":-6.328533,"transit":false,"station_id":"TGS","time":3,"distance":2651,"is_transit":false,"line":6},{"is_transit":false,"station_name":"Tenjo","line":6,"time":5,"i_long":106.460812,"station_id":"TEJ","transit":false,"distance":2974,"i_lat":-6.327251},{"time":5,"i_long":106.491338,"station_name":"Daru","line":0,"distance":3902,"is_transit":false,"station_id":"DAR","i_lat":-6.338021,"transit":false},{"is_transit":false,"time":6,"station_id":"CJT","transit":false,"distance":2675,"line":3,"i_lat":-6.354349,"station_name":"Cilejit","i_long":106.508482},{"transit":false,"station_id":"PRP","i_long":106.568863,"station_name":"Parung Panjang","i_lat":-6.3441410000000005,"is_transit":false,"time":9,"line":6,"distance":7025},{"station_name":"Cicayur","line":3,"time":8,"station_id":"CC","is_transit":false,"i_lat":-6.329547,"transit":false,"distance":5968,"i_long":106.617853},{"time":4,"distance":2519,"line":3,"i_lat":-6.32484,"station_id":"CSK","station_name":"Cisauk","i_long":106.640411,"is_transit":false,"transit":false},{"station_name":"Serpong","time":4,"is_transit":false,"station_id":"SRP","i_lat":-6.319871,"line":6,"transit":false,"distance":1784,"i_long":106.66566},{"station_id":"RU","i_lat":-6.314823,"is_transit":false,"i_long":106.675475,"station_name":"Rawa Buntu","distance":2413,"line":6,"transit":false,"time":4},{"station_id":"SDM","station_name":"Sudimara","time":6,"i_lat":-6.296963,"distance":4566,"is_transit":false,"transit":false,"i_long":106.712277,"line":6},{"line":6,"i_long":106.728916,"station_name":"Jurangmangu","station_id":"JMU","is_transit":false,"time":4,"transit":false,"distance":1994,"i_lat":-6.288927},{"station_name":"Pondokranji","line":6,"time":3,"transit":false,"distance":2179,"is_transit":false,"station_id":"PDJ","i_lat":-6.276362,"i_long":106.74273},{"is_transit":false,"line":6,"i_long":106.780334,"transit":false,"station_name":"Kebayoran","i_lat":-6.237242,"distance":6218,"station_id":"KBY","time":8},{"distance":3737,"is_transit":false,"i_lat":-6.207404,"station_id":"PLM","time":7,"line":6,"transit":false,"station_name":"Palmerah","i_long":106.79689},{"i_lat":-6.185545,"time":6,"line":1,"transit":true,"station_id":"THB","i_long":106.811091,"is_transit":true,"distance":3191,"station_name":"Tanah Abang"},{"i_lat":-6.155215,"station_id":"DU","distance":3632,"time":8,"is_transit":false,"i_long":106.800832,"line":1,"station_name":"Duri","transit":false},{"time":4,"station_name":"Angke","transit":false,"station_id":"AK","is_transit":false,"distance":1230,"i_lat":-6.144674,"i_long":106.79867,"line":1},{"transit":true,"is_transit":true,"line":4,"station_name":"Kampung Bandan","distance":4102,"time":9,"i_lat":-6.132549,"i_long":106.826365,"station_id":"KPB"},{"is_transit":true,"i_long":106.812439,"distance":1364,"i_lat":-6.137569,"station_id":"JAKK","transit":true,"line":2,"time":3,"station_name":"Jakarta Kota"},{"is_transit":false,"i_long":106.820901,"station_name":"Jayakarta","line":2,"i_lat":-6.141205,"time":4,"transit":false,"station_id":"JAY","distance":1264},{"line":2,"station_name":"Manggabesar","i_long":106.82482,"station_id":"MGB","distance":1080,"transit":false,"i_lat":-6.149769,"time":2,"is_transit":false},{"station_name":"Sawah Besar","station_id":"SW","i_long":106.827103,"line":2,"distance":906,"time":2,"i_lat":-6.160725,"transit":false,"is_transit":false},{"station_id":"JUA","i_lat":-6.166716,"distance":1149,"transit":false,"station_name":"Juanda","is_transit":false,"line":2,"time":2,"i_long":106.828284},{"i_lat":-6.186295,"i_long":106.832183,"line":2,"time":4,"station_name":"Gondangdia","transit":false,"station_id":"GDD","is_transit":false,"distance":2015},{"station_id":"CKI","distance":1750,"is_transit":false,"station_name":"Cikini","i_lat":-6.198556,"line":2,"i_long":106.840169,"transit":false,"time":3},{"time":4,"distance":1590,"is_transit":true,"i_lat":-6.209883,"station_name":"Manggarai","transit":true,"station_id":"MRI","i_long":106.84912,"line":2},{"i_lat":-6.202263,"time":4,"is_transit":false,"distance":3186,"line":1,"station_id":"SUD","transit":false,"i_long":106.822649,"station_name":"Sudirman"}],[{"line":3,"station_id":"CKY","station_name":"Cikoya","time":0,"transit":false,"i_lat":-6.33561,"is_transit":false,"i_long":106.411216,"distance":0},{"distance":2651,"station_name":"Tigaraksa","transit":false,"i_lat":-6.328533,"is_transit":false,"station_id":"TGS","i_long":106.425991,"line":6,"time":3},{"distance":2974,"i_lat":-6.327251,"is_transit":false,"station_id":"TEJ","time":5,"i_long":106.460812,"station_name":"Tenjo","line":6,"transit":false},{"transit":false,"line":0,"is_transit":false,"station_id":"DAR","distance":3902,"i_lat":-6.338021,"i_long":106.491338,"station_name":"Daru","time":5},{"i_lat":-6.354349,"is_transit":false,"line":3,"station_name":"Cilejit","transit":false,"i_long":106.508482,"station_id":"CJT","time":6,"distance":2675},{"distance":7025,"i_long":106.568863,"is_transit":false,"time":9,"line":6,"transit":false,"station_name":"Parung Panjang","i_lat":-6.3441410000000005,"station_id":"PRP"},{"is_transit":false,"i_long":106.617853,"station_id":"CC","distance":5968,"transit":false,"time":8,"i_lat":-6.329547,"station_name":"Cicayur","line":3},{"time":4,"i_long":106.640411,"distance":2519,"transit":false,"station_name":"Cisauk","station_id":"CSK","i_lat":-6.32484,"is_transit":false,"line":3},{"i_long":106.66566,"time":4,"station_id":"SRP","distance":1784,"is_transit":false,"line":6,"transit":false,"station_name":"Serpong","i_lat":-6.319871},{"station_name":"Rawa Buntu","time":4,"distance":2413,"station_id":"RU","i_lat":-6.314823,"is_transit":false,"i_long":106.675475,"line":6,"transit":false},{"line":6,"station_name":"Sudimara","time":6,"is_transit":false,"i_lat":-6.296963,"station_id":"SDM","i_long":106.712277,"transit":false,"distance":4566},{"is_transit":false,"distance":1994,"line":6,"i_long":106.728916,"transit":false,"time":4,"station_id":"JMU","i_lat":-6.288927,"station_name":"Jurangmangu"},{"line":6,"is_transit":false,"station_name":"Pondokranji","station_id":"PDJ","i_lat":-6.276362,"transit":false,"distance":2179,"time":3,"i_long":106.74273},{"station_id":"KBY","i_lat":-6.237242,"i_long":106.780334,"line":6,"is_transit":false,"transit":false,"station_name":"Kebayoran","distance":6218,"time":8},{"time":7,"is_transit":false,"station_id":"PLM","distance":3737,"i_long":106.79689,"line":6,"i_lat":-6.207404,"station_name":"Palmerah","transit":false},{"station_id":"THB","i_long":106.811091,"time":6,"line":1,"is_transit":true,"distance":3191,"i_lat":-6.185545,"station_name":"Tanah Abang","transit":true},{"transit":false,"line":1,"time":8,"distance":3632,"station_name":"Duri","i_lat":-6.155215,"i_long":106.800832,"is_transit":false,"station_id":"DU"},{"i_long":106.79867,"i_lat":-6.144674,"line":1,"is_transit":false,"distance":1230,"station_name":"Angke","station_id":"AK","transit":false,"time":4},{"line":4,"is_transit":true,"distance":4102,"i_lat":-6.132549,"i_long":106.826365,"station_id":"KPB","station_name":"Kampung Bandan","time":9,"transit":true},{"i_long":106.836569,"distance":1444,"time":3,"i_lat":-6.14505,"station_id":"RJW","line":11,"station_name":"Rajawali","transit":false,"is_transit":false},{"station_id":"KMO","distance":1901,"station_name":"Kemayoran","is_transit":false,"i_lat":-6.161728,"transit":false,"line":11,"i_long":106.839204,"time":5},{"transit":false,"distance":1436,"i_long":106.84368,"station_id":"PSE","station_name":"Pasar Senen","i_lat":-6.174784,"is_transit":false,"time":4,"line":11},{"line":11,"station_id":"GST","distance":1567,"i_lat":-6.185975,"station_name":"Gang Sentiong","time":8,"transit":false,"is_transit":false,"i_long":106.850107},{"i_long":106.855437,"station_id":"KMT","station_name":"Kramat","time":1,"i_lat":-6.193792,"line":11,"transit":false,"is_transit":false,"distance":973},{"is_transit":false,"station_name":"Pondok Jati","time":2,"transit":false,"i_lat":-6.209188,"distance":1829,"station_id":"POK","line":11,"i_long":106.861737},{"distance":1236,"transit":true,"is_transit":true,"i_long":106.86807400000001,"station_name":"Jatinegara","line":1,"time":9,"station_id":"JNG","i_lat":-6.215091},{"station_name":"Matraman","line":1,"transit":false,"is_transit":false,"station_id":"MTR","i_lat":-6.212485,"time":2,"distance":1377,"i_long":106.858896},{"i_lat":-6.209883,"is_transit":false,"station_id":"MRI","i_long":106.84912,"line":2,"transit":false,"time":2,"distance":1275,"station_name":"Manggarai"},{"line":1,"station_name":"Sudirman","transit":false,"distance":3186,"is_transit":false,"i_lat":-6.202263,"i_long":106.822649,"station_id":"SUD","time":4}]]}