{"data":[[{"line":0,"distance":0,"station_id":"CKY","is_transit":false,"i_lat":-6.33561,"transit":false,"time":0,"i_long":106.411216,"station_name":"Cikoya"},{"i_long":106.425991,"distance":2651,"station_name":"Tigaraksa","transit":false,"is_transit":false,"time":3,"line":6,"station_id":"TGS","i_lat":-6.328533},{"station_name":"Tenjo","transit":false,"distance":2974,"i_lat":-6.327251,"is_transit":false,"time":5,"i_long":106.460812,"line":6,"station_id":"TEJ"},{"line":0,"is_transit":false,"transit":false,"time":5,"i_lat":-6.338021,"station_name":"Daru","station_id":"DAR","i_long":106.491338,"distance":3902},{"i_lat":-6.354349,"i_long":106.508482,"station_id":"CJT","station_name":"Cilejit","line":0,"is_transit":false,"time":6,"distance":2675,"transit":false},{"transit":false,"station_name":"Parung Panjang","station_id":"PRP","time":9,"i_lat":-6.3441410000000005,"i_long":106.568863,"line":6,"is_transit":false,"distance":7025},{"transit":false,"station_name":"Cicayur","is_transit":false,"station_id":"CC","i_lat":-6.329547,"line":0,"distance":5968,"i_long":106.617853,"time":8},{"time":4,"station_id":"CSK","transit":false,"i_long":106.640411,"line":0,"is_transit":false,"distance":2519,"station_name":"Cisauk","i_lat":-6.32484},{"i_long":106.66566,"line":6,"station_name":"Serpong","station_id":"SRP","time":4,"is_transit":false,"distance":1784,"i_lat":-6.319871,"transit":false},{"is_transit":false,"time":4,"line":6,"i_long":106.675475,"transit":false,"distance":2413,"station_name":"Rawa Buntu","station_id":"RU","i_lat":-6.314823},{"distance":4566,"transit":false,"i_long":106.712277,"station_id":"SDM","line":6,"i_lat":-6.296963,"station_name":"Sudimara","time":6,"is_transit":false},{"is_transit":false,"transit":false,"station_id":"JMU","i_lat":-6.288927,"i_long":106.728916,"station_name":"Jurangmangu","distance":1994,"time":4,"line":6},{"i_lat":-6.276362,"time":3,"line":6,"station_name":"Pondokranji","station_id":"PDJ","distance":2179,"is_transit":false,"i_long":106.74273,"transit":false},{"transit":false,"i_long":106.780334,"station_name":"Kebayoran","is_transit":false,"distance":6218,"station_id":"KBY","time":8,"i_lat":-6.237242,"line":6},{"is_transit":false,"station_id":"PLM","distance":3737,"i_lat":-6.207404,"i_long":106.79689,"time":7,"station_name":"Palmerah","line":6,"transit":false},{"station_id":"THB","distance":3191,"transit":true,"is_transit":true,"i_lat":-6.185545,"i_long":106.811091,"station_name":"Tanah Abang","time":6,"line":1},{"is_transit":false,"station_id":"KAT","line":1,"station_name":"Karet","distance":2029,"transit":false,"time":5,"i_lat":-6.20132,"i_long":106.816351},{"i_long":106.819881,"line":1,"distance":471,"time":1,"i_lat":-6.201433,"station_name":"Sudirman Baru","transit":false,"is_transit":false,"station_id":"SUDB"},{"is_transit":false,"i_lat":-6.202263,"line":1,"time":1,"transit":false,"distance":280,"station_name":"Sudirman","station_id":"SUD","i_long":106.822649},{"is_transit":true,"time":4,"transit":false,"distance":3186,"station_id":"MRI","line":0,"i_lat":-6.209883,"station_name":"Manggarai","i_long":106.84912},{"is_transit":false,"i_long":106.858896,"station_id":"MTR","time":2,"line":1,"station_name":"Matraman","i_lat":-6.212485,"transit":false,"distance":1275},{"station_id":"JNG","line":0,"is_transit":true,"i_lat":-6.215091,"station_name":"Jatinegara","time":8,"distance":1377,"transit":false,"i_long":106.86807400000001},{"station_name":"Klender","distance":3395,"is_transit":false,"i_lat":-6.2135,"line":1,"station_id":"KLD","time":3,"i_long":106.899548,"transit":false},{"i_long":106.922662,"is_transit":false,"distance":3100,"station_name":"Buaran","i_lat":-6.215568,"transit":false,"station_id":"BUA","time":2,"line":0},{"is_transit":false,"station_id":"KLDB","line":1,"i_lat":-6.217455,"i_long":106.939679,"station_name":"Klenderbaru","time":1,"transit":false,"distance":1305},{"station_name":"Cakung","time":8,"i_long":106.951283,"transit":false,"i_lat":-6.219053,"line":0,"distance":1385,"station_id":"CUK","is_transit":false},{"station_name":"Kranji","transit":false,"is_transit":false,"i_lat":-6.224515,"distance":3097,"time":3,"i_long":106.977657,"station_id":"KRI","line":1},{"distance":2520,"is_transit":false,"i_long":106.997013,"time":4,"line":0,"station_id":"BKS","i_lat":-6.236616,"transit":false,"station_name":"Bekasi"},{"i_long":107.016735,"line":0,"transit":false,"is_transit":false,"i_lat":-6.248029,"time":2,"station_name":"Bekasi Timur","distance":2368,"station_id":"BKST"},{"transit":false,"distance":4460,"i_lat":-6.258864,"station_name":"Tambun","time":7,"i_long":107.055722,"station_id":"TB","line":1,"is_transit":false}],[{"is_transit":false,"time":0,"i_long":106.411216,"i_lat":-6.33561,"distance":0,"station_name":"Cikoya","station_id":"CKY","transit":false,"line":0},{"i_lat":-6.328533,"is_transit":false,"i_long":106.425991,"time":3,"transit":false,"distance":2651,"station_id":"TGS","line":6,"station_name":"Tigaraksa"},{"transit":false,"i_lat":-6.327251,"line":6,"is_transit":false,"station_id":"TEJ","distance":2974,"station_name":"Tenjo","time":5,"i_long":106.460812},{"distance":3902,"line":0,"station_name":"Daru","station_id":"DAR","is_transit":false,"time":5,"i_lat":-6.338021,"i_long":106.491338,"transit":false},{"station_name":"Cilejit","is_transit":false,"line":0,"i_long":106.508482,"distance":2675,"station_id":"CJT","transit":false,"i_lat":-6.354349,"time":6},{"is_transit":false,"i_long":106.568863,"distance":7025,"i_lat":-6.3441410000000005,"transit":false,"station_name":"Parung Panjang","line":6,"time":9,"station_id":"PRP"},{"i_long":106.617853,"is_transit":false,"distance":5968,"time":8,"i_lat":-6.329547,"station_id":"CC","line":0,"station_name":"Cicayur","transit":false},{"station_name":"Cisauk","time":4,"line":0,"i_lat":-6.32484,"i_long":106.640411,"distance":2519,"is_transit":false,"transit":false,"station_id":"CSK"},{"i_lat":-6.319871,"time":4,"transit":false,"is_transit":false,"distance":1784,"station_id":"SRP","line":6,"station_name":"Serpong","i_long":106.66566},{"station_name":"Rawa Buntu","distance":2413,"is_transit":false,"transit":false,"time":4,"station_id":"RU","i_lat":-6.314823,"i_long":106.675475,"line":6},{"distance":4566,"time":6,"transit":false,"line":6,"station_name":"Sudimara","i_long":106.712277,"station_id":"SDM","is_transit":false,"i_lat":-6.296963},{"station_name":"Jurangmangu","i_lat":-6.288927,"station_id":"JMU","line":6,"transit":false,"i_long":106.728916,"distance":1994,"time":4,"is_transit":false},{"station_id":"PDJ","is_transit":false,"time":3,"distance":2179,"i_lat":-6.276362,"transit":false,"station_name":"Pondokranji","line":6,"i_long":106.74273},{"line":6,"transit":false,"time":8,"station_name":"Kebayoran","distance":6218,"i_lat":-6.237242,"i_long":106.780334,"station_id":"KBY","is_transit":false},{"time":7,"station_id":"PLM","distance":3737,"i_lat":-6.207404,"station_name":"Palmerah","i_long":106.79689,"line":6,"transit":false,"is_transit":false},{"station_id":"THB","station_name":"Tanah Abang","line":1,"time":6,"distance":3191,"transit":true,"i_long":106.811091,"is_transit":true,"i_lat":-6.185545},{"station_id":"DU","time":8,"distance":3632,"line":1,"transit":true,"i_lat":-6.155215,"i_long":106.800832,"station_name":"Duri","is_transit":true},{"i_lat":-6.144674,"station_name":"Angke","line":0,"distance":1230,"station_id":"AK","is_transit":false,"i_long":106.79867,"transit":false,"time":4},{"i_long":106.826365,"line":0,"station_name":"Kampung Bandan","transit":true,"i_lat":-6.132549,"is_transit":true,"station_id":"KPB","time":9,"distance":4102},{"i_long":106.836569,"transit":false,"station_name":"Rajawali","i_lat":-6.14505,"distance":1444,"station_id":"RJW","time":3,"is_transit":false,"line":11},{"station_name":"Kemayoran","i_lat":-6.161728,"distance":1901,"transit":false,"line":11,"is_transit":false,"time":5,"station_id":"KMO","i_long":106.839204},{"time":4,"station_id":"PSE","line":11,"transit":false,"is_transit":false,"i_lat":-6.174784,"i_long":106.84368,"distance":1436,"station_name":"Pasar Senen"},{"transit":false,"station_name":"Gang Sentiong","time":8,"i_lat":-6.185975,"i_long":106.850107,"station_id":"GST","line":11,"distance":1567,"is_transit":false},{"station_name":"Kramat","time":1,"distance":973,"station_id":"KMT","i_lat":-6.193792,"line":11,"is_transit":false,"transit":false,"i_long":106.855437},{"station_name":"Pondok Jati","is_transit":false,"transit":false,"i_lat":-6.209188,"time":2,"i_long":106.861737,"station_id":"POK","line":11,"distance":1829},{"distance":1236,"station_name":"Jatinegara","line":0,"i_long":106.86807400000001,"station_id":"JNG","time":9,"transit":true,"i_lat":-6.215091,"is_transit":true},{"i_long":106.899548,"line":1,"transit":false,"time":3,"distance":3395,"station_name":"Klender","station_id":"KLD","is_transit":false,"i_lat":-6.2135},{"distance":3100,"station_name":"Buaran","station_id":"BUA","is_transit":false,"transit":false,"i_lat":-6.215568,"line":0,"time":2,"i_long":106.922662},{"transit":false,"line":1,"i_lat":-6.217455,"i_long":106.939679,"time":1,"station_name":"Klenderbaru","is_transit":false,"station_id":"KLDB","distance":1305},{"line":0,"i_long":106.951283,"station_name":"Cakung","station_id":"CUK","i_lat":-6.219053,"transit":false,"distance":1385,"is_transit":false,"time":8},{"time":3,"i_long":106.977657,"line":1,"transit":false,"is_transit":false,"distance":3097,"i_lat":-6.224515,"station_id":"KRI","station_name":"Kranji"},{"line":0,"transit":false,"distance":2520,"station_name":"Bekasi","station_id":"BKS","i_long":106.997013,"is_transit":false,"time":4,"i_lat":-6.236616},{"station_name":"Bekasi Timur","station_id":"BKST","is_transit":false,"transit":false,"distance":2368,"i_lat":-6.248029,"line":0,"time":2,"i_long":107.016735},{"station_name":"Tambun","line":1,"time":7,"i_long":107.055722,"is_transit":false,"i_lat":-6.258864,"distance":4460,"transit":false,"station_id":"TB"}],[{"time":0,"i_lat":-6.33561,"line":0,"is_transit":false,"station_name":"Cikoya","transit":false,"station_id":"CKY","distance":0,"i_long":106.411216},{"station_name":"Tigaraksa","distance":2651,"time":3,"i_lat":-6.328533,"i_long":106.425991,"transit":false,"station_id":"TGS","line":6,"is_transit":false},{"station_name":"Tenjo","distance":2974,"station_id":"TEJ","is_transit":false,"i_long":106.460812,"transit":false,"time":5,"line":6,"i_lat":-6.327251},{"station_id":"DAR","line":0,"i_lat":-6.338021,"station_name":"Daru","time":5,"i_long":106.491338,"transit":false,"distance":3902,"is_transit":false},{"transit":false,"i_lat":-6.354349,"distance":2675,"is_transit":false,"line":0,"station_name":"Cilejit","i_long":106.508482,"time":6,"station_id":"CJT"},{"is_transit":false,"station_name":"Parung Panjang","line":6,"station_id":"PRP","i_long":106.568863,"time":9,"i_lat":-6.3441410000000005,"distance":7025,"transit":false},{"time":8,"i_lat":-6.329547,"i_long":106.617853,"station_id":"CC","is_transit":false,"station_name":"Cicayur","line":0,"transit":false,"distance":5968},{"station_name":"Cisauk","transit":false,"i_long":106.640411,"is_transit":false,"station_id":"CSK","line":0,"distance":2519,"time":4,"i_lat":-6.32484},{"distance":1784,"i_lat":-6.319871,"i_long":106.66566,"station_id":"SRP","transit":false,"is_transit":false,"time":4,"line":6,"station_name":"Serpong"},{"time":4,"station_name":"Rawa Buntu","is_transit":false,"i_lat":-6.314823,"line":6,"station_id":"RU","transit":false,"i_long":106.675475,"distance":2413},{"i_long":106.712277,"station_name":"Sudimara","distance":4566,"station_id":"SDM","line":6,"transit":false,"time":6,"i_lat":-6.296963,"is_transit":false},{"is_transit":false,"station_id":"JMU","station_name":"Jurangmangu","i_long":106.728916,"time":4,"distance":1994,"transit":false,"i_lat":-6.288927,"line":6},{"is_transit":false,"distance":2179,"station_name":"Pondokranji","i_long":106.74273,"station_id":"PDJ","transit":false,"time":3,"i_lat":-6.276362,"line":6},{"station_id":"KBY","is_transit":false,"line":6,"station_name":"Kebayoran","transit":false,"i_long":106.780334,"distance":6218,"time":8,"i_lat":-6.237242},{"is_transit":false,"time":7,"station_id":"PLM","i_lat":-6.207404,"station_name":"Palmerah","i_long":106.79689,"line":6,"transit":false,"distance":3737},{"station_name":"Tanah Abang","line":1,"distance":3191,"is_transit":true,"station_id":"THB","i_lat":-6.185545,"time":6,"transit":true,"i_long":106.811091},{"is_transit":true,"time":8,"i_lat":-6.155215,"i_long":106.800832,"station_name":"Duri","distance":3632,"transit":true,"line":1,"station_id":"DU"},{"time":4,"i_lat":-6.144674,"transit":false,"i_long":106.79867,"is_transit":false,"line":0,"distance":1230,"station_id":"AK","station_name":"Angke"},{"station_name":"Kampung Bandan","transit":false,"distance":4102,"is_transit":true,"i_long":106.826365,"i_lat":-6.132549,"time":9,"line":0,"station_id":"KPB"},{"station_id":"JAKK","distance":1364,"station_name":"Jakarta Kota","is_transit":true,"time":3,"i_long":106.812439,"line":0,"transit":true,"i_lat":-6.137569},{"i_long":106.820901,"line":7,"time":4,"station_id":"JAY","is_transit":false,"station_name":"Jayakarta","i_lat":-6.141205,"transit":false,"distance":1264},{"transit":false,"distance":1080,"i_lat":-6.149769,"i_long":106.82482,"line":2,"station_name":"Manggabesar","station_id":"MGB","is_transit":false,"time":2},{"time":2,"distance":906,"station_id":"SW","line":2,"station_name":"Sawah Besar","i_long":106.827103,"transit":false,"is_transit":false,"i_lat":-6.160725},{"station_name":"Juanda","is_transit":false,"transit":false,"station_id":"JUA","time":2,"i_lat":-6.166716,"line":2,"distance":1149,"i_long":106.828284},{"line":2,"distance":2015,"station_id":"GDD","transit":false,"time":4,"i_lat":-6.186295,"i_long":106.832183,"is_transit":false,"station_name":"Gondangdia"},{"station_name":"Cikini","time":3,"transit":false,"is_transit":false,"line":0,"distance":1750,"i_lat":-6.198556,"station_id":"CKI","i_long":106.840169},{"i_long":106.84912,"i_lat":-6.209883,"line":0,"station_name":"Manggarai","distance":1590,"transit":true,"station_id":"MRI","is_transit":true,"time":4},{"line":1,"transit":false,"station_id":"MTR","time":2,"i_lat":-6.212485,"distance":1275,"i_long":106.858896,"station_name":"Matraman","is_transit":false},{"station_name":"Jatinegara","i_long":106.86807400000001,"distance":1377,"transit":false,"station_id":"JNG","i_lat":-6.215091,"time":8,"line":0,"is_transit":true},{"distance":3395,"i_lat":-6.2135,"transit":false,"station_name":"Klender","station_id":"KLD","i_long":106.899548,"line":1,"time":3,"is_transit":false},{"station_name":"Buaran","station_id":"BUA","is_transit":false,"transit":false,"distance":3100,"time":2,"i_lat":-6.215568,"i_long":106.922662,"line":0},{"line":1,"transit":false,"distance":1305,"i_lat":-6.217455,"i_long":106.939679,"station_id":"KLDB","station_name":"Klenderbaru","time":1,"is_transit":false},{"distance":1385,"is_transit":false,"line":0,"station_id":"CUK","i_lat":-6.219053,"transit":false,"i_long":106.951283,"station_name":"Cakung","time":8},{"transit":false,"station_id":"KRI","i_lat":-6.224515,"line":1,"station_name":"Kranji","distance":3097,"time":3,"i_long":106.977657,"is_transit":false},{"i_long":106.997013,"i_lat":-6.236616,"is_transit":false,"line":0,"distance":2520,"station_id":"BKS","time":4,"station_name":"Bekasi","transit":false},{"transit":false,"i_long":107.016735,"i_lat":-6.248029,"station_id":"BKST","line":0,"distance":2368,"station_name":"Bekasi Timur","time":2,"is_transit":false},{"is_transit":false,"time":7,"station_name":"Tambun","i_long":107.055722,"transit":false,"line":1,"i_lat":-6.258864,"distance":4460,"station_id":"TB"}],[{"distance":0,"is_transit":false,"transit":false,"station_id":"CKY","i_lat":-6.33561,"i_long":106.411216,"station_name":"Cikoya","line":0,"time":0},{"distance":2651,"station_name":"Tigaraksa","transit":false,"is_transit":false,"i_lat":-6.328533,"station_id":"TGS","i_long":106.425991,"time":3,"line":6},{"i_lat":-6.327251,"time":5,"transit":false,"distance":2974,"station_id":"TEJ","is_transit":false,"line":6,"i_long":106.460812,"station_name":"Tenjo"},{"transit":false,"station_name":"Daru","is_transit":false,"i_lat":-6.338021,"i_long":106.491338,"station_id":"DAR","distance":3902,"time":5,"line":0},{"i_lat":-6.354349,"transit":false,"distance":2675,"is_transit":false,"i_long":106.508482,"time":6,"station_name":"Cilejit","station_id":"CJT","line":0},{"is_transit":false,"distance":7025,"time":9,"station_name":"Parung Panjang","i_lat":-6.3441410000000005,"line":6,"i_long":106.568863,"transit":false,"station_id":"PRP"},{"time":8,"i_lat":-6.329547,"station_name":"Cicayur","station_id":"CC","line":0,"i_long":106.617853,"distance":5968,"is_transit":false,"transit":false},{"station_name":"Cisauk","station_id":"CSK","distance":2519,"line":0,"i_lat":-6.32484,"transit":false,"is_transit":false,"time":4,"i_long":106.640411},{"line":6,"is_transit":false,"station_name":"Serpong","station_id":"SRP","transit":false,"i_long":106.66566,"distance":1784,"time":4,"i_lat":-6.319871},{"is_transit":false,"station_id":"RU","time":4,"station_name":"Rawa Buntu","i_lat":-6.314823,"line":6,"transit":false,"distance":2413,"i_long":106.675475},{"transit":false,"distance":4566,"time":6,"station_id":"SDM","station_name":"Sudimara","line":6,"i_lat":-6.296963,"is_transit":false,"i_long":106.712277},{"transit":false,"line":6,"station_id":"JMU","distance":1994,"station_name":"Jurangmangu","is_transit":false,"time":4,"i_lat":-6.288927,"i_long":106.728916},{"i_lat":-6.276362,"station_id":"PDJ","i_long":106.74273,"is_transit":false,"time":3,"transit":false,"distance":2179,"station_name":"Pondokranji","line":6},{"distance":6218,"i_long":106.780334,"station_id":"KBY","time":8,"station_name":"Kebayoran","transit":false,"is_transit":false,"i_lat":-6.237242,"line":6},{"line":6,"i_long":106.79689,"station_name":"Palmerah","is_transit":false,"i_lat":-6.207404,"transit":false,"time":7,"station_id":"PLM","distance":3737},{"transit":true,"station_name":"Tanah Abang","is_transit":true,"time":6,"i_lat":-6.185545,"line":1,"distance":3191,"station_id":"THB","i_long":106.811091},{"transit":false,"station_id":"KAT","is_transit":false,"i_lat":-6.20132,"i_long":106.816351,"line":1,"distance":2029,"time":5,"station_name":"Karet"},{"i_long":106.819881,"is_transit":false,"transit":false,"line":1,"station_id":"SUDB","station_name":"Sudirman Baru","time":1,"distance":471,"i_lat":-6.201433},{"time":1,"line":1,"station_name":"Sudirman","i_lat":-6.202263,"station_id":"SUD","is_transit":false,"transit":false,"i_long":106.822649,"distance":280},{"i_long":106.84912,"transit":true,"distance":3186,"station_name":"Manggarai","i_lat":-6.209883,"line":0,"time":4,"is_transit":true,"station_id":"MRI"},{"time":4,"i_lat":-6.198556,"distance":1590,"transit":false,"station_name":"Cikini","is_transit":false,"i_long":106.840169,"line":0,"station_id":"CKI"},{"line":2,"is_transit":false,"i_lat":-6.186295,"transit":false,"time":3,"i_long":106.832183,"distance":1750,"station_name":"Gondangdia","station_id":"GDD"},{"station_id":"JUA","i_long":106.828284,"transit":false,"line":2,"is_transit":false,"distance":2015,"time":4,"station_name":"Juanda","i_lat":-6.166716},{"transit":false,"station_name":"Sawah Besar","time":2,"i_lat":-6.160725,"i_long":106.827103,"distance":1149,"station_id":"SW","is_transit":false,"line":2},{"i_long":106.82482,"is_transit":false,"distance":906,"station_id":"MGB","station_name":"Manggabesar","transit":false,"i_lat":-6.149769,"time":2,"line":2},{"distance":1080,"time":2,"i_lat":-6.141205,"i_long":106.820901,"line":7,"is_transit":false,"station_name":"Jayakarta","station_id":"JAY","transit":false},{"transit":true,"distance":1264,"i_long":106.812439,"station_name":"Jakarta Kota","is_transit":true,"i_lat":-6.137569,"station_id":"JAKK","time":4,"line":0},{"station_name":"Kampung Bandan","station_id":"KPB","time":3,"is_transit":true,"i_lat":-6.132549,"i_long":106.826365,"line":0,"transit":true,"distance":1364},{"time":3,"station_id":"RJW","i_long":106.836569,"transit":false,"station_name":"Rajawali","i_lat":-6.14505,"is_transit":false,"distance":1444,"line":11},{"i_long":106.839204,"distance":1901,"station_name":"Kemayoran","i_lat":-6.161728,"line":11,"is_transit":false,"time":5,"transit":false,"station_id":"KMO"},{"i_lat":-6.174784,"is_transit":false,"transit":false,"station_id":"PSE","distance":1436,"line":11,"station_name":"Pasar Senen","time":4,"i_long":106.84368},{"i_lat":-6.185975,"line":11,"time":8,"transit":false,"distance":1567,"station_name":"Gang Sentiong","is_transit":false,"i_long":106.850107,"station_id":"GST"},{"time":1,"distance":973,"line":11,"station_name":"Kramat","station_id":"KMT","transit":false,"is_transit":false,"i_lat":-6.193792,"i_long":106.855437},{"line":11,"time":2,"station_name":"Pondok Jati","i_long":106.861737,"is_transit":false,"i_lat":-6.209188,"transit":false,"distance":1829,"station_id":"POK"},{"is_transit":true,"station_id":"JNG","distance":1236,"time":9,"station_name":"Jatinegara","line":0,"transit":true,"i_long":106.86807400000001,"i_lat":-6.215091},{"is_transit":false,"i_long":106.899548,"time":3,"i_lat":-6.2135,"distance":3395,"line":1,"station_id":"KLD","transit":false,"station_name":"Klender"},{"line":0,"transit":false,"time":2,"station_id":"BUA","i_long":106.922662,"station_name":"Buaran","i_lat":-6.215568,"distance":3100,"is_transit":false},{"transit":false,"distance":1305,"station_id":"KLDB","is_transit":false,"i_lat":-6.217455,"i_long":106.939679,"line":1,"time":1,"station_name":"Klenderbaru"},{"is_transit":false,"station_id":"CUK","transit":false,"i_lat":-6.219053,"line":0,"station_name":"Cakung","distance":1385,"time":8,"i_long":106.951283},{"time":3,"distance":3097,"i_lat":-6.224515,"i_long":106.977657,"line":1,"is_transit":false,"transit":false,"station_name":"Kranji","station_id":"KRI"},{"transit":false,"time":4,"station_name":"Bekasi","distance":2520,"station_id":"BKS","line":0,"i_lat":-6.236616,"i_long":106.997013,"is_transit":false},{"i_lat":-6.248029,"i_long":107.016735,"line":0,"time":2,"transit":false,"is_transit":false,"distance":2368,"station_name":"Bekasi Timur","station_id":"BKST"},{"is_transit":false,"transit":false,"time":7,"line":1,"distance":4460,"station_name":"Tambun","i_long":107.055722,"station_id":"TB","i_lat":-6.258864}]]}