{"data":[[{"i_lat":-6.33561,"station_name":"Cikoya","distance":0,"i_long":106.411216,"station_id":"CKY","transit":false,"time":0,"is_transit":false,"line":0},{"transit":false,"line":6,"i_long":106.425991,"i_lat":-6.328533,"is_transit":false,"station_id":"TGS","time":3,"distance":2651,"station_name":"Tigaraksa"},{"is_transit":false,"line":6,"station_id":"TEJ","distance":2974,"i_lat":-6.327251,"i_long":106.460812,"time":5,"station_name":"Tenjo","transit":false},{"distance":3902,"station_id":"DAR","station_name":"Daru","is_transit":false,"i_long":106.491338,"line":0,"i_lat":-6.338021,"time":5,"transit":false},{"i_lat":-6.354349,"i_long":106.508482,"distance":2675,"station_id":"CJT","time":6,"transit":false,"line":0,"station_name":"Cilejit","is_transit":false},{"transit":false,"is_transit":false,"i_lat":-6.3441410000000005,"line":6,"i_long":106.568863,"distance":7025,"station_id":"PRP","time":9,"station_name":"Parung Panjang"},{"station_name":"Cicayur","station_id":"CC","distance":5968,"is_transit":false,"i_long":106.617853,"time":8,"line":0,"i_lat":-6.329547,"transit":false},{"i_long":106.640411,"distance":2519,"i_lat":-6.32484,"is_transit":false,"time":4,"line":0,"station_name":"Cisauk","station_id":"CSK","transit":false},{"line":6,"i_lat":-6.319871,"i_long":106.66566,"time":4,"distance":1784,"transit":false,"station_id":"SRP","station_name":"Serpong","is_transit":false}]]}