{"data":[[{"is_transit":false,"distance":0,"i_long":106.411216,"transit":false,"station_id":"CKY","i_lat":-6.33561,"line":3,"station_name":"Cikoya","time":0},{"i_lat":-6.328533,"line":6,"distance":2651,"is_transit":false,"station_name":"Tigaraksa","station_id":"TGS","time":3,"i_long":106.425991,"transit":false},{"time":5,"distance":2974,"line":6,"is_transit":false,"station_name":"Tenjo","station_id":"TEJ","i_lat":-6.327251,"i_long":106.460812,"transit":false},{"i_long":106.491338,"station_id":"DAR","station_name":"Daru","transit":false,"time":5,"line":0,"is_transit":false,"i_lat":-6.338021,"distance":3902},{"i_lat":-6.354349,"distance":2675,"station_id":"CJT","station_name":"Cilejit","line":3,"is_transit":false,"transit":false,"time":6,"i_long":106.508482},{"station_name":"Parung Panjang","time":9,"transit":false,"station_id":"PRP","is_transit":false,"distance":7025,"i_long":106.568863,"line":6,"i_lat":-6.3441410000000005},{"is_transit":false,"distance":5968,"i_lat":-6.329547,"station_name":"Cicayur","time":8,"i_long":106.617853,"transit":false,"station_id":"CC","line":3},{"distance":2519,"line":3,"time":4,"i_lat":-6.32484,"i_long":106.640411,"transit":false,"is_transit":false,"station_name":"Cisauk","station_id":"CSK"},{"transit":false,"station_name":"Serpong","time":4,"is_transit":false,"line":6,"distance":1784,"station_id":"SRP","i_lat":-6.319871,"i_long":106.66566},{"time":4,"is_transit":false,"i_lat":-6.314823,"transit":false,"i_long":106.675475,"station_name":"Rawa Buntu","station_id":"RU","distance":2413,"line":6},{"is_transit":false,"i_lat":-6.296963,"station_name":"Sudimara","time":6,"i_long":106.712277,"line":6,"transit":false,"distance":4566,"station_id":"SDM"},{"time":4,"i_long":106.728916,"station_id":"JMU","distance":1994,"station_name":"Jurangmangu","transit":false,"i_lat":-6.288927,"is_transit":false,"line":6},{"line":6,"transit":false,"i_long":106.74273,"is_transit":false,"station_id":"PDJ","station_name":"Pondokranji","distance":2179,"time":3,"i_lat":-6.276362},{"distance":6218,"time":8,"station_id":"KBY","i_lat":-6.237242,"i_long":106.780334,"is_transit":false,"line":6,"transit":false,"station_name":"Kebayoran"},{"time":7,"distance":3737,"station_id":"PLM","transit":false,"i_lat":-6.207404,"i_long":106.79689,"is_transit":false,"station_name":"Palmerah","line":6},{"i_lat":-6.185545,"line":1,"station_id":"THB","distance":3191,"i_long":106.811091,"transit":true,"is_transit":true,"station_name":"Tanah Abang","time":6},{"distance":2029,"time":5,"i_lat":-6.20132,"station_name":"Karet","is_transit":false,"station_id":"KAT","i_long":106.816351,"transit":false,"line":1},{"station_id":"SUDB","time":1,"i_long":106.819881,"station_name":"Sudirman Baru","line":1,"i_lat":-6.201433,"distance":471,"is_transit":false,"transit":false},{"line":1,"time":1,"i_lat":-6.202263,"station_name":"Sudirman","is_transit":false,"transit":false,"station_id":"SUD","distance":280,"i_long":106.822649},{"transit":true,"i_lat":-6.209883,"line":2,"time":4,"distance":3186,"station_id":"MRI","i_long":106.84912,"station_name":"Manggarai","is_transit":true},{"station_id":"TEB","is_transit":false,"time":4,"transit":false,"i_lat":-6.226659,"i_long":106.857948,"distance":2610,"line":2,"station_name":"Tebet"},{"station_id":"CW","distance":1230,"i_lat":-6.242512,"line":2,"transit":false,"station_name":"Cawang","is_transit":false,"time":2,"i_long":106.856607},{"is_transit":false,"line":2,"i_long":106.85449,"station_name":"Duren Kalibata","transit":false,"distance":1546,"station_id":"DRN","time":3,"i_lat":-6.255332},{"line":2,"distance":824,"station_name":"Pasar Minggu Baru","i_long":106.851577,"time":2,"i_lat":-6.263214,"is_transit":false,"transit":false,"station_id":"PSMB"},{"transit":false,"is_transit":false,"distance":2380,"station_name":"Pasar Minggu","station_id":"PSM","line":2,"time":2,"i_long":106.843999,"i_lat":-6.2842400000000005},{"i_long":106.838896,"line":2,"station_id":"TNT","station_name":"Tanjung Barat","transit":false,"distance":2820,"time":4,"is_transit":false,"i_lat":-6.3080680000000005},{"i_long":106.832616,"time":3,"transit":false,"distance":2671,"line":2,"is_transit":false,"station_name":"Lenteng Agung","station_id":"LNA","i_lat":-6.330363},{"station_name":"Univ. Pancasila","transit":false,"station_id":"UP","is_transit":false,"distance":1029,"line":2,"i_long":106.834175,"time":2,"i_lat":-6.339291},{"distance":2264,"i_lat":-6.360749,"is_transit":false,"station_id":"UI","transit":false,"line":2,"i_long":106.831474,"station_name":"Univ. Indonesia","time":3},{"i_lat":-6.369073,"distance":1109,"station_name":"Pondok Cina","is_transit":false,"time":2,"i_long":106.831114,"line":2,"transit":false,"station_id":"POC"},{"station_id":"DPB","time":4,"is_transit":false,"distance":2727,"transit":false,"station_name":"Depokbaru","i_long":106.819451,"line":2,"i_lat":-6.391065},{"distance":1584,"is_transit":false,"i_lat":-6.405256,"station_name":"Depok","transit":false,"i_long":106.816926,"station_id":"DP","time":3,"line":2}],[{"station_id":"CKY","time":0,"line":3,"transit":false,"is_transit":false,"station_name":"Cikoya","i_long":106.411216,"i_lat":-6.33561,"distance":0},{"station_name":"Tigaraksa","line":6,"distance":2651,"time":3,"transit":false,"station_id":"TGS","i_lat":-6.328533,"is_transit":false,"i_long":106.425991},{"i_lat":-6.327251,"i_long":106.460812,"line":6,"transit":false,"time":5,"is_transit":false,"station_id":"TEJ","station_name":"Tenjo","distance":2974},{"i_lat":-6.338021,"station_id":"DAR","is_transit":false,"time":5,"line":0,"station_name":"Daru","distance":3902,"transit":false,"i_long":106.491338},{"distance":2675,"i_lat":-6.354349,"station_name":"Cilejit","time":6,"is_transit":false,"transit":false,"i_long":106.508482,"station_id":"CJT","line":3},{"i_lat":-6.3441410000000005,"transit":false,"station_id":"PRP","station_name":"Parung Panjang","time":9,"distance":7025,"i_long":106.568863,"line":6,"is_transit":false},{"time":8,"i_lat":-6.329547,"distance":5968,"i_long":106.617853,"station_id":"CC","line":3,"transit":false,"is_transit":false,"station_name":"Cicayur"},{"transit":false,"line":3,"station_name":"Cisauk","distance":2519,"i_lat":-6.32484,"is_transit":false,"time":4,"i_long":106.640411,"station_id":"CSK"},{"time":4,"station_name":"Serpong","i_long":106.66566,"is_transit":false,"transit":false,"distance":1784,"i_lat":-6.319871,"line":6,"station_id":"SRP"},{"distance":2413,"i_lat":-6.314823,"station_id":"RU","i_long":106.675475,"line":6,"transit":false,"time":4,"is_transit":false,"station_name":"Rawa Buntu"},{"i_long":106.712277,"distance":4566,"station_id":"SDM","time":6,"transit":false,"i_lat":-6.296963,"is_transit":false,"station_name":"Sudimara","line":6},{"i_long":106.728916,"is_transit":false,"station_name":"Jurangmangu","time":4,"distance":1994,"line":6,"transit":false,"station_id":"JMU","i_lat":-6.288927},{"station_id":"PDJ","i_long":106.74273,"is_transit":false,"time":3,"line":6,"distance":2179,"i_lat":-6.276362,"station_name":"Pondokranji","transit":false},{"distance":6218,"i_lat":-6.237242,"is_transit":false,"transit":false,"station_id":"KBY","time":8,"i_long":106.780334,"station_name":"Kebayoran","line":6},{"distance":3737,"line":6,"transit":false,"time":7,"is_transit":false,"station_name":"Palmerah","i_long":106.79689,"i_lat":-6.207404,"station_id":"PLM"},{"time":6,"distance":3191,"i_lat":-6.185545,"line":1,"station_name":"Tanah Abang","transit":true,"station_id":"THB","i_long":106.811091,"is_transit":true},{"time":8,"is_transit":false,"i_lat":-6.155215,"i_long":106.800832,"line":1,"station_name":"Duri","transit":false,"station_id":"DU","distance":3632},{"station_id":"AK","distance":1230,"i_long":106.79867,"station_name":"Angke","time":4,"is_transit":false,"transit":false,"i_lat":-6.144674,"line":1},{"i_lat":-6.132549,"distance":4102,"is_transit":true,"i_long":106.826365,"station_id":"KPB","station_name":"Kampung Bandan","time":9,"line":4,"transit":true},{"distance":1364,"i_long":106.812439,"i_lat":-6.137569,"time":3,"line":2,"station_name":"Jakarta Kota","station_id":"JAKK","transit":true,"is_transit":true},{"distance":1264,"station_name":"Jayakarta","line":2,"i_lat":-6.141205,"transit":false,"is_transit":false,"station_id":"JAY","i_long":106.820901,"time":4},{"time":2,"i_lat":-6.149769,"i_long":106.82482,"line":2,"distance":1080,"station_name":"Manggabesar","transit":false,"is_transit":false,"station_id":"MGB"},{"time":2,"i_long":106.827103,"station_id":"SW","transit":false,"distance":906,"is_transit":false,"line":2,"station_name":"Sawah Besar","i_lat":-6.160725},{"i_lat":-6.166716,"i_long":106.828284,"time":2,"distance":1149,"line":2,"transit":false,"station_id":"JUA","station_name":"Juanda","is_transit":false},{"distance":2015,"i_long":106.832183,"transit":false,"station_name":"Gondangdia","time":4,"i_lat":-6.186295,"is_transit":false,"line":2,"station_id":"GDD"},{"time":3,"station_name":"Cikini","distance":1750,"is_transit":false,"i_lat":-6.198556,"station_id":"CKI","i_long":106.840169,"transit":false,"line":2},{"transit":false,"station_name":"Manggarai","station_id":"MRI","i_lat":-6.209883,"distance":1590,"i_long":106.84912,"line":2,"is_transit":false,"time":4},{"is_transit":false,"distance":2610,"i_lat":-6.226659,"transit":false,"station_id":"TEB","i_long":106.857948,"line":2,"time":4,"station_name":"Tebet"},{"station_id":"CW","distance":1230,"station_name":"Cawang","line":2,"transit":false,"i_lat":-6.242512,"i_long":106.856607,"is_transit":false,"time":2},{"station_id":"DRN","is_transit":false,"time":3,"distance":1546,"i_lat":-6.255332,"line":2,"i_long":106.85449,"transit":false,"station_name":"Duren Kalibata"},{"station_name":"Pasar Minggu Baru","i_lat":-6.263214,"time":2,"i_long":106.851577,"line":2,"station_id":"PSMB","is_transit":false,"transit":false,"distance":824},{"line":2,"distance":2380,"i_lat":-6.2842400000000005,"station_id":"PSM","i_long":106.843999,"transit":false,"station_name":"Pasar Minggu","is_transit":false,"time":2},{"station_name":"Tanjung Barat","station_id":"TNT","time":4,"i_lat":-6.3080680000000005,"is_transit":false,"transit":false,"line":2,"i_long":106.838896,"distance":2820},{"is_transit":false,"time":3,"station_id":"LNA","distance":2671,"i_lat":-6.330363,"station_name":"Lenteng Agung","transit":false,"i_long":106.832616,"line":2},{"is_transit":false,"station_name":"Univ. Pancasila","transit":false,"distance":1029,"i_lat":-6.339291,"station_id":"UP","time":2,"i_long":106.834175,"line":2},{"i_long":106.831474,"line":2,"i_lat":-6.360749,"station_name":"Univ. Indonesia","distance":2264,"station_id":"UI","transit":false,"is_transit":false,"time":3},{"i_long":106.831114,"line":2,"station_name":"Pondok Cina","i_lat":-6.369073,"is_transit":false,"time":2,"station_id":"POC","distance":1109,"transit":false},{"time":4,"i_long":106.819451,"line":2,"i_lat":-6.391065,"transit":false,"distance":2727,"station_id":"DPB","is_transit":false,"station_name":"Depokbaru"},{"station_id":"DP","is_transit":false,"time":3,"distance":1584,"i_long":106.816926,"transit":false,"line":2,"station_name":"Depok","i_lat":-6.405256}],[{"time":0,"i_lat":-6.33561,"transit":false,"i_long":106.411216,"line":3,"is_transit":false,"station_id":"CKY","distance":0,"station_name":"Cikoya"},{"line":6,"station_id":"TGS","time":3,"i_long":106.425991,"transit":false,"distance":2651,"i_lat":-6.328533,"station_name":"Tigaraksa","is_transit":false},{"line":6,"i_long":106.460812,"transit":false,"is_transit":false,"time":5,"station_name":"Tenjo","distance":2974,"station_id":"TEJ","i_lat":-6.327251},{"i_lat":-6.338021,"i_long":106.491338,"distance":3902,"station_name":"Daru","line":0,"station_id":"DAR","transit":false,"time":5,"is_transit":false},{"time":6,"station_name":"Cilejit","station_id":"CJT","transit":false,"i_long":106.508482,"line":3,"distance":2675,"i_lat":-6.354349,"is_transit":false},{"station_name":"Parung Panjang","distance":7025,"i_lat":-6.3441410000000005,"line":6,"transit":false,"is_transit":false,"time":9,"i_long":106.568863,"station_id":"PRP"},{"line":3,"station_name":"Cicayur","time":8,"is_transit":false,"transit":false,"station_id":"CC","i_lat":-6.329547,"distance":5968,"i_long":106.617853},{"time":4,"i_long":106.640411,"i_lat":-6.32484,"station_name":"Cisauk","station_id":"CSK","line":3,"transit":false,"distance":2519,"is_transit":false},{"station_id":"SRP","line":6,"transit":false,"is_transit":false,"station_name":"Serpong","i_lat":-6.319871,"time":4,"i_long":106.66566,"distance":1784},{"is_transit":false,"station_id":"RU","time":4,"distance":2413,"line":6,"station_name":"Rawa Buntu","i_lat":-6.314823,"i_long":106.675475,"transit":false},{"i_long":106.712277,"line":6,"i_lat":-6.296963,"transit":false,"station_id":"SDM","is_transit":false,"station_name":"Sudimara","distance":4566,"time":6},{"station_name":"Jurangmangu","station_id":"JMU","transit":false,"i_long":106.728916,"time":4,"line":6,"distance":1994,"is_transit":false,"i_lat":-6.288927},{"is_transit":false,"transit":false,"station_id":"PDJ","i_long":106.74273,"station_name":"Pondokranji","i_lat":-6.276362,"time":3,"distance":2179,"line":6},{"transit":false,"is_transit":false,"station_name":"Kebayoran","line":6,"time":8,"i_lat":-6.237242,"station_id":"KBY","distance":6218,"i_long":106.780334},{"i_long":106.79689,"transit":false,"i_lat":-6.207404,"line":6,"is_transit":false,"station_name":"Palmerah","station_id":"PLM","time":7,"distance":3737},{"is_transit":true,"i_lat":-6.185545,"transit":true,"station_id":"THB","time":6,"i_long":106.811091,"distance":3191,"station_name":"Tanah Abang","line":1},{"station_name":"Duri","i_lat":-6.155215,"i_long":106.800832,"transit":false,"line":1,"is_transit":false,"station_id":"DU","time":8,"distance":3632},{"station_name":"Angke","distance":1230,"i_lat":-6.144674,"i_long":106.79867,"transit":false,"time":4,"is_transit":false,"station_id":"AK","line":1},{"i_lat":-6.132549,"transit":true,"is_transit":true,"station_id":"KPB","distance":4102,"station_name":"Kampung Bandan","i_long":106.826365,"line":4,"time":9},{"station_name":"Rajawali","line":11,"is_transit":false,"i_long":106.836569,"time":3,"distance":1444,"station_id":"RJW","transit":false,"i_lat":-6.14505},{"line":11,"distance":1901,"transit":false,"station_name":"Kemayoran","i_lat":-6.161728,"i_long":106.839204,"is_transit":false,"time":5,"station_id":"KMO"},{"i_long":106.84368,"i_lat":-6.174784,"distance":1436,"line":11,"station_id":"PSE","station_name":"Pasar Senen","transit":false,"is_transit":false,"time":4},{"station_name":"Gang Sentiong","time":8,"distance":1567,"i_lat":-6.185975,"i_long":106.850107,"station_id":"GST","transit":false,"is_transit":false,"line":11},{"i_long":106.855437,"line":11,"is_transit":false,"transit":false,"station_name":"Kramat","time":1,"i_lat":-6.193792,"distance":973,"station_id":"KMT"},{"is_transit":false,"line":11,"transit":false,"station_name":"Pondok Jati","station_id":"POK","distance":1829,"i_lat":-6.209188,"i_long":106.861737,"time":2},{"distance":1236,"i_long":106.86807400000001,"line":1,"station_id":"JNG","is_transit":true,"time":9,"transit":true,"i_lat":-6.215091,"station_name":"Jatinegara"},{"transit":false,"time":2,"station_id":"MTR","i_long":106.858896,"line":1,"distance":1377,"i_lat":-6.212485,"is_transit":false,"station_name":"Matraman"},{"station_name":"Manggarai","distance":1275,"is_transit":true,"station_id":"MRI","line":2,"i_long":106.84912,"time":2,"transit":true,"i_lat":-6.209883},{"i_lat":-6.226659,"is_transit":false,"station_name":"Tebet","time":4,"station_id":"TEB","transit":false,"line":2,"i_long":106.857948,"distance":2610},{"distance":1230,"is_transit":false,"station_id":"CW","i_lat":-6.242512,"i_long":106.856607,"station_name":"Cawang","line":2,"time":2,"transit":false},{"i_long":106.85449,"i_lat":-6.255332,"transit":false,"line":2,"station_name":"Duren Kalibata","station_id":"DRN","is_transit":false,"distance":1546,"time":3},{"is_transit":false,"i_lat":-6.263214,"distance":824,"line":2,"station_name":"Pasar Minggu Baru","i_long":106.851577,"station_id":"PSMB","time":2,"transit":false},{"station_id":"PSM","is_transit":false,"station_name":"Pasar Minggu","transit":false,"i_long":106.843999,"distance":2380,"i_lat":-6.2842400000000005,"line":2,"time":2},{"is_transit":false,"line":2,"station_id":"TNT","time":4,"distance":2820,"i_lat":-6.3080680000000005,"transit":false,"station_name":"Tanjung Barat","i_long":106.838896},{"is_transit":false,"i_long":106.832616,"transit":false,"station_name":"Lenteng Agung","line":2,"i_lat":-6.330363,"distance":2671,"station_id":"LNA","time":3},{"is_transit":false,"transit":false,"station_name":"Univ. Pancasila","i_lat":-6.339291,"station_id":"UP","i_long":106.834175,"time":2,"distance":1029,"line":2},{"i_long":106.831474,"transit":false,"station_name":"Univ. Indonesia","time":3,"distance":2264,"is_transit":false,"i_lat":-6.360749,"line":2,"station_id":"UI"},{"station_id":"POC","i_lat":-6.369073,"transit":false,"station_name":"Pondok Cina","i_long":106.831114,"time":2,"distance":1109,"is_transit":false,"line":2},{"station_id":"DPB","i_long":106.819451,"is_transit":false,"transit":false,"station_name":"Depokbaru","time":4,"distance":2727,"i_lat":-6.391065,"line":2},{"is_transit":false,"station_id":"DP","time":3,"i_lat":-6.405256,"line":2,"distance":1584,"transit":false,"station_name":"Depok","i_long":106.816926}]]}