{"data":[[{"station_id":"CKY","station_name":"Cikoya","transit":false,"time":0,"i_long":106.411216,"distance":0,"is_transit":false,"i_lat":-6.33561,"line":3},{"i_long":106.425991,"station_id":"TGS","station_name":"Tigaraksa","distance":2651,"time":3,"i_lat":-6.328533,"is_transit":false,"transit":false,"line":6},{"i_long":106.460812,"station_name":"Tenjo","station_id":"TEJ","transit":false,"time":5,"is_transit":false,"line":6,"distance":2974,"i_lat":-6.327251},{"transit":false,"distance":3902,"i_lat":-6.338021,"i_long":106.491338,"station_name":"Daru","is_transit":false,"line":0,"station_id":"DAR","time":5},{"is_transit":false,"i_long":106.508482,"transit":false,"time":6,"station_id":"CJT","station_name":"Cilejit","i_lat":-6.354349,"line":3,"distance":2675},{"station_id":"PRP","station_name":"Parung Panjang","is_transit":false,"i_long":106.568863,"distance":7025,"line":6,"time":9,"transit":false,"i_lat":-6.3441410000000005},{"i_lat":-6.329547,"i_long":106.617853,"station_id":"CC","is_transit":false,"time":8,"transit":false,"station_name":"Cicayur","line":3,"distance":5968},{"station_id":"CSK","line":3,"station_name":"Cisauk","time":4,"distance":2519,"is_transit":false,"transit":false,"i_lat":-6.32484,"i_long":106.640411},{"transit":false,"i_lat":-6.319871,"line":6,"station_id":"SRP","station_name":"Serpong","time":4,"i_long":106.66566,"distance":1784,"is_transit":false},{"station_id":"RU","i_lat":-6.314823,"i_long":106.675475,"is_transit":false,"transit":false,"time":4,"station_name":"Rawa Buntu","distance":2413,"line":6},{"i_long":106.712277,"line":6,"distance":4566,"station_id":"SDM","is_transit":false,"station_name":"Sudimara","transit":false,"time":6,"i_lat":-6.296963},{"station_name":"Jurangmangu","i_lat":-6.288927,"transit":false,"distance":1994,"station_id":"JMU","time":4,"is_transit":false,"i_long":106.728916,"line":6},{"i_lat":-6.276362,"transit":false,"is_transit":false,"time":3,"line":6,"station_name":"Pondokranji","station_id":"PDJ","distance":2179,"i_long":106.74273},{"is_transit":false,"distance":6218,"station_name":"Kebayoran","station_id":"KBY","transit":false,"i_lat":-6.237242,"i_long":106.780334,"line":6,"time":8},{"station_id":"PLM","line":6,"i_lat":-6.207404,"time":7,"i_long":106.79689,"is_transit":false,"distance":3737,"transit":false,"station_name":"Palmerah"},{"i_lat":-6.185545,"distance":3191,"transit":true,"time":6,"line":1,"station_name":"Tanah Abang","i_long":106.811091,"station_id":"THB","is_transit":true},{"i_lat":-6.20132,"distance":2029,"is_transit":false,"transit":false,"i_long":106.816351,"line":1,"time":5,"station_id":"KAT","station_name":"Karet"},{"time":1,"i_lat":-6.201433,"station_id":"SUDB","i_long":106.819881,"line":1,"station_name":"Sudirman Baru","is_transit":false,"transit":false,"distance":471},{"distance":280,"time":1,"station_name":"Sudirman","station_id":"SUD","transit":false,"i_lat":-6.202263,"i_long":106.822649,"line":1,"is_transit":false},{"transit":false,"station_name":"Manggarai","time":4,"distance":3186,"is_transit":false,"i_lat":-6.209883,"line":2,"station_id":"MRI","i_long":106.84912},{"station_name":"Matraman","is_transit":false,"distance":1275,"station_id":"MTR","time":2,"transit":false,"i_lat":-6.212485,"line":1,"i_long":106.858896},{"time":8,"transit":false,"station_id":"JNG","is_transit":false,"i_long":106.86807400000001,"line":1,"distance":1377,"station_name":"Jatinegara","i_lat":-6.215091},{"time":3,"distance":3395,"transit":false,"station_id":"KLD","line":1,"i_long":106.899548,"station_name":"Klender","is_transit":false,"i_lat":-6.2135},{"i_long":106.922662,"line":1,"station_id":"BUA","time":2,"distance":3100,"transit":false,"is_transit":false,"station_name":"Buaran","i_lat":-6.215568},{"time":1,"station_id":"KLDB","transit":false,"distance":1305,"is_transit":false,"line":1,"station_name":"Klenderbaru","i_long":106.939679,"i_lat":-6.217455},{"i_long":106.951283,"line":1,"is_transit":false,"time":8,"station_id":"CUK","distance":1385,"transit":false,"station_name":"Cakung","i_lat":-6.219053},{"is_transit":false,"i_lat":-6.224515,"transit":false,"station_name":"Kranji","station_id":"KRI","distance":3097,"time":3,"line":1,"i_long":106.977657},{"distance":2520,"i_lat":-6.236616,"station_id":"BKS","is_transit":false,"i_long":106.997013,"line":1,"transit":false,"station_name":"Bekasi","time":4},{"time":2,"i_long":107.016735,"is_transit":false,"i_lat":-6.248029,"distance":2368,"station_id":"BKST","transit":false,"line":1,"station_name":"Bekasi Timur"},{"transit":false,"distance":4460,"time":7,"i_lat":-6.258864,"station_name":"Tambun","i_long":107.055722,"is_transit":false,"station_id":"TB","line":1}],[{"station_name":"Cikoya","time":0,"distance":0,"i_lat":-6.33561,"line":3,"is_transit":false,"transit":false,"station_id":"CKY","i_long":106.411216},{"transit":false,"i_lat":-6.328533,"is_transit":false,"station_id":"TGS","i_long":106.425991,"time":3,"station_name":"Tigaraksa","distance":2651,"line":6},{"i_lat":-6.327251,"time":5,"line":6,"station_name":"Tenjo","is_transit":false,"transit":false,"i_long":106.460812,"distance":2974,"station_id":"TEJ"},{"is_transit":false,"time":5,"transit":false,"station_name":"Daru","i_lat":-6.338021,"i_long":106.491338,"distance":3902,"station_id":"DAR","line":0},{"is_transit":false,"time":6,"i_lat":-6.354349,"i_long":106.508482,"line":3,"station_id":"CJT","transit":false,"distance":2675,"station_name":"Cilejit"},{"time":9,"station_name":"Parung Panjang","line":6,"i_lat":-6.3441410000000005,"i_long":106.568863,"distance":7025,"transit":false,"station_id":"PRP","is_transit":false},{"is_transit":false,"i_long":106.617853,"transit":false,"station_id":"CC","time":8,"line":3,"distance":5968,"station_name":"Cicayur","i_lat":-6.329547},{"time":4,"station_name":"Cisauk","station_id":"CSK","distance":2519,"i_long":106.640411,"i_lat":-6.32484,"transit":false,"is_transit":false,"line":3},{"distance":1784,"station_name":"Serpong","i_lat":-6.319871,"line":6,"is_transit":false,"station_id":"SRP","time":4,"transit":false,"i_long":106.66566},{"station_id":"RU","station_name":"Rawa Buntu","is_transit":false,"i_long":106.675475,"line":6,"distance":2413,"transit":false,"time":4,"i_lat":-6.314823},{"i_lat":-6.296963,"station_id":"SDM","transit":false,"i_long":106.712277,"line":6,"is_transit":false,"time":6,"distance":4566,"station_name":"Sudimara"},{"station_name":"Jurangmangu","line":6,"station_id":"JMU","time":4,"i_lat":-6.288927,"is_transit":false,"i_long":106.728916,"distance":1994,"transit":false},{"distance":2179,"station_name":"Pondokranji","i_long":106.74273,"transit":false,"station_id":"PDJ","line":6,"is_transit":false,"time":3,"i_lat":-6.276362},{"is_transit":false,"station_name":"Kebayoran","distance":6218,"station_id":"KBY","i_long":106.780334,"transit":false,"time":8,"i_lat":-6.237242,"line":6},{"transit":false,"i_lat":-6.207404,"station_id":"PLM","station_name":"Palmerah","time":7,"i_long":106.79689,"distance":3737,"line":6,"is_transit":false},{"i_long":106.811091,"station_name":"Tanah Abang","is_transit":true,"time":6,"distance":3191,"transit":true,"station_id":"THB","i_lat":-6.185545,"line":1},{"transit":false,"line":1,"time":8,"is_transit":false,"distance":3632,"station_id":"DU","i_lat":-6.155215,"station_name":"Duri","i_long":106.800832},{"station_name":"Angke","is_transit":false,"transit":false,"distance":1230,"time":4,"i_lat":-6.144674,"i_long":106.79867,"line":1,"station_id":"AK"},{"time":9,"i_long":106.826365,"station_name":"Kampung Bandan","is_transit":true,"i_lat":-6.132549,"distance":4102,"transit":true,"station_id":"KPB","line":4},{"line":11,"station_id":"RJW","station_name":"Rajawali","distance":1444,"transit":false,"is_transit":false,"i_lat":-6.14505,"time":3,"i_long":106.836569},{"i_long":106.839204,"is_transit":false,"station_name":"Kemayoran","distance":1901,"station_id":"KMO","time":5,"i_lat":-6.161728,"line":11,"transit":false},{"station_id":"PSE","distance":1436,"is_transit":false,"time":4,"transit":false,"i_lat":-6.174784,"station_name":"Pasar Senen","line":11,"i_long":106.84368},{"line":11,"station_name":"Gang Sentiong","transit":false,"distance":1567,"time":8,"i_lat":-6.185975,"i_long":106.850107,"station_id":"GST","is_transit":false},{"line":11,"station_id":"KMT","time":1,"i_long":106.855437,"distance":973,"i_lat":-6.193792,"transit":false,"station_name":"Kramat","is_transit":false},{"station_name":"Pondok Jati","station_id":"POK","is_transit":false,"distance":1829,"transit":false,"i_long":106.861737,"line":11,"time":2,"i_lat":-6.209188},{"station_name":"Jatinegara","i_lat":-6.215091,"station_id":"JNG","time":9,"is_transit":true,"i_long":106.86807400000001,"line":1,"transit":true,"distance":1236},{"i_long":106.899548,"line":1,"station_id":"KLD","time":3,"distance":3395,"i_lat":-6.2135,"transit":false,"is_transit":false,"station_name":"Klender"},{"time":2,"i_lat":-6.215568,"distance":3100,"transit":false,"is_transit":false,"i_long":106.922662,"station_name":"Buaran","line":1,"station_id":"BUA"},{"i_long":106.939679,"station_name":"Klenderbaru","transit":false,"time":1,"is_transit":false,"station_id":"KLDB","distance":1305,"line":1,"i_lat":-6.217455},{"i_long":106.951283,"station_id":"CUK","is_transit":false,"station_name":"Cakung","distance":1385,"line":1,"time":8,"transit":false,"i_lat":-6.219053},{"station_id":"KRI","i_long":106.977657,"is_transit":false,"transit":false,"time":3,"station_name":"Kranji","i_lat":-6.224515,"distance":3097,"line":1},{"station_name":"Bekasi","is_transit":false,"transit":false,"i_lat":-6.236616,"distance":2520,"i_long":106.997013,"line":1,"time":4,"station_id":"BKS"},{"is_transit":false,"i_long":107.016735,"transit":false,"station_name":"Bekasi Timur","distance":2368,"time":2,"i_lat":-6.248029,"station_id":"BKST","line":1},{"transit":false,"line":1,"station_name":"Tambun","station_id":"TB","is_transit":false,"i_lat":-6.258864,"i_long":107.055722,"distance":4460,"time":7}],[{"is_transit":false,"station_id":"CKY","distance":0,"station_name":"Cikoya","i_lat":-6.33561,"transit":false,"i_long":106.411216,"line":3,"time":0},{"distance":2651,"station_name":"Tigaraksa","line":6,"i_lat":-6.328533,"i_long":106.425991,"transit":false,"time":3,"is_transit":false,"station_id":"TGS"},{"transit":false,"i_long":106.460812,"station_name":"Tenjo","line":6,"is_transit":false,"i_lat":-6.327251,"distance":2974,"time":5,"station_id":"TEJ"},{"time":5,"station_name":"Daru","station_id":"DAR","transit":false,"i_long":106.491338,"distance":3902,"i_lat":-6.338021,"line":0,"is_transit":false},{"station_name":"Cilejit","station_id":"CJT","is_transit":false,"i_long":106.508482,"line":3,"i_lat":-6.354349,"time":6,"distance":2675,"transit":false},{"is_transit":false,"i_lat":-6.3441410000000005,"line":6,"i_long":106.568863,"station_id":"PRP","station_name":"Parung Panjang","time":9,"distance":7025,"transit":false},{"is_transit":false,"distance":5968,"station_name":"Cicayur","time":8,"i_lat":-6.329547,"i_long":106.617853,"line":3,"station_id":"CC","transit":false},{"i_lat":-6.32484,"is_transit":false,"line":3,"i_long":106.640411,"distance":2519,"time":4,"station_id":"CSK","transit":false,"station_name":"Cisauk"},{"distance":1784,"transit":false,"line":6,"i_lat":-6.319871,"station_name":"Serpong","is_transit":false,"station_id":"SRP","i_long":106.66566,"time":4},{"station_name":"Rawa Buntu","transit":false,"i_lat":-6.314823,"line":6,"time":4,"distance":2413,"station_id":"RU","is_transit":false,"i_long":106.675475},{"i_long":106.712277,"station_id":"SDM","station_name":"Sudimara","distance":4566,"is_transit":false,"time":6,"transit":false,"line":6,"i_lat":-6.296963},{"transit":false,"station_id":"JMU","is_transit":false,"i_lat":-6.288927,"line":6,"distance":1994,"station_name":"Jurangmangu","i_long":106.728916,"time":4},{"line":6,"i_lat":-6.276362,"time":3,"station_id":"PDJ","transit":false,"is_transit":false,"i_long":106.74273,"distance":2179,"station_name":"Pondokranji"},{"is_transit":false,"i_lat":-6.237242,"transit":false,"station_name":"Kebayoran","distance":6218,"time":8,"i_long":106.780334,"line":6,"station_id":"KBY"},{"is_transit":false,"station_id":"PLM","transit":false,"i_long":106.79689,"i_lat":-6.207404,"line":6,"time":7,"station_name":"Palmerah","distance":3737},{"station_name":"Tanah Abang","i_long":106.811091,"transit":true,"line":1,"time":6,"station_id":"THB","i_lat":-6.185545,"is_transit":true,"distance":3191},{"i_lat":-6.155215,"station_name":"Duri","time":8,"i_long":106.800832,"line":1,"distance":3632,"transit":false,"station_id":"DU","is_transit":false},{"station_name":"Angke","transit":false,"is_transit":false,"time":4,"i_long":106.79867,"i_lat":-6.144674,"distance":1230,"line":1,"station_id":"AK"},{"is_transit":true,"station_name":"Kampung Bandan","time":9,"station_id":"KPB","transit":true,"line":4,"i_lat":-6.132549,"distance":4102,"i_long":106.826365},{"i_long":106.812439,"station_id":"JAKK","time":3,"line":2,"i_lat":-6.137569,"distance":1364,"transit":true,"station_name":"Jakarta Kota","is_transit":true},{"station_name":"Jayakarta","time":4,"is_transit":false,"i_long":106.820901,"transit":false,"line":2,"i_lat":-6.141205,"station_id":"JAY","distance":1264},{"transit":false,"distance":1080,"time":2,"station_name":"Manggabesar","is_transit":false,"i_lat":-6.149769,"line":2,"i_long":106.82482,"station_id":"MGB"},{"is_transit":false,"time":2,"i_lat":-6.160725,"station_id":"SW","transit":false,"i_long":106.827103,"line":2,"station_name":"Sawah Besar","distance":906},{"station_id":"JUA","is_transit":false,"line":2,"i_lat":-6.166716,"i_long":106.828284,"transit":false,"time":2,"station_name":"Juanda","distance":1149},{"station_name":"Gondangdia","time":4,"distance":2015,"is_transit":false,"line":2,"i_lat":-6.186295,"transit":false,"station_id":"GDD","i_long":106.832183},{"time":3,"station_id":"CKI","transit":false,"distance":1750,"station_name":"Cikini","is_transit":false,"i_lat":-6.198556,"i_long":106.840169,"line":2},{"station_id":"MRI","i_long":106.84912,"distance":1590,"is_transit":true,"time":4,"station_name":"Manggarai","line":2,"i_lat":-6.209883,"transit":true},{"line":1,"transit":false,"time":2,"is_transit":false,"i_lat":-6.212485,"distance":1275,"station_name":"Matraman","station_id":"MTR","i_long":106.858896},{"is_transit":false,"i_lat":-6.215091,"distance":1377,"transit":false,"station_id":"JNG","i_long":106.86807400000001,"line":1,"station_name":"Jatinegara","time":8},{"i_long":106.899548,"station_name":"Klender","time":3,"distance":3395,"station_id":"KLD","transit":false,"is_transit":false,"i_lat":-6.2135,"line":1},{"is_transit":false,"station_name":"Buaran","time":2,"i_lat":-6.215568,"line":1,"transit":false,"distance":3100,"station_id":"BUA","i_long":106.922662},{"is_transit":false,"station_id":"KLDB","station_name":"Klenderbaru","line":1,"i_lat":-6.217455,"time":1,"transit":false,"i_long":106.939679,"distance":1305},{"station_id":"CUK","distance":1385,"station_name":"Cakung","i_lat":-6.219053,"i_long":106.951283,"transit":false,"is_transit":false,"line":1,"time":8},{"distance":3097,"time":3,"i_lat":-6.224515,"station_name":"Kranji","i_long":106.977657,"line":1,"is_transit":false,"transit":false,"station_id":"KRI"},{"i_lat":-6.236616,"i_long":106.997013,"distance":2520,"transit":false,"line":1,"is_transit":false,"station_name":"Bekasi","station_id":"BKS","time":4},{"transit":false,"is_transit":false,"distance":2368,"station_id":"BKST","time":2,"i_lat":-6.248029,"i_long":107.016735,"station_name":"Bekasi Timur","line":1},{"distance":4460,"time":7,"i_long":107.055722,"station_id":"TB","i_lat":-6.258864,"station_name":"Tambun","line":1,"is_transit":false,"transit":false}],[{"i_lat":-6.33561,"station_name":"Cikoya","transit":false,"time":0,"i_long":106.411216,"is_transit":false,"distance":0,"station_id":"CKY","line":3},{"time":3,"distance":2651,"transit":false,"is_transit":false,"station_name":"Tigaraksa","i_long":106.425991,"line":6,"i_lat":-6.328533,"station_id":"TGS"},{"time":5,"station_id":"TEJ","transit":false,"station_name":"Tenjo","line":6,"i_long":106.460812,"distance":2974,"i_lat":-6.327251,"is_transit":false},{"is_transit":false,"i_lat":-6.338021,"station_name":"Daru","transit":false,"distance":3902,"time":5,"i_long":106.491338,"line":0,"station_id":"DAR"},{"station_name":"Cilejit","transit":false,"is_transit":false,"station_id":"CJT","distance":2675,"time":6,"i_lat":-6.354349,"i_long":106.508482,"line":3},{"transit":false,"station_name":"Parung Panjang","distance":7025,"is_transit":false,"time":9,"i_long":106.568863,"i_lat":-6.3441410000000005,"station_id":"PRP","line":6},{"i_lat":-6.329547,"distance":5968,"line":3,"i_long":106.617853,"is_transit":false,"station_id":"CC","station_name":"Cicayur","time":8,"transit":false},{"distance":2519,"station_name":"Cisauk","time":4,"i_lat":-6.32484,"station_id":"CSK","i_long":106.640411,"transit":false,"is_transit":false,"line":3},{"is_transit":false,"station_id":"SRP","line":6,"i_lat":-6.319871,"station_name":"Serpong","distance":1784,"transit":false,"i_long":106.66566,"time":4},{"station_id":"RU","i_lat":-6.314823,"i_long":106.675475,"time":4,"distance":2413,"is_transit":false,"line":6,"station_name":"Rawa Buntu","transit":false},{"transit":false,"line":6,"time":6,"distance":4566,"is_transit":false,"station_id":"SDM","i_lat":-6.296963,"i_long":106.712277,"station_name":"Sudimara"},{"is_transit":false,"i_lat":-6.288927,"station_name":"Jurangmangu","station_id":"JMU","distance":1994,"time":4,"i_long":106.728916,"transit":false,"line":6},{"distance":2179,"transit":false,"line":6,"station_name":"Pondokranji","is_transit":false,"i_lat":-6.276362,"time":3,"station_id":"PDJ","i_long":106.74273},{"station_name":"Kebayoran","transit":false,"is_transit":false,"station_id":"KBY","i_long":106.780334,"distance":6218,"time":8,"line":6,"i_lat":-6.237242},{"i_long":106.79689,"i_lat":-6.207404,"transit":false,"station_name":"Palmerah","distance":3737,"station_id":"PLM","time":7,"line":6,"is_transit":false},{"i_long":106.811091,"is_transit":true,"transit":true,"time":6,"station_name":"Tanah Abang","distance":3191,"line":1,"station_id":"THB","i_lat":-6.185545},{"station_name":"Karet","is_transit":false,"i_long":106.816351,"line":1,"i_lat":-6.20132,"station_id":"KAT","time":5,"distance":2029,"transit":false},{"i_long":106.819881,"station_id":"SUDB","i_lat":-6.201433,"transit":false,"line":1,"distance":471,"station_name":"Sudirman Baru","time":1,"is_transit":false},{"distance":280,"station_id":"SUD","is_transit":false,"time":1,"i_long":106.822649,"line":1,"station_name":"Sudirman","i_lat":-6.202263,"transit":false},{"station_name":"Manggarai","i_long":106.84912,"transit":true,"line":2,"i_lat":-6.209883,"distance":3186,"station_id":"MRI","is_transit":true,"time":4},{"distance":1590,"i_long":106.840169,"line":2,"station_id":"CKI","is_transit":false,"i_lat":-6.198556,"station_name":"Cikini","time":4,"transit":false},{"i_lat":-6.186295,"i_long":106.832183,"station_name":"Gondangdia","line":2,"time":3,"is_transit":false,"distance":1750,"transit":false,"station_id":"GDD"},{"transit":false,"station_name":"Juanda","i_lat":-6.166716,"i_long":106.828284,"distance":2015,"station_id":"JUA","is_transit":false,"time":4,"line":2},{"i_long":106.827103,"time":2,"line":2,"i_lat":-6.160725,"is_transit":false,"transit":false,"station_id":"SW","distance":1149,"station_name":"Sawah Besar"},{"line":2,"station_id":"MGB","i_lat":-6.149769,"distance":906,"transit":false,"station_name":"Manggabesar","is_transit":false,"time":2,"i_long":106.82482},{"i_lat":-6.141205,"line":2,"time":2,"is_transit":false,"i_long":106.820901,"distance":1080,"station_id":"JAY","transit":false,"station_name":"Jayakarta"},{"i_long":106.812439,"is_transit":true,"time":4,"transit":true,"station_name":"Jakarta Kota","i_lat":-6.137569,"distance":1264,"station_id":"JAKK","line":2},{"is_transit":true,"i_long":106.826365,"time":3,"distance":1364,"line":4,"station_id":"KPB","transit":true,"station_name":"Kampung Bandan","i_lat":-6.132549},{"distance":1444,"transit":false,"station_name":"Rajawali","is_transit":false,"time":3,"station_id":"RJW","i_long":106.836569,"line":11,"i_lat":-6.14505},{"station_id":"KMO","is_transit":false,"i_long":106.839204,"transit":false,"station_name":"Kemayoran","i_lat":-6.161728,"distance":1901,"time":5,"line":11},{"transit":false,"station_name":"Pasar Senen","station_id":"PSE","i_lat":-6.174784,"is_transit":false,"time":4,"distance":1436,"i_long":106.84368,"line":11},{"is_transit":false,"time":8,"distance":1567,"station_id":"GST","station_name":"Gang Sentiong","i_lat":-6.185975,"transit":false,"i_long":106.850107,"line":11},{"line":11,"time":1,"i_long":106.855437,"station_name":"Kramat","is_transit":false,"transit":false,"distance":973,"station_id":"KMT","i_lat":-6.193792},{"i_lat":-6.209188,"is_transit":false,"transit":false,"distance":1829,"i_long":106.861737,"line":11,"station_name":"Pondok Jati","station_id":"POK","time":2},{"line":1,"is_transit":true,"i_lat":-6.215091,"time":9,"station_id":"JNG","transit":true,"station_name":"Jatinegara","i_long":106.86807400000001,"distance":1236},{"is_transit":false,"transit":false,"i_lat":-6.2135,"i_long":106.899548,"distance":3395,"station_id":"KLD","station_name":"Klender","time":3,"line":1},{"distance":3100,"i_long":106.922662,"transit":false,"station_id":"BUA","i_lat":-6.215568,"line":1,"station_name":"Buaran","is_transit":false,"time":2},{"i_lat":-6.217455,"is_transit":false,"station_name":"Klenderbaru","distance":1305,"time":1,"i_long":106.939679,"line":1,"station_id":"KLDB","transit":false},{"line":1,"station_id":"CUK","is_transit":false,"transit":false,"distance":1385,"i_lat":-6.219053,"time":8,"i_long":106.951283,"station_name":"Cakung"},{"i_lat":-6.224515,"transit":false,"station_id":"KRI","time":3,"i_long":106.977657,"distance":3097,"station_name":"Kranji","line":1,"is_transit":false},{"is_transit":false,"i_long":106.997013,"line":1,"distance":2520,"station_name":"Bekasi","transit":false,"time":4,"i_lat":-6.236616,"station_id":"BKS"},{"is_transit":false,"time":2,"line":1,"i_long":107.016735,"station_name":"Bekasi Timur","i_lat":-6.248029,"transit":false,"distance":2368,"station_id":"BKST"},{"i_lat":-6.258864,"line":1,"station_name":"Tambun","is_transit":false,"transit":false,"i_long":107.055722,"station_id":"TB","distance":4460,"time":7}]]}