{"data":[[{"transit":false,"time":0,"distance":0,"is_transit":false,"i_long":106.411216,"i_lat":-6.33561,"station_name":"Cikoya","station_id":"CKY","line":0},{"i_long":106.425991,"distance":2651,"is_transit":false,"i_lat":-6.328533,"station_name":"Tigaraksa","station_id":"TGS","transit":false,"line":6,"time":3},{"is_transit":false,"transit":false,"i_long":106.460812,"i_lat":-6.327251,"distance":2974,"line":6,"station_name":"Tenjo","time":5,"station_id":"TEJ"},{"i_lat":-6.338021,"distance":3902,"station_name":"Daru","i_long":106.491338,"time":5,"line":0,"transit":false,"station_id":"DAR","is_transit":false},{"is_transit":false,"distance":2675,"station_name":"Cilejit","i_long":106.508482,"i_lat":-6.354349,"line":0,"time":6,"transit":false,"station_id":"CJT"},{"station_id":"PRP","line":6,"time":9,"transit":false,"i_long":106.568863,"distance":7025,"is_transit":false,"station_name":"Parung Panjang","i_lat":-6.3441410000000005},{"i_long":106.617853,"distance":5968,"transit":false,"station_id":"CC","station_name":"Cicayur","i_lat":-6.329547,"line":0,"is_transit":false,"time":8},{"time":4,"transit":false,"is_transit":false,"station_name":"Cisauk","station_id":"CSK","i_lat":-6.32484,"i_long":106.640411,"line":0,"distance":2519},{"station_id":"SRP","distance":1784,"line":6,"i_lat":-6.319871,"is_transit":false,"station_name":"Serpong","transit":false,"i_long":106.66566,"time":4},{"station_name":"Rawa Buntu","time":4,"i_lat":-6.314823,"station_id":"RU","is_transit":false,"line":6,"transit":false,"i_long":106.675475,"distance":2413},{"line":6,"i_lat":-6.296963,"station_name":"Sudimara","i_long":106.712277,"is_transit":false,"transit":false,"time":6,"station_id":"SDM","distance":4566},{"distance":1994,"i_long":106.728916,"is_transit":false,"line":6,"transit":false,"i_lat":-6.288927,"station_name":"Jurangmangu","time":4,"station_id":"JMU"},{"station_id":"PDJ","station_name":"Pondokranji","distance":2179,"i_long":106.74273,"time":3,"i_lat":-6.276362,"line":6,"is_transit":false,"transit":false},{"is_transit":false,"distance":6218,"i_lat":-6.237242,"i_long":106.780334,"line":6,"station_name":"Kebayoran","transit":false,"time":8,"station_id":"KBY"},{"time":7,"is_transit":false,"transit":false,"i_lat":-6.207404,"station_name":"Palmerah","station_id":"PLM","distance":3737,"i_long":106.79689,"line":6},{"line":1,"distance":3191,"i_long":106.811091,"is_transit":true,"station_name":"Tanah Abang","time":6,"station_id":"THB","transit":true,"i_lat":-6.185545},{"station_name":"Duri","station_id":"DU","is_transit":true,"time":8,"i_lat":-6.155215,"distance":3632,"i_long":106.800832,"line":1,"transit":true},{"time":3,"transit":false,"station_id":"GGL","distance":1700,"is_transit":false,"i_lat":-6.162021,"i_long":106.788277,"station_name":"Grogol","line":5},{"i_long":106.771379,"time":2,"transit":false,"station_id":"PSG","station_name":"Pesing","i_lat":-6.161433,"line":5,"is_transit":false,"distance":2036},{"transit":false,"is_transit":false,"distance":1614,"time":2,"i_lat":-6.1587309999999995,"station_name":"Taman Kota","i_long":106.756522,"line":5,"station_id":"TKO"},{"time":2,"distance":2334,"i_long":106.737035,"is_transit":false,"station_id":"BOI","station_name":"Bojongindah","i_lat":-6.159876,"line":0,"transit":false},{"transit":false,"station_id":"RW","distance":1152,"station_name":"Rawa Buaya","is_transit":false,"i_long":106.723064,"i_lat":-6.162758,"time":4,"line":5},{"time":3,"line":5,"distance":2504,"station_id":"KDS","station_name":"Kalideres","is_transit":false,"transit":false,"i_lat":-6.166068,"i_long":106.701612},{"station_id":"PI","time":3,"station_name":"Poris","distance":2548,"i_lat":-6.169933,"i_long":106.679458,"line":5,"is_transit":false,"transit":false},{"is_transit":false,"line":0,"transit":false,"i_long":106.665036,"station_name":"Batuceper","distance":1834,"time":3,"i_lat":-6.171811,"station_id":"BPR"},{"i_long":106.64657,"time":3,"distance":2028,"i_lat":-6.17331,"station_name":"Tanah Tinggi","is_transit":false,"station_id":"TTI","line":5,"transit":false},{"is_transit":false,"station_id":"TNG","i_lat":-6.176583,"station_name":"Tangerang","i_long":106.632761,"distance":1547,"transit":false,"line":5,"time":3}],[{"station_name":"Cikoya","i_lat":-6.33561,"i_long":106.411216,"time":0,"transit":false,"line":0,"station_id":"CKY","distance":0,"is_transit":false},{"distance":2651,"station_id":"TGS","i_long":106.425991,"time":3,"transit":false,"is_transit":false,"i_lat":-6.328533,"line":6,"station_name":"Tigaraksa"},{"line":6,"station_id":"TEJ","i_lat":-6.327251,"i_long":106.460812,"distance":2974,"station_name":"Tenjo","time":5,"is_transit":false,"transit":false},{"station_id":"DAR","transit":false,"time":5,"station_name":"Daru","is_transit":false,"i_lat":-6.338021,"i_long":106.491338,"line":0,"distance":3902},{"i_long":106.508482,"station_name":"Cilejit","line":0,"distance":2675,"is_transit":false,"transit":false,"time":6,"i_lat":-6.354349,"station_id":"CJT"},{"transit":false,"distance":7025,"station_name":"Parung Panjang","line":6,"time":9,"i_long":106.568863,"station_id":"PRP","i_lat":-6.3441410000000005,"is_transit":false},{"distance":5968,"station_id":"CC","line":0,"is_transit":false,"transit":false,"station_name":"Cicayur","time":8,"i_lat":-6.329547,"i_long":106.617853},{"distance":2519,"time":4,"i_lat":-6.32484,"i_long":106.640411,"is_transit":false,"station_name":"Cisauk","transit":false,"line":0,"station_id":"CSK"},{"i_lat":-6.319871,"is_transit":false,"station_name":"Serpong","station_id":"SRP","i_long":106.66566,"transit":false,"time":4,"distance":1784,"line":6},{"line":6,"time":4,"is_transit":false,"distance":2413,"station_name":"Rawa Buntu","transit":false,"i_lat":-6.314823,"i_long":106.675475,"station_id":"RU"},{"line":6,"distance":4566,"is_transit":false,"time":6,"station_name":"Sudimara","transit":false,"i_lat":-6.296963,"station_id":"SDM","i_long":106.712277},{"i_lat":-6.288927,"line":6,"time":4,"station_id":"JMU","is_transit":false,"station_name":"Jurangmangu","transit":false,"i_long":106.728916,"distance":1994},{"station_name":"Pondokranji","is_transit":false,"i_lat":-6.276362,"line":6,"time":3,"i_long":106.74273,"distance":2179,"transit":false,"station_id":"PDJ"},{"i_long":106.780334,"line":6,"distance":6218,"transit":false,"time":8,"station_id":"KBY","is_transit":false,"station_name":"Kebayoran","i_lat":-6.237242},{"i_lat":-6.207404,"station_name":"Palmerah","is_transit":false,"distance":3737,"line":6,"transit":false,"station_id":"PLM","time":7,"i_long":106.79689},{"station_id":"THB","distance":3191,"transit":true,"station_name":"Tanah Abang","is_transit":true,"i_lat":-6.185545,"i_long":106.811091,"line":1,"time":6},{"is_transit":false,"distance":2029,"i_lat":-6.20132,"station_id":"KAT","i_long":106.816351,"time":5,"station_name":"Karet","transit":false,"line":1},{"station_name":"Sudirman Baru","station_id":"SUDB","time":1,"distance":471,"i_lat":-6.201433,"line":1,"is_transit":false,"i_long":106.819881,"transit":false},{"i_lat":-6.202263,"line":1,"distance":280,"transit":false,"station_name":"Sudirman","i_long":106.822649,"time":1,"station_id":"SUD","is_transit":false},{"station_id":"MRI","is_transit":true,"transit":true,"station_name":"Manggarai","i_lat":-6.209883,"time":4,"distance":3186,"i_long":106.84912,"line":0},{"distance":1590,"line":0,"transit":false,"station_id":"CKI","time":4,"station_name":"Cikini","i_lat":-6.198556,"i_long":106.840169,"is_transit":false},{"is_transit":false,"station_name":"Gondangdia","line":2,"station_id":"GDD","distance":1750,"i_long":106.832183,"i_lat":-6.186295,"transit":false,"time":3},{"line":2,"transit":false,"distance":2015,"i_lat":-6.166716,"station_id":"JUA","time":4,"is_transit":false,"station_name":"Juanda","i_long":106.828284},{"distance":1149,"transit":false,"is_transit":false,"i_lat":-6.160725,"i_long":106.827103,"station_id":"SW","time":2,"station_name":"Sawah Besar","line":2},{"distance":906,"is_transit":false,"station_id":"MGB","transit":false,"time":2,"station_name":"Manggabesar","i_long":106.82482,"i_lat":-6.149769,"line":2},{"i_long":106.820901,"line":7,"i_lat":-6.141205,"station_name":"Jayakarta","transit":false,"distance":1080,"time":2,"is_transit":false,"station_id":"JAY"},{"time":4,"i_lat":-6.137569,"i_long":106.812439,"line":0,"station_id":"JAKK","station_name":"Jakarta Kota","distance":1264,"transit":true,"is_transit":true},{"station_name":"Kampung Bandan","time":3,"station_id":"KPB","line":0,"i_lat":-6.132549,"is_transit":true,"i_long":106.826365,"distance":1364,"transit":false},{"is_transit":false,"line":0,"station_name":"Angke","i_long":106.79867,"distance":4102,"station_id":"AK","transit":false,"i_lat":-6.144674,"time":9},{"transit":true,"time":4,"i_long":106.800832,"i_lat":-6.155215,"station_name":"Duri","line":1,"distance":1230,"station_id":"DU","is_transit":true},{"station_name":"Grogol","transit":false,"i_lat":-6.162021,"distance":1700,"i_long":106.788277,"line":5,"is_transit":false,"station_id":"GGL","time":3},{"transit":false,"line":5,"is_transit":false,"station_id":"PSG","i_long":106.771379,"time":2,"distance":2036,"i_lat":-6.161433,"station_name":"Pesing"},{"is_transit":false,"station_id":"TKO","distance":1614,"transit":false,"line":5,"time":2,"station_name":"Taman Kota","i_long":106.756522,"i_lat":-6.1587309999999995},{"i_lat":-6.159876,"distance":2334,"station_name":"Bojongindah","time":2,"line":0,"station_id":"BOI","i_long":106.737035,"transit":false,"is_transit":false},{"time":4,"i_long":106.723064,"is_transit":false,"station_name":"Rawa Buaya","i_lat":-6.162758,"station_id":"RW","distance":1152,"transit":false,"line":5},{"i_long":106.701612,"station_id":"KDS","station_name":"Kalideres","transit":false,"i_lat":-6.166068,"is_transit":false,"distance":2504,"time":3,"line":5},{"i_lat":-6.169933,"time":3,"i_long":106.679458,"distance":2548,"station_name":"Poris","line":5,"is_transit":false,"station_id":"PI","transit":false},{"station_name":"Batuceper","station_id":"BPR","distance":1834,"i_lat":-6.171811,"is_transit":false,"i_long":106.665036,"transit":false,"time":3,"line":0},{"time":3,"is_transit":false,"station_name":"Tanah Tinggi","station_id":"TTI","i_lat":-6.17331,"transit":false,"line":5,"distance":2028,"i_long":106.64657},{"station_name":"Tangerang","i_lat":-6.176583,"is_transit":false,"transit":false,"i_long":106.632761,"line":5,"time":3,"distance":1547,"station_id":"TNG"}],[{"line":0,"is_transit":false,"station_name":"Cikoya","distance":0,"i_long":106.411216,"station_id":"CKY","time":0,"transit":false,"i_lat":-6.33561},{"distance":2651,"station_id":"TGS","time":3,"i_lat":-6.328533,"transit":false,"is_transit":false,"station_name":"Tigaraksa","i_long":106.425991,"line":6},{"station_id":"TEJ","time":5,"station_name":"Tenjo","distance":2974,"line":6,"i_long":106.460812,"transit":false,"i_lat":-6.327251,"is_transit":false},{"i_long":106.491338,"line":0,"time":5,"station_id":"DAR","transit":false,"distance":3902,"station_name":"Daru","is_transit":false,"i_lat":-6.338021},{"station_name":"Cilejit","transit":false,"i_lat":-6.354349,"is_transit":false,"time":6,"i_long":106.508482,"station_id":"CJT","line":0,"distance":2675},{"is_transit":false,"station_name":"Parung Panjang","transit":false,"line":6,"distance":7025,"station_id":"PRP","i_long":106.568863,"i_lat":-6.3441410000000005,"time":9},{"station_id":"CC","transit":false,"time":8,"i_lat":-6.329547,"line":0,"station_name":"Cicayur","is_transit":false,"i_long":106.617853,"distance":5968},{"transit":false,"time":4,"is_transit":false,"line":0,"station_id":"CSK","station_name":"Cisauk","i_lat":-6.32484,"i_long":106.640411,"distance":2519},{"distance":1784,"line":6,"station_name":"Serpong","time":4,"transit":false,"i_lat":-6.319871,"is_transit":false,"i_long":106.66566,"station_id":"SRP"},{"distance":2413,"line":6,"station_id":"RU","station_name":"Rawa Buntu","transit":false,"i_lat":-6.314823,"is_transit":false,"time":4,"i_long":106.675475},{"station_id":"SDM","station_name":"Sudimara","line":6,"is_transit":false,"transit":false,"i_lat":-6.296963,"distance":4566,"i_long":106.712277,"time":6},{"is_transit":false,"station_id":"JMU","time":4,"i_long":106.728916,"station_name":"Jurangmangu","distance":1994,"line":6,"transit":false,"i_lat":-6.288927},{"i_long":106.74273,"time":3,"station_name":"Pondokranji","is_transit":false,"transit":false,"i_lat":-6.276362,"distance":2179,"line":6,"station_id":"PDJ"},{"line":6,"is_transit":false,"time":8,"transit":false,"i_long":106.780334,"station_id":"KBY","i_lat":-6.237242,"distance":6218,"station_name":"Kebayoran"},{"station_id":"PLM","transit":false,"distance":3737,"line":6,"i_lat":-6.207404,"time":7,"station_name":"Palmerah","i_long":106.79689,"is_transit":false},{"is_transit":true,"i_long":106.811091,"transit":true,"station_id":"THB","time":6,"station_name":"Tanah Abang","line":1,"distance":3191,"i_lat":-6.185545},{"distance":2029,"i_long":106.816351,"station_name":"Karet","i_lat":-6.20132,"station_id":"KAT","line":1,"transit":false,"is_transit":false,"time":5},{"station_name":"Sudirman Baru","i_lat":-6.201433,"time":1,"i_long":106.819881,"line":1,"is_transit":false,"distance":471,"transit":false,"station_id":"SUDB"},{"station_name":"Sudirman","line":1,"time":1,"i_lat":-6.202263,"distance":280,"station_id":"SUD","transit":false,"i_long":106.822649,"is_transit":false},{"i_lat":-6.209883,"line":0,"station_id":"MRI","transit":false,"time":4,"is_transit":true,"i_long":106.84912,"station_name":"Manggarai","distance":3186},{"transit":false,"line":1,"is_transit":false,"station_name":"Matraman","time":2,"station_id":"MTR","distance":1275,"i_lat":-6.212485,"i_long":106.858896},{"station_name":"Jatinegara","i_long":106.86807400000001,"station_id":"JNG","time":8,"transit":true,"i_lat":-6.215091,"distance":1377,"line":0,"is_transit":true},{"station_name":"Pondok Jati","is_transit":false,"time":2,"distance":1236,"i_lat":-6.209188,"station_id":"POK","transit":false,"i_long":106.861737,"line":11},{"line":11,"distance":1829,"time":2,"i_lat":-6.193792,"is_transit":false,"transit":false,"station_id":"KMT","station_name":"Kramat","i_long":106.855437},{"distance":973,"station_id":"GST","is_transit":false,"time":1,"transit":false,"station_name":"Gang Sentiong","i_lat":-6.185975,"line":11,"i_long":106.850107},{"station_id":"PSE","station_name":"Pasar Senen","is_transit":false,"time":8,"distance":1567,"i_lat":-6.174784,"line":11,"transit":false,"i_long":106.84368},{"line":11,"distance":1436,"transit":false,"i_long":106.839204,"station_name":"Kemayoran","is_transit":false,"time":4,"i_lat":-6.161728,"station_id":"KMO"},{"i_lat":-6.14505,"i_long":106.836569,"transit":false,"station_name":"Rajawali","time":5,"is_transit":false,"line":11,"distance":1901,"station_id":"RJW"},{"station_name":"Kampung Bandan","i_lat":-6.132549,"is_transit":true,"distance":1444,"time":3,"i_long":106.826365,"transit":true,"line":0,"station_id":"KPB"},{"line":0,"distance":4102,"transit":false,"station_id":"AK","is_transit":false,"time":9,"station_name":"Angke","i_long":106.79867,"i_lat":-6.144674},{"i_long":106.800832,"is_transit":true,"time":4,"station_id":"DU","transit":true,"i_lat":-6.155215,"station_name":"Duri","line":1,"distance":1230},{"i_long":106.788277,"station_id":"GGL","i_lat":-6.162021,"is_transit":false,"time":3,"distance":1700,"transit":false,"line":5,"station_name":"Grogol"},{"i_long":106.771379,"station_name":"Pesing","line":5,"transit":false,"i_lat":-6.161433,"station_id":"PSG","is_transit":false,"time":2,"distance":2036},{"i_long":106.756522,"transit":false,"station_name":"Taman Kota","line":5,"is_transit":false,"time":2,"distance":1614,"station_id":"TKO","i_lat":-6.1587309999999995},{"time":2,"station_name":"Bojongindah","i_lat":-6.159876,"transit":false,"station_id":"BOI","i_long":106.737035,"distance":2334,"is_transit":false,"line":0},{"distance":1152,"line":5,"station_id":"RW","i_lat":-6.162758,"time":4,"i_long":106.723064,"is_transit":false,"station_name":"Rawa Buaya","transit":false},{"station_id":"KDS","line":5,"transit":false,"is_transit":false,"distance":2504,"station_name":"Kalideres","time":3,"i_lat":-6.166068,"i_long":106.701612},{"time":3,"transit":false,"distance":2548,"station_id":"PI","station_name":"Poris","line":5,"is_transit":false,"i_lat":-6.169933,"i_long":106.679458},{"line":0,"station_id":"BPR","transit":false,"i_lat":-6.171811,"station_name":"Batuceper","is_transit":false,"i_long":106.665036,"time":3,"distance":1834},{"i_long":106.64657,"time":3,"is_transit":false,"distance":2028,"station_name":"Tanah Tinggi","line":5,"transit":false,"station_id":"TTI","i_lat":-6.17331},{"station_id":"TNG","is_transit":false,"transit":false,"i_long":106.632761,"line":5,"station_name":"Tangerang","time":3,"distance":1547,"i_lat":-6.176583}]]}