{"data":[[{"is_transit":false,"station_id":"CKY","transit":false,"distance":0,"time":0,"i_long":106.411216,"line":0,"i_lat":-6.33561,"station_name":"Cikoya"},{"is_transit":false,"distance":2651,"transit":false,"i_long":106.425991,"time":3,"i_lat":-6.328533,"station_name":"Tigaraksa","station_id":"TGS","line":6},{"station_name":"Tenjo","is_transit":false,"i_long":106.460812,"transit":false,"line":6,"distance":2974,"station_id":"TEJ","i_lat":-6.327251,"time":5},{"distance":3902,"is_transit":false,"time":5,"transit":false,"i_long":106.491338,"i_lat":-6.338021,"line":0,"station_name":"Daru","station_id":"DAR"},{"time":6,"i_lat":-6.354349,"line":0,"i_long":106.508482,"transit":false,"distance":2675,"station_name":"Cilejit","is_transit":false,"station_id":"CJT"},{"transit":false,"i_long":106.568863,"station_name":"Parung Panjang","i_lat":-6.3441410000000005,"line":6,"is_transit":false,"distance":7025,"time":9,"station_id":"PRP"},{"i_long":106.617853,"i_lat":-6.329547,"time":8,"is_transit":false,"distance":5968,"station_id":"CC","transit":false,"line":0,"station_name":"Cicayur"},{"line":0,"i_lat":-6.32484,"is_transit":false,"i_long":106.640411,"transit":false,"time":4,"distance":2519,"station_name":"Cisauk","station_id":"CSK"},{"line":6,"i_long":106.66566,"time":4,"i_lat":-6.319871,"station_name":"Serpong","distance":1784,"station_id":"SRP","is_transit":false,"transit":false},{"i_long":106.675475,"line":6,"station_name":"Rawa Buntu","time":4,"distance":2413,"transit":false,"i_lat":-6.314823,"is_transit":false,"station_id":"RU"},{"distance":4566,"i_long":106.712277,"transit":false,"station_name":"Sudimara","time":6,"line":6,"is_transit":false,"i_lat":-6.296963,"station_id":"SDM"},{"station_name":"Jurangmangu","is_transit":false,"distance":1994,"transit":false,"i_long":106.728916,"station_id":"JMU","time":4,"i_lat":-6.288927,"line":6},{"i_lat":-6.276362,"station_name":"Pondokranji","i_long":106.74273,"line":6,"distance":2179,"transit":false,"is_transit":false,"station_id":"PDJ","time":3},{"i_lat":-6.237242,"line":6,"station_id":"KBY","i_long":106.780334,"station_name":"Kebayoran","transit":false,"is_transit":false,"time":8,"distance":6218},{"station_id":"PLM","time":7,"is_transit":false,"i_lat":-6.207404,"station_name":"Palmerah","transit":false,"i_long":106.79689,"distance":3737,"line":6},{"is_transit":true,"time":6,"transit":true,"distance":3191,"i_lat":-6.185545,"station_id":"THB","station_name":"Tanah Abang","line":1,"i_long":106.811091},{"distance":3632,"line":1,"station_name":"Duri","station_id":"DU","i_lat":-6.155215,"is_transit":true,"time":8,"transit":true,"i_long":106.800832},{"station_id":"AK","i_lat":-6.144674,"line":0,"distance":1230,"i_long":106.79867,"is_transit":false,"transit":false,"time":4,"station_name":"Angke"},{"is_transit":true,"line":0,"station_id":"KPB","station_name":"Kampung Bandan","i_long":106.826365,"i_lat":-6.132549,"transit":false,"distance":4102,"time":9},{"station_name":"Jakarta Kota","distance":1364,"i_lat":-6.137569,"is_transit":true,"transit":false,"time":3,"station_id":"JAKK","i_long":106.812439,"line":0}],[{"time":0,"line":0,"transit":false,"station_name":"Cikoya","distance":0,"is_transit":false,"station_id":"CKY","i_lat":-6.33561,"i_long":106.411216},{"line":6,"station_id":"TGS","distance":2651,"station_name":"Tigaraksa","i_lat":-6.328533,"i_long":106.425991,"is_transit":false,"time":3,"transit":false},{"is_transit":false,"station_name":"Tenjo","station_id":"TEJ","distance":2974,"time":5,"line":6,"i_long":106.460812,"transit":false,"i_lat":-6.327251},{"time":5,"distance":3902,"station_name":"Daru","i_lat":-6.338021,"line":0,"is_transit":false,"i_long":106.491338,"transit":false,"station_id":"DAR"},{"is_transit":false,"station_id":"CJT","i_lat":-6.354349,"transit":false,"station_name":"Cilejit","time":6,"i_long":106.508482,"line":0,"distance":2675},{"transit":false,"is_transit":false,"i_lat":-6.3441410000000005,"line":6,"time":9,"distance":7025,"i_long":106.568863,"station_name":"Parung Panjang","station_id":"PRP"},{"transit":false,"time":8,"station_name":"Cicayur","distance":5968,"is_transit":false,"station_id":"CC","i_long":106.617853,"line":0,"i_lat":-6.329547},{"i_long":106.640411,"line":0,"distance":2519,"station_name":"Cisauk","station_id":"CSK","i_lat":-6.32484,"transit":false,"is_transit":false,"time":4},{"i_long":106.66566,"distance":1784,"time":4,"line":6,"i_lat":-6.319871,"station_name":"Serpong","is_transit":false,"station_id":"SRP","transit":false},{"distance":2413,"is_transit":false,"station_id":"RU","transit":false,"time":4,"i_lat":-6.314823,"station_name":"Rawa Buntu","line":6,"i_long":106.675475},{"distance":4566,"i_lat":-6.296963,"station_name":"Sudimara","station_id":"SDM","transit":false,"time":6,"line":6,"i_long":106.712277,"is_transit":false},{"station_name":"Jurangmangu","time":4,"distance":1994,"line":6,"i_lat":-6.288927,"i_long":106.728916,"station_id":"JMU","is_transit":false,"transit":false},{"i_long":106.74273,"station_name":"Pondokranji","time":3,"is_transit":false,"line":6,"transit":false,"i_lat":-6.276362,"station_id":"PDJ","distance":2179},{"i_long":106.780334,"line":6,"distance":6218,"time":8,"station_name":"Kebayoran","is_transit":false,"transit":false,"station_id":"KBY","i_lat":-6.237242},{"is_transit":false,"time":7,"i_long":106.79689,"distance":3737,"i_lat":-6.207404,"station_name":"Palmerah","transit":false,"line":6,"station_id":"PLM"},{"time":6,"i_lat":-6.185545,"line":1,"i_long":106.811091,"station_name":"Tanah Abang","transit":true,"is_transit":true,"distance":3191,"station_id":"THB"},{"i_lat":-6.20132,"station_name":"Karet","station_id":"KAT","time":5,"i_long":106.816351,"transit":false,"line":1,"is_transit":false,"distance":2029},{"is_transit":false,"transit":false,"line":1,"distance":471,"station_name":"Sudirman Baru","i_lat":-6.201433,"time":1,"station_id":"SUDB","i_long":106.819881},{"station_id":"SUD","line":1,"is_transit":false,"i_long":106.822649,"time":1,"transit":false,"station_name":"Sudirman","distance":280,"i_lat":-6.202263},{"transit":true,"is_transit":true,"time":4,"station_id":"MRI","distance":3186,"station_name":"Manggarai","i_lat":-6.209883,"i_long":106.84912,"line":0},{"i_lat":-6.198556,"line":0,"time":4,"station_name":"Cikini","distance":1590,"i_long":106.840169,"station_id":"CKI","is_transit":false,"transit":false},{"station_name":"Gondangdia","distance":1750,"i_long":106.832183,"transit":false,"time":3,"is_transit":false,"station_id":"GDD","i_lat":-6.186295,"line":2},{"is_transit":false,"station_name":"Juanda","transit":false,"i_lat":-6.166716,"i_long":106.828284,"station_id":"JUA","time":4,"line":2,"distance":2015},{"time":2,"station_id":"SW","station_name":"Sawah Besar","distance":1149,"line":2,"transit":false,"i_lat":-6.160725,"i_long":106.827103,"is_transit":false},{"distance":906,"transit":false,"i_long":106.82482,"is_transit":false,"station_id":"MGB","line":2,"station_name":"Manggabesar","time":2,"i_lat":-6.149769},{"line":7,"i_long":106.820901,"station_id":"JAY","time":2,"is_transit":false,"station_name":"Jayakarta","transit":false,"i_lat":-6.141205,"distance":1080},{"time":4,"station_id":"JAKK","is_transit":true,"transit":false,"i_lat":-6.137569,"i_long":106.812439,"line":0,"station_name":"Jakarta Kota","distance":1264}],[{"transit":false,"station_name":"Cikoya","time":0,"i_lat":-6.33561,"is_transit":false,"i_long":106.411216,"line":0,"distance":0,"station_id":"CKY"},{"station_name":"Tigaraksa","distance":2651,"station_id":"TGS","transit":false,"is_transit":false,"time":3,"i_lat":-6.328533,"i_long":106.425991,"line":6},{"distance":2974,"i_lat":-6.327251,"station_id":"TEJ","i_long":106.460812,"is_transit":false,"transit":false,"line":6,"station_name":"Tenjo","time":5},{"transit":false,"distance":3902,"time":5,"i_lat":-6.338021,"i_long":106.491338,"line":0,"is_transit":false,"station_id":"DAR","station_name":"Daru"},{"distance":2675,"is_transit":false,"i_lat":-6.354349,"line":0,"i_long":106.508482,"station_name":"Cilejit","transit":false,"station_id":"CJT","time":6},{"transit":false,"time":9,"i_long":106.568863,"is_transit":false,"station_id":"PRP","i_lat":-6.3441410000000005,"distance":7025,"station_name":"Parung Panjang","line":6},{"time":8,"is_transit":false,"distance":5968,"transit":false,"station_name":"Cicayur","i_long":106.617853,"station_id":"CC","i_lat":-6.329547,"line":0},{"time":4,"station_name":"Cisauk","i_long":106.640411,"distance":2519,"line":0,"is_transit":false,"station_id":"CSK","transit":false,"i_lat":-6.32484},{"i_lat":-6.319871,"i_long":106.66566,"station_name":"Serpong","distance":1784,"transit":false,"time":4,"line":6,"station_id":"SRP","is_transit":false},{"time":4,"i_lat":-6.314823,"transit":false,"i_long":106.675475,"line":6,"station_name":"Rawa Buntu","distance":2413,"is_transit":false,"station_id":"RU"},{"transit":false,"line":6,"time":6,"is_transit":false,"distance":4566,"i_lat":-6.296963,"i_long":106.712277,"station_id":"SDM","station_name":"Sudimara"},{"time":4,"distance":1994,"is_transit":false,"transit":false,"station_name":"Jurangmangu","i_lat":-6.288927,"station_id":"JMU","i_long":106.728916,"line":6},{"distance":2179,"is_transit":false,"station_id":"PDJ","station_name":"Pondokranji","transit":false,"i_lat":-6.276362,"time":3,"i_long":106.74273,"line":6},{"transit":false,"time":8,"distance":6218,"station_name":"Kebayoran","i_lat":-6.237242,"station_id":"KBY","i_long":106.780334,"line":6,"is_transit":false},{"station_name":"Palmerah","time":7,"transit":false,"i_lat":-6.207404,"distance":3737,"is_transit":false,"line":6,"i_long":106.79689,"station_id":"PLM"},{"station_id":"THB","i_long":106.811091,"transit":true,"i_lat":-6.185545,"distance":3191,"is_transit":true,"time":6,"line":1,"station_name":"Tanah Abang"},{"distance":2029,"station_name":"Karet","time":5,"i_long":106.816351,"station_id":"KAT","transit":false,"i_lat":-6.20132,"line":1,"is_transit":false},{"i_long":106.819881,"time":1,"station_name":"Sudirman Baru","i_lat":-6.201433,"is_transit":false,"transit":false,"line":1,"station_id":"SUDB","distance":471},{"line":1,"time":1,"station_id":"SUD","transit":false,"is_transit":false,"i_lat":-6.202263,"station_name":"Sudirman","i_long":106.822649,"distance":280},{"is_transit":true,"line":0,"time":4,"station_id":"MRI","i_lat":-6.209883,"i_long":106.84912,"distance":3186,"transit":false,"station_name":"Manggarai"},{"station_id":"MTR","time":2,"line":1,"is_transit":false,"i_lat":-6.212485,"i_long":106.858896,"distance":1275,"transit":false,"station_name":"Matraman"},{"time":8,"is_transit":true,"i_long":106.86807400000001,"line":0,"station_id":"JNG","i_lat":-6.215091,"distance":1377,"station_name":"Jatinegara","transit":true},{"i_long":106.861737,"line":11,"station_name":"Pondok Jati","distance":1236,"station_id":"POK","transit":false,"time":2,"is_transit":false,"i_lat":-6.209188},{"distance":1829,"i_long":106.855437,"is_transit":false,"station_id":"KMT","time":2,"transit":false,"i_lat":-6.193792,"line":11,"station_name":"Kramat"},{"line":11,"i_lat":-6.185975,"is_transit":false,"time":1,"station_name":"Gang Sentiong","i_long":106.850107,"distance":973,"transit":false,"station_id":"GST"},{"station_id":"PSE","i_lat":-6.174784,"distance":1567,"time":8,"station_name":"Pasar Senen","transit":false,"i_long":106.84368,"line":11,"is_transit":false},{"station_name":"Kemayoran","time":4,"station_id":"KMO","line":11,"transit":false,"i_lat":-6.161728,"distance":1436,"is_transit":false,"i_long":106.839204},{"time":5,"line":11,"i_long":106.836569,"station_name":"Rajawali","distance":1901,"is_transit":false,"transit":false,"i_lat":-6.14505,"station_id":"RJW"},{"distance":1444,"time":3,"line":0,"transit":true,"i_lat":-6.132549,"station_name":"Kampung Bandan","is_transit":true,"station_id":"KPB","i_long":106.826365},{"transit":false,"distance":1364,"station_id":"JAKK","time":3,"is_transit":true,"i_long":106.812439,"line":0,"station_name":"Jakarta Kota","i_lat":-6.137569}],[{"station_name":"Cikoya","line":0,"time":0,"i_long":106.411216,"is_transit":false,"i_lat":-6.33561,"distance":0,"transit":false,"station_id":"CKY"},{"time":3,"i_lat":-6.328533,"line":6,"is_transit":false,"station_name":"Tigaraksa","transit":false,"station_id":"TGS","distance":2651,"i_long":106.425991},{"station_name":"Tenjo","distance":2974,"time":5,"i_lat":-6.327251,"i_long":106.460812,"transit":false,"station_id":"TEJ","line":6,"is_transit":false},{"station_name":"Daru","distance":3902,"station_id":"DAR","is_transit":false,"i_long":106.491338,"transit":false,"time":5,"line":0,"i_lat":-6.338021},{"station_id":"CJT","line":0,"i_lat":-6.354349,"station_name":"Cilejit","time":6,"i_long":106.508482,"transit":false,"distance":2675,"is_transit":false},{"transit":false,"i_lat":-6.3441410000000005,"distance":7025,"is_transit":false,"line":6,"station_name":"Parung Panjang","i_long":106.568863,"time":9,"station_id":"PRP"},{"is_transit":false,"station_name":"Cicayur","line":0,"station_id":"CC","i_long":106.617853,"time":8,"i_lat":-6.329547,"distance":5968,"transit":false},{"time":4,"i_lat":-6.32484,"i_long":106.640411,"station_id":"CSK","is_transit":false,"station_name":"Cisauk","line":0,"transit":false,"distance":2519},{"station_name":"Serpong","transit":false,"i_long":106.66566,"is_transit":false,"station_id":"SRP","line":6,"distance":1784,"time":4,"i_lat":-6.319871},{"distance":2413,"i_lat":-6.314823,"i_long":106.675475,"is_transit":false,"station_id":"RU","transit":false,"time":4,"line":6,"station_name":"Rawa Buntu"},{"time":6,"station_name":"Sudimara","is_transit":false,"i_lat":-6.296963,"line":6,"station_id":"SDM","transit":false,"i_long":106.712277,"distance":4566},{"i_long":106.728916,"station_name":"Jurangmangu","distance":1994,"station_id":"JMU","line":6,"transit":false,"time":4,"i_lat":-6.288927,"is_transit":false},{"is_transit":false,"station_id":"PDJ","station_name":"Pondokranji","i_long":106.74273,"time":3,"distance":2179,"transit":false,"i_lat":-6.276362,"line":6},{"is_transit":false,"distance":6218,"station_name":"Kebayoran","i_long":106.780334,"station_id":"KBY","transit":false,"time":8,"i_lat":-6.237242,"line":6},{"station_id":"PLM","is_transit":false,"line":6,"station_name":"Palmerah","transit":false,"i_long":106.79689,"distance":3737,"time":7,"i_lat":-6.207404},{"is_transit":true,"time":6,"station_id":"THB","i_lat":-6.185545,"station_name":"Tanah Abang","i_long":106.811091,"line":1,"transit":true,"distance":3191},{"station_name":"Duri","line":1,"distance":3632,"is_transit":true,"station_id":"DU","i_lat":-6.155215,"time":8,"transit":true,"i_long":106.800832},{"station_id":"AK","i_lat":-6.144674,"is_transit":false,"transit":false,"line":0,"time":4,"i_long":106.79867,"station_name":"Angke","distance":1230},{"transit":true,"distance":4102,"station_id":"KPB","i_long":106.826365,"line":0,"station_name":"Kampung Bandan","is_transit":true,"time":9,"i_lat":-6.132549},{"station_id":"RJW","transit":false,"i_long":106.836569,"station_name":"Rajawali","time":3,"i_lat":-6.14505,"line":11,"is_transit":false,"distance":1444},{"transit":false,"time":5,"is_transit":false,"line":11,"station_name":"Kemayoran","i_long":106.839204,"distance":1901,"station_id":"KMO","i_lat":-6.161728},{"i_lat":-6.174784,"i_long":106.84368,"line":11,"transit":false,"is_transit":false,"distance":1436,"station_name":"Pasar Senen","station_id":"PSE","time":4},{"transit":false,"i_lat":-6.185975,"distance":1567,"is_transit":false,"time":8,"station_id":"GST","line":11,"station_name":"Gang Sentiong","i_long":106.850107},{"i_long":106.855437,"i_lat":-6.193792,"line":11,"distance":973,"time":1,"is_transit":false,"station_name":"Kramat","transit":false,"station_id":"KMT"},{"is_transit":false,"time":2,"line":11,"station_id":"POK","transit":false,"station_name":"Pondok Jati","i_long":106.861737,"i_lat":-6.209188,"distance":1829},{"i_long":106.86807400000001,"time":9,"distance":1236,"station_name":"Jatinegara","station_id":"JNG","i_lat":-6.215091,"is_transit":true,"line":0,"transit":true},{"i_lat":-6.212485,"distance":1377,"time":2,"is_transit":false,"transit":false,"station_id":"MTR","station_name":"Matraman","line":1,"i_long":106.858896},{"station_id":"MRI","station_name":"Manggarai","i_lat":-6.209883,"time":2,"distance":1275,"line":0,"transit":true,"i_long":106.84912,"is_transit":true},{"i_lat":-6.198556,"line":0,"station_name":"Cikini","i_long":106.840169,"is_transit":false,"station_id":"CKI","distance":1590,"transit":false,"time":4},{"station_name":"Gondangdia","transit":false,"time":3,"line":2,"distance":1750,"i_long":106.832183,"is_transit":false,"station_id":"GDD","i_lat":-6.186295},{"distance":2015,"is_transit":false,"station_name":"Juanda","transit":false,"time":4,"i_long":106.828284,"i_lat":-6.166716,"line":2,"station_id":"JUA"},{"transit":false,"distance":1149,"is_transit":false,"line":2,"time":2,"station_id":"SW","station_name":"Sawah Besar","i_lat":-6.160725,"i_long":106.827103},{"station_name":"Manggabesar","transit":false,"station_id":"MGB","i_lat":-6.149769,"time":2,"line":2,"i_long":106.82482,"is_transit":false,"distance":906},{"station_id":"JAY","line":7,"i_lat":-6.141205,"is_transit":false,"station_name":"Jayakarta","time":2,"i_long":106.820901,"transit":false,"distance":1080},{"i_lat":-6.137569,"transit":false,"i_long":106.812439,"time":4,"distance":1264,"station_name":"Jakarta Kota","is_transit":true,"station_id":"JAKK","line":0}]]}