{"data":[[{"is_transit":false,"i_lat":-6.33561,"transit":false,"distance":0,"time":0,"station_id":"CKY","i_long":106.411216,"station_name":"Cikoya","line":3},{"is_transit":false,"station_id":"TGS","transit":false,"i_long":106.425991,"distance":2651,"i_lat":-6.328533,"station_name":"Tigaraksa","time":3,"line":6},{"station_id":"TEJ","i_lat":-6.327251,"time":5,"distance":2974,"transit":false,"station_name":"Tenjo","is_transit":false,"i_long":106.460812,"line":6},{"time":5,"i_long":106.491338,"transit":false,"line":0,"is_transit":false,"station_name":"Daru","i_lat":-6.338021,"distance":3902,"station_id":"DAR"},{"distance":2675,"is_transit":false,"i_long":106.508482,"transit":false,"station_name":"Cilejit","station_id":"CJT","i_lat":-6.354349,"line":3,"time":6},{"station_name":"Parung Panjang","line":6,"i_lat":-6.3441410000000005,"distance":7025,"is_transit":false,"transit":false,"station_id":"PRP","i_long":106.568863,"time":9},{"time":8,"distance":5968,"i_long":106.617853,"transit":false,"i_lat":-6.329547,"is_transit":false,"station_id":"CC","station_name":"Cicayur","line":3},{"transit":false,"station_name":"Cisauk","line":3,"is_transit":false,"distance":2519,"i_lat":-6.32484,"station_id":"CSK","i_long":106.640411,"time":4},{"distance":1784,"is_transit":false,"station_name":"Serpong","transit":false,"i_lat":-6.319871,"time":4,"station_id":"SRP","i_long":106.66566,"line":6},{"i_lat":-6.314823,"transit":false,"line":6,"station_name":"Rawa Buntu","is_transit":false,"station_id":"RU","distance":2413,"i_long":106.675475,"time":4},{"time":6,"station_id":"SDM","i_lat":-6.296963,"transit":false,"line":6,"station_name":"Sudimara","is_transit":false,"i_long":106.712277,"distance":4566},{"i_long":106.728916,"time":4,"line":6,"i_lat":-6.288927,"station_name":"Jurangmangu","distance":1994,"transit":false,"station_id":"JMU","is_transit":false},{"i_lat":-6.276362,"i_long":106.74273,"time":3,"is_transit":false,"transit":false,"line":6,"station_name":"Pondokranji","distance":2179,"station_id":"PDJ"},{"station_id":"KBY","i_lat":-6.237242,"station_name":"Kebayoran","line":6,"distance":6218,"transit":false,"is_transit":false,"i_long":106.780334,"time":8},{"distance":3737,"station_id":"PLM","station_name":"Palmerah","time":7,"line":6,"is_transit":false,"transit":false,"i_lat":-6.207404,"i_long":106.79689},{"transit":true,"is_transit":true,"i_lat":-6.185545,"time":6,"station_name":"Tanah Abang","station_id":"THB","i_long":106.811091,"line":1,"distance":3191},{"transit":false,"is_transit":false,"distance":2029,"station_name":"Karet","station_id":"KAT","i_lat":-6.20132,"time":5,"i_long":106.816351,"line":1},{"line":1,"i_long":106.819881,"station_name":"Sudirman Baru","transit":false,"i_lat":-6.201433,"distance":471,"is_transit":false,"station_id":"SUDB","time":1},{"time":1,"transit":false,"distance":280,"is_transit":false,"station_name":"Sudirman","station_id":"SUD","line":1,"i_long":106.822649,"i_lat":-6.202263},{"i_lat":-6.209883,"time":4,"station_name":"Manggarai","i_long":106.84912,"is_transit":true,"distance":3186,"station_id":"MRI","line":2,"transit":true},{"station_id":"TEB","i_long":106.857948,"transit":false,"station_name":"Tebet","distance":2610,"is_transit":false,"i_lat":-6.226659,"line":2,"time":4},{"distance":1230,"time":2,"transit":false,"i_long":106.856607,"i_lat":-6.242512,"is_transit":false,"station_id":"CW","station_name":"Cawang","line":2},{"i_long":106.85449,"time":3,"line":2,"i_lat":-6.255332,"is_transit":false,"station_id":"DRN","station_name":"Duren Kalibata","distance":1546,"transit":false},{"i_lat":-6.263214,"transit":false,"distance":824,"i_long":106.851577,"is_transit":false,"time":2,"station_name":"Pasar Minggu Baru","line":2,"station_id":"PSMB"},{"station_name":"Pasar Minggu","is_transit":false,"time":2,"i_long":106.843999,"line":2,"transit":false,"distance":2380,"i_lat":-6.2842400000000005,"station_id":"PSM"},{"station_id":"TNT","time":4,"station_name":"Tanjung Barat","transit":false,"distance":2820,"i_lat":-6.3080680000000005,"i_long":106.838896,"is_transit":false,"line":2},{"line":2,"transit":false,"time":3,"station_name":"Lenteng Agung","station_id":"LNA","is_transit":false,"distance":2671,"i_lat":-6.330363,"i_long":106.832616},{"i_lat":-6.339291,"is_transit":false,"line":2,"station_name":"Univ. Pancasila","distance":1029,"i_long":106.834175,"station_id":"UP","transit":false,"time":2}],[{"is_transit":false,"line":3,"distance":0,"time":0,"station_name":"Cikoya","transit":false,"i_long":106.411216,"station_id":"CKY","i_lat":-6.33561},{"i_long":106.425991,"time":3,"distance":2651,"transit":false,"station_name":"Tigaraksa","station_id":"TGS","line":6,"is_transit":false,"i_lat":-6.328533},{"distance":2974,"time":5,"line":6,"station_name":"Tenjo","i_lat":-6.327251,"transit":false,"station_id":"TEJ","is_transit":false,"i_long":106.460812},{"distance":3902,"i_lat":-6.338021,"station_name":"Daru","i_long":106.491338,"is_transit":false,"transit":false,"line":0,"station_id":"DAR","time":5},{"line":3,"i_long":106.508482,"transit":false,"station_name":"Cilejit","i_lat":-6.354349,"time":6,"distance":2675,"station_id":"CJT","is_transit":false},{"station_name":"Parung Panjang","line":6,"i_lat":-6.3441410000000005,"is_transit":false,"i_long":106.568863,"time":9,"station_id":"PRP","distance":7025,"transit":false},{"station_id":"CC","is_transit":false,"line":3,"station_name":"Cicayur","distance":5968,"time":8,"i_lat":-6.329547,"transit":false,"i_long":106.617853},{"i_long":106.640411,"transit":false,"distance":2519,"is_transit":false,"station_name":"Cisauk","time":4,"i_lat":-6.32484,"station_id":"CSK","line":3},{"station_id":"SRP","i_lat":-6.319871,"line":6,"station_name":"Serpong","is_transit":false,"transit":false,"distance":1784,"time":4,"i_long":106.66566},{"distance":2413,"station_id":"RU","is_transit":false,"time":4,"transit":false,"i_lat":-6.314823,"line":6,"station_name":"Rawa Buntu","i_long":106.675475},{"is_transit":false,"station_id":"SDM","time":6,"i_long":106.712277,"line":6,"station_name":"Sudimara","distance":4566,"transit":false,"i_lat":-6.296963},{"station_id":"JMU","transit":false,"is_transit":false,"i_long":106.728916,"time":4,"i_lat":-6.288927,"station_name":"Jurangmangu","distance":1994,"line":6},{"transit":false,"station_name":"Pondokranji","station_id":"PDJ","distance":2179,"is_transit":false,"line":6,"time":3,"i_lat":-6.276362,"i_long":106.74273},{"time":8,"station_name":"Kebayoran","line":6,"station_id":"KBY","i_long":106.780334,"i_lat":-6.237242,"distance":6218,"transit":false,"is_transit":false},{"i_lat":-6.207404,"is_transit":false,"transit":false,"station_name":"Palmerah","station_id":"PLM","time":7,"line":6,"distance":3737,"i_long":106.79689},{"station_name":"Tanah Abang","station_id":"THB","distance":3191,"line":1,"transit":true,"time":6,"i_lat":-6.185545,"i_long":106.811091,"is_transit":true},{"station_id":"DU","transit":false,"i_long":106.800832,"line":1,"is_transit":false,"station_name":"Duri","time":8,"distance":3632,"i_lat":-6.155215},{"station_id":"AK","is_transit":false,"i_long":106.79867,"transit":false,"line":1,"station_name":"Angke","time":4,"i_lat":-6.144674,"distance":1230},{"line":4,"is_transit":true,"station_name":"Kampung Bandan","station_id":"KPB","distance":4102,"i_lat":-6.132549,"i_long":106.826365,"transit":true,"time":9},{"distance":1364,"i_lat":-6.137569,"i_long":106.812439,"transit":true,"time":3,"station_name":"Jakarta Kota","is_transit":true,"station_id":"JAKK","line":2},{"time":4,"distance":1264,"is_transit":false,"station_id":"JAY","station_name":"Jayakarta","i_long":106.820901,"line":2,"transit":false,"i_lat":-6.141205},{"time":2,"distance":1080,"i_lat":-6.149769,"line":2,"i_long":106.82482,"station_id":"MGB","station_name":"Manggabesar","is_transit":false,"transit":false},{"i_lat":-6.160725,"is_transit":false,"line":2,"distance":906,"transit":false,"i_long":106.827103,"station_id":"SW","station_name":"Sawah Besar","time":2},{"station_id":"JUA","station_name":"Juanda","line":2,"time":2,"transit":false,"distance":1149,"i_lat":-6.166716,"i_long":106.828284,"is_transit":false},{"i_long":106.832183,"distance":2015,"transit":false,"time":4,"i_lat":-6.186295,"is_transit":false,"line":2,"station_id":"GDD","station_name":"Gondangdia"},{"distance":1750,"station_id":"CKI","i_long":106.840169,"line":2,"station_name":"Cikini","time":3,"is_transit":false,"transit":false,"i_lat":-6.198556},{"i_long":106.84912,"station_name":"Manggarai","station_id":"MRI","time":4,"i_lat":-6.209883,"distance":1590,"line":2,"transit":false,"is_transit":false},{"i_lat":-6.226659,"i_long":106.857948,"line":2,"transit":false,"time":4,"station_name":"Tebet","station_id":"TEB","distance":2610,"is_transit":false},{"time":2,"i_long":106.856607,"distance":1230,"is_transit":false,"line":2,"transit":false,"i_lat":-6.242512,"station_name":"Cawang","station_id":"CW"},{"time":3,"transit":false,"i_long":106.85449,"station_name":"Duren Kalibata","station_id":"DRN","is_transit":false,"distance":1546,"line":2,"i_lat":-6.255332},{"transit":false,"station_name":"Pasar Minggu Baru","station_id":"PSMB","is_transit":false,"line":2,"distance":824,"i_lat":-6.263214,"time":2,"i_long":106.851577},{"station_name":"Pasar Minggu","transit":false,"time":2,"is_transit":false,"line":2,"i_lat":-6.2842400000000005,"station_id":"PSM","distance":2380,"i_long":106.843999},{"line":2,"transit":false,"distance":2820,"station_id":"TNT","time":4,"i_long":106.838896,"station_name":"Tanjung Barat","is_transit":false,"i_lat":-6.3080680000000005},{"is_transit":false,"distance":2671,"transit":false,"station_id":"LNA","i_lat":-6.330363,"i_long":106.832616,"line":2,"station_name":"Lenteng Agung","time":3},{"i_lat":-6.339291,"distance":1029,"transit":false,"time":2,"is_transit":false,"station_name":"Univ. Pancasila","i_long":106.834175,"line":2,"station_id":"UP"}],[{"is_transit":false,"station_id":"CKY","line":3,"transit":false,"distance":0,"time":0,"i_long":106.411216,"i_lat":-6.33561,"station_name":"Cikoya"},{"is_transit":false,"i_long":106.425991,"station_id":"TGS","i_lat":-6.328533,"time":3,"station_name":"Tigaraksa","distance":2651,"line":6,"transit":false},{"i_long":106.460812,"transit":false,"station_name":"Tenjo","station_id":"TEJ","time":5,"distance":2974,"is_transit":false,"line":6,"i_lat":-6.327251},{"i_lat":-6.338021,"station_name":"Daru","is_transit":false,"transit":false,"station_id":"DAR","distance":3902,"time":5,"line":0,"i_long":106.491338},{"station_id":"CJT","station_name":"Cilejit","transit":false,"line":3,"is_transit":false,"i_lat":-6.354349,"distance":2675,"i_long":106.508482,"time":6},{"line":6,"i_lat":-6.3441410000000005,"is_transit":false,"station_name":"Parung Panjang","transit":false,"station_id":"PRP","i_long":106.568863,"distance":7025,"time":9},{"i_lat":-6.329547,"i_long":106.617853,"transit":false,"station_id":"CC","line":3,"distance":5968,"is_transit":false,"station_name":"Cicayur","time":8},{"is_transit":false,"time":4,"i_lat":-6.32484,"station_name":"Cisauk","i_long":106.640411,"line":3,"transit":false,"distance":2519,"station_id":"CSK"},{"is_transit":false,"time":4,"station_id":"SRP","transit":false,"station_name":"Serpong","distance":1784,"i_lat":-6.319871,"line":6,"i_long":106.66566},{"line":6,"station_name":"Rawa Buntu","time":4,"i_lat":-6.314823,"is_transit":false,"transit":false,"distance":2413,"i_long":106.675475,"station_id":"RU"},{"station_id":"SDM","i_long":106.712277,"transit":false,"line":6,"distance":4566,"station_name":"Sudimara","time":6,"is_transit":false,"i_lat":-6.296963},{"transit":false,"distance":1994,"station_id":"JMU","is_transit":false,"time":4,"i_long":106.728916,"line":6,"i_lat":-6.288927,"station_name":"Jurangmangu"},{"is_transit":false,"transit":false,"time":3,"i_long":106.74273,"distance":2179,"i_lat":-6.276362,"line":6,"station_id":"PDJ","station_name":"Pondokranji"},{"time":8,"station_name":"Kebayoran","distance":6218,"i_long":106.780334,"transit":false,"station_id":"KBY","line":6,"i_lat":-6.237242,"is_transit":false},{"transit":false,"time":7,"line":6,"station_name":"Palmerah","distance":3737,"station_id":"PLM","i_long":106.79689,"is_transit":false,"i_lat":-6.207404},{"transit":true,"i_lat":-6.185545,"is_transit":true,"line":1,"station_name":"Tanah Abang","time":6,"i_long":106.811091,"distance":3191,"station_id":"THB"},{"station_name":"Duri","is_transit":false,"i_long":106.800832,"i_lat":-6.155215,"time":8,"line":1,"distance":3632,"station_id":"DU","transit":false},{"distance":1230,"i_lat":-6.144674,"line":1,"station_name":"Angke","is_transit":false,"station_id":"AK","time":4,"transit":false,"i_long":106.79867},{"transit":true,"line":4,"time":9,"station_id":"KPB","i_lat":-6.132549,"i_long":106.826365,"distance":4102,"is_transit":true,"station_name":"Kampung Bandan"},{"station_id":"RJW","distance":1444,"transit":false,"i_lat":-6.14505,"line":11,"time":3,"i_long":106.836569,"station_name":"Rajawali","is_transit":false},{"line":11,"time":5,"transit":false,"distance":1901,"station_name":"Kemayoran","is_transit":false,"station_id":"KMO","i_lat":-6.161728,"i_long":106.839204},{"distance":1436,"i_lat":-6.174784,"is_transit":false,"station_id":"PSE","station_name":"Pasar Senen","time":4,"i_long":106.84368,"line":11,"transit":false},{"distance":1567,"time":8,"station_name":"Gang Sentiong","i_lat":-6.185975,"i_long":106.850107,"line":11,"is_transit":false,"station_id":"GST","transit":false},{"is_transit":false,"station_id":"KMT","transit":false,"station_name":"Kramat","i_long":106.855437,"distance":973,"line":11,"time":1,"i_lat":-6.193792},{"station_id":"POK","i_long":106.861737,"distance":1829,"is_transit":false,"i_lat":-6.209188,"time":2,"transit":false,"station_name":"Pondok Jati","line":11},{"time":9,"transit":true,"station_name":"Jatinegara","i_lat":-6.215091,"line":1,"distance":1236,"is_transit":true,"station_id":"JNG","i_long":106.86807400000001},{"line":1,"station_id":"MTR","is_transit":false,"transit":false,"station_name":"Matraman","distance":1377,"i_lat":-6.212485,"time":2,"i_long":106.858896},{"i_lat":-6.209883,"station_name":"Manggarai","line":2,"time":2,"is_transit":true,"station_id":"MRI","transit":true,"distance":1275,"i_long":106.84912},{"station_name":"Tebet","i_long":106.857948,"line":2,"i_lat":-6.226659,"time":4,"transit":false,"is_transit":false,"station_id":"TEB","distance":2610},{"i_long":106.856607,"transit":false,"is_transit":false,"station_name":"Cawang","i_lat":-6.242512,"distance":1230,"line":2,"station_id":"CW","time":2},{"station_name":"Duren Kalibata","line":2,"transit":false,"is_transit":false,"station_id":"DRN","time":3,"i_lat":-6.255332,"distance":1546,"i_long":106.85449},{"time":2,"station_name":"Pasar Minggu Baru","distance":824,"line":2,"transit":false,"i_long":106.851577,"is_transit":false,"station_id":"PSMB","i_lat":-6.263214},{"station_name":"Pasar Minggu","station_id":"PSM","distance":2380,"is_transit":false,"transit":false,"i_long":106.843999,"time":2,"i_lat":-6.2842400000000005,"line":2},{"i_long":106.838896,"line":2,"is_transit":false,"i_lat":-6.3080680000000005,"time":4,"station_name":"Tanjung Barat","distance":2820,"transit":false,"station_id":"TNT"},{"time":3,"i_long":106.832616,"line":2,"distance":2671,"i_lat":-6.330363,"is_transit":false,"station_name":"Lenteng Agung","station_id":"LNA","transit":false},{"transit":false,"distance":1029,"time":2,"line":2,"station_id":"UP","station_name":"Univ. Pancasila","i_lat":-6.339291,"i_long":106.834175,"is_transit":false}]]}