{"data":[[{"time":0,"station_name":"Cikoya","transit":false,"line":3,"i_lat":-6.33561,"station_id":"CKY","distance":0,"is_transit":false,"i_long":106.411216},{"line":6,"transit":false,"station_id":"TGS","distance":2651,"is_transit":false,"i_long":106.425991,"time":3,"i_lat":-6.328533,"station_name":"Tigaraksa"},{"time":5,"i_lat":-6.327251,"transit":false,"distance":2974,"station_id":"TEJ","is_transit":false,"station_name":"Tenjo","line":6,"i_long":106.460812},{"line":0,"distance":3902,"i_long":106.491338,"station_name":"Daru","transit":false,"is_transit":false,"station_id":"DAR","time":5,"i_lat":-6.338021},{"i_long":106.508482,"station_name":"Cilejit","transit":false,"i_lat":-6.354349,"line":3,"distance":2675,"station_id":"CJT","is_transit":false,"time":6},{"line":6,"transit":false,"distance":7025,"time":9,"station_name":"Parung Panjang","i_long":106.568863,"station_id":"PRP","is_transit":false,"i_lat":-6.3441410000000005},{"distance":5968,"station_id":"CC","is_transit":false,"i_lat":-6.329547,"line":3,"station_name":"Cicayur","time":8,"transit":false,"i_long":106.617853},{"i_lat":-6.32484,"is_transit":false,"line":3,"i_long":106.640411,"station_id":"CSK","transit":false,"time":4,"distance":2519,"station_name":"Cisauk"},{"time":4,"i_long":106.66566,"line":6,"station_id":"SRP","distance":1784,"transit":false,"i_lat":-6.319871,"is_transit":false,"station_name":"Serpong"},{"station_id":"RU","i_long":106.675475,"transit":false,"is_transit":false,"line":6,"time":4,"i_lat":-6.314823,"station_name":"Rawa Buntu","distance":2413},{"time":6,"transit":false,"station_name":"Sudimara","station_id":"SDM","is_transit":false,"distance":4566,"i_long":106.712277,"i_lat":-6.296963,"line":6},{"i_long":106.728916,"station_name":"Jurangmangu","time":4,"i_lat":-6.288927,"distance":1994,"transit":false,"station_id":"JMU","line":6,"is_transit":false},{"distance":2179,"station_name":"Pondokranji","transit":false,"is_transit":false,"time":3,"station_id":"PDJ","i_long":106.74273,"line":6,"i_lat":-6.276362},{"time":8,"is_transit":false,"station_id":"KBY","i_lat":-6.237242,"line":6,"distance":6218,"station_name":"Kebayoran","i_long":106.780334,"transit":false},{"i_lat":-6.207404,"distance":3737,"i_long":106.79689,"transit":false,"station_name":"Palmerah","line":6,"is_transit":false,"time":7,"station_id":"PLM"},{"distance":3191,"station_name":"Tanah Abang","station_id":"THB","is_transit":true,"i_lat":-6.185545,"time":6,"transit":true,"i_long":106.811091,"line":1},{"i_lat":-6.20132,"time":5,"i_long":106.816351,"station_name":"Karet","station_id":"KAT","is_transit":false,"distance":2029,"transit":false,"line":1},{"transit":false,"station_id":"SUDB","is_transit":false,"i_lat":-6.201433,"time":1,"i_long":106.819881,"distance":471,"line":1,"station_name":"Sudirman Baru"},{"i_long":106.822649,"line":1,"station_name":"Sudirman","i_lat":-6.202263,"is_transit":false,"transit":false,"station_id":"SUD","time":1,"distance":280},{"transit":true,"station_id":"MRI","line":2,"station_name":"Manggarai","distance":3186,"i_lat":-6.209883,"i_long":106.84912,"is_transit":true,"time":4},{"i_long":106.857948,"i_lat":-6.226659,"station_id":"TEB","time":4,"station_name":"Tebet","line":2,"distance":2610,"transit":false,"is_transit":false},{"i_long":106.856607,"i_lat":-6.242512,"time":2,"is_transit":false,"station_name":"Cawang","transit":false,"station_id":"CW","distance":1230,"line":2},{"station_id":"DRN","i_long":106.85449,"line":2,"time":3,"is_transit":false,"distance":1546,"i_lat":-6.255332,"transit":false,"station_name":"Duren Kalibata"},{"is_transit":false,"line":2,"distance":824,"station_name":"Pasar Minggu Baru","i_lat":-6.263214,"i_long":106.851577,"time":2,"station_id":"PSMB","transit":false},{"station_id":"PSM","transit":false,"i_lat":-6.2842400000000005,"i_long":106.843999,"line":2,"distance":2380,"is_transit":false,"time":2,"station_name":"Pasar Minggu"},{"i_lat":-6.3080680000000005,"transit":false,"station_name":"Tanjung Barat","time":4,"station_id":"TNT","distance":2820,"line":2,"is_transit":false,"i_long":106.838896},{"is_transit":false,"distance":2671,"i_lat":-6.330363,"transit":false,"line":2,"time":3,"i_long":106.832616,"station_name":"Lenteng Agung","station_id":"LNA"},{"transit":false,"is_transit":false,"station_id":"UP","i_lat":-6.339291,"i_long":106.834175,"distance":1029,"line":2,"station_name":"Univ. Pancasila","time":2},{"i_lat":-6.360749,"time":3,"station_id":"UI","i_long":106.831474,"is_transit":false,"distance":2264,"station_name":"Univ. Indonesia","transit":false,"line":2}],[{"distance":0,"i_lat":-6.33561,"line":3,"station_name":"Cikoya","is_transit":false,"station_id":"CKY","time":0,"transit":false,"i_long":106.411216},{"station_name":"Tigaraksa","station_id":"TGS","is_transit":false,"distance":2651,"line":6,"time":3,"i_long":106.425991,"transit":false,"i_lat":-6.328533},{"distance":2974,"line":6,"is_transit":false,"i_lat":-6.327251,"i_long":106.460812,"transit":false,"station_id":"TEJ","time":5,"station_name":"Tenjo"},{"transit":false,"station_id":"DAR","line":0,"i_long":106.491338,"is_transit":false,"station_name":"Daru","time":5,"distance":3902,"i_lat":-6.338021},{"distance":2675,"line":3,"is_transit":false,"i_long":106.508482,"transit":false,"time":6,"station_id":"CJT","station_name":"Cilejit","i_lat":-6.354349},{"is_transit":false,"i_lat":-6.3441410000000005,"line":6,"time":9,"distance":7025,"station_id":"PRP","i_long":106.568863,"transit":false,"station_name":"Parung Panjang"},{"distance":5968,"station_id":"CC","i_lat":-6.329547,"time":8,"transit":false,"station_name":"Cicayur","is_transit":false,"line":3,"i_long":106.617853},{"station_id":"CSK","time":4,"i_long":106.640411,"station_name":"Cisauk","distance":2519,"is_transit":false,"line":3,"transit":false,"i_lat":-6.32484},{"distance":1784,"transit":false,"i_lat":-6.319871,"station_name":"Serpong","station_id":"SRP","i_long":106.66566,"line":6,"time":4,"is_transit":false},{"i_lat":-6.314823,"i_long":106.675475,"distance":2413,"station_name":"Rawa Buntu","transit":false,"station_id":"RU","line":6,"time":4,"is_transit":false},{"distance":4566,"i_long":106.712277,"is_transit":false,"transit":false,"line":6,"station_id":"SDM","station_name":"Sudimara","time":6,"i_lat":-6.296963},{"station_name":"Jurangmangu","time":4,"i_lat":-6.288927,"line":6,"distance":1994,"is_transit":false,"i_long":106.728916,"transit":false,"station_id":"JMU"},{"is_transit":false,"station_id":"PDJ","station_name":"Pondokranji","distance":2179,"i_long":106.74273,"i_lat":-6.276362,"line":6,"transit":false,"time":3},{"line":6,"transit":false,"i_long":106.780334,"time":8,"distance":6218,"i_lat":-6.237242,"station_name":"Kebayoran","station_id":"KBY","is_transit":false},{"station_name":"Palmerah","station_id":"PLM","i_lat":-6.207404,"line":6,"transit":false,"is_transit":false,"i_long":106.79689,"distance":3737,"time":7},{"i_long":106.811091,"station_id":"THB","time":6,"station_name":"Tanah Abang","transit":true,"distance":3191,"line":1,"is_transit":true,"i_lat":-6.185545},{"i_long":106.800832,"station_name":"Duri","time":8,"is_transit":false,"transit":false,"line":1,"i_lat":-6.155215,"station_id":"DU","distance":3632},{"time":4,"transit":false,"is_transit":false,"station_id":"AK","distance":1230,"i_long":106.79867,"station_name":"Angke","line":1,"i_lat":-6.144674},{"distance":4102,"station_name":"Kampung Bandan","time":9,"station_id":"KPB","is_transit":true,"i_lat":-6.132549,"transit":true,"i_long":106.826365,"line":4},{"time":3,"is_transit":true,"transit":true,"distance":1364,"i_lat":-6.137569,"i_long":106.812439,"station_name":"Jakarta Kota","line":2,"station_id":"JAKK"},{"distance":1264,"i_lat":-6.141205,"i_long":106.820901,"line":2,"station_name":"Jayakarta","station_id":"JAY","time":4,"is_transit":false,"transit":false},{"is_transit":false,"time":2,"distance":1080,"i_long":106.82482,"i_lat":-6.149769,"station_name":"Manggabesar","transit":false,"station_id":"MGB","line":2},{"station_name":"Sawah Besar","transit":false,"distance":906,"i_long":106.827103,"station_id":"SW","is_transit":false,"line":2,"i_lat":-6.160725,"time":2},{"i_lat":-6.166716,"time":2,"station_id":"JUA","is_transit":false,"distance":1149,"transit":false,"i_long":106.828284,"station_name":"Juanda","line":2},{"is_transit":false,"transit":false,"distance":2015,"time":4,"station_name":"Gondangdia","i_lat":-6.186295,"i_long":106.832183,"line":2,"station_id":"GDD"},{"distance":1750,"time":3,"is_transit":false,"i_lat":-6.198556,"station_name":"Cikini","transit":false,"station_id":"CKI","i_long":106.840169,"line":2},{"station_name":"Manggarai","line":2,"station_id":"MRI","distance":1590,"i_lat":-6.209883,"is_transit":false,"transit":false,"time":4,"i_long":106.84912},{"is_transit":false,"i_long":106.857948,"i_lat":-6.226659,"distance":2610,"line":2,"time":4,"station_id":"TEB","transit":false,"station_name":"Tebet"},{"station_name":"Cawang","is_transit":false,"transit":false,"i_lat":-6.242512,"line":2,"distance":1230,"station_id":"CW","time":2,"i_long":106.856607},{"station_name":"Duren Kalibata","line":2,"station_id":"DRN","transit":false,"is_transit":false,"distance":1546,"i_lat":-6.255332,"time":3,"i_long":106.85449},{"time":2,"is_transit":false,"station_id":"PSMB","distance":824,"transit":false,"i_lat":-6.263214,"i_long":106.851577,"line":2,"station_name":"Pasar Minggu Baru"},{"station_id":"PSM","transit":false,"i_long":106.843999,"time":2,"distance":2380,"station_name":"Pasar Minggu","is_transit":false,"line":2,"i_lat":-6.2842400000000005},{"i_lat":-6.3080680000000005,"i_long":106.838896,"station_id":"TNT","time":4,"distance":2820,"is_transit":false,"transit":false,"line":2,"station_name":"Tanjung Barat"},{"station_id":"LNA","time":3,"distance":2671,"station_name":"Lenteng Agung","is_transit":false,"transit":false,"i_lat":-6.330363,"i_long":106.832616,"line":2},{"transit":false,"station_id":"UP","is_transit":false,"i_lat":-6.339291,"station_name":"Univ. Pancasila","time":2,"i_long":106.834175,"line":2,"distance":1029},{"transit":false,"distance":2264,"line":2,"i_lat":-6.360749,"i_long":106.831474,"is_transit":false,"time":3,"station_name":"Univ. Indonesia","station_id":"UI"}],[{"is_transit":false,"transit":false,"station_id":"CKY","i_long":106.411216,"line":3,"i_lat":-6.33561,"station_name":"Cikoya","distance":0,"time":0},{"i_long":106.425991,"line":6,"time":3,"distance":2651,"is_transit":false,"i_lat":-6.328533,"transit":false,"station_name":"Tigaraksa","station_id":"TGS"},{"time":5,"transit":false,"is_transit":false,"station_name":"Tenjo","i_lat":-6.327251,"i_long":106.460812,"line":6,"distance":2974,"station_id":"TEJ"},{"time":5,"i_long":106.491338,"station_name":"Daru","is_transit":false,"i_lat":-6.338021,"station_id":"DAR","transit":false,"line":0,"distance":3902},{"station_id":"CJT","station_name":"Cilejit","is_transit":false,"time":6,"transit":false,"i_long":106.508482,"line":3,"distance":2675,"i_lat":-6.354349},{"transit":false,"i_lat":-6.3441410000000005,"i_long":106.568863,"line":6,"time":9,"distance":7025,"station_name":"Parung Panjang","station_id":"PRP","is_transit":false},{"i_long":106.617853,"station_id":"CC","station_name":"Cicayur","transit":false,"distance":5968,"i_lat":-6.329547,"time":8,"is_transit":false,"line":3},{"station_id":"CSK","distance":2519,"i_lat":-6.32484,"i_long":106.640411,"time":4,"line":3,"transit":false,"is_transit":false,"station_name":"Cisauk"},{"i_lat":-6.319871,"line":6,"i_long":106.66566,"station_name":"Serpong","is_transit":false,"transit":false,"distance":1784,"station_id":"SRP","time":4},{"i_lat":-6.314823,"is_transit":false,"time":4,"station_name":"Rawa Buntu","line":6,"distance":2413,"transit":false,"i_long":106.675475,"station_id":"RU"},{"i_lat":-6.296963,"station_name":"Sudimara","station_id":"SDM","i_long":106.712277,"is_transit":false,"line":6,"time":6,"distance":4566,"transit":false},{"transit":false,"time":4,"station_id":"JMU","i_long":106.728916,"i_lat":-6.288927,"distance":1994,"is_transit":false,"line":6,"station_name":"Jurangmangu"},{"station_id":"PDJ","i_long":106.74273,"time":3,"transit":false,"line":6,"is_transit":false,"station_name":"Pondokranji","distance":2179,"i_lat":-6.276362},{"line":6,"time":8,"station_id":"KBY","station_name":"Kebayoran","distance":6218,"i_lat":-6.237242,"i_long":106.780334,"transit":false,"is_transit":false},{"time":7,"is_transit":false,"i_lat":-6.207404,"line":6,"transit":false,"i_long":106.79689,"station_name":"Palmerah","distance":3737,"station_id":"PLM"},{"i_lat":-6.185545,"transit":true,"line":1,"distance":3191,"i_long":106.811091,"station_name":"Tanah Abang","station_id":"THB","time":6,"is_transit":true},{"transit":false,"i_lat":-6.155215,"i_long":106.800832,"is_transit":false,"station_id":"DU","station_name":"Duri","line":1,"time":8,"distance":3632},{"line":1,"is_transit":false,"i_lat":-6.144674,"time":4,"distance":1230,"station_id":"AK","station_name":"Angke","transit":false,"i_long":106.79867},{"distance":4102,"transit":true,"time":9,"line":4,"station_id":"KPB","i_lat":-6.132549,"i_long":106.826365,"is_transit":true,"station_name":"Kampung Bandan"},{"distance":1444,"line":11,"station_name":"Rajawali","transit":false,"i_long":106.836569,"i_lat":-6.14505,"is_transit":false,"station_id":"RJW","time":3},{"is_transit":false,"station_id":"KMO","i_lat":-6.161728,"line":11,"time":5,"station_name":"Kemayoran","transit":false,"distance":1901,"i_long":106.839204},{"time":4,"station_name":"Pasar Senen","transit":false,"line":11,"distance":1436,"i_long":106.84368,"station_id":"PSE","is_transit":false,"i_lat":-6.174784},{"transit":false,"i_lat":-6.185975,"station_name":"Gang Sentiong","distance":1567,"time":8,"line":11,"i_long":106.850107,"is_transit":false,"station_id":"GST"},{"i_lat":-6.193792,"transit":false,"station_name":"Kramat","i_long":106.855437,"is_transit":false,"distance":973,"time":1,"station_id":"KMT","line":11},{"distance":1829,"transit":false,"is_transit":false,"time":2,"station_id":"POK","line":11,"station_name":"Pondok Jati","i_lat":-6.209188,"i_long":106.861737},{"time":9,"is_transit":true,"station_id":"JNG","distance":1236,"i_long":106.86807400000001,"transit":true,"station_name":"Jatinegara","i_lat":-6.215091,"line":1},{"i_long":106.858896,"line":1,"station_name":"Matraman","transit":false,"is_transit":false,"distance":1377,"i_lat":-6.212485,"station_id":"MTR","time":2},{"i_lat":-6.209883,"i_long":106.84912,"time":2,"station_id":"MRI","transit":true,"is_transit":true,"station_name":"Manggarai","line":2,"distance":1275},{"time":4,"station_id":"TEB","station_name":"Tebet","i_lat":-6.226659,"transit":false,"is_transit":false,"line":2,"i_long":106.857948,"distance":2610},{"station_name":"Cawang","is_transit":false,"station_id":"CW","distance":1230,"i_lat":-6.242512,"transit":false,"line":2,"time":2,"i_long":106.856607},{"station_id":"DRN","is_transit":false,"i_lat":-6.255332,"line":2,"time":3,"distance":1546,"transit":false,"i_long":106.85449,"station_name":"Duren Kalibata"},{"distance":824,"time":2,"i_long":106.851577,"is_transit":false,"line":2,"station_id":"PSMB","station_name":"Pasar Minggu Baru","transit":false,"i_lat":-6.263214},{"time":2,"line":2,"transit":false,"i_lat":-6.2842400000000005,"is_transit":false,"i_long":106.843999,"station_id":"PSM","station_name":"Pasar Minggu","distance":2380},{"distance":2820,"is_transit":false,"time":4,"station_name":"Tanjung Barat","i_long":106.838896,"station_id":"TNT","transit":false,"line":2,"i_lat":-6.3080680000000005},{"station_name":"Lenteng Agung","line":2,"i_long":106.832616,"is_transit":false,"transit":false,"distance":2671,"station_id":"LNA","time":3,"i_lat":-6.330363},{"station_id":"UP","i_lat":-6.339291,"line":2,"station_name":"Univ. Pancasila","distance":1029,"i_long":106.834175,"transit":false,"time":2,"is_transit":false},{"i_lat":-6.360749,"is_transit":false,"i_long":106.831474,"transit":false,"line":2,"time":3,"station_name":"Univ. Indonesia","distance":2264,"station_id":"UI"}]]}