{"data":[[{"transit":false,"time":0,"i_lat":-6.33561,"i_long":106.411216,"is_transit":false,"line":3,"station_id":"CKY","distance":0,"station_name":"Cikoya"},{"distance":2651,"station_id":"TGS","station_name":"Tigaraksa","is_transit":false,"i_lat":-6.328533,"i_long":106.425991,"time":3,"transit":false,"line":6},{"distance":2974,"station_name":"Tenjo","i_lat":-6.327251,"time":5,"is_transit":false,"station_id":"TEJ","i_long":106.460812,"line":6,"transit":false},{"distance":3902,"i_long":106.491338,"i_lat":-6.338021,"is_transit":false,"transit":false,"station_id":"DAR","time":5,"station_name":"Daru","line":0},{"is_transit":false,"station_id":"CJT","i_lat":-6.354349,"i_long":106.508482,"transit":false,"station_name":"Cilejit","line":3,"time":6,"distance":2675},{"distance":7025,"is_transit":false,"i_long":106.568863,"i_lat":-6.3441410000000005,"transit":false,"line":6,"time":9,"station_id":"PRP","station_name":"Parung Panjang"},{"time":8,"is_transit":false,"i_long":106.617853,"distance":5968,"transit":false,"line":3,"station_name":"Cicayur","i_lat":-6.329547,"station_id":"CC"},{"station_id":"CSK","is_transit":false,"line":3,"station_name":"Cisauk","distance":2519,"transit":false,"time":4,"i_long":106.640411,"i_lat":-6.32484},{"transit":false,"i_long":106.66566,"is_transit":false,"time":4,"station_name":"Serpong","i_lat":-6.319871,"line":6,"distance":1784,"station_id":"SRP"},{"station_name":"Rawa Buntu","transit":false,"i_long":106.675475,"is_transit":false,"distance":2413,"time":4,"station_id":"RU","i_lat":-6.314823,"line":6},{"station_name":"Sudimara","station_id":"SDM","i_lat":-6.296963,"distance":4566,"transit":false,"line":6,"time":6,"i_long":106.712277,"is_transit":false},{"transit":false,"is_transit":false,"distance":1994,"time":4,"i_lat":-6.288927,"station_id":"JMU","station_name":"Jurangmangu","i_long":106.728916,"line":6},{"distance":2179,"station_id":"PDJ","is_transit":false,"time":3,"transit":false,"i_lat":-6.276362,"line":6,"i_long":106.74273,"station_name":"Pondokranji"},{"is_transit":false,"distance":6218,"station_id":"KBY","i_long":106.780334,"station_name":"Kebayoran","i_lat":-6.237242,"transit":false,"time":8,"line":6},{"distance":3737,"station_name":"Palmerah","is_transit":false,"transit":false,"i_long":106.79689,"line":6,"station_id":"PLM","time":7,"i_lat":-6.207404},{"station_id":"THB","line":1,"station_name":"Tanah Abang","transit":true,"distance":3191,"time":6,"i_lat":-6.185545,"is_transit":true,"i_long":106.811091},{"is_transit":false,"line":1,"distance":2029,"station_id":"KAT","time":5,"transit":false,"i_lat":-6.20132,"station_name":"Karet","i_long":106.816351},{"transit":false,"station_id":"SUDB","time":1,"station_name":"Sudirman Baru","is_transit":false,"i_lat":-6.201433,"i_long":106.819881,"distance":471,"line":1},{"station_id":"SUD","time":1,"i_long":106.822649,"is_transit":false,"line":1,"distance":280,"station_name":"Sudirman","i_lat":-6.202263,"transit":false},{"line":2,"station_name":"Manggarai","i_long":106.84912,"station_id":"MRI","is_transit":true,"i_lat":-6.209883,"distance":3186,"transit":true,"time":4},{"station_id":"TEB","time":4,"i_lat":-6.226659,"station_name":"Tebet","line":2,"i_long":106.857948,"transit":false,"distance":2610,"is_transit":false},{"station_name":"Cawang","distance":1230,"time":2,"is_transit":false,"i_lat":-6.242512,"station_id":"CW","i_long":106.856607,"transit":false,"line":2},{"transit":false,"distance":1546,"station_name":"Duren Kalibata","time":3,"station_id":"DRN","is_transit":false,"i_lat":-6.255332,"i_long":106.85449,"line":2},{"distance":824,"station_name":"Pasar Minggu Baru","transit":false,"time":2,"is_transit":false,"i_lat":-6.263214,"i_long":106.851577,"station_id":"PSMB","line":2},{"station_name":"Pasar Minggu","transit":false,"station_id":"PSM","time":2,"distance":2380,"is_transit":false,"i_long":106.843999,"line":2,"i_lat":-6.2842400000000005},{"station_id":"TNT","time":4,"i_long":106.838896,"station_name":"Tanjung Barat","is_transit":false,"i_lat":-6.3080680000000005,"transit":false,"line":2,"distance":2820},{"time":3,"station_id":"LNA","distance":2671,"transit":false,"is_transit":false,"line":2,"i_long":106.832616,"i_lat":-6.330363,"station_name":"Lenteng Agung"},{"i_long":106.834175,"line":2,"is_transit":false,"station_id":"UP","time":2,"distance":1029,"i_lat":-6.339291,"transit":false,"station_name":"Univ. Pancasila"}],[{"station_id":"CKY","i_long":106.411216,"distance":0,"line":3,"transit":false,"station_name":"Cikoya","is_transit":false,"time":0,"i_lat":-6.33561},{"i_lat":-6.328533,"station_id":"TGS","station_name":"Tigaraksa","line":6,"i_long":106.425991,"transit":false,"distance":2651,"time":3,"is_transit":false},{"i_lat":-6.327251,"distance":2974,"transit":false,"station_name":"Tenjo","is_transit":false,"line":6,"i_long":106.460812,"station_id":"TEJ","time":5},{"transit":false,"is_transit":false,"line":0,"i_long":106.491338,"distance":3902,"station_id":"DAR","station_name":"Daru","time":5,"i_lat":-6.338021},{"i_lat":-6.354349,"time":6,"distance":2675,"i_long":106.508482,"station_name":"Cilejit","line":3,"is_transit":false,"transit":false,"station_id":"CJT"},{"station_name":"Parung Panjang","i_lat":-6.3441410000000005,"i_long":106.568863,"is_transit":false,"distance":7025,"transit":false,"line":6,"station_id":"PRP","time":9},{"time":8,"i_lat":-6.329547,"is_transit":false,"station_id":"CC","line":3,"transit":false,"station_name":"Cicayur","distance":5968,"i_long":106.617853},{"station_id":"CSK","time":4,"line":3,"transit":false,"i_lat":-6.32484,"i_long":106.640411,"is_transit":false,"distance":2519,"station_name":"Cisauk"},{"station_id":"SRP","i_long":106.66566,"is_transit":false,"line":6,"station_name":"Serpong","time":4,"distance":1784,"i_lat":-6.319871,"transit":false},{"distance":2413,"is_transit":false,"i_long":106.675475,"line":6,"transit":false,"station_name":"Rawa Buntu","station_id":"RU","time":4,"i_lat":-6.314823},{"time":6,"station_name":"Sudimara","is_transit":false,"i_long":106.712277,"line":6,"i_lat":-6.296963,"distance":4566,"transit":false,"station_id":"SDM"},{"distance":1994,"is_transit":false,"i_long":106.728916,"station_id":"JMU","line":6,"time":4,"transit":false,"station_name":"Jurangmangu","i_lat":-6.288927},{"distance":2179,"transit":false,"station_id":"PDJ","i_lat":-6.276362,"i_long":106.74273,"is_transit":false,"time":3,"line":6,"station_name":"Pondokranji"},{"is_transit":false,"distance":6218,"transit":false,"station_id":"KBY","time":8,"line":6,"i_long":106.780334,"station_name":"Kebayoran","i_lat":-6.237242},{"station_name":"Palmerah","line":6,"is_transit":false,"distance":3737,"i_lat":-6.207404,"transit":false,"i_long":106.79689,"station_id":"PLM","time":7},{"station_name":"Tanah Abang","i_long":106.811091,"station_id":"THB","line":1,"i_lat":-6.185545,"transit":true,"time":6,"is_transit":true,"distance":3191},{"distance":3632,"station_id":"DU","time":8,"i_lat":-6.155215,"line":1,"transit":false,"station_name":"Duri","is_transit":false,"i_long":106.800832},{"transit":false,"station_name":"Angke","i_long":106.79867,"distance":1230,"line":1,"is_transit":false,"i_lat":-6.144674,"station_id":"AK","time":4},{"is_transit":true,"station_name":"Kampung Bandan","i_long":106.826365,"i_lat":-6.132549,"station_id":"KPB","time":9,"line":4,"transit":true,"distance":4102},{"station_id":"JAKK","time":3,"station_name":"Jakarta Kota","i_lat":-6.137569,"i_long":106.812439,"distance":1364,"transit":true,"is_transit":true,"line":2},{"i_lat":-6.141205,"distance":1264,"time":4,"line":2,"station_id":"JAY","is_transit":false,"transit":false,"station_name":"Jayakarta","i_long":106.820901},{"station_name":"Manggabesar","i_lat":-6.149769,"line":2,"distance":1080,"station_id":"MGB","i_long":106.82482,"transit":false,"is_transit":false,"time":2},{"transit":false,"is_transit":false,"i_lat":-6.160725,"line":2,"station_name":"Sawah Besar","distance":906,"time":2,"station_id":"SW","i_long":106.827103},{"line":2,"time":2,"i_long":106.828284,"is_transit":false,"transit":false,"station_id":"JUA","distance":1149,"station_name":"Juanda","i_lat":-6.166716},{"i_long":106.832183,"transit":false,"station_id":"GDD","distance":2015,"time":4,"station_name":"Gondangdia","is_transit":false,"i_lat":-6.186295,"line":2},{"distance":1750,"i_long":106.840169,"is_transit":false,"station_name":"Cikini","time":3,"transit":false,"line":2,"station_id":"CKI","i_lat":-6.198556},{"time":4,"i_lat":-6.209883,"transit":false,"distance":1590,"station_id":"MRI","is_transit":false,"station_name":"Manggarai","line":2,"i_long":106.84912},{"station_name":"Tebet","is_transit":false,"i_long":106.857948,"i_lat":-6.226659,"distance":2610,"line":2,"transit":false,"station_id":"TEB","time":4},{"station_name":"Cawang","transit":false,"is_transit":false,"i_lat":-6.242512,"distance":1230,"i_long":106.856607,"station_id":"CW","line":2,"time":2},{"station_name":"Duren Kalibata","transit":false,"station_id":"DRN","is_transit":false,"i_long":106.85449,"line":2,"time":3,"i_lat":-6.255332,"distance":1546},{"i_long":106.851577,"distance":824,"time":2,"transit":false,"station_name":"Pasar Minggu Baru","is_transit":false,"line":2,"station_id":"PSMB","i_lat":-6.263214},{"station_id":"PSM","line":2,"distance":2380,"transit":false,"i_lat":-6.2842400000000005,"i_long":106.843999,"time":2,"is_transit":false,"station_name":"Pasar Minggu"},{"transit":false,"time":4,"i_lat":-6.3080680000000005,"line":2,"i_long":106.838896,"station_id":"TNT","distance":2820,"station_name":"Tanjung Barat","is_transit":false},{"is_transit":false,"station_id":"LNA","distance":2671,"station_name":"Lenteng Agung","i_long":106.832616,"time":3,"i_lat":-6.330363,"transit":false,"line":2},{"i_lat":-6.339291,"transit":false,"station_id":"UP","line":2,"station_name":"Univ. Pancasila","time":2,"i_long":106.834175,"distance":1029,"is_transit":false}],[{"is_transit":false,"line":3,"i_lat":-6.33561,"distance":0,"transit":false,"time":0,"station_name":"Cikoya","i_long":106.411216,"station_id":"CKY"},{"is_transit":false,"line":6,"distance":2651,"i_lat":-6.328533,"transit":false,"station_id":"TGS","station_name":"Tigaraksa","i_long":106.425991,"time":3},{"i_lat":-6.327251,"time":5,"distance":2974,"station_id":"TEJ","station_name":"Tenjo","line":6,"transit":false,"is_transit":false,"i_long":106.460812},{"time":5,"i_long":106.491338,"transit":false,"distance":3902,"station_name":"Daru","is_transit":false,"line":0,"station_id":"DAR","i_lat":-6.338021},{"station_name":"Cilejit","time":6,"is_transit":false,"i_lat":-6.354349,"transit":false,"i_long":106.508482,"distance":2675,"station_id":"CJT","line":3},{"station_name":"Parung Panjang","i_lat":-6.3441410000000005,"i_long":106.568863,"distance":7025,"transit":false,"time":9,"is_transit":false,"line":6,"station_id":"PRP"},{"station_id":"CC","is_transit":false,"i_long":106.617853,"line":3,"transit":false,"station_name":"Cicayur","time":8,"distance":5968,"i_lat":-6.329547},{"i_long":106.640411,"i_lat":-6.32484,"transit":false,"station_id":"CSK","station_name":"Cisauk","time":4,"is_transit":false,"distance":2519,"line":3},{"transit":false,"i_long":106.66566,"time":4,"distance":1784,"station_id":"SRP","is_transit":false,"line":6,"station_name":"Serpong","i_lat":-6.319871},{"time":4,"station_name":"Rawa Buntu","is_transit":false,"i_lat":-6.314823,"i_long":106.675475,"transit":false,"distance":2413,"line":6,"station_id":"RU"},{"is_transit":false,"station_name":"Sudimara","transit":false,"time":6,"i_long":106.712277,"line":6,"distance":4566,"station_id":"SDM","i_lat":-6.296963},{"time":4,"transit":false,"station_name":"Jurangmangu","station_id":"JMU","distance":1994,"i_lat":-6.288927,"is_transit":false,"line":6,"i_long":106.728916},{"station_id":"PDJ","time":3,"station_name":"Pondokranji","is_transit":false,"i_lat":-6.276362,"i_long":106.74273,"transit":false,"distance":2179,"line":6},{"station_id":"KBY","is_transit":false,"transit":false,"time":8,"line":6,"i_long":106.780334,"station_name":"Kebayoran","i_lat":-6.237242,"distance":6218},{"station_name":"Palmerah","is_transit":false,"line":6,"station_id":"PLM","i_long":106.79689,"time":7,"distance":3737,"i_lat":-6.207404,"transit":false},{"distance":3191,"i_long":106.811091,"station_id":"THB","is_transit":true,"station_name":"Tanah Abang","line":1,"transit":true,"time":6,"i_lat":-6.185545},{"line":1,"transit":false,"station_id":"DU","is_transit":false,"distance":3632,"i_lat":-6.155215,"time":8,"i_long":106.800832,"station_name":"Duri"},{"i_lat":-6.144674,"is_transit":false,"time":4,"station_name":"Angke","transit":false,"station_id":"AK","i_long":106.79867,"line":1,"distance":1230},{"i_lat":-6.132549,"distance":4102,"is_transit":true,"transit":true,"station_id":"KPB","time":9,"station_name":"Kampung Bandan","i_long":106.826365,"line":4},{"station_name":"Rajawali","station_id":"RJW","time":3,"distance":1444,"i_long":106.836569,"line":11,"is_transit":false,"i_lat":-6.14505,"transit":false},{"line":11,"transit":false,"is_transit":false,"station_id":"KMO","time":5,"station_name":"Kemayoran","i_lat":-6.161728,"distance":1901,"i_long":106.839204},{"i_long":106.84368,"line":11,"i_lat":-6.174784,"distance":1436,"transit":false,"time":4,"is_transit":false,"station_name":"Pasar Senen","station_id":"PSE"},{"station_name":"Gang Sentiong","time":8,"transit":false,"i_lat":-6.185975,"distance":1567,"is_transit":false,"station_id":"GST","i_long":106.850107,"line":11},{"is_transit":false,"i_long":106.855437,"time":1,"distance":973,"station_name":"Kramat","station_id":"KMT","i_lat":-6.193792,"line":11,"transit":false},{"i_long":106.861737,"line":11,"station_id":"POK","transit":false,"station_name":"Pondok Jati","distance":1829,"time":2,"is_transit":false,"i_lat":-6.209188},{"line":1,"station_id":"JNG","i_lat":-6.215091,"station_name":"Jatinegara","distance":1236,"time":9,"is_transit":true,"transit":true,"i_long":106.86807400000001},{"is_transit":false,"station_name":"Matraman","i_lat":-6.212485,"time":2,"i_long":106.858896,"line":1,"station_id":"MTR","distance":1377,"transit":false},{"is_transit":true,"line":2,"station_id":"MRI","station_name":"Manggarai","time":2,"distance":1275,"transit":true,"i_lat":-6.209883,"i_long":106.84912},{"is_transit":false,"station_id":"TEB","distance":2610,"i_long":106.857948,"time":4,"line":2,"transit":false,"i_lat":-6.226659,"station_name":"Tebet"},{"time":2,"is_transit":false,"station_name":"Cawang","i_long":106.856607,"station_id":"CW","distance":1230,"line":2,"i_lat":-6.242512,"transit":false},{"line":2,"station_name":"Duren Kalibata","time":3,"i_long":106.85449,"distance":1546,"transit":false,"is_transit":false,"i_lat":-6.255332,"station_id":"DRN"},{"is_transit":false,"i_long":106.851577,"line":2,"station_name":"Pasar Minggu Baru","time":2,"i_lat":-6.263214,"transit":false,"station_id":"PSMB","distance":824},{"transit":false,"line":2,"is_transit":false,"station_name":"Pasar Minggu","distance":2380,"i_lat":-6.2842400000000005,"i_long":106.843999,"station_id":"PSM","time":2},{"time":4,"station_name":"Tanjung Barat","is_transit":false,"i_lat":-6.3080680000000005,"line":2,"distance":2820,"station_id":"TNT","transit":false,"i_long":106.838896},{"distance":2671,"i_lat":-6.330363,"is_transit":false,"i_long":106.832616,"transit":false,"line":2,"time":3,"station_id":"LNA","station_name":"Lenteng Agung"},{"is_transit":false,"distance":1029,"station_id":"UP","i_lat":-6.339291,"transit":false,"time":2,"station_name":"Univ. Pancasila","i_long":106.834175,"line":2}]]}