{"data":[[{"i_lat":-6.33561,"station_id":"CKY","station_name":"Cikoya","is_transit":false,"time":0,"line":3,"distance":0,"transit":false,"i_long":106.411216},{"transit":false,"station_name":"Tigaraksa","station_id":"TGS","is_transit":false,"time":3,"i_long":106.425991,"i_lat":-6.328533,"line":6,"distance":2651},{"station_id":"TEJ","line":6,"transit":false,"is_transit":false,"time":5,"distance":2974,"i_long":106.460812,"station_name":"Tenjo","i_lat":-6.327251},{"time":5,"is_transit":false,"line":0,"station_id":"DAR","distance":3902,"i_lat":-6.338021,"station_name":"Daru","i_long":106.491338,"transit":false},{"station_id":"CJT","time":6,"i_long":106.508482,"is_transit":false,"i_lat":-6.354349,"distance":2675,"transit":false,"line":3,"station_name":"Cilejit"},{"is_transit":false,"transit":false,"distance":7025,"line":6,"time":9,"station_id":"PRP","i_lat":-6.3441410000000005,"station_name":"Parung Panjang","i_long":106.568863},{"station_id":"CC","distance":5968,"line":3,"i_lat":-6.329547,"transit":false,"i_long":106.617853,"time":8,"station_name":"Cicayur","is_transit":false},{"station_id":"CSK","time":4,"transit":false,"i_lat":-6.32484,"station_name":"Cisauk","distance":2519,"i_long":106.640411,"is_transit":false,"line":3},{"station_id":"SRP","i_long":106.66566,"transit":false,"line":6,"time":4,"is_transit":false,"station_name":"Serpong","distance":1784,"i_lat":-6.319871},{"is_transit":false,"i_lat":-6.314823,"transit":false,"station_name":"Rawa Buntu","i_long":106.675475,"line":6,"distance":2413,"time":4,"station_id":"RU"},{"station_name":"Sudimara","distance":4566,"station_id":"SDM","is_transit":false,"time":6,"i_long":106.712277,"line":6,"i_lat":-6.296963,"transit":false},{"distance":1994,"station_id":"JMU","time":4,"i_long":106.728916,"line":6,"i_lat":-6.288927,"station_name":"Jurangmangu","is_transit":false,"transit":false},{"line":6,"is_transit":false,"transit":false,"station_id":"PDJ","time":3,"station_name":"Pondokranji","i_lat":-6.276362,"distance":2179,"i_long":106.74273},{"transit":false,"station_name":"Kebayoran","line":6,"time":8,"i_lat":-6.237242,"i_long":106.780334,"is_transit":false,"station_id":"KBY","distance":6218},{"station_name":"Palmerah","station_id":"PLM","line":6,"is_transit":false,"i_lat":-6.207404,"time":7,"distance":3737,"transit":false,"i_long":106.79689},{"station_name":"Tanah Abang","station_id":"THB","distance":3191,"i_long":106.811091,"transit":true,"time":6,"is_transit":true,"line":1,"i_lat":-6.185545},{"station_id":"KAT","line":1,"i_long":106.816351,"time":5,"is_transit":false,"i_lat":-6.20132,"station_name":"Karet","transit":false,"distance":2029},{"station_name":"Sudirman Baru","transit":false,"time":1,"i_long":106.819881,"station_id":"SUDB","is_transit":false,"distance":471,"i_lat":-6.201433,"line":1},{"station_name":"Sudirman","station_id":"SUD","i_lat":-6.202263,"i_long":106.822649,"time":1,"is_transit":false,"transit":false,"distance":280,"line":1},{"transit":false,"i_long":106.84912,"line":2,"time":4,"i_lat":-6.209883,"station_name":"Manggarai","station_id":"MRI","distance":3186,"is_transit":false},{"transit":false,"distance":1275,"i_long":106.858896,"line":1,"station_id":"MTR","station_name":"Matraman","is_transit":false,"time":2,"i_lat":-6.212485},{"i_lat":-6.215091,"station_name":"Jatinegara","station_id":"JNG","line":1,"is_transit":false,"transit":false,"time":8,"i_long":106.86807400000001,"distance":1377},{"transit":false,"time":3,"is_transit":false,"station_id":"KLD","i_lat":-6.2135,"line":1,"station_name":"Klender","distance":3395,"i_long":106.899548},{"is_transit":false,"line":1,"station_id":"BUA","i_lat":-6.215568,"station_name":"Buaran","distance":3100,"transit":false,"i_long":106.922662,"time":2},{"station_id":"KLDB","distance":1305,"station_name":"Klenderbaru","i_long":106.939679,"time":1,"line":1,"transit":false,"is_transit":false,"i_lat":-6.217455}],[{"i_long":106.411216,"transit":false,"time":0,"station_id":"CKY","distance":0,"station_name":"Cikoya","line":3,"i_lat":-6.33561,"is_transit":false},{"time":3,"transit":false,"i_lat":-6.328533,"station_name":"Tigaraksa","station_id":"TGS","is_transit":false,"i_long":106.425991,"distance":2651,"line":6},{"i_lat":-6.327251,"station_name":"Tenjo","i_long":106.460812,"line":6,"transit":false,"time":5,"is_transit":false,"distance":2974,"station_id":"TEJ"},{"time":5,"station_name":"Daru","i_lat":-6.338021,"line":0,"i_long":106.491338,"distance":3902,"transit":false,"station_id":"DAR","is_transit":false},{"station_name":"Cilejit","is_transit":false,"i_lat":-6.354349,"transit":false,"station_id":"CJT","i_long":106.508482,"line":3,"distance":2675,"time":6},{"line":6,"station_id":"PRP","transit":false,"is_transit":false,"distance":7025,"time":9,"station_name":"Parung Panjang","i_long":106.568863,"i_lat":-6.3441410000000005},{"transit":false,"distance":5968,"i_lat":-6.329547,"time":8,"station_id":"CC","station_name":"Cicayur","i_long":106.617853,"line":3,"is_transit":false},{"line":3,"transit":false,"i_long":106.640411,"i_lat":-6.32484,"time":4,"is_transit":false,"distance":2519,"station_id":"CSK","station_name":"Cisauk"},{"station_name":"Serpong","distance":1784,"transit":false,"i_long":106.66566,"line":6,"i_lat":-6.319871,"is_transit":false,"station_id":"SRP","time":4},{"i_long":106.675475,"i_lat":-6.314823,"line":6,"distance":2413,"station_name":"Rawa Buntu","is_transit":false,"transit":false,"time":4,"station_id":"RU"},{"distance":4566,"i_lat":-6.296963,"time":6,"line":6,"station_id":"SDM","station_name":"Sudimara","i_long":106.712277,"transit":false,"is_transit":false},{"time":4,"station_name":"Jurangmangu","i_lat":-6.288927,"distance":1994,"is_transit":false,"line":6,"i_long":106.728916,"transit":false,"station_id":"JMU"},{"time":3,"is_transit":false,"i_lat":-6.276362,"transit":false,"i_long":106.74273,"station_id":"PDJ","line":6,"distance":2179,"station_name":"Pondokranji"},{"time":8,"line":6,"i_long":106.780334,"station_id":"KBY","is_transit":false,"distance":6218,"station_name":"Kebayoran","i_lat":-6.237242,"transit":false},{"transit":false,"i_lat":-6.207404,"line":6,"station_name":"Palmerah","is_transit":false,"station_id":"PLM","time":7,"i_long":106.79689,"distance":3737},{"station_name":"Tanah Abang","transit":true,"time":6,"i_lat":-6.185545,"i_long":106.811091,"line":1,"is_transit":true,"station_id":"THB","distance":3191},{"i_lat":-6.155215,"line":1,"i_long":106.800832,"transit":false,"station_id":"DU","is_transit":false,"distance":3632,"station_name":"Duri","time":8},{"is_transit":false,"i_long":106.79867,"distance":1230,"transit":false,"i_lat":-6.144674,"time":4,"line":1,"station_id":"AK","station_name":"Angke"},{"i_lat":-6.132549,"line":4,"i_long":106.826365,"station_name":"Kampung Bandan","transit":true,"station_id":"KPB","is_transit":true,"time":9,"distance":4102},{"i_lat":-6.14505,"transit":false,"time":3,"line":11,"station_name":"Rajawali","station_id":"RJW","i_long":106.836569,"is_transit":false,"distance":1444},{"i_long":106.839204,"station_name":"Kemayoran","is_transit":false,"station_id":"KMO","transit":false,"time":5,"i_lat":-6.161728,"line":11,"distance":1901},{"i_lat":-6.174784,"i_long":106.84368,"station_name":"Pasar Senen","is_transit":false,"line":11,"time":4,"transit":false,"distance":1436,"station_id":"PSE"},{"time":8,"transit":false,"station_name":"Gang Sentiong","distance":1567,"i_long":106.850107,"line":11,"station_id":"GST","is_transit":false,"i_lat":-6.185975},{"station_id":"KMT","line":11,"time":1,"station_name":"Kramat","i_lat":-6.193792,"distance":973,"is_transit":false,"transit":false,"i_long":106.855437},{"station_name":"Pondok Jati","is_transit":false,"transit":false,"distance":1829,"i_lat":-6.209188,"i_long":106.861737,"line":11,"time":2,"station_id":"POK"},{"line":1,"station_name":"Jatinegara","station_id":"JNG","time":9,"is_transit":true,"distance":1236,"i_lat":-6.215091,"i_long":106.86807400000001,"transit":true},{"i_lat":-6.2135,"transit":false,"i_long":106.899548,"station_name":"Klender","station_id":"KLD","is_transit":false,"distance":3395,"line":1,"time":3},{"transit":false,"is_transit":false,"i_long":106.922662,"station_name":"Buaran","station_id":"BUA","distance":3100,"i_lat":-6.215568,"line":1,"time":2},{"station_id":"KLDB","is_transit":false,"i_long":106.939679,"time":1,"i_lat":-6.217455,"distance":1305,"line":1,"station_name":"Klenderbaru","transit":false}],[{"distance":0,"i_long":106.411216,"transit":false,"station_name":"Cikoya","station_id":"CKY","is_transit":false,"time":0,"i_lat":-6.33561,"line":3},{"line":6,"transit":false,"station_id":"TGS","is_transit":false,"station_name":"Tigaraksa","distance":2651,"i_lat":-6.328533,"i_long":106.425991,"time":3},{"i_long":106.460812,"i_lat":-6.327251,"station_id":"TEJ","transit":false,"time":5,"is_transit":false,"distance":2974,"station_name":"Tenjo","line":6},{"line":0,"station_name":"Daru","time":5,"station_id":"DAR","i_long":106.491338,"transit":false,"distance":3902,"i_lat":-6.338021,"is_transit":false},{"station_id":"CJT","time":6,"station_name":"Cilejit","i_lat":-6.354349,"i_long":106.508482,"is_transit":false,"line":3,"distance":2675,"transit":false},{"i_long":106.568863,"station_id":"PRP","is_transit":false,"i_lat":-6.3441410000000005,"time":9,"station_name":"Parung Panjang","transit":false,"line":6,"distance":7025},{"line":3,"i_long":106.617853,"is_transit":false,"station_id":"CC","transit":false,"station_name":"Cicayur","i_lat":-6.329547,"distance":5968,"time":8},{"line":3,"distance":2519,"transit":false,"station_name":"Cisauk","i_lat":-6.32484,"i_long":106.640411,"is_transit":false,"station_id":"CSK","time":4},{"transit":false,"station_name":"Serpong","line":6,"station_id":"SRP","time":4,"i_long":106.66566,"distance":1784,"i_lat":-6.319871,"is_transit":false},{"line":6,"i_lat":-6.314823,"time":4,"distance":2413,"transit":false,"i_long":106.675475,"station_id":"RU","station_name":"Rawa Buntu","is_transit":false},{"station_name":"Sudimara","transit":false,"time":6,"distance":4566,"i_long":106.712277,"line":6,"i_lat":-6.296963,"station_id":"SDM","is_transit":false},{"line":6,"distance":1994,"time":4,"station_name":"Jurangmangu","i_lat":-6.288927,"i_long":106.728916,"station_id":"JMU","transit":false,"is_transit":false},{"distance":2179,"i_long":106.74273,"station_name":"Pondokranji","transit":false,"line":6,"is_transit":false,"i_lat":-6.276362,"station_id":"PDJ","time":3},{"line":6,"time":8,"station_name":"Kebayoran","distance":6218,"i_lat":-6.237242,"transit":false,"is_transit":false,"station_id":"KBY","i_long":106.780334},{"is_transit":false,"i_lat":-6.207404,"station_name":"Palmerah","station_id":"PLM","i_long":106.79689,"transit":false,"time":7,"distance":3737,"line":6},{"line":1,"is_transit":true,"transit":true,"station_name":"Tanah Abang","station_id":"THB","time":6,"distance":3191,"i_lat":-6.185545,"i_long":106.811091},{"i_lat":-6.155215,"time":8,"distance":3632,"transit":false,"line":1,"station_name":"Duri","station_id":"DU","i_long":106.800832,"is_transit":false},{"station_name":"Angke","is_transit":false,"transit":false,"distance":1230,"time":4,"i_lat":-6.144674,"i_long":106.79867,"line":1,"station_id":"AK"},{"station_name":"Kampung Bandan","transit":true,"is_transit":true,"i_lat":-6.132549,"line":4,"time":9,"station_id":"KPB","i_long":106.826365,"distance":4102},{"i_long":106.812439,"distance":1364,"time":3,"transit":true,"line":2,"is_transit":true,"station_name":"Jakarta Kota","i_lat":-6.137569,"station_id":"JAKK"},{"station_id":"JAY","distance":1264,"transit":false,"i_lat":-6.141205,"line":2,"station_name":"Jayakarta","time":4,"i_long":106.820901,"is_transit":false},{"line":2,"station_name":"Manggabesar","time":2,"i_long":106.82482,"i_lat":-6.149769,"station_id":"MGB","transit":false,"is_transit":false,"distance":1080},{"line":2,"is_transit":false,"station_id":"SW","i_long":106.827103,"station_name":"Sawah Besar","transit":false,"time":2,"distance":906,"i_lat":-6.160725},{"distance":1149,"i_lat":-6.166716,"transit":false,"station_name":"Juanda","line":2,"time":2,"i_long":106.828284,"station_id":"JUA","is_transit":false},{"is_transit":false,"i_long":106.832183,"transit":false,"time":4,"distance":2015,"line":2,"station_name":"Gondangdia","station_id":"GDD","i_lat":-6.186295},{"distance":1750,"station_id":"CKI","is_transit":false,"station_name":"Cikini","transit":false,"i_long":106.840169,"i_lat":-6.198556,"time":3,"line":2},{"time":4,"station_id":"MRI","is_transit":true,"distance":1590,"station_name":"Manggarai","transit":true,"i_long":106.84912,"line":2,"i_lat":-6.209883},{"line":1,"transit":false,"station_id":"MTR","distance":1275,"i_long":106.858896,"station_name":"Matraman","time":2,"i_lat":-6.212485,"is_transit":false},{"i_lat":-6.215091,"station_name":"Jatinegara","station_id":"JNG","is_transit":false,"i_long":106.86807400000001,"transit":false,"time":8,"line":1,"distance":1377},{"station_id":"KLD","transit":false,"distance":3395,"i_long":106.899548,"time":3,"line":1,"i_lat":-6.2135,"is_transit":false,"station_name":"Klender"},{"time":2,"line":1,"transit":false,"is_transit":false,"i_lat":-6.215568,"station_id":"BUA","station_name":"Buaran","i_long":106.922662,"distance":3100},{"distance":1305,"i_long":106.939679,"station_id":"KLDB","transit":false,"is_transit":false,"i_lat":-6.217455,"time":1,"line":1,"station_name":"Klenderbaru"}],[{"is_transit":false,"station_id":"CKY","i_lat":-6.33561,"i_long":106.411216,"line":3,"distance":0,"transit":false,"station_name":"Cikoya","time":0},{"time":3,"is_transit":false,"line":6,"i_long":106.425991,"station_id":"TGS","distance":2651,"transit":false,"station_name":"Tigaraksa","i_lat":-6.328533},{"i_long":106.460812,"distance":2974,"station_name":"Tenjo","station_id":"TEJ","transit":false,"is_transit":false,"i_lat":-6.327251,"line":6,"time":5},{"i_long":106.491338,"distance":3902,"transit":false,"time":5,"station_name":"Daru","is_transit":false,"station_id":"DAR","i_lat":-6.338021,"line":0},{"station_id":"CJT","i_lat":-6.354349,"i_long":106.508482,"line":3,"distance":2675,"time":6,"station_name":"Cilejit","transit":false,"is_transit":false},{"station_id":"PRP","time":9,"i_lat":-6.3441410000000005,"i_long":106.568863,"station_name":"Parung Panjang","line":6,"is_transit":false,"distance":7025,"transit":false},{"transit":false,"is_transit":false,"station_id":"CC","i_lat":-6.329547,"line":3,"distance":5968,"time":8,"i_long":106.617853,"station_name":"Cicayur"},{"station_name":"Cisauk","transit":false,"is_transit":false,"distance":2519,"time":4,"i_long":106.640411,"i_lat":-6.32484,"line":3,"station_id":"CSK"},{"station_name":"Serpong","is_transit":false,"i_lat":-6.319871,"time":4,"transit":false,"i_long":106.66566,"line":6,"station_id":"SRP","distance":1784},{"station_id":"RU","distance":2413,"transit":false,"line":6,"station_name":"Rawa Buntu","time":4,"is_transit":false,"i_lat":-6.314823,"i_long":106.675475},{"i_lat":-6.296963,"i_long":106.712277,"station_id":"SDM","station_name":"Sudimara","distance":4566,"is_transit":false,"line":6,"transit":false,"time":6},{"i_lat":-6.288927,"transit":false,"is_transit":false,"station_name":"Jurangmangu","distance":1994,"station_id":"JMU","time":4,"i_long":106.728916,"line":6},{"i_lat":-6.276362,"time":3,"transit":false,"is_transit":false,"line":6,"distance":2179,"station_name":"Pondokranji","i_long":106.74273,"station_id":"PDJ"},{"transit":false,"line":6,"is_transit":false,"distance":6218,"i_lat":-6.237242,"station_id":"KBY","time":8,"station_name":"Kebayoran","i_long":106.780334},{"is_transit":false,"distance":3737,"i_long":106.79689,"station_id":"PLM","station_name":"Palmerah","time":7,"i_lat":-6.207404,"transit":false,"line":6},{"is_transit":true,"i_long":106.811091,"distance":3191,"line":1,"station_id":"THB","transit":true,"time":6,"station_name":"Tanah Abang","i_lat":-6.185545},{"i_lat":-6.20132,"i_long":106.816351,"line":1,"transit":false,"time":5,"distance":2029,"station_name":"Karet","station_id":"KAT","is_transit":false},{"line":1,"station_id":"SUDB","i_long":106.819881,"time":1,"station_name":"Sudirman Baru","transit":false,"distance":471,"is_transit":false,"i_lat":-6.201433},{"transit":false,"station_name":"Sudirman","is_transit":false,"distance":280,"time":1,"i_long":106.822649,"line":1,"station_id":"SUD","i_lat":-6.202263},{"line":2,"transit":true,"time":4,"distance":3186,"i_long":106.84912,"is_transit":true,"station_id":"MRI","station_name":"Manggarai","i_lat":-6.209883},{"transit":false,"i_lat":-6.198556,"distance":1590,"i_long":106.840169,"time":4,"line":2,"is_transit":false,"station_id":"CKI","station_name":"Cikini"},{"transit":false,"time":3,"line":2,"distance":1750,"is_transit":false,"station_name":"Gondangdia","i_lat":-6.186295,"station_id":"GDD","i_long":106.832183},{"is_transit":false,"transit":false,"station_name":"Juanda","i_long":106.828284,"time":4,"distance":2015,"i_lat":-6.166716,"station_id":"JUA","line":2},{"station_id":"SW","line":2,"i_lat":-6.160725,"i_long":106.827103,"is_transit":false,"time":2,"transit":false,"station_name":"Sawah Besar","distance":1149},{"station_id":"MGB","distance":906,"is_transit":false,"i_long":106.82482,"transit":false,"line":2,"station_name":"Manggabesar","time":2,"i_lat":-6.149769},{"i_long":106.820901,"is_transit":false,"distance":1080,"line":2,"transit":false,"time":2,"i_lat":-6.141205,"station_id":"JAY","station_name":"Jayakarta"},{"time":4,"is_transit":true,"line":2,"transit":true,"station_name":"Jakarta Kota","i_long":106.812439,"distance":1264,"station_id":"JAKK","i_lat":-6.137569},{"time":3,"is_transit":true,"i_lat":-6.132549,"i_long":106.826365,"line":4,"station_id":"KPB","transit":true,"station_name":"Kampung Bandan","distance":1364},{"line":11,"station_id":"RJW","transit":false,"distance":1444,"time":3,"is_transit":false,"i_long":106.836569,"station_name":"Rajawali","i_lat":-6.14505},{"transit":false,"line":11,"time":5,"is_transit":false,"distance":1901,"station_name":"Kemayoran","i_lat":-6.161728,"i_long":106.839204,"station_id":"KMO"},{"distance":1436,"station_id":"PSE","i_lat":-6.174784,"transit":false,"i_long":106.84368,"station_name":"Pasar Senen","is_transit":false,"time":4,"line":11},{"is_transit":false,"station_name":"Gang Sentiong","station_id":"GST","transit":false,"time":8,"i_lat":-6.185975,"line":11,"distance":1567,"i_long":106.850107},{"station_id":"KMT","time":1,"station_name":"Kramat","i_lat":-6.193792,"i_long":106.855437,"line":11,"is_transit":false,"distance":973,"transit":false},{"time":2,"is_transit":false,"station_id":"POK","transit":false,"i_lat":-6.209188,"distance":1829,"i_long":106.861737,"line":11,"station_name":"Pondok Jati"},{"transit":true,"i_lat":-6.215091,"is_transit":true,"time":9,"line":1,"i_long":106.86807400000001,"station_name":"Jatinegara","distance":1236,"station_id":"JNG"},{"station_id":"KLD","transit":false,"time":3,"station_name":"Klender","i_long":106.899548,"i_lat":-6.2135,"is_transit":false,"distance":3395,"line":1},{"transit":false,"distance":3100,"station_id":"BUA","i_lat":-6.215568,"line":1,"station_name":"Buaran","time":2,"is_transit":false,"i_long":106.922662},{"i_lat":-6.217455,"i_long":106.939679,"time":1,"station_name":"Klenderbaru","is_transit":false,"station_id":"KLDB","transit":false,"line":1,"distance":1305}]]}