{"data":[[{"station_id":"CKY","distance":0,"station_name":"Cikoya","is_transit":false,"i_lat":-6.33561,"i_long":106.411216,"time":0,"transit":false,"line":3},{"distance":2651,"station_id":"TGS","time":3,"i_long":106.425991,"transit":false,"is_transit":false,"i_lat":-6.328533,"station_name":"Tigaraksa","line":6},{"i_long":106.460812,"line":6,"time":5,"i_lat":-6.327251,"transit":false,"station_id":"TEJ","distance":2974,"station_name":"Tenjo","is_transit":false},{"i_lat":-6.338021,"line":0,"i_long":106.491338,"station_name":"Daru","is_transit":false,"transit":false,"distance":3902,"time":5,"station_id":"DAR"},{"station_id":"CJT","is_transit":false,"transit":false,"station_name":"Cilejit","distance":2675,"i_lat":-6.354349,"i_long":106.508482,"line":3,"time":6},{"i_lat":-6.3441410000000005,"station_id":"PRP","station_name":"Parung Panjang","time":9,"line":6,"is_transit":false,"distance":7025,"i_long":106.568863,"transit":false}]]}