{"data":[[{"transit":false,"station_id":"CKY","line":3,"is_transit":false,"distance":0,"i_lat":-6.33561,"time":0,"station_name":"Cikoya","i_long":106.411216},{"i_lat":-6.328533,"i_long":106.425991,"is_transit":false,"station_id":"TGS","station_name":"Tigaraksa","distance":2651,"time":3,"transit":false,"line":6},{"transit":false,"line":6,"i_lat":-6.327251,"i_long":106.460812,"distance":2974,"station_id":"TEJ","is_transit":false,"time":5,"station_name":"Tenjo"},{"is_transit":false,"line":0,"station_id":"DAR","i_lat":-6.338021,"i_long":106.491338,"time":5,"transit":false,"station_name":"Daru","distance":3902},{"i_lat":-6.354349,"i_long":106.508482,"line":3,"station_id":"CJT","station_name":"Cilejit","time":6,"is_transit":false,"distance":2675,"transit":false},{"station_name":"Parung Panjang","time":9,"transit":false,"i_long":106.568863,"is_transit":false,"line":6,"station_id":"PRP","distance":7025,"i_lat":-6.3441410000000005},{"station_id":"CC","distance":5968,"i_lat":-6.329547,"station_name":"Cicayur","is_transit":false,"transit":false,"time":8,"line":3,"i_long":106.617853},{"i_long":106.640411,"time":4,"station_name":"Cisauk","is_transit":false,"station_id":"CSK","transit":false,"distance":2519,"i_lat":-6.32484,"line":3},{"i_lat":-6.319871,"transit":false,"distance":1784,"i_long":106.66566,"is_transit":false,"station_id":"SRP","time":4,"station_name":"Serpong","line":6},{"i_long":106.675475,"i_lat":-6.314823,"station_name":"Rawa Buntu","time":4,"line":6,"is_transit":false,"station_id":"RU","transit":false,"distance":2413},{"is_transit":false,"station_name":"Sudimara","transit":false,"i_long":106.712277,"line":6,"time":6,"station_id":"SDM","i_lat":-6.296963,"distance":4566},{"station_id":"JMU","station_name":"Jurangmangu","is_transit":false,"distance":1994,"i_long":106.728916,"i_lat":-6.288927,"time":4,"transit":false,"line":6},{"line":6,"station_id":"PDJ","i_lat":-6.276362,"station_name":"Pondokranji","time":3,"i_long":106.74273,"distance":2179,"transit":false,"is_transit":false},{"i_lat":-6.237242,"station_id":"KBY","distance":6218,"station_name":"Kebayoran","i_long":106.780334,"line":6,"transit":false,"time":8,"is_transit":false},{"time":7,"distance":3737,"line":6,"is_transit":false,"station_id":"PLM","station_name":"Palmerah","i_lat":-6.207404,"i_long":106.79689,"transit":false},{"is_transit":true,"station_name":"Tanah Abang","i_long":106.811091,"distance":3191,"line":1,"time":6,"station_id":"THB","transit":true,"i_lat":-6.185545},{"station_id":"DU","i_lat":-6.155215,"time":8,"distance":3632,"station_name":"Duri","i_long":106.800832,"line":1,"is_transit":false,"transit":false}],[{"station_id":"CKY","i_long":106.411216,"transit":false,"station_name":"Cikoya","i_lat":-6.33561,"is_transit":false,"distance":0,"line":3,"time":0},{"i_lat":-6.328533,"transit":false,"distance":2651,"i_long":106.425991,"is_transit":false,"station_name":"Tigaraksa","time":3,"line":6,"station_id":"TGS"},{"station_id":"TEJ","is_transit":false,"distance":2974,"time":5,"transit":false,"station_name":"Tenjo","i_long":106.460812,"line":6,"i_lat":-6.327251},{"transit":false,"is_transit":false,"time":5,"i_long":106.491338,"line":0,"distance":3902,"i_lat":-6.338021,"station_id":"DAR","station_name":"Daru"},{"is_transit":false,"station_id":"CJT","time":6,"line":3,"i_lat":-6.354349,"distance":2675,"transit":false,"station_name":"Cilejit","i_long":106.508482},{"distance":7025,"i_lat":-6.3441410000000005,"station_id":"PRP","is_transit":false,"time":9,"station_name":"Parung Panjang","i_long":106.568863,"line":6,"transit":false},{"i_long":106.617853,"station_id":"CC","transit":false,"time":8,"is_transit":false,"distance":5968,"i_lat":-6.329547,"station_name":"Cicayur","line":3},{"station_id":"CSK","line":3,"time":4,"is_transit":false,"i_lat":-6.32484,"transit":false,"i_long":106.640411,"station_name":"Cisauk","distance":2519},{"station_id":"SRP","line":6,"i_long":106.66566,"is_transit":false,"station_name":"Serpong","distance":1784,"time":4,"transit":false,"i_lat":-6.319871},{"station_id":"RU","time":4,"i_long":106.675475,"line":6,"distance":2413,"station_name":"Rawa Buntu","i_lat":-6.314823,"is_transit":false,"transit":false},{"i_long":106.712277,"line":6,"distance":4566,"station_id":"SDM","station_name":"Sudimara","i_lat":-6.296963,"is_transit":false,"time":6,"transit":false},{"is_transit":false,"time":4,"transit":false,"i_long":106.728916,"line":6,"station_id":"JMU","i_lat":-6.288927,"distance":1994,"station_name":"Jurangmangu"},{"i_lat":-6.276362,"transit":false,"line":6,"time":3,"is_transit":false,"station_id":"PDJ","i_long":106.74273,"distance":2179,"station_name":"Pondokranji"},{"transit":false,"station_id":"KBY","is_transit":false,"station_name":"Kebayoran","i_lat":-6.237242,"line":6,"distance":6218,"time":8,"i_long":106.780334},{"is_transit":false,"station_name":"Palmerah","i_long":106.79689,"i_lat":-6.207404,"line":6,"transit":false,"distance":3737,"station_id":"PLM","time":7},{"station_id":"THB","station_name":"Tanah Abang","is_transit":true,"transit":true,"i_lat":-6.185545,"i_long":106.811091,"distance":3191,"line":1,"time":6},{"line":1,"transit":false,"i_lat":-6.20132,"station_id":"KAT","distance":2029,"time":5,"is_transit":false,"i_long":106.816351,"station_name":"Karet"},{"station_id":"SUDB","line":1,"i_long":106.819881,"time":1,"transit":false,"distance":471,"station_name":"Sudirman Baru","i_lat":-6.201433,"is_transit":false},{"distance":280,"is_transit":false,"i_lat":-6.202263,"time":1,"line":1,"station_id":"SUD","station_name":"Sudirman","transit":false,"i_long":106.822649},{"i_lat":-6.209883,"distance":3186,"transit":true,"is_transit":true,"i_long":106.84912,"line":2,"station_id":"MRI","time":4,"station_name":"Manggarai"},{"is_transit":false,"time":4,"i_lat":-6.198556,"i_long":106.840169,"line":2,"transit":false,"station_name":"Cikini","station_id":"CKI","distance":1590},{"line":2,"distance":1750,"transit":false,"station_name":"Gondangdia","i_lat":-6.186295,"time":3,"i_long":106.832183,"station_id":"GDD","is_transit":false},{"time":4,"i_long":106.828284,"station_name":"Juanda","distance":2015,"line":2,"transit":false,"i_lat":-6.166716,"is_transit":false,"station_id":"JUA"},{"distance":1149,"station_id":"SW","station_name":"Sawah Besar","line":2,"transit":false,"i_long":106.827103,"i_lat":-6.160725,"is_transit":false,"time":2},{"i_long":106.82482,"line":2,"distance":906,"time":2,"station_id":"MGB","transit":false,"is_transit":false,"station_name":"Manggabesar","i_lat":-6.149769},{"transit":false,"i_lat":-6.141205,"line":2,"time":2,"is_transit":false,"station_id":"JAY","distance":1080,"i_long":106.820901,"station_name":"Jayakarta"},{"transit":true,"station_name":"Jakarta Kota","line":2,"station_id":"JAKK","i_long":106.812439,"time":4,"distance":1264,"i_lat":-6.137569,"is_transit":true},{"i_lat":-6.132549,"line":4,"is_transit":true,"time":3,"distance":1364,"station_id":"KPB","station_name":"Kampung Bandan","i_long":106.826365,"transit":true},{"i_long":106.79867,"station_name":"Angke","transit":false,"line":1,"distance":4102,"is_transit":false,"i_lat":-6.144674,"station_id":"AK","time":9},{"distance":1230,"station_name":"Duri","i_long":106.800832,"time":4,"transit":false,"station_id":"DU","is_transit":false,"line":1,"i_lat":-6.155215}],[{"station_id":"CKY","time":0,"station_name":"Cikoya","is_transit":false,"i_long":106.411216,"line":3,"i_lat":-6.33561,"distance":0,"transit":false},{"time":3,"line":6,"transit":false,"station_name":"Tigaraksa","i_long":106.425991,"i_lat":-6.328533,"station_id":"TGS","distance":2651,"is_transit":false},{"i_long":106.460812,"station_id":"TEJ","transit":false,"is_transit":false,"time":5,"station_name":"Tenjo","distance":2974,"line":6,"i_lat":-6.327251},{"time":5,"i_long":106.491338,"is_transit":false,"station_name":"Daru","line":0,"station_id":"DAR","i_lat":-6.338021,"transit":false,"distance":3902},{"distance":2675,"i_long":106.508482,"line":3,"is_transit":false,"station_id":"CJT","transit":false,"time":6,"i_lat":-6.354349,"station_name":"Cilejit"},{"time":9,"distance":7025,"station_id":"PRP","station_name":"Parung Panjang","is_transit":false,"transit":false,"i_lat":-6.3441410000000005,"line":6,"i_long":106.568863},{"is_transit":false,"station_id":"CC","i_lat":-6.329547,"time":8,"transit":false,"distance":5968,"station_name":"Cicayur","i_long":106.617853,"line":3},{"station_name":"Cisauk","i_long":106.640411,"is_transit":false,"transit":false,"i_lat":-6.32484,"time":4,"distance":2519,"station_id":"CSK","line":3},{"distance":1784,"is_transit":false,"i_lat":-6.319871,"line":6,"transit":false,"i_long":106.66566,"time":4,"station_name":"Serpong","station_id":"SRP"},{"station_id":"RU","distance":2413,"is_transit":false,"transit":false,"station_name":"Rawa Buntu","i_long":106.675475,"time":4,"line":6,"i_lat":-6.314823},{"time":6,"is_transit":false,"i_long":106.712277,"transit":false,"i_lat":-6.296963,"station_id":"SDM","distance":4566,"station_name":"Sudimara","line":6},{"station_id":"JMU","is_transit":false,"station_name":"Jurangmangu","i_long":106.728916,"line":6,"distance":1994,"transit":false,"i_lat":-6.288927,"time":4},{"i_long":106.74273,"transit":false,"time":3,"station_id":"PDJ","i_lat":-6.276362,"line":6,"is_transit":false,"distance":2179,"station_name":"Pondokranji"},{"time":8,"station_id":"KBY","transit":false,"is_transit":false,"distance":6218,"station_name":"Kebayoran","line":6,"i_lat":-6.237242,"i_long":106.780334},{"station_name":"Palmerah","line":6,"i_long":106.79689,"i_lat":-6.207404,"station_id":"PLM","time":7,"distance":3737,"is_transit":false,"transit":false},{"time":6,"station_name":"Tanah Abang","i_lat":-6.185545,"transit":true,"is_transit":true,"station_id":"THB","i_long":106.811091,"distance":3191,"line":1},{"distance":2029,"i_long":106.816351,"i_lat":-6.20132,"station_id":"KAT","station_name":"Karet","time":5,"line":1,"transit":false,"is_transit":false},{"i_long":106.819881,"i_lat":-6.201433,"distance":471,"time":1,"is_transit":false,"station_id":"SUDB","transit":false,"station_name":"Sudirman Baru","line":1},{"station_id":"SUD","is_transit":false,"station_name":"Sudirman","i_long":106.822649,"time":1,"distance":280,"i_lat":-6.202263,"transit":false,"line":1},{"i_long":106.84912,"transit":false,"station_name":"Manggarai","is_transit":false,"i_lat":-6.209883,"line":2,"time":4,"distance":3186,"station_id":"MRI"},{"time":2,"transit":false,"station_id":"MTR","i_lat":-6.212485,"i_long":106.858896,"station_name":"Matraman","is_transit":false,"distance":1275,"line":1},{"is_transit":true,"line":1,"station_id":"JNG","i_long":106.86807400000001,"distance":1377,"time":8,"transit":true,"station_name":"Jatinegara","i_lat":-6.215091},{"transit":false,"station_name":"Pondok Jati","time":2,"i_long":106.861737,"distance":1236,"i_lat":-6.209188,"line":11,"is_transit":false,"station_id":"POK"},{"line":11,"station_name":"Kramat","i_long":106.855437,"is_transit":false,"i_lat":-6.193792,"distance":1829,"station_id":"KMT","transit":false,"time":2},{"is_transit":false,"distance":973,"i_lat":-6.185975,"i_long":106.850107,"station_id":"GST","time":1,"line":11,"transit":false,"station_name":"Gang Sentiong"},{"time":8,"station_name":"Pasar Senen","i_long":106.84368,"station_id":"PSE","is_transit":false,"distance":1567,"transit":false,"i_lat":-6.174784,"line":11},{"station_name":"Kemayoran","time":4,"i_long":106.839204,"line":11,"station_id":"KMO","is_transit":false,"transit":false,"i_lat":-6.161728,"distance":1436},{"line":11,"is_transit":false,"i_lat":-6.14505,"station_name":"Rajawali","i_long":106.836569,"time":5,"station_id":"RJW","distance":1901,"transit":false},{"transit":true,"i_long":106.826365,"is_transit":true,"station_name":"Kampung Bandan","distance":1444,"i_lat":-6.132549,"time":3,"line":4,"station_id":"KPB"},{"line":1,"is_transit":false,"transit":false,"station_name":"Angke","time":9,"station_id":"AK","i_long":106.79867,"i_lat":-6.144674,"distance":4102},{"is_transit":false,"i_long":106.800832,"i_lat":-6.155215,"transit":false,"station_id":"DU","distance":1230,"station_name":"Duri","line":1,"time":4}]]}