{"data":[[{"is_transit":false,"i_lat":-6.33561,"i_long":106.411216,"station_id":"CKY","line":3,"station_name":"Cikoya","time":0,"transit":false,"distance":0},{"transit":false,"station_name":"Tigaraksa","is_transit":false,"distance":2651,"station_id":"TGS","line":6,"i_long":106.425991,"time":3,"i_lat":-6.328533},{"line":6,"station_name":"Tenjo","i_long":106.460812,"is_transit":false,"transit":false,"time":5,"distance":2974,"station_id":"TEJ","i_lat":-6.327251},{"i_lat":-6.338021,"i_long":106.491338,"station_name":"Daru","station_id":"DAR","distance":3902,"transit":false,"is_transit":false,"line":0,"time":5},{"station_id":"CJT","is_transit":false,"distance":2675,"i_long":106.508482,"i_lat":-6.354349,"transit":false,"line":3,"time":6,"station_name":"Cilejit"},{"is_transit":false,"distance":7025,"time":9,"transit":false,"station_id":"PRP","i_lat":-6.3441410000000005,"line":6,"i_long":106.568863,"station_name":"Parung Panjang"},{"station_name":"Cicayur","time":8,"transit":false,"i_lat":-6.329547,"i_long":106.617853,"distance":5968,"station_id":"CC","line":3,"is_transit":false},{"line":3,"transit":false,"station_name":"Cisauk","distance":2519,"i_lat":-6.32484,"i_long":106.640411,"time":4,"station_id":"CSK","is_transit":false},{"is_transit":false,"transit":false,"station_name":"Serpong","station_id":"SRP","distance":1784,"i_lat":-6.319871,"time":4,"i_long":106.66566,"line":6},{"distance":2413,"i_lat":-6.314823,"i_long":106.675475,"time":4,"station_name":"Rawa Buntu","transit":false,"station_id":"RU","line":6,"is_transit":false},{"distance":4566,"station_id":"SDM","time":6,"station_name":"Sudimara","is_transit":false,"i_lat":-6.296963,"transit":false,"line":6,"i_long":106.712277},{"i_long":106.728916,"line":6,"distance":1994,"is_transit":false,"station_id":"JMU","transit":false,"i_lat":-6.288927,"time":4,"station_name":"Jurangmangu"},{"is_transit":false,"i_lat":-6.276362,"transit":false,"station_name":"Pondokranji","station_id":"PDJ","line":6,"time":3,"distance":2179,"i_long":106.74273},{"distance":6218,"i_lat":-6.237242,"station_id":"KBY","line":6,"is_transit":false,"transit":false,"station_name":"Kebayoran","time":8,"i_long":106.780334},{"distance":3737,"station_id":"PLM","time":7,"transit":false,"station_name":"Palmerah","i_lat":-6.207404,"is_transit":false,"line":6,"i_long":106.79689},{"transit":true,"is_transit":true,"line":1,"station_name":"Tanah Abang","distance":3191,"i_lat":-6.185545,"i_long":106.811091,"station_id":"THB","time":6},{"is_transit":true,"time":8,"transit":true,"distance":3632,"station_name":"Duri","station_id":"DU","i_lat":-6.155215,"i_long":106.800832,"line":1},{"is_transit":false,"i_lat":-6.162021,"time":3,"line":5,"station_name":"Grogol","distance":1700,"transit":false,"station_id":"GGL","i_long":106.788277},{"i_lat":-6.161433,"i_long":106.771379,"station_id":"PSG","line":5,"is_transit":false,"distance":2036,"time":2,"transit":false,"station_name":"Pesing"},{"time":2,"station_id":"TKO","i_lat":-6.1587309999999995,"station_name":"Taman Kota","line":5,"distance":1614,"transit":false,"is_transit":false,"i_long":106.756522},{"station_name":"Bojongindah","station_id":"BOI","distance":2334,"i_long":106.737035,"line":5,"transit":false,"i_lat":-6.159876,"is_transit":false,"time":2},{"transit":false,"station_name":"Rawa Buaya","time":4,"station_id":"RW","is_transit":false,"distance":1152,"i_long":106.723064,"i_lat":-6.162758,"line":5},{"transit":false,"station_name":"Kalideres","time":3,"line":5,"is_transit":false,"i_lat":-6.166068,"i_long":106.701612,"station_id":"KDS","distance":2504},{"time":3,"station_name":"Poris","line":5,"transit":false,"i_lat":-6.169933,"is_transit":false,"distance":2548,"i_long":106.679458,"station_id":"PI"},{"line":5,"station_id":"BPR","transit":false,"is_transit":false,"i_long":106.665036,"i_lat":-6.171811,"station_name":"Batuceper","time":3,"distance":1834},{"transit":false,"is_transit":false,"distance":2028,"station_name":"Tanah Tinggi","time":3,"station_id":"TTI","i_lat":-6.17331,"line":5,"i_long":106.64657}],[{"transit":false,"i_lat":-6.33561,"is_transit":false,"time":0,"distance":0,"i_long":106.411216,"station_id":"CKY","line":3,"station_name":"Cikoya"},{"is_transit":false,"i_lat":-6.328533,"line":6,"i_long":106.425991,"transit":false,"time":3,"station_name":"Tigaraksa","distance":2651,"station_id":"TGS"},{"station_name":"Tenjo","i_long":106.460812,"line":6,"transit":false,"station_id":"TEJ","time":5,"is_transit":false,"i_lat":-6.327251,"distance":2974},{"line":0,"is_transit":false,"station_name":"Daru","i_lat":-6.338021,"transit":false,"distance":3902,"i_long":106.491338,"time":5,"station_id":"DAR"},{"distance":2675,"i_lat":-6.354349,"line":3,"is_transit":false,"station_name":"Cilejit","time":6,"transit":false,"i_long":106.508482,"station_id":"CJT"},{"station_name":"Parung Panjang","distance":7025,"time":9,"i_lat":-6.3441410000000005,"station_id":"PRP","i_long":106.568863,"line":6,"is_transit":false,"transit":false},{"is_transit":false,"i_long":106.617853,"line":3,"transit":false,"i_lat":-6.329547,"distance":5968,"station_id":"CC","time":8,"station_name":"Cicayur"},{"i_lat":-6.32484,"i_long":106.640411,"line":3,"transit":false,"station_name":"Cisauk","time":4,"is_transit":false,"station_id":"CSK","distance":2519},{"i_lat":-6.319871,"station_id":"SRP","station_name":"Serpong","line":6,"time":4,"transit":false,"distance":1784,"is_transit":false,"i_long":106.66566},{"i_lat":-6.314823,"time":4,"line":6,"transit":false,"station_name":"Rawa Buntu","distance":2413,"is_transit":false,"station_id":"RU","i_long":106.675475},{"is_transit":false,"i_long":106.712277,"time":6,"i_lat":-6.296963,"line":6,"station_name":"Sudimara","transit":false,"distance":4566,"station_id":"SDM"},{"distance":1994,"time":4,"transit":false,"station_id":"JMU","station_name":"Jurangmangu","i_lat":-6.288927,"i_long":106.728916,"is_transit":false,"line":6},{"i_long":106.74273,"line":6,"station_name":"Pondokranji","time":3,"distance":2179,"station_id":"PDJ","is_transit":false,"transit":false,"i_lat":-6.276362},{"is_transit":false,"transit":false,"i_lat":-6.237242,"line":6,"time":8,"distance":6218,"station_name":"Kebayoran","i_long":106.780334,"station_id":"KBY"},{"station_id":"PLM","transit":false,"time":7,"station_name":"Palmerah","is_transit":false,"i_lat":-6.207404,"i_long":106.79689,"line":6,"distance":3737},{"is_transit":true,"transit":true,"distance":3191,"time":6,"station_id":"THB","station_name":"Tanah Abang","line":1,"i_long":106.811091,"i_lat":-6.185545},{"station_name":"Karet","transit":false,"is_transit":false,"i_lat":-6.20132,"time":5,"station_id":"KAT","i_long":106.816351,"line":1,"distance":2029},{"i_lat":-6.201433,"i_long":106.819881,"station_name":"Sudirman Baru","line":1,"transit":false,"time":1,"is_transit":false,"station_id":"SUDB","distance":471},{"i_long":106.822649,"transit":false,"i_lat":-6.202263,"time":1,"station_name":"Sudirman","is_transit":false,"distance":280,"line":1,"station_id":"SUD"},{"i_lat":-6.209883,"distance":3186,"station_id":"MRI","i_long":106.84912,"station_name":"Manggarai","line":2,"time":4,"transit":true,"is_transit":true},{"i_long":106.840169,"i_lat":-6.198556,"transit":false,"line":2,"station_id":"CKI","distance":1590,"station_name":"Cikini","time":4,"is_transit":false},{"is_transit":false,"line":2,"station_name":"Gondangdia","i_long":106.832183,"i_lat":-6.186295,"time":3,"distance":1750,"station_id":"GDD","transit":false},{"transit":false,"is_transit":false,"station_name":"Juanda","distance":2015,"station_id":"JUA","i_lat":-6.166716,"time":4,"i_long":106.828284,"line":2},{"transit":false,"is_transit":false,"line":2,"distance":1149,"station_id":"SW","time":2,"i_lat":-6.160725,"i_long":106.827103,"station_name":"Sawah Besar"},{"is_transit":false,"time":2,"i_lat":-6.149769,"i_long":106.82482,"transit":false,"station_name":"Manggabesar","station_id":"MGB","distance":906,"line":2},{"i_long":106.820901,"line":2,"transit":false,"distance":1080,"is_transit":false,"i_lat":-6.141205,"station_id":"JAY","time":2,"station_name":"Jayakarta"},{"station_id":"JAKK","transit":true,"i_long":106.812439,"station_name":"Jakarta Kota","line":2,"is_transit":true,"i_lat":-6.137569,"time":4,"distance":1264},{"time":3,"i_lat":-6.132549,"transit":true,"is_transit":true,"i_long":106.826365,"station_name":"Kampung Bandan","station_id":"KPB","distance":1364,"line":4},{"transit":false,"is_transit":false,"station_id":"AK","line":1,"distance":4102,"time":9,"i_lat":-6.144674,"i_long":106.79867,"station_name":"Angke"},{"i_lat":-6.155215,"is_transit":true,"station_name":"Duri","line":1,"time":4,"transit":true,"i_long":106.800832,"station_id":"DU","distance":1230},{"transit":false,"is_transit":false,"distance":1700,"i_long":106.788277,"time":3,"station_name":"Grogol","station_id":"GGL","i_lat":-6.162021,"line":5},{"station_name":"Pesing","station_id":"PSG","is_transit":false,"time":2,"distance":2036,"i_lat":-6.161433,"line":5,"transit":false,"i_long":106.771379},{"line":5,"transit":false,"is_transit":false,"station_id":"TKO","time":2,"i_long":106.756522,"i_lat":-6.1587309999999995,"station_name":"Taman Kota","distance":1614},{"line":5,"i_long":106.737035,"time":2,"transit":false,"is_transit":false,"station_name":"Bojongindah","distance":2334,"i_lat":-6.159876,"station_id":"BOI"},{"station_name":"Rawa Buaya","time":4,"distance":1152,"station_id":"RW","i_lat":-6.162758,"line":5,"i_long":106.723064,"transit":false,"is_transit":false},{"time":3,"station_name":"Kalideres","is_transit":false,"distance":2504,"transit":false,"i_long":106.701612,"station_id":"KDS","i_lat":-6.166068,"line":5},{"is_transit":false,"station_name":"Poris","station_id":"PI","line":5,"time":3,"i_lat":-6.169933,"transit":false,"i_long":106.679458,"distance":2548},{"i_long":106.665036,"i_lat":-6.171811,"station_id":"BPR","time":3,"station_name":"Batuceper","transit":false,"distance":1834,"is_transit":false,"line":5},{"line":5,"transit":false,"distance":2028,"station_name":"Tanah Tinggi","time":3,"i_lat":-6.17331,"is_transit":false,"station_id":"TTI","i_long":106.64657}],[{"is_transit":false,"station_id":"CKY","i_long":106.411216,"time":0,"i_lat":-6.33561,"transit":false,"distance":0,"station_name":"Cikoya","line":3},{"transit":false,"i_lat":-6.328533,"is_transit":false,"i_long":106.425991,"time":3,"distance":2651,"station_id":"TGS","line":6,"station_name":"Tigaraksa"},{"line":6,"station_id":"TEJ","distance":2974,"i_lat":-6.327251,"i_long":106.460812,"time":5,"transit":false,"station_name":"Tenjo","is_transit":false},{"time":5,"i_long":106.491338,"station_name":"Daru","transit":false,"line":0,"distance":3902,"i_lat":-6.338021,"station_id":"DAR","is_transit":false},{"i_lat":-6.354349,"distance":2675,"transit":false,"time":6,"station_name":"Cilejit","is_transit":false,"station_id":"CJT","i_long":106.508482,"line":3},{"i_lat":-6.3441410000000005,"station_id":"PRP","station_name":"Parung Panjang","time":9,"transit":false,"distance":7025,"i_long":106.568863,"is_transit":false,"line":6},{"station_id":"CC","time":8,"transit":false,"station_name":"Cicayur","is_transit":false,"i_long":106.617853,"distance":5968,"line":3,"i_lat":-6.329547},{"time":4,"i_lat":-6.32484,"transit":false,"line":3,"i_long":106.640411,"is_transit":false,"station_name":"Cisauk","station_id":"CSK","distance":2519},{"time":4,"i_lat":-6.319871,"distance":1784,"station_id":"SRP","i_long":106.66566,"line":6,"station_name":"Serpong","is_transit":false,"transit":false},{"transit":false,"is_transit":false,"station_id":"RU","station_name":"Rawa Buntu","line":6,"distance":2413,"time":4,"i_lat":-6.314823,"i_long":106.675475},{"station_name":"Sudimara","station_id":"SDM","i_long":106.712277,"is_transit":false,"line":6,"i_lat":-6.296963,"transit":false,"distance":4566,"time":6},{"transit":false,"station_name":"Jurangmangu","i_lat":-6.288927,"line":6,"distance":1994,"is_transit":false,"station_id":"JMU","i_long":106.728916,"time":4},{"station_name":"Pondokranji","transit":false,"is_transit":false,"station_id":"PDJ","i_lat":-6.276362,"line":6,"time":3,"i_long":106.74273,"distance":2179},{"i_long":106.780334,"i_lat":-6.237242,"line":6,"transit":false,"station_name":"Kebayoran","distance":6218,"station_id":"KBY","time":8,"is_transit":false},{"line":6,"station_name":"Palmerah","i_lat":-6.207404,"transit":false,"is_transit":false,"time":7,"distance":3737,"station_id":"PLM","i_long":106.79689},{"is_transit":true,"station_name":"Tanah Abang","i_long":106.811091,"station_id":"THB","transit":true,"i_lat":-6.185545,"distance":3191,"line":1,"time":6},{"time":5,"transit":false,"line":1,"station_id":"KAT","distance":2029,"is_transit":false,"station_name":"Karet","i_long":106.816351,"i_lat":-6.20132},{"is_transit":false,"distance":471,"transit":false,"line":1,"i_long":106.819881,"i_lat":-6.201433,"time":1,"station_id":"SUDB","station_name":"Sudirman Baru"},{"i_long":106.822649,"line":1,"distance":280,"transit":false,"station_id":"SUD","time":1,"station_name":"Sudirman","is_transit":false,"i_lat":-6.202263},{"line":2,"transit":false,"i_lat":-6.209883,"i_long":106.84912,"time":4,"station_name":"Manggarai","distance":3186,"is_transit":false,"station_id":"MRI"},{"station_id":"MTR","i_long":106.858896,"line":1,"station_name":"Matraman","distance":1275,"i_lat":-6.212485,"time":2,"is_transit":false,"transit":false},{"is_transit":true,"i_lat":-6.215091,"line":1,"station_name":"Jatinegara","time":8,"distance":1377,"station_id":"JNG","i_long":106.86807400000001,"transit":true},{"station_id":"POK","line":11,"distance":1236,"is_transit":false,"time":2,"transit":false,"i_lat":-6.209188,"station_name":"Pondok Jati","i_long":106.861737},{"distance":1829,"i_lat":-6.193792,"time":2,"is_transit":false,"i_long":106.855437,"line":11,"transit":false,"station_id":"KMT","station_name":"Kramat"},{"station_name":"Gang Sentiong","i_lat":-6.185975,"station_id":"GST","time":1,"i_long":106.850107,"is_transit":false,"line":11,"distance":973,"transit":false},{"is_transit":false,"distance":1567,"station_id":"PSE","i_lat":-6.174784,"transit":false,"station_name":"Pasar Senen","line":11,"i_long":106.84368,"time":8},{"distance":1436,"is_transit":false,"station_id":"KMO","i_lat":-6.161728,"transit":false,"time":4,"station_name":"Kemayoran","i_long":106.839204,"line":11},{"i_lat":-6.14505,"station_name":"Rajawali","distance":1901,"i_long":106.836569,"transit":false,"time":5,"is_transit":false,"station_id":"RJW","line":11},{"i_lat":-6.132549,"station_name":"Kampung Bandan","i_long":106.826365,"is_transit":true,"station_id":"KPB","transit":true,"distance":1444,"line":4,"time":3},{"i_long":106.79867,"station_id":"AK","time":9,"station_name":"Angke","is_transit":false,"transit":false,"line":1,"distance":4102,"i_lat":-6.144674},{"time":4,"i_long":106.800832,"i_lat":-6.155215,"transit":true,"station_name":"Duri","station_id":"DU","distance":1230,"is_transit":true,"line":1},{"transit":false,"time":3,"distance":1700,"i_lat":-6.162021,"i_long":106.788277,"station_name":"Grogol","line":5,"is_transit":false,"station_id":"GGL"},{"distance":2036,"is_transit":false,"line":5,"station_name":"Pesing","time":2,"transit":false,"i_long":106.771379,"station_id":"PSG","i_lat":-6.161433},{"time":2,"station_name":"Taman Kota","is_transit":false,"line":5,"distance":1614,"station_id":"TKO","transit":false,"i_long":106.756522,"i_lat":-6.1587309999999995},{"is_transit":false,"i_lat":-6.159876,"transit":false,"station_name":"Bojongindah","distance":2334,"i_long":106.737035,"station_id":"BOI","line":5,"time":2},{"station_name":"Rawa Buaya","time":4,"distance":1152,"station_id":"RW","i_lat":-6.162758,"is_transit":false,"transit":false,"i_long":106.723064,"line":5},{"line":5,"is_transit":false,"i_lat":-6.166068,"station_name":"Kalideres","transit":false,"time":3,"station_id":"KDS","i_long":106.701612,"distance":2504},{"time":3,"i_long":106.679458,"is_transit":false,"distance":2548,"station_id":"PI","i_lat":-6.169933,"transit":false,"line":5,"station_name":"Poris"},{"i_lat":-6.171811,"station_id":"BPR","transit":false,"distance":1834,"time":3,"station_name":"Batuceper","is_transit":false,"i_long":106.665036,"line":5},{"transit":false,"i_lat":-6.17331,"line":5,"i_long":106.64657,"station_id":"TTI","distance":2028,"is_transit":false,"station_name":"Tanah Tinggi","time":3}]]}