{"data":[[{"line":3,"station_name":"Cikoya","time":0,"i_lat":-6.33561,"i_long":106.411216,"distance":0,"transit":false,"is_transit":false,"station_id":"CKY"},{"transit":false,"distance":2651,"station_name":"Tigaraksa","i_lat":-6.328533,"i_long":106.425991,"station_id":"TGS","is_transit":false,"line":6,"time":3},{"is_transit":false,"i_long":106.460812,"line":6,"station_name":"Tenjo","station_id":"TEJ","transit":false,"time":5,"i_lat":-6.327251,"distance":2974},{"line":0,"time":5,"i_lat":-6.338021,"is_transit":false,"station_name":"Daru","distance":3902,"transit":false,"i_long":106.491338,"station_id":"DAR"},{"time":6,"is_transit":false,"i_long":106.508482,"line":3,"station_name":"Cilejit","station_id":"CJT","distance":2675,"i_lat":-6.354349,"transit":false},{"line":6,"i_long":106.568863,"is_transit":false,"transit":false,"distance":7025,"station_id":"PRP","station_name":"Parung Panjang","time":9,"i_lat":-6.3441410000000005},{"line":3,"time":8,"is_transit":false,"distance":5968,"i_lat":-6.329547,"i_long":106.617853,"station_name":"Cicayur","transit":false,"station_id":"CC"},{"transit":false,"i_long":106.640411,"is_transit":false,"station_name":"Cisauk","station_id":"CSK","time":4,"i_lat":-6.32484,"line":3,"distance":2519},{"i_long":106.66566,"station_id":"SRP","i_lat":-6.319871,"is_transit":false,"distance":1784,"transit":false,"station_name":"Serpong","time":4,"line":6}]]}