{"data":[[{"is_transit":false,"i_lat":-6.33561,"station_name":"Cikoya","station_id":"CKY","distance":0,"time":0,"transit":false,"i_long":106.411216,"line":0},{"station_name":"Tigaraksa","i_lat":-6.328533,"line":6,"distance":2651,"time":3,"i_long":106.425991,"station_id":"TGS","transit":false,"is_transit":false},{"station_id":"TEJ","is_transit":false,"distance":2974,"station_name":"Tenjo","transit":false,"time":5,"i_lat":-6.327251,"i_long":106.460812,"line":6},{"line":0,"distance":3902,"station_name":"Daru","transit":false,"i_long":106.491338,"i_lat":-6.338021,"station_id":"DAR","time":5,"is_transit":false},{"line":0,"station_id":"CJT","station_name":"Cilejit","time":6,"distance":2675,"transit":false,"i_long":106.508482,"i_lat":-6.354349,"is_transit":false},{"is_transit":false,"distance":7025,"time":9,"i_lat":-6.3441410000000005,"station_name":"Parung Panjang","station_id":"PRP","line":6,"transit":false,"i_long":106.568863},{"i_long":106.617853,"station_id":"CC","is_transit":false,"station_name":"Cicayur","transit":false,"time":8,"distance":5968,"line":0,"i_lat":-6.329547},{"distance":2519,"station_id":"CSK","is_transit":false,"time":4,"transit":false,"i_lat":-6.32484,"line":0,"station_name":"Cisauk","i_long":106.640411},{"i_lat":-6.319871,"time":4,"is_transit":false,"line":6,"station_id":"SRP","transit":false,"station_name":"Serpong","distance":1784,"i_long":106.66566},{"i_long":106.675475,"line":6,"station_id":"RU","time":4,"distance":2413,"is_transit":false,"station_name":"Rawa Buntu","transit":false,"i_lat":-6.314823},{"transit":false,"station_id":"SDM","i_lat":-6.296963,"distance":4566,"station_name":"Sudimara","is_transit":false,"time":6,"i_long":106.712277,"line":6},{"i_lat":-6.288927,"time":4,"distance":1994,"i_long":106.728916,"line":6,"is_transit":false,"station_id":"JMU","station_name":"Jurangmangu","transit":false},{"station_id":"PDJ","is_transit":false,"station_name":"Pondokranji","i_lat":-6.276362,"transit":false,"distance":2179,"time":3,"line":6,"i_long":106.74273},{"transit":false,"i_long":106.780334,"time":8,"distance":6218,"station_name":"Kebayoran","is_transit":false,"line":6,"station_id":"KBY","i_lat":-6.237242},{"distance":3737,"is_transit":false,"transit":false,"i_lat":-6.207404,"station_name":"Palmerah","line":6,"time":7,"i_long":106.79689,"station_id":"PLM"},{"i_long":106.811091,"time":6,"is_transit":true,"station_name":"Tanah Abang","station_id":"THB","distance":3191,"transit":true,"line":1,"i_lat":-6.185545},{"transit":false,"line":1,"station_id":"KAT","is_transit":false,"time":5,"station_name":"Karet","i_lat":-6.20132,"i_long":106.816351,"distance":2029},{"station_name":"Sudirman Baru","is_transit":false,"distance":471,"station_id":"SUDB","time":1,"i_lat":-6.201433,"i_long":106.819881,"line":1,"transit":false},{"i_long":106.822649,"time":1,"station_name":"Sudirman","line":1,"transit":false,"distance":280,"station_id":"SUD","is_transit":false,"i_lat":-6.202263},{"station_id":"MRI","i_lat":-6.209883,"line":0,"is_transit":true,"station_name":"Manggarai","time":4,"distance":3186,"transit":true,"i_long":106.84912},{"line":2,"station_name":"Tebet","transit":false,"distance":2610,"i_lat":-6.226659,"is_transit":false,"station_id":"TEB","i_long":106.857948,"time":4},{"time":2,"line":0,"transit":false,"station_id":"CW","is_transit":false,"distance":1230,"station_name":"Cawang","i_lat":-6.242512,"i_long":106.856607},{"i_long":106.85449,"station_id":"DRN","distance":1546,"transit":false,"line":0,"is_transit":false,"i_lat":-6.255332,"station_name":"Duren Kalibata","time":3},{"distance":824,"station_name":"Pasar Minggu Baru","time":2,"i_lat":-6.263214,"transit":false,"station_id":"PSMB","i_long":106.851577,"line":2,"is_transit":false},{"station_id":"PSM","distance":2380,"i_long":106.843999,"is_transit":false,"i_lat":-6.2842400000000005,"line":2,"transit":false,"station_name":"Pasar Minggu","time":2},{"line":2,"is_transit":false,"station_name":"Tanjung Barat","i_long":106.838896,"distance":2820,"time":4,"station_id":"TNT","transit":false,"i_lat":-6.3080680000000005},{"line":2,"i_lat":-6.330363,"is_transit":false,"transit":false,"distance":2671,"i_long":106.832616,"station_name":"Lenteng Agung","time":3,"station_id":"LNA"},{"is_transit":false,"distance":1029,"i_lat":-6.339291,"time":2,"station_id":"UP","line":2,"station_name":"Univ. Pancasila","transit":false,"i_long":106.834175},{"i_lat":-6.360749,"time":3,"line":2,"transit":false,"station_name":"Univ. Indonesia","i_long":106.831474,"distance":2264,"station_id":"UI","is_transit":false}],[{"i_lat":-6.33561,"time":0,"i_long":106.411216,"station_name":"Cikoya","line":0,"is_transit":false,"distance":0,"transit":false,"station_id":"CKY"},{"is_transit":false,"station_id":"TGS","i_long":106.425991,"distance":2651,"transit":false,"time":3,"station_name":"Tigaraksa","i_lat":-6.328533,"line":6},{"i_lat":-6.327251,"is_transit":false,"transit":false,"station_name":"Tenjo","line":6,"distance":2974,"station_id":"TEJ","time":5,"i_long":106.460812},{"transit":false,"distance":3902,"line":0,"time":5,"station_name":"Daru","is_transit":false,"station_id":"DAR","i_lat":-6.338021,"i_long":106.491338},{"time":6,"station_name":"Cilejit","distance":2675,"transit":false,"i_lat":-6.354349,"i_long":106.508482,"line":0,"is_transit":false,"station_id":"CJT"},{"i_lat":-6.3441410000000005,"time":9,"distance":7025,"i_long":106.568863,"is_transit":false,"transit":false,"line":6,"station_name":"Parung Panjang","station_id":"PRP"},{"line":0,"i_lat":-6.329547,"transit":false,"distance":5968,"station_id":"CC","time":8,"station_name":"Cicayur","i_long":106.617853,"is_transit":false},{"station_id":"CSK","station_name":"Cisauk","time":4,"transit":false,"is_transit":false,"i_lat":-6.32484,"line":0,"i_long":106.640411,"distance":2519},{"transit":false,"time":4,"distance":1784,"station_id":"SRP","i_long":106.66566,"line":6,"station_name":"Serpong","is_transit":false,"i_lat":-6.319871},{"is_transit":false,"i_lat":-6.314823,"station_id":"RU","transit":false,"i_long":106.675475,"line":6,"distance":2413,"station_name":"Rawa Buntu","time":4},{"station_id":"SDM","is_transit":false,"station_name":"Sudimara","line":6,"transit":false,"time":6,"i_lat":-6.296963,"i_long":106.712277,"distance":4566},{"is_transit":false,"transit":false,"time":4,"station_id":"JMU","distance":1994,"line":6,"i_long":106.728916,"station_name":"Jurangmangu","i_lat":-6.288927},{"station_name":"Pondokranji","line":6,"i_lat":-6.276362,"is_transit":false,"station_id":"PDJ","time":3,"distance":2179,"transit":false,"i_long":106.74273},{"is_transit":false,"i_long":106.780334,"line":6,"distance":6218,"i_lat":-6.237242,"station_name":"Kebayoran","transit":false,"time":8,"station_id":"KBY"},{"transit":false,"line":6,"distance":3737,"station_id":"PLM","station_name":"Palmerah","i_long":106.79689,"i_lat":-6.207404,"is_transit":false,"time":7},{"line":1,"is_transit":true,"transit":true,"distance":3191,"time":6,"i_long":106.811091,"i_lat":-6.185545,"station_name":"Tanah Abang","station_id":"THB"},{"time":8,"station_id":"DU","is_transit":true,"distance":3632,"i_long":106.800832,"station_name":"Duri","transit":true,"i_lat":-6.155215,"line":1},{"distance":1230,"station_id":"AK","i_long":106.79867,"transit":false,"is_transit":false,"i_lat":-6.144674,"line":0,"station_name":"Angke","time":4},{"i_lat":-6.132549,"is_transit":true,"station_name":"Kampung Bandan","i_long":106.826365,"station_id":"KPB","line":0,"distance":4102,"time":9,"transit":false},{"station_id":"JAKK","i_lat":-6.137569,"line":0,"distance":1364,"station_name":"Jakarta Kota","transit":true,"time":3,"i_long":106.812439,"is_transit":true},{"time":4,"distance":1264,"i_lat":-6.141205,"i_long":106.820901,"line":7,"station_id":"JAY","transit":false,"is_transit":false,"station_name":"Jayakarta"},{"station_id":"MGB","is_transit":false,"station_name":"Manggabesar","transit":false,"i_lat":-6.149769,"i_long":106.82482,"line":2,"distance":1080,"time":2},{"distance":906,"i_long":106.827103,"time":2,"is_transit":false,"station_id":"SW","transit":false,"station_name":"Sawah Besar","line":2,"i_lat":-6.160725},{"is_transit":false,"time":2,"transit":false,"distance":1149,"line":2,"station_name":"Juanda","i_lat":-6.166716,"station_id":"JUA","i_long":106.828284},{"line":2,"is_transit":false,"distance":2015,"time":4,"station_name":"Gondangdia","transit":false,"i_long":106.832183,"station_id":"GDD","i_lat":-6.186295},{"time":3,"i_lat":-6.198556,"is_transit":false,"i_long":106.840169,"distance":1750,"transit":false,"station_name":"Cikini","line":0,"station_id":"CKI"},{"time":4,"transit":true,"distance":1590,"line":0,"is_transit":true,"station_id":"MRI","station_name":"Manggarai","i_lat":-6.209883,"i_long":106.84912},{"i_lat":-6.226659,"distance":2610,"station_id":"TEB","is_transit":false,"station_name":"Tebet","transit":false,"i_long":106.857948,"line":2,"time":4},{"i_lat":-6.242512,"line":0,"station_name":"Cawang","time":2,"transit":false,"i_long":106.856607,"station_id":"CW","distance":1230,"is_transit":false},{"station_name":"Duren Kalibata","distance":1546,"line":0,"time":3,"station_id":"DRN","i_lat":-6.255332,"transit":false,"i_long":106.85449,"is_transit":false},{"transit":false,"station_id":"PSMB","time":2,"i_lat":-6.263214,"i_long":106.851577,"is_transit":false,"line":2,"distance":824,"station_name":"Pasar Minggu Baru"},{"station_name":"Pasar Minggu","line":2,"i_long":106.843999,"distance":2380,"is_transit":false,"time":2,"station_id":"PSM","transit":false,"i_lat":-6.2842400000000005},{"i_long":106.838896,"station_name":"Tanjung Barat","station_id":"TNT","time":4,"is_transit":false,"transit":false,"line":2,"distance":2820,"i_lat":-6.3080680000000005},{"station_id":"LNA","is_transit":false,"i_lat":-6.330363,"distance":2671,"i_long":106.832616,"time":3,"line":2,"transit":false,"station_name":"Lenteng Agung"},{"transit":false,"line":2,"time":2,"station_id":"UP","distance":1029,"is_transit":false,"station_name":"Univ. Pancasila","i_lat":-6.339291,"i_long":106.834175},{"i_lat":-6.360749,"i_long":106.831474,"is_transit":false,"station_name":"Univ. Indonesia","line":2,"station_id":"UI","distance":2264,"transit":false,"time":3}],[{"station_name":"Cikoya","transit":false,"i_lat":-6.33561,"distance":0,"line":0,"i_long":106.411216,"station_id":"CKY","is_transit":false,"time":0},{"is_transit":false,"station_id":"TGS","distance":2651,"transit":false,"station_name":"Tigaraksa","i_long":106.425991,"i_lat":-6.328533,"line":6,"time":3},{"transit":false,"station_id":"TEJ","i_lat":-6.327251,"i_long":106.460812,"time":5,"station_name":"Tenjo","is_transit":false,"line":6,"distance":2974},{"is_transit":false,"line":0,"i_lat":-6.338021,"transit":false,"station_name":"Daru","i_long":106.491338,"time":5,"station_id":"DAR","distance":3902},{"station_name":"Cilejit","line":0,"time":6,"transit":false,"is_transit":false,"station_id":"CJT","i_lat":-6.354349,"i_long":106.508482,"distance":2675},{"station_id":"PRP","is_transit":false,"transit":false,"i_lat":-6.3441410000000005,"i_long":106.568863,"line":6,"time":9,"distance":7025,"station_name":"Parung Panjang"},{"station_id":"CC","line":0,"i_lat":-6.329547,"is_transit":false,"transit":false,"distance":5968,"time":8,"i_long":106.617853,"station_name":"Cicayur"},{"i_long":106.640411,"i_lat":-6.32484,"distance":2519,"time":4,"is_transit":false,"station_name":"Cisauk","station_id":"CSK","line":0,"transit":false},{"station_name":"Serpong","i_long":106.66566,"station_id":"SRP","transit":false,"i_lat":-6.319871,"distance":1784,"is_transit":false,"line":6,"time":4},{"i_long":106.675475,"time":4,"line":6,"transit":false,"station_name":"Rawa Buntu","station_id":"RU","is_transit":false,"distance":2413,"i_lat":-6.314823},{"transit":false,"line":6,"station_name":"Sudimara","i_lat":-6.296963,"i_long":106.712277,"is_transit":false,"time":6,"station_id":"SDM","distance":4566},{"transit":false,"distance":1994,"is_transit":false,"station_id":"JMU","i_lat":-6.288927,"station_name":"Jurangmangu","line":6,"time":4,"i_long":106.728916},{"is_transit":false,"transit":false,"line":6,"i_lat":-6.276362,"station_id":"PDJ","station_name":"Pondokranji","time":3,"distance":2179,"i_long":106.74273},{"station_name":"Kebayoran","i_long":106.780334,"i_lat":-6.237242,"line":6,"distance":6218,"transit":false,"time":8,"station_id":"KBY","is_transit":false},{"station_id":"PLM","transit":false,"distance":3737,"station_name":"Palmerah","i_lat":-6.207404,"is_transit":false,"i_long":106.79689,"time":7,"line":6},{"station_name":"Tanah Abang","transit":true,"line":1,"time":6,"i_lat":-6.185545,"i_long":106.811091,"is_transit":true,"station_id":"THB","distance":3191},{"i_long":106.800832,"distance":3632,"time":8,"is_transit":true,"transit":true,"station_name":"Duri","station_id":"DU","i_lat":-6.155215,"line":1},{"station_id":"AK","transit":false,"station_name":"Angke","line":0,"i_long":106.79867,"is_transit":false,"time":4,"distance":1230,"i_lat":-6.144674},{"i_lat":-6.132549,"distance":4102,"line":0,"time":9,"is_transit":true,"i_long":106.826365,"transit":true,"station_name":"Kampung Bandan","station_id":"KPB"},{"station_name":"Rajawali","is_transit":false,"distance":1444,"transit":false,"i_lat":-6.14505,"i_long":106.836569,"line":11,"station_id":"RJW","time":3},{"distance":1901,"station_name":"Kemayoran","time":5,"i_lat":-6.161728,"i_long":106.839204,"transit":false,"line":11,"is_transit":false,"station_id":"KMO"},{"i_lat":-6.174784,"station_id":"PSE","line":11,"is_transit":false,"distance":1436,"time":4,"i_long":106.84368,"station_name":"Pasar Senen","transit":false},{"line":11,"distance":1567,"time":8,"is_transit":false,"i_long":106.850107,"i_lat":-6.185975,"station_id":"GST","station_name":"Gang Sentiong","transit":false},{"line":11,"time":1,"i_lat":-6.193792,"transit":false,"distance":973,"i_long":106.855437,"station_id":"KMT","is_transit":false,"station_name":"Kramat"},{"line":11,"is_transit":false,"i_long":106.861737,"station_id":"POK","time":2,"distance":1829,"station_name":"Pondok Jati","transit":false,"i_lat":-6.209188},{"time":9,"i_long":106.86807400000001,"line":0,"station_id":"JNG","distance":1236,"i_lat":-6.215091,"is_transit":true,"station_name":"Jatinegara","transit":true},{"is_transit":false,"station_name":"Matraman","distance":1377,"i_lat":-6.212485,"line":1,"time":2,"i_long":106.858896,"transit":false,"station_id":"MTR"},{"i_lat":-6.209883,"line":0,"time":2,"is_transit":true,"transit":true,"i_long":106.84912,"station_name":"Manggarai","distance":1275,"station_id":"MRI"},{"i_long":106.857948,"time":4,"i_lat":-6.226659,"line":2,"is_transit":false,"transit":false,"station_name":"Tebet","station_id":"TEB","distance":2610},{"distance":1230,"station_id":"CW","i_lat":-6.242512,"line":0,"station_name":"Cawang","i_long":106.856607,"is_transit":false,"time":2,"transit":false},{"time":3,"is_transit":false,"i_long":106.85449,"distance":1546,"station_id":"DRN","transit":false,"i_lat":-6.255332,"station_name":"Duren Kalibata","line":0},{"transit":false,"station_name":"Pasar Minggu Baru","is_transit":false,"i_lat":-6.263214,"line":2,"time":2,"i_long":106.851577,"distance":824,"station_id":"PSMB"},{"line":2,"i_lat":-6.2842400000000005,"station_id":"PSM","is_transit":false,"distance":2380,"station_name":"Pasar Minggu","i_long":106.843999,"transit":false,"time":2},{"line":2,"station_name":"Tanjung Barat","distance":2820,"i_long":106.838896,"transit":false,"i_lat":-6.3080680000000005,"is_transit":false,"time":4,"station_id":"TNT"},{"station_id":"LNA","distance":2671,"transit":false,"i_long":106.832616,"line":2,"time":3,"is_transit":false,"station_name":"Lenteng Agung","i_lat":-6.330363},{"i_long":106.834175,"station_name":"Univ. Pancasila","time":2,"line":2,"station_id":"UP","is_transit":false,"distance":1029,"transit":false,"i_lat":-6.339291},{"station_name":"Univ. Indonesia","time":3,"i_lat":-6.360749,"i_long":106.831474,"transit":false,"distance":2264,"line":2,"station_id":"UI","is_transit":false}]]}