{"data":[[{"station_name":"Cikoya","i_long":106.411216,"distance":0,"station_id":"CKY","is_transit":false,"line":3,"time":0,"transit":false,"i_lat":-6.33561},{"transit":false,"is_transit":false,"distance":2651,"i_lat":-6.328533,"i_long":106.425991,"station_name":"Tigaraksa","line":6,"time":3,"station_id":"TGS"},{"i_lat":-6.327251,"i_long":106.460812,"station_id":"TEJ","station_name":"Tenjo","time":5,"line":6,"transit":false,"distance":2974,"is_transit":false},{"i_long":106.491338,"line":0,"station_name":"Daru","is_transit":false,"transit":false,"station_id":"DAR","time":5,"i_lat":-6.338021,"distance":3902},{"distance":2675,"time":6,"station_name":"Cilejit","i_lat":-6.354349,"transit":false,"is_transit":false,"line":3,"station_id":"CJT","i_long":106.508482},{"i_long":106.568863,"transit":false,"station_name":"Parung Panjang","is_transit":false,"station_id":"PRP","i_lat":-6.3441410000000005,"line":6,"distance":7025,"time":9},{"is_transit":false,"i_lat":-6.329547,"station_name":"Cicayur","i_long":106.617853,"line":3,"transit":false,"distance":5968,"time":8,"station_id":"CC"},{"line":3,"station_name":"Cisauk","distance":2519,"is_transit":false,"i_lat":-6.32484,"transit":false,"station_id":"CSK","time":4,"i_long":106.640411},{"time":4,"distance":1784,"station_id":"SRP","line":6,"i_lat":-6.319871,"transit":false,"station_name":"Serpong","i_long":106.66566,"is_transit":false},{"station_name":"Rawa Buntu","is_transit":false,"station_id":"RU","i_long":106.675475,"time":4,"transit":false,"distance":2413,"i_lat":-6.314823,"line":6},{"time":6,"station_id":"SDM","is_transit":false,"station_name":"Sudimara","distance":4566,"i_lat":-6.296963,"i_long":106.712277,"transit":false,"line":6},{"line":6,"i_lat":-6.288927,"transit":false,"station_name":"Jurangmangu","station_id":"JMU","is_transit":false,"time":4,"i_long":106.728916,"distance":1994},{"i_lat":-6.276362,"i_long":106.74273,"transit":false,"line":6,"is_transit":false,"time":3,"station_name":"Pondokranji","distance":2179,"station_id":"PDJ"},{"transit":false,"is_transit":false,"time":8,"i_long":106.780334,"distance":6218,"i_lat":-6.237242,"station_name":"Kebayoran","station_id":"KBY","line":6},{"station_id":"PLM","distance":3737,"i_lat":-6.207404,"i_long":106.79689,"line":6,"station_name":"Palmerah","is_transit":false,"transit":false,"time":7},{"line":1,"station_name":"Tanah Abang","transit":true,"is_transit":true,"time":6,"i_lat":-6.185545,"distance":3191,"i_long":106.811091,"station_id":"THB"},{"time":5,"is_transit":false,"i_lat":-6.20132,"station_id":"KAT","transit":false,"i_long":106.816351,"line":1,"distance":2029,"station_name":"Karet"},{"transit":false,"station_id":"SUDB","i_lat":-6.201433,"time":1,"is_transit":false,"station_name":"Sudirman Baru","i_long":106.819881,"line":1,"distance":471},{"station_id":"SUD","i_lat":-6.202263,"station_name":"Sudirman","time":1,"line":1,"i_long":106.822649,"distance":280,"is_transit":false,"transit":false},{"transit":false,"station_name":"Manggarai","station_id":"MRI","is_transit":false,"time":4,"distance":3186,"i_lat":-6.209883,"i_long":106.84912,"line":2},{"i_long":106.858896,"transit":false,"time":2,"distance":1275,"station_name":"Matraman","station_id":"MTR","is_transit":false,"i_lat":-6.212485,"line":1},{"is_transit":false,"distance":1377,"time":8,"i_long":106.86807400000001,"station_name":"Jatinegara","transit":false,"i_lat":-6.215091,"line":1,"station_id":"JNG"},{"time":3,"distance":3395,"station_name":"Klender","i_long":106.899548,"transit":false,"is_transit":false,"i_lat":-6.2135,"line":1,"station_id":"KLD"},{"station_id":"BUA","time":2,"i_lat":-6.215568,"i_long":106.922662,"line":1,"transit":false,"is_transit":false,"station_name":"Buaran","distance":3100},{"transit":false,"station_id":"KLDB","time":1,"station_name":"Klenderbaru","is_transit":false,"i_lat":-6.217455,"i_long":106.939679,"line":1,"distance":1305},{"distance":1385,"is_transit":false,"line":1,"station_name":"Cakung","station_id":"CUK","time":8,"i_long":106.951283,"i_lat":-6.219053,"transit":false},{"transit":false,"station_name":"Kranji","distance":3097,"line":1,"i_lat":-6.224515,"station_id":"KRI","is_transit":false,"time":3,"i_long":106.977657},{"distance":2520,"transit":false,"is_transit":false,"i_lat":-6.236616,"station_id":"BKS","station_name":"Bekasi","i_long":106.997013,"line":1,"time":4},{"is_transit":false,"station_name":"Bekasi Timur","transit":false,"i_long":107.016735,"line":1,"station_id":"BKST","distance":2368,"time":2,"i_lat":-6.248029},{"line":1,"distance":4460,"transit":false,"station_name":"Tambun","is_transit":false,"time":7,"station_id":"TB","i_lat":-6.258864,"i_long":107.055722},{"is_transit":false,"line":1,"station_id":"CIT","distance":3420,"i_long":107.083084,"transit":false,"time":3,"station_name":"Cibitung","i_lat":-6.261877}],[{"station_id":"CKY","time":0,"i_long":106.411216,"transit":false,"line":3,"distance":0,"station_name":"Cikoya","is_transit":false,"i_lat":-6.33561},{"station_name":"Tigaraksa","line":6,"station_id":"TGS","transit":false,"distance":2651,"i_long":106.425991,"is_transit":false,"time":3,"i_lat":-6.328533},{"station_name":"Tenjo","distance":2974,"time":5,"line":6,"transit":false,"i_lat":-6.327251,"i_long":106.460812,"station_id":"TEJ","is_transit":false},{"distance":3902,"line":0,"i_long":106.491338,"time":5,"i_lat":-6.338021,"station_id":"DAR","station_name":"Daru","transit":false,"is_transit":false},{"station_name":"Cilejit","is_transit":false,"station_id":"CJT","time":6,"distance":2675,"i_lat":-6.354349,"i_long":106.508482,"line":3,"transit":false},{"station_name":"Parung Panjang","station_id":"PRP","distance":7025,"time":9,"i_long":106.568863,"transit":false,"i_lat":-6.3441410000000005,"line":6,"is_transit":false},{"station_id":"CC","line":3,"time":8,"distance":5968,"i_long":106.617853,"i_lat":-6.329547,"is_transit":false,"transit":false,"station_name":"Cicayur"},{"i_long":106.640411,"time":4,"station_id":"CSK","is_transit":false,"station_name":"Cisauk","transit":false,"distance":2519,"line":3,"i_lat":-6.32484},{"line":6,"station_name":"Serpong","transit":false,"station_id":"SRP","distance":1784,"time":4,"i_long":106.66566,"is_transit":false,"i_lat":-6.319871},{"i_long":106.675475,"is_transit":false,"time":4,"distance":2413,"station_id":"RU","transit":false,"station_name":"Rawa Buntu","i_lat":-6.314823,"line":6},{"distance":4566,"time":6,"station_name":"Sudimara","transit":false,"i_long":106.712277,"line":6,"is_transit":false,"station_id":"SDM","i_lat":-6.296963},{"station_id":"JMU","station_name":"Jurangmangu","transit":false,"line":6,"time":4,"is_transit":false,"i_lat":-6.288927,"i_long":106.728916,"distance":1994},{"is_transit":false,"i_long":106.74273,"transit":false,"time":3,"distance":2179,"i_lat":-6.276362,"station_name":"Pondokranji","line":6,"station_id":"PDJ"},{"transit":false,"station_name":"Kebayoran","station_id":"KBY","is_transit":false,"i_long":106.780334,"distance":6218,"time":8,"i_lat":-6.237242,"line":6},{"station_name":"Palmerah","is_transit":false,"time":7,"distance":3737,"i_lat":-6.207404,"transit":false,"station_id":"PLM","line":6,"i_long":106.79689},{"station_id":"THB","transit":true,"station_name":"Tanah Abang","is_transit":true,"i_long":106.811091,"i_lat":-6.185545,"line":1,"time":6,"distance":3191},{"station_name":"Duri","distance":3632,"station_id":"DU","i_long":106.800832,"time":8,"i_lat":-6.155215,"is_transit":false,"transit":false,"line":1},{"station_id":"AK","transit":false,"station_name":"Angke","distance":1230,"is_transit":false,"i_long":106.79867,"line":1,"time":4,"i_lat":-6.144674},{"station_name":"Kampung Bandan","time":9,"i_lat":-6.132549,"i_long":106.826365,"is_transit":true,"distance":4102,"transit":true,"station_id":"KPB","line":4},{"i_lat":-6.14505,"line":11,"i_long":106.836569,"transit":false,"is_transit":false,"distance":1444,"station_id":"RJW","time":3,"station_name":"Rajawali"},{"is_transit":false,"i_long":106.839204,"station_name":"Kemayoran","time":5,"i_lat":-6.161728,"transit":false,"station_id":"KMO","distance":1901,"line":11},{"station_name":"Pasar Senen","distance":1436,"i_long":106.84368,"transit":false,"is_transit":false,"time":4,"line":11,"station_id":"PSE","i_lat":-6.174784},{"station_name":"Gang Sentiong","time":8,"line":11,"is_transit":false,"i_lat":-6.185975,"i_long":106.850107,"station_id":"GST","distance":1567,"transit":false},{"transit":false,"i_lat":-6.193792,"time":1,"distance":973,"is_transit":false,"station_name":"Kramat","i_long":106.855437,"line":11,"station_id":"KMT"},{"distance":1829,"transit":false,"station_name":"Pondok Jati","i_long":106.861737,"time":2,"line":11,"station_id":"POK","is_transit":false,"i_lat":-6.209188},{"station_id":"JNG","distance":1236,"i_lat":-6.215091,"i_long":106.86807400000001,"line":1,"time":9,"station_name":"Jatinegara","is_transit":true,"transit":true},{"line":1,"time":3,"i_lat":-6.2135,"station_id":"KLD","station_name":"Klender","transit":false,"is_transit":false,"i_long":106.899548,"distance":3395},{"station_name":"Buaran","i_long":106.922662,"transit":false,"i_lat":-6.215568,"is_transit":false,"time":2,"distance":3100,"station_id":"BUA","line":1},{"is_transit":false,"station_name":"Klenderbaru","time":1,"i_long":106.939679,"line":1,"station_id":"KLDB","distance":1305,"i_lat":-6.217455,"transit":false},{"i_lat":-6.219053,"station_id":"CUK","transit":false,"distance":1385,"station_name":"Cakung","i_long":106.951283,"is_transit":false,"line":1,"time":8},{"line":1,"station_id":"KRI","transit":false,"time":3,"i_lat":-6.224515,"is_transit":false,"station_name":"Kranji","distance":3097,"i_long":106.977657},{"i_lat":-6.236616,"station_name":"Bekasi","time":4,"is_transit":false,"distance":2520,"line":1,"i_long":106.997013,"station_id":"BKS","transit":false},{"transit":false,"time":2,"i_lat":-6.248029,"line":1,"station_name":"Bekasi Timur","is_transit":false,"i_long":107.016735,"distance":2368,"station_id":"BKST"},{"distance":4460,"i_lat":-6.258864,"i_long":107.055722,"time":7,"is_transit":false,"station_name":"Tambun","transit":false,"station_id":"TB","line":1},{"transit":false,"distance":3420,"line":1,"station_name":"Cibitung","time":3,"is_transit":false,"i_lat":-6.261877,"station_id":"CIT","i_long":107.083084}],[{"i_long":106.411216,"line":3,"station_id":"CKY","transit":false,"is_transit":false,"time":0,"i_lat":-6.33561,"distance":0,"station_name":"Cikoya"},{"line":6,"transit":false,"is_transit":false,"station_name":"Tigaraksa","time":3,"station_id":"TGS","i_lat":-6.328533,"i_long":106.425991,"distance":2651},{"distance":2974,"line":6,"i_long":106.460812,"transit":false,"i_lat":-6.327251,"is_transit":false,"time":5,"station_name":"Tenjo","station_id":"TEJ"},{"transit":false,"i_lat":-6.338021,"station_name":"Daru","time":5,"is_transit":false,"distance":3902,"line":0,"station_id":"DAR","i_long":106.491338},{"station_name":"Cilejit","transit":false,"distance":2675,"i_lat":-6.354349,"is_transit":false,"i_long":106.508482,"line":3,"station_id":"CJT","time":6},{"i_lat":-6.3441410000000005,"transit":false,"station_name":"Parung Panjang","station_id":"PRP","line":6,"time":9,"distance":7025,"is_transit":false,"i_long":106.568863},{"time":8,"i_long":106.617853,"is_transit":false,"distance":5968,"line":3,"i_lat":-6.329547,"station_id":"CC","station_name":"Cicayur","transit":false},{"i_long":106.640411,"transit":false,"i_lat":-6.32484,"distance":2519,"time":4,"is_transit":false,"station_id":"CSK","line":3,"station_name":"Cisauk"},{"is_transit":false,"time":4,"line":6,"distance":1784,"transit":false,"station_name":"Serpong","i_lat":-6.319871,"station_id":"SRP","i_long":106.66566},{"i_long":106.675475,"transit":false,"station_name":"Rawa Buntu","i_lat":-6.314823,"line":6,"time":4,"distance":2413,"is_transit":false,"station_id":"RU"},{"transit":false,"station_name":"Sudimara","is_transit":false,"line":6,"station_id":"SDM","i_lat":-6.296963,"i_long":106.712277,"time":6,"distance":4566},{"transit":false,"i_lat":-6.288927,"station_name":"Jurangmangu","time":4,"distance":1994,"line":6,"is_transit":false,"station_id":"JMU","i_long":106.728916},{"transit":false,"time":3,"line":6,"station_id":"PDJ","i_long":106.74273,"i_lat":-6.276362,"distance":2179,"station_name":"Pondokranji","is_transit":false},{"station_id":"KBY","is_transit":false,"time":8,"transit":false,"distance":6218,"station_name":"Kebayoran","i_lat":-6.237242,"i_long":106.780334,"line":6},{"is_transit":false,"station_name":"Palmerah","distance":3737,"station_id":"PLM","time":7,"i_long":106.79689,"i_lat":-6.207404,"line":6,"transit":false},{"is_transit":true,"transit":true,"time":6,"i_lat":-6.185545,"i_long":106.811091,"station_name":"Tanah Abang","distance":3191,"line":1,"station_id":"THB"},{"is_transit":false,"transit":false,"station_id":"DU","i_lat":-6.155215,"i_long":106.800832,"distance":3632,"station_name":"Duri","line":1,"time":8},{"line":1,"time":4,"transit":false,"distance":1230,"i_lat":-6.144674,"is_transit":false,"i_long":106.79867,"station_name":"Angke","station_id":"AK"},{"is_transit":true,"transit":true,"i_long":106.826365,"line":4,"station_name":"Kampung Bandan","i_lat":-6.132549,"time":9,"distance":4102,"station_id":"KPB"},{"station_name":"Jakarta Kota","distance":1364,"station_id":"JAKK","line":2,"transit":true,"is_transit":true,"i_lat":-6.137569,"i_long":106.812439,"time":3},{"line":2,"i_long":106.820901,"station_name":"Jayakarta","distance":1264,"time":4,"transit":false,"station_id":"JAY","is_transit":false,"i_lat":-6.141205},{"station_name":"Manggabesar","station_id":"MGB","distance":1080,"time":2,"is_transit":false,"i_lat":-6.149769,"transit":false,"line":2,"i_long":106.82482},{"i_lat":-6.160725,"station_id":"SW","time":2,"station_name":"Sawah Besar","line":2,"is_transit":false,"i_long":106.827103,"transit":false,"distance":906},{"station_id":"JUA","i_lat":-6.166716,"transit":false,"time":2,"station_name":"Juanda","distance":1149,"is_transit":false,"line":2,"i_long":106.828284},{"is_transit":false,"line":2,"i_lat":-6.186295,"station_name":"Gondangdia","distance":2015,"i_long":106.832183,"time":4,"station_id":"GDD","transit":false},{"line":2,"station_id":"CKI","is_transit":false,"i_lat":-6.198556,"station_name":"Cikini","time":3,"transit":false,"distance":1750,"i_long":106.840169},{"is_transit":true,"transit":true,"line":2,"station_name":"Manggarai","i_long":106.84912,"time":4,"i_lat":-6.209883,"distance":1590,"station_id":"MRI"},{"station_name":"Matraman","station_id":"MTR","distance":1275,"is_transit":false,"i_lat":-6.212485,"time":2,"line":1,"transit":false,"i_long":106.858896},{"station_id":"JNG","is_transit":false,"line":1,"distance":1377,"station_name":"Jatinegara","i_lat":-6.215091,"transit":false,"i_long":106.86807400000001,"time":8},{"transit":false,"time":3,"line":1,"i_long":106.899548,"station_id":"KLD","distance":3395,"station_name":"Klender","is_transit":false,"i_lat":-6.2135},{"is_transit":false,"distance":3100,"i_long":106.922662,"line":1,"station_id":"BUA","time":2,"transit":false,"i_lat":-6.215568,"station_name":"Buaran"},{"i_long":106.939679,"line":1,"i_lat":-6.217455,"station_name":"Klenderbaru","distance":1305,"time":1,"is_transit":false,"transit":false,"station_id":"KLDB"},{"station_name":"Cakung","i_lat":-6.219053,"i_long":106.951283,"line":1,"transit":false,"time":8,"distance":1385,"is_transit":false,"station_id":"CUK"},{"distance":3097,"transit":false,"station_name":"Kranji","station_id":"KRI","i_lat":-6.224515,"i_long":106.977657,"line":1,"is_transit":false,"time":3},{"i_long":106.997013,"station_id":"BKS","is_transit":false,"line":1,"time":4,"transit":false,"station_name":"Bekasi","distance":2520,"i_lat":-6.236616},{"distance":2368,"station_name":"Bekasi Timur","station_id":"BKST","is_transit":false,"i_lat":-6.248029,"transit":false,"line":1,"time":2,"i_long":107.016735},{"is_transit":false,"time":7,"line":1,"station_name":"Tambun","station_id":"TB","transit":false,"i_long":107.055722,"i_lat":-6.258864,"distance":4460},{"is_transit":false,"i_long":107.083084,"line":1,"station_name":"Cibitung","transit":false,"time":3,"station_id":"CIT","distance":3420,"i_lat":-6.261877}],[{"transit":false,"is_transit":false,"i_long":106.411216,"distance":0,"line":3,"station_name":"Cikoya","time":0,"i_lat":-6.33561,"station_id":"CKY"},{"is_transit":false,"time":3,"distance":2651,"station_id":"TGS","i_long":106.425991,"transit":false,"station_name":"Tigaraksa","i_lat":-6.328533,"line":6},{"i_long":106.460812,"station_id":"TEJ","is_transit":false,"station_name":"Tenjo","transit":false,"distance":2974,"i_lat":-6.327251,"time":5,"line":6},{"transit":false,"station_name":"Daru","i_long":106.491338,"station_id":"DAR","distance":3902,"i_lat":-6.338021,"is_transit":false,"time":5,"line":0},{"is_transit":false,"time":6,"distance":2675,"i_long":106.508482,"station_name":"Cilejit","transit":false,"i_lat":-6.354349,"line":3,"station_id":"CJT"},{"distance":7025,"line":6,"i_lat":-6.3441410000000005,"time":9,"is_transit":false,"i_long":106.568863,"transit":false,"station_name":"Parung Panjang","station_id":"PRP"},{"station_id":"CC","distance":5968,"is_transit":false,"i_long":106.617853,"line":3,"time":8,"transit":false,"i_lat":-6.329547,"station_name":"Cicayur"},{"station_id":"CSK","distance":2519,"i_long":106.640411,"is_transit":false,"time":4,"transit":false,"i_lat":-6.32484,"line":3,"station_name":"Cisauk"},{"distance":1784,"station_name":"Serpong","i_long":106.66566,"transit":false,"i_lat":-6.319871,"time":4,"line":6,"station_id":"SRP","is_transit":false},{"is_transit":false,"time":4,"station_name":"Rawa Buntu","i_lat":-6.314823,"distance":2413,"i_long":106.675475,"station_id":"RU","transit":false,"line":6},{"station_name":"Sudimara","distance":4566,"i_long":106.712277,"is_transit":false,"transit":false,"time":6,"i_lat":-6.296963,"line":6,"station_id":"SDM"},{"i_long":106.728916,"station_id":"JMU","station_name":"Jurangmangu","transit":false,"is_transit":false,"distance":1994,"time":4,"i_lat":-6.288927,"line":6},{"station_name":"Pondokranji","station_id":"PDJ","i_lat":-6.276362,"i_long":106.74273,"is_transit":false,"distance":2179,"line":6,"transit":false,"time":3},{"line":6,"transit":false,"station_name":"Kebayoran","i_long":106.780334,"is_transit":false,"station_id":"KBY","time":8,"distance":6218,"i_lat":-6.237242},{"i_lat":-6.207404,"station_name":"Palmerah","distance":3737,"i_long":106.79689,"station_id":"PLM","is_transit":false,"line":6,"transit":false,"time":7},{"station_id":"THB","transit":true,"is_transit":true,"line":1,"distance":3191,"i_long":106.811091,"i_lat":-6.185545,"time":6,"station_name":"Tanah Abang"},{"distance":2029,"station_name":"Karet","i_lat":-6.20132,"transit":false,"time":5,"line":1,"station_id":"KAT","i_long":106.816351,"is_transit":false},{"station_id":"SUDB","line":1,"transit":false,"station_name":"Sudirman Baru","is_transit":false,"distance":471,"i_long":106.819881,"time":1,"i_lat":-6.201433},{"station_id":"SUD","is_transit":false,"station_name":"Sudirman","i_lat":-6.202263,"time":1,"i_long":106.822649,"line":1,"distance":280,"transit":false},{"is_transit":true,"distance":3186,"station_name":"Manggarai","time":4,"i_long":106.84912,"transit":true,"i_lat":-6.209883,"station_id":"MRI","line":2},{"station_id":"CKI","station_name":"Cikini","is_transit":false,"line":2,"transit":false,"i_lat":-6.198556,"i_long":106.840169,"time":4,"distance":1590},{"time":3,"i_lat":-6.186295,"i_long":106.832183,"distance":1750,"line":2,"transit":false,"is_transit":false,"station_name":"Gondangdia","station_id":"GDD"},{"transit":false,"station_name":"Juanda","time":4,"line":2,"i_long":106.828284,"i_lat":-6.166716,"distance":2015,"station_id":"JUA","is_transit":false},{"i_lat":-6.160725,"line":2,"time":2,"transit":false,"station_name":"Sawah Besar","distance":1149,"station_id":"SW","is_transit":false,"i_long":106.827103},{"distance":906,"transit":false,"i_long":106.82482,"line":2,"station_name":"Manggabesar","station_id":"MGB","is_transit":false,"time":2,"i_lat":-6.149769},{"station_id":"JAY","line":2,"transit":false,"is_transit":false,"station_name":"Jayakarta","i_lat":-6.141205,"i_long":106.820901,"distance":1080,"time":2},{"station_id":"JAKK","line":2,"distance":1264,"station_name":"Jakarta Kota","transit":true,"time":4,"is_transit":true,"i_long":106.812439,"i_lat":-6.137569},{"station_name":"Kampung Bandan","transit":true,"distance":1364,"is_transit":true,"i_lat":-6.132549,"time":3,"i_long":106.826365,"line":4,"station_id":"KPB"},{"time":3,"line":11,"transit":false,"station_name":"Rajawali","is_transit":false,"distance":1444,"station_id":"RJW","i_lat":-6.14505,"i_long":106.836569},{"i_long":106.839204,"station_name":"Kemayoran","distance":1901,"line":11,"station_id":"KMO","time":5,"i_lat":-6.161728,"transit":false,"is_transit":false},{"transit":false,"time":4,"distance":1436,"line":11,"i_lat":-6.174784,"i_long":106.84368,"station_name":"Pasar Senen","station_id":"PSE","is_transit":false},{"i_lat":-6.185975,"distance":1567,"i_long":106.850107,"line":11,"transit":false,"is_transit":false,"station_id":"GST","station_name":"Gang Sentiong","time":8},{"is_transit":false,"i_long":106.855437,"distance":973,"station_name":"Kramat","station_id":"KMT","transit":false,"time":1,"i_lat":-6.193792,"line":11},{"line":11,"station_name":"Pondok Jati","time":2,"i_long":106.861737,"is_transit":false,"transit":false,"distance":1829,"station_id":"POK","i_lat":-6.209188},{"distance":1236,"is_transit":true,"station_name":"Jatinegara","i_long":106.86807400000001,"time":9,"transit":true,"station_id":"JNG","line":1,"i_lat":-6.215091},{"transit":false,"i_lat":-6.2135,"is_transit":false,"time":3,"station_name":"Klender","line":1,"i_long":106.899548,"station_id":"KLD","distance":3395},{"transit":false,"i_lat":-6.215568,"i_long":106.922662,"is_transit":false,"line":1,"station_name":"Buaran","distance":3100,"station_id":"BUA","time":2},{"is_transit":false,"i_lat":-6.217455,"transit":false,"line":1,"distance":1305,"station_id":"KLDB","station_name":"Klenderbaru","time":1,"i_long":106.939679},{"station_name":"Cakung","is_transit":false,"transit":false,"time":8,"station_id":"CUK","distance":1385,"line":1,"i_lat":-6.219053,"i_long":106.951283},{"time":3,"i_long":106.977657,"station_id":"KRI","distance":3097,"transit":false,"station_name":"Kranji","i_lat":-6.224515,"is_transit":false,"line":1},{"distance":2520,"time":4,"i_lat":-6.236616,"is_transit":false,"i_long":106.997013,"station_name":"Bekasi","station_id":"BKS","transit":false,"line":1},{"distance":2368,"station_name":"Bekasi Timur","is_transit":false,"transit":false,"station_id":"BKST","time":2,"i_long":107.016735,"i_lat":-6.248029,"line":1},{"i_long":107.055722,"station_name":"Tambun","i_lat":-6.258864,"time":7,"station_id":"TB","distance":4460,"is_transit":false,"transit":false,"line":1},{"station_id":"CIT","station_name":"Cibitung","i_lat":-6.261877,"i_long":107.083084,"is_transit":false,"line":1,"transit":false,"distance":3420,"time":3}]]}