{"data":[[{"is_transit":false,"transit":false,"distance":0,"i_lat":-6.33561,"line":0,"station_id":"CKY","i_long":106.411216,"station_name":"Cikoya","time":0},{"transit":false,"i_lat":-6.328533,"station_name":"Tigaraksa","time":3,"i_long":106.425991,"distance":2651,"line":6,"station_id":"TGS","is_transit":false},{"i_long":106.460812,"line":6,"station_name":"Tenjo","transit":false,"time":5,"i_lat":-6.327251,"is_transit":false,"distance":2974,"station_id":"TEJ"},{"distance":3902,"station_name":"Daru","i_lat":-6.338021,"line":0,"time":5,"i_long":106.491338,"transit":false,"is_transit":false,"station_id":"DAR"},{"station_id":"CJT","time":6,"i_lat":-6.354349,"line":0,"transit":false,"is_transit":false,"station_name":"Cilejit","i_long":106.508482,"distance":2675},{"station_id":"PRP","is_transit":false,"transit":false,"time":9,"distance":7025,"i_long":106.568863,"line":6,"station_name":"Parung Panjang","i_lat":-6.3441410000000005},{"distance":5968,"time":8,"is_transit":false,"i_lat":-6.329547,"transit":false,"station_name":"Cicayur","station_id":"CC","line":0,"i_long":106.617853},{"station_id":"CSK","i_long":106.640411,"transit":false,"line":0,"is_transit":false,"i_lat":-6.32484,"time":4,"station_name":"Cisauk","distance":2519},{"transit":false,"line":6,"station_name":"Serpong","station_id":"SRP","i_long":106.66566,"i_lat":-6.319871,"time":4,"is_transit":false,"distance":1784},{"time":4,"station_id":"RU","distance":2413,"i_long":106.675475,"i_lat":-6.314823,"station_name":"Rawa Buntu","is_transit":false,"line":6,"transit":false},{"distance":4566,"i_lat":-6.296963,"station_name":"Sudimara","transit":false,"time":6,"station_id":"SDM","i_long":106.712277,"is_transit":false,"line":6},{"station_id":"JMU","distance":1994,"i_lat":-6.288927,"line":6,"is_transit":false,"i_long":106.728916,"time":4,"station_name":"Jurangmangu","transit":false},{"transit":false,"station_id":"PDJ","time":3,"i_long":106.74273,"line":6,"distance":2179,"station_name":"Pondokranji","is_transit":false,"i_lat":-6.276362},{"time":8,"distance":6218,"i_long":106.780334,"station_id":"KBY","i_lat":-6.237242,"transit":false,"line":6,"is_transit":false,"station_name":"Kebayoran"},{"i_long":106.79689,"station_id":"PLM","is_transit":false,"transit":false,"station_name":"Palmerah","i_lat":-6.207404,"distance":3737,"time":7,"line":6},{"time":6,"station_name":"Tanah Abang","i_long":106.811091,"is_transit":true,"i_lat":-6.185545,"line":1,"distance":3191,"station_id":"THB","transit":true},{"distance":2029,"line":1,"station_name":"Karet","station_id":"KAT","i_long":106.816351,"i_lat":-6.20132,"transit":false,"is_transit":false,"time":5},{"transit":false,"line":1,"is_transit":false,"station_name":"Sudirman Baru","station_id":"SUDB","i_lat":-6.201433,"i_long":106.819881,"distance":471,"time":1},{"distance":280,"i_lat":-6.202263,"station_id":"SUD","transit":false,"is_transit":false,"i_long":106.822649,"line":1,"time":1,"station_name":"Sudirman"},{"transit":true,"station_id":"MRI","i_lat":-6.209883,"i_long":106.84912,"distance":3186,"is_transit":true,"station_name":"Manggarai","line":0,"time":4},{"transit":false,"line":2,"station_id":"TEB","time":4,"i_lat":-6.226659,"is_transit":false,"station_name":"Tebet","i_long":106.857948,"distance":2610},{"distance":1230,"time":2,"transit":false,"station_name":"Cawang","i_long":106.856607,"station_id":"CW","i_lat":-6.242512,"line":0,"is_transit":false},{"time":3,"station_id":"DRN","i_lat":-6.255332,"i_long":106.85449,"line":0,"transit":false,"station_name":"Duren Kalibata","distance":1546,"is_transit":false},{"distance":824,"station_name":"Pasar Minggu Baru","line":2,"i_long":106.851577,"station_id":"PSMB","i_lat":-6.263214,"transit":false,"is_transit":false,"time":2},{"i_long":106.843999,"i_lat":-6.2842400000000005,"time":2,"station_name":"Pasar Minggu","distance":2380,"line":2,"is_transit":false,"station_id":"PSM","transit":false},{"distance":2820,"line":2,"station_id":"TNT","time":4,"transit":false,"i_long":106.838896,"i_lat":-6.3080680000000005,"is_transit":false,"station_name":"Tanjung Barat"},{"i_long":106.832616,"station_name":"Lenteng Agung","line":2,"distance":2671,"time":3,"station_id":"LNA","transit":false,"i_lat":-6.330363,"is_transit":false},{"station_id":"UP","i_long":106.834175,"line":2,"is_transit":false,"distance":1029,"transit":false,"time":2,"i_lat":-6.339291,"station_name":"Univ. Pancasila"}],[{"i_long":106.411216,"station_id":"CKY","distance":0,"time":0,"is_transit":false,"station_name":"Cikoya","line":0,"transit":false,"i_lat":-6.33561},{"station_name":"Tigaraksa","distance":2651,"i_lat":-6.328533,"time":3,"line":6,"is_transit":false,"transit":false,"i_long":106.425991,"station_id":"TGS"},{"i_lat":-6.327251,"i_long":106.460812,"transit":false,"time":5,"is_transit":false,"station_name":"Tenjo","station_id":"TEJ","line":6,"distance":2974},{"i_long":106.491338,"is_transit":false,"transit":false,"distance":3902,"station_id":"DAR","line":0,"station_name":"Daru","time":5,"i_lat":-6.338021},{"station_name":"Cilejit","is_transit":false,"station_id":"CJT","line":0,"time":6,"distance":2675,"i_long":106.508482,"i_lat":-6.354349,"transit":false},{"time":9,"distance":7025,"is_transit":false,"i_lat":-6.3441410000000005,"line":6,"station_id":"PRP","transit":false,"i_long":106.568863,"station_name":"Parung Panjang"},{"station_id":"CC","time":8,"station_name":"Cicayur","line":0,"is_transit":false,"i_lat":-6.329547,"i_long":106.617853,"distance":5968,"transit":false},{"station_id":"CSK","station_name":"Cisauk","transit":false,"i_lat":-6.32484,"i_long":106.640411,"line":0,"time":4,"distance":2519,"is_transit":false},{"i_lat":-6.319871,"time":4,"is_transit":false,"line":6,"station_id":"SRP","transit":false,"i_long":106.66566,"distance":1784,"station_name":"Serpong"},{"distance":2413,"station_name":"Rawa Buntu","i_lat":-6.314823,"station_id":"RU","time":4,"i_long":106.675475,"transit":false,"line":6,"is_transit":false},{"transit":false,"line":6,"i_lat":-6.296963,"is_transit":false,"time":6,"station_name":"Sudimara","station_id":"SDM","distance":4566,"i_long":106.712277},{"is_transit":false,"time":4,"station_name":"Jurangmangu","transit":false,"line":6,"i_lat":-6.288927,"distance":1994,"station_id":"JMU","i_long":106.728916},{"station_name":"Pondokranji","is_transit":false,"i_long":106.74273,"transit":false,"line":6,"station_id":"PDJ","time":3,"distance":2179,"i_lat":-6.276362},{"i_long":106.780334,"is_transit":false,"transit":false,"distance":6218,"i_lat":-6.237242,"line":6,"station_name":"Kebayoran","time":8,"station_id":"KBY"},{"is_transit":false,"transit":false,"station_name":"Palmerah","i_lat":-6.207404,"line":6,"distance":3737,"time":7,"i_long":106.79689,"station_id":"PLM"},{"i_lat":-6.185545,"is_transit":true,"transit":true,"distance":3191,"i_long":106.811091,"time":6,"station_name":"Tanah Abang","station_id":"THB","line":1},{"station_name":"Duri","i_lat":-6.155215,"line":1,"station_id":"DU","transit":true,"distance":3632,"is_transit":true,"time":8,"i_long":106.800832},{"is_transit":false,"i_long":106.79867,"station_id":"AK","station_name":"Angke","distance":1230,"transit":false,"line":0,"i_lat":-6.144674,"time":4},{"i_long":106.826365,"transit":false,"time":9,"distance":4102,"station_name":"Kampung Bandan","i_lat":-6.132549,"station_id":"KPB","line":0,"is_transit":true},{"i_long":106.812439,"distance":1364,"is_transit":true,"station_name":"Jakarta Kota","station_id":"JAKK","transit":true,"i_lat":-6.137569,"time":3,"line":0},{"transit":false,"station_id":"JAY","is_transit":false,"i_lat":-6.141205,"station_name":"Jayakarta","time":4,"line":7,"i_long":106.820901,"distance":1264},{"time":2,"distance":1080,"line":2,"transit":false,"i_long":106.82482,"station_name":"Manggabesar","is_transit":false,"station_id":"MGB","i_lat":-6.149769},{"time":2,"is_transit":false,"station_name":"Sawah Besar","transit":false,"i_long":106.827103,"station_id":"SW","distance":906,"i_lat":-6.160725,"line":2},{"transit":false,"i_long":106.828284,"i_lat":-6.166716,"time":2,"station_name":"Juanda","distance":1149,"line":2,"is_transit":false,"station_id":"JUA"},{"i_long":106.832183,"is_transit":false,"station_id":"GDD","station_name":"Gondangdia","distance":2015,"transit":false,"i_lat":-6.186295,"time":4,"line":2},{"station_id":"CKI","i_long":106.840169,"transit":false,"i_lat":-6.198556,"station_name":"Cikini","time":3,"distance":1750,"is_transit":false,"line":0},{"line":0,"transit":true,"i_lat":-6.209883,"i_long":106.84912,"distance":1590,"is_transit":true,"station_name":"Manggarai","time":4,"station_id":"MRI"},{"transit":false,"is_transit":false,"line":2,"i_lat":-6.226659,"station_name":"Tebet","station_id":"TEB","time":4,"i_long":106.857948,"distance":2610},{"station_id":"CW","distance":1230,"i_lat":-6.242512,"line":0,"transit":false,"is_transit":false,"i_long":106.856607,"station_name":"Cawang","time":2},{"i_long":106.85449,"time":3,"distance":1546,"is_transit":false,"station_name":"Duren Kalibata","transit":false,"line":0,"i_lat":-6.255332,"station_id":"DRN"},{"is_transit":false,"time":2,"transit":false,"line":2,"i_lat":-6.263214,"station_name":"Pasar Minggu Baru","distance":824,"i_long":106.851577,"station_id":"PSMB"},{"station_id":"PSM","distance":2380,"transit":false,"is_transit":false,"time":2,"i_lat":-6.2842400000000005,"station_name":"Pasar Minggu","i_long":106.843999,"line":2},{"i_long":106.838896,"transit":false,"line":2,"station_name":"Tanjung Barat","i_lat":-6.3080680000000005,"is_transit":false,"time":4,"station_id":"TNT","distance":2820},{"is_transit":false,"i_lat":-6.330363,"station_id":"LNA","distance":2671,"line":2,"transit":false,"time":3,"i_long":106.832616,"station_name":"Lenteng Agung"},{"is_transit":false,"i_lat":-6.339291,"i_long":106.834175,"distance":1029,"station_id":"UP","time":2,"station_name":"Univ. Pancasila","line":2,"transit":false}],[{"distance":0,"station_name":"Cikoya","transit":false,"line":0,"is_transit":false,"time":0,"i_lat":-6.33561,"station_id":"CKY","i_long":106.411216},{"distance":2651,"time":3,"transit":false,"line":6,"i_long":106.425991,"i_lat":-6.328533,"is_transit":false,"station_id":"TGS","station_name":"Tigaraksa"},{"station_id":"TEJ","time":5,"transit":false,"is_transit":false,"i_long":106.460812,"line":6,"distance":2974,"station_name":"Tenjo","i_lat":-6.327251},{"is_transit":false,"distance":3902,"station_id":"DAR","i_long":106.491338,"transit":false,"time":5,"station_name":"Daru","i_lat":-6.338021,"line":0},{"station_name":"Cilejit","i_long":106.508482,"time":6,"i_lat":-6.354349,"is_transit":false,"distance":2675,"station_id":"CJT","line":0,"transit":false},{"i_lat":-6.3441410000000005,"station_id":"PRP","time":9,"is_transit":false,"distance":7025,"transit":false,"i_long":106.568863,"station_name":"Parung Panjang","line":6},{"i_long":106.617853,"station_name":"Cicayur","station_id":"CC","i_lat":-6.329547,"line":0,"is_transit":false,"transit":false,"time":8,"distance":5968},{"transit":false,"i_lat":-6.32484,"i_long":106.640411,"station_name":"Cisauk","station_id":"CSK","is_transit":false,"distance":2519,"time":4,"line":0},{"line":6,"is_transit":false,"station_name":"Serpong","distance":1784,"station_id":"SRP","transit":false,"time":4,"i_lat":-6.319871,"i_long":106.66566},{"line":6,"transit":false,"station_name":"Rawa Buntu","is_transit":false,"time":4,"distance":2413,"i_long":106.675475,"i_lat":-6.314823,"station_id":"RU"},{"time":6,"transit":false,"i_lat":-6.296963,"station_id":"SDM","distance":4566,"i_long":106.712277,"line":6,"is_transit":false,"station_name":"Sudimara"},{"station_name":"Jurangmangu","is_transit":false,"station_id":"JMU","transit":false,"i_long":106.728916,"time":4,"line":6,"distance":1994,"i_lat":-6.288927},{"is_transit":false,"i_long":106.74273,"distance":2179,"time":3,"station_name":"Pondokranji","transit":false,"i_lat":-6.276362,"line":6,"station_id":"PDJ"},{"distance":6218,"i_long":106.780334,"is_transit":false,"time":8,"station_name":"Kebayoran","transit":false,"line":6,"i_lat":-6.237242,"station_id":"KBY"},{"station_id":"PLM","time":7,"distance":3737,"is_transit":false,"transit":false,"i_long":106.79689,"station_name":"Palmerah","i_lat":-6.207404,"line":6},{"station_name":"Tanah Abang","distance":3191,"line":1,"is_transit":true,"time":6,"i_lat":-6.185545,"station_id":"THB","transit":true,"i_long":106.811091},{"station_id":"DU","is_transit":true,"time":8,"distance":3632,"station_name":"Duri","transit":true,"line":1,"i_lat":-6.155215,"i_long":106.800832},{"line":0,"transit":false,"station_id":"AK","time":4,"i_long":106.79867,"station_name":"Angke","is_transit":false,"distance":1230,"i_lat":-6.144674},{"transit":true,"i_lat":-6.132549,"is_transit":true,"station_id":"KPB","i_long":106.826365,"time":9,"line":0,"station_name":"Kampung Bandan","distance":4102},{"station_id":"RJW","station_name":"Rajawali","transit":false,"is_transit":false,"line":11,"i_long":106.836569,"time":3,"distance":1444,"i_lat":-6.14505},{"is_transit":false,"transit":false,"time":5,"i_long":106.839204,"line":11,"station_id":"KMO","distance":1901,"station_name":"Kemayoran","i_lat":-6.161728},{"i_lat":-6.174784,"distance":1436,"station_id":"PSE","transit":false,"line":11,"is_transit":false,"i_long":106.84368,"station_name":"Pasar Senen","time":4},{"i_long":106.850107,"time":8,"line":11,"i_lat":-6.185975,"station_name":"Gang Sentiong","station_id":"GST","transit":false,"is_transit":false,"distance":1567},{"distance":973,"line":11,"transit":false,"is_transit":false,"time":1,"i_lat":-6.193792,"station_id":"KMT","i_long":106.855437,"station_name":"Kramat"},{"station_id":"POK","transit":false,"is_transit":false,"line":11,"i_long":106.861737,"time":2,"station_name":"Pondok Jati","distance":1829,"i_lat":-6.209188},{"line":0,"station_name":"Jatinegara","station_id":"JNG","transit":true,"i_lat":-6.215091,"is_transit":true,"distance":1236,"i_long":106.86807400000001,"time":9},{"station_id":"MTR","is_transit":false,"i_long":106.858896,"station_name":"Matraman","line":1,"i_lat":-6.212485,"transit":false,"time":2,"distance":1377},{"line":0,"distance":1275,"i_long":106.84912,"is_transit":true,"station_name":"Manggarai","transit":true,"time":2,"station_id":"MRI","i_lat":-6.209883},{"station_id":"TEB","i_lat":-6.226659,"i_long":106.857948,"transit":false,"distance":2610,"line":2,"time":4,"is_transit":false,"station_name":"Tebet"},{"transit":false,"i_long":106.856607,"station_id":"CW","is_transit":false,"line":0,"time":2,"station_name":"Cawang","distance":1230,"i_lat":-6.242512},{"line":0,"time":3,"distance":1546,"is_transit":false,"i_lat":-6.255332,"station_id":"DRN","i_long":106.85449,"station_name":"Duren Kalibata","transit":false},{"station_id":"PSMB","line":2,"i_lat":-6.263214,"transit":false,"time":2,"station_name":"Pasar Minggu Baru","is_transit":false,"i_long":106.851577,"distance":824},{"i_lat":-6.2842400000000005,"line":2,"distance":2380,"time":2,"station_name":"Pasar Minggu","i_long":106.843999,"is_transit":false,"transit":false,"station_id":"PSM"},{"station_id":"TNT","transit":false,"station_name":"Tanjung Barat","is_transit":false,"time":4,"distance":2820,"i_lat":-6.3080680000000005,"i_long":106.838896,"line":2},{"transit":false,"station_id":"LNA","line":2,"time":3,"station_name":"Lenteng Agung","is_transit":false,"i_long":106.832616,"distance":2671,"i_lat":-6.330363},{"is_transit":false,"station_id":"UP","distance":1029,"time":2,"transit":false,"line":2,"station_name":"Univ. Pancasila","i_lat":-6.339291,"i_long":106.834175}]]}