{"data":[[{"distance":0,"is_transit":false,"transit":false,"station_id":"CKY","i_lat":-6.33561,"line":3,"time":0,"station_name":"Cikoya","i_long":106.411216},{"station_name":"Tigaraksa","i_long":106.425991,"transit":false,"station_id":"TGS","line":6,"time":3,"is_transit":false,"distance":2651,"i_lat":-6.328533},{"line":6,"station_id":"TEJ","i_lat":-6.327251,"distance":2974,"is_transit":false,"transit":false,"i_long":106.460812,"station_name":"Tenjo","time":5},{"station_id":"DAR","time":5,"distance":3902,"line":0,"station_name":"Daru","is_transit":false,"i_lat":-6.338021,"i_long":106.491338,"transit":false},{"distance":2675,"station_name":"Cilejit","i_long":106.508482,"time":6,"is_transit":false,"line":3,"i_lat":-6.354349,"station_id":"CJT","transit":false},{"i_lat":-6.3441410000000005,"transit":false,"station_id":"PRP","is_transit":false,"station_name":"Parung Panjang","distance":7025,"i_long":106.568863,"time":9,"line":6},{"distance":5968,"station_name":"Cicayur","station_id":"CC","transit":false,"time":8,"is_transit":false,"i_lat":-6.329547,"i_long":106.617853,"line":3},{"station_name":"Cisauk","i_lat":-6.32484,"is_transit":false,"station_id":"CSK","distance":2519,"transit":false,"time":4,"line":3,"i_long":106.640411},{"is_transit":false,"transit":false,"line":6,"i_lat":-6.319871,"time":4,"i_long":106.66566,"station_id":"SRP","distance":1784,"station_name":"Serpong"},{"station_name":"Rawa Buntu","line":6,"station_id":"RU","time":4,"is_transit":false,"i_long":106.675475,"i_lat":-6.314823,"transit":false,"distance":2413},{"station_name":"Sudimara","distance":4566,"station_id":"SDM","time":6,"is_transit":false,"i_lat":-6.296963,"line":6,"transit":false,"i_long":106.712277},{"i_lat":-6.288927,"i_long":106.728916,"station_id":"JMU","distance":1994,"transit":false,"is_transit":false,"line":6,"time":4,"station_name":"Jurangmangu"},{"time":3,"station_id":"PDJ","i_long":106.74273,"is_transit":false,"distance":2179,"station_name":"Pondokranji","transit":false,"i_lat":-6.276362,"line":6},{"is_transit":false,"station_id":"KBY","line":6,"distance":6218,"station_name":"Kebayoran","transit":false,"time":8,"i_long":106.780334,"i_lat":-6.237242},{"is_transit":false,"i_lat":-6.207404,"distance":3737,"i_long":106.79689,"transit":false,"time":7,"line":6,"station_name":"Palmerah","station_id":"PLM"},{"distance":3191,"line":1,"i_lat":-6.185545,"transit":true,"i_long":106.811091,"station_id":"THB","time":6,"is_transit":true,"station_name":"Tanah Abang"},{"i_lat":-6.155215,"line":1,"station_id":"DU","distance":3632,"station_name":"Duri","i_long":106.800832,"time":8,"transit":false,"is_transit":false},{"distance":1230,"station_id":"AK","time":4,"i_lat":-6.144674,"transit":false,"i_long":106.79867,"is_transit":false,"station_name":"Angke","line":1},{"station_name":"Kampung Bandan","is_transit":true,"i_long":106.826365,"time":9,"transit":true,"station_id":"KPB","i_lat":-6.132549,"distance":4102,"line":4},{"transit":false,"i_long":106.836569,"line":11,"distance":1444,"is_transit":false,"time":3,"station_id":"RJW","station_name":"Rajawali","i_lat":-6.14505},{"transit":false,"time":5,"station_name":"Kemayoran","i_lat":-6.161728,"i_long":106.839204,"station_id":"KMO","line":11,"is_transit":false,"distance":1901}],[{"time":0,"transit":false,"i_lat":-6.33561,"station_name":"Cikoya","i_long":106.411216,"line":3,"distance":0,"station_id":"CKY","is_transit":false},{"time":3,"transit":false,"i_lat":-6.328533,"is_transit":false,"line":6,"i_long":106.425991,"station_id":"TGS","distance":2651,"station_name":"Tigaraksa"},{"station_name":"Tenjo","distance":2974,"transit":false,"i_lat":-6.327251,"station_id":"TEJ","i_long":106.460812,"time":5,"line":6,"is_transit":false},{"station_id":"DAR","time":5,"is_transit":false,"transit":false,"i_long":106.491338,"i_lat":-6.338021,"distance":3902,"station_name":"Daru","line":0},{"transit":false,"time":6,"station_name":"Cilejit","distance":2675,"i_long":106.508482,"is_transit":false,"line":3,"station_id":"CJT","i_lat":-6.354349},{"distance":7025,"station_id":"PRP","station_name":"Parung Panjang","i_lat":-6.3441410000000005,"i_long":106.568863,"line":6,"transit":false,"is_transit":false,"time":9},{"line":3,"distance":5968,"i_lat":-6.329547,"station_id":"CC","time":8,"transit":false,"is_transit":false,"station_name":"Cicayur","i_long":106.617853},{"station_id":"CSK","i_lat":-6.32484,"distance":2519,"is_transit":false,"i_long":106.640411,"line":3,"station_name":"Cisauk","time":4,"transit":false},{"i_long":106.66566,"time":4,"transit":false,"distance":1784,"line":6,"station_id":"SRP","station_name":"Serpong","is_transit":false,"i_lat":-6.319871},{"line":6,"station_name":"Rawa Buntu","i_long":106.675475,"i_lat":-6.314823,"distance":2413,"time":4,"is_transit":false,"station_id":"RU","transit":false},{"transit":false,"is_transit":false,"i_lat":-6.296963,"i_long":106.712277,"line":6,"station_name":"Sudimara","distance":4566,"time":6,"station_id":"SDM"},{"distance":1994,"i_long":106.728916,"i_lat":-6.288927,"transit":false,"station_name":"Jurangmangu","is_transit":false,"line":6,"time":4,"station_id":"JMU"},{"distance":2179,"i_lat":-6.276362,"i_long":106.74273,"line":6,"station_id":"PDJ","is_transit":false,"transit":false,"time":3,"station_name":"Pondokranji"},{"line":6,"distance":6218,"station_id":"KBY","is_transit":false,"station_name":"Kebayoran","transit":false,"i_long":106.780334,"i_lat":-6.237242,"time":8},{"station_id":"PLM","transit":false,"is_transit":false,"station_name":"Palmerah","i_lat":-6.207404,"i_long":106.79689,"time":7,"line":6,"distance":3737},{"station_id":"THB","i_long":106.811091,"transit":true,"station_name":"Tanah Abang","time":6,"distance":3191,"i_lat":-6.185545,"is_transit":true,"line":1},{"station_id":"KAT","distance":2029,"is_transit":false,"i_long":106.816351,"line":1,"station_name":"Karet","time":5,"i_lat":-6.20132,"transit":false},{"station_name":"Sudirman Baru","time":1,"station_id":"SUDB","is_transit":false,"line":1,"i_lat":-6.201433,"i_long":106.819881,"distance":471,"transit":false},{"i_long":106.822649,"line":1,"distance":280,"station_id":"SUD","time":1,"transit":false,"i_lat":-6.202263,"is_transit":false,"station_name":"Sudirman"},{"station_id":"MRI","time":4,"station_name":"Manggarai","transit":false,"distance":3186,"i_long":106.84912,"is_transit":false,"i_lat":-6.209883,"line":2},{"distance":1275,"time":2,"station_id":"MTR","is_transit":false,"i_long":106.858896,"station_name":"Matraman","i_lat":-6.212485,"line":1,"transit":false},{"is_transit":true,"station_name":"Jatinegara","time":8,"transit":true,"station_id":"JNG","line":1,"distance":1377,"i_long":106.86807400000001,"i_lat":-6.215091},{"station_id":"POK","time":2,"is_transit":false,"i_lat":-6.209188,"line":11,"station_name":"Pondok Jati","transit":false,"distance":1236,"i_long":106.861737},{"line":11,"i_lat":-6.193792,"i_long":106.855437,"time":2,"station_id":"KMT","transit":false,"station_name":"Kramat","is_transit":false,"distance":1829},{"station_id":"GST","i_lat":-6.185975,"distance":973,"is_transit":false,"time":1,"station_name":"Gang Sentiong","line":11,"transit":false,"i_long":106.850107},{"time":8,"i_lat":-6.174784,"transit":false,"station_id":"PSE","distance":1567,"station_name":"Pasar Senen","i_long":106.84368,"line":11,"is_transit":false},{"transit":false,"time":4,"i_long":106.839204,"line":11,"station_id":"KMO","is_transit":false,"station_name":"Kemayoran","i_lat":-6.161728,"distance":1436}],[{"distance":0,"station_name":"Cikoya","is_transit":false,"line":3,"i_long":106.411216,"time":0,"transit":false,"i_lat":-6.33561,"station_id":"CKY"},{"distance":2651,"i_lat":-6.328533,"station_id":"TGS","i_long":106.425991,"is_transit":false,"time":3,"station_name":"Tigaraksa","line":6,"transit":false},{"i_lat":-6.327251,"time":5,"transit":false,"is_transit":false,"line":6,"i_long":106.460812,"distance":2974,"station_id":"TEJ","station_name":"Tenjo"},{"time":5,"distance":3902,"station_name":"Daru","is_transit":false,"line":0,"i_long":106.491338,"station_id":"DAR","transit":false,"i_lat":-6.338021},{"time":6,"station_name":"Cilejit","station_id":"CJT","line":3,"is_transit":false,"i_long":106.508482,"i_lat":-6.354349,"transit":false,"distance":2675},{"distance":7025,"station_name":"Parung Panjang","is_transit":false,"line":6,"station_id":"PRP","transit":false,"i_lat":-6.3441410000000005,"i_long":106.568863,"time":9},{"is_transit":false,"transit":false,"i_lat":-6.329547,"station_id":"CC","distance":5968,"station_name":"Cicayur","i_long":106.617853,"line":3,"time":8},{"line":3,"transit":false,"distance":2519,"time":4,"is_transit":false,"station_id":"CSK","station_name":"Cisauk","i_long":106.640411,"i_lat":-6.32484},{"station_id":"SRP","time":4,"station_name":"Serpong","line":6,"is_transit":false,"i_lat":-6.319871,"i_long":106.66566,"transit":false,"distance":1784},{"line":6,"distance":2413,"i_long":106.675475,"time":4,"station_name":"Rawa Buntu","is_transit":false,"station_id":"RU","i_lat":-6.314823,"transit":false},{"i_lat":-6.296963,"is_transit":false,"i_long":106.712277,"distance":4566,"transit":false,"time":6,"station_id":"SDM","station_name":"Sudimara","line":6},{"i_long":106.728916,"distance":1994,"station_id":"JMU","station_name":"Jurangmangu","transit":false,"line":6,"time":4,"is_transit":false,"i_lat":-6.288927},{"transit":false,"time":3,"station_id":"PDJ","station_name":"Pondokranji","line":6,"is_transit":false,"i_long":106.74273,"i_lat":-6.276362,"distance":2179},{"distance":6218,"station_name":"Kebayoran","station_id":"KBY","transit":false,"i_lat":-6.237242,"i_long":106.780334,"line":6,"time":8,"is_transit":false},{"line":6,"time":7,"station_name":"Palmerah","i_long":106.79689,"station_id":"PLM","distance":3737,"transit":false,"is_transit":false,"i_lat":-6.207404},{"transit":true,"line":1,"station_name":"Tanah Abang","time":6,"is_transit":true,"i_long":106.811091,"distance":3191,"station_id":"THB","i_lat":-6.185545},{"station_name":"Karet","station_id":"KAT","time":5,"distance":2029,"transit":false,"i_lat":-6.20132,"i_long":106.816351,"line":1,"is_transit":false},{"is_transit":false,"station_id":"SUDB","i_long":106.819881,"distance":471,"time":1,"station_name":"Sudirman Baru","line":1,"transit":false,"i_lat":-6.201433},{"is_transit":false,"station_name":"Sudirman","i_long":106.822649,"time":1,"transit":false,"distance":280,"i_lat":-6.202263,"station_id":"SUD","line":1},{"i_lat":-6.209883,"station_name":"Manggarai","station_id":"MRI","time":4,"is_transit":true,"transit":true,"i_long":106.84912,"distance":3186,"line":2},{"i_long":106.840169,"is_transit":false,"distance":1590,"station_id":"CKI","line":2,"station_name":"Cikini","transit":false,"time":4,"i_lat":-6.198556},{"station_id":"GDD","i_long":106.832183,"line":2,"distance":1750,"transit":false,"is_transit":false,"station_name":"Gondangdia","time":3,"i_lat":-6.186295},{"i_lat":-6.166716,"station_name":"Juanda","time":4,"is_transit":false,"distance":2015,"line":2,"station_id":"JUA","i_long":106.828284,"transit":false},{"i_long":106.827103,"is_transit":false,"i_lat":-6.160725,"line":2,"time":2,"distance":1149,"station_name":"Sawah Besar","transit":false,"station_id":"SW"},{"distance":906,"i_long":106.82482,"station_name":"Manggabesar","is_transit":false,"i_lat":-6.149769,"transit":false,"line":2,"time":2,"station_id":"MGB"},{"i_lat":-6.141205,"is_transit":false,"station_id":"JAY","i_long":106.820901,"transit":false,"distance":1080,"station_name":"Jayakarta","time":2,"line":2},{"transit":true,"is_transit":true,"i_long":106.812439,"station_id":"JAKK","time":4,"station_name":"Jakarta Kota","line":2,"distance":1264,"i_lat":-6.137569},{"is_transit":true,"distance":1364,"i_lat":-6.132549,"station_name":"Kampung Bandan","i_long":106.826365,"transit":true,"station_id":"KPB","line":4,"time":3},{"is_transit":false,"i_long":106.836569,"distance":1444,"station_id":"RJW","i_lat":-6.14505,"station_name":"Rajawali","time":3,"line":11,"transit":false},{"transit":false,"station_name":"Kemayoran","station_id":"KMO","i_long":106.839204,"is_transit":false,"distance":1901,"time":5,"i_lat":-6.161728,"line":11}],[{"distance":0,"time":0,"transit":false,"station_id":"CKY","station_name":"Cikoya","line":3,"is_transit":false,"i_lat":-6.33561,"i_long":106.411216},{"time":3,"i_long":106.425991,"station_id":"TGS","station_name":"Tigaraksa","transit":false,"line":6,"distance":2651,"is_transit":false,"i_lat":-6.328533},{"line":6,"transit":false,"is_transit":false,"i_long":106.460812,"time":5,"distance":2974,"station_id":"TEJ","station_name":"Tenjo","i_lat":-6.327251},{"is_transit":false,"i_lat":-6.338021,"transit":false,"line":0,"distance":3902,"time":5,"i_long":106.491338,"station_name":"Daru","station_id":"DAR"},{"station_name":"Cilejit","transit":false,"is_transit":false,"i_long":106.508482,"distance":2675,"i_lat":-6.354349,"line":3,"station_id":"CJT","time":6},{"distance":7025,"station_id":"PRP","station_name":"Parung Panjang","time":9,"line":6,"is_transit":false,"i_lat":-6.3441410000000005,"i_long":106.568863,"transit":false},{"distance":5968,"i_long":106.617853,"station_id":"CC","station_name":"Cicayur","i_lat":-6.329547,"line":3,"is_transit":false,"transit":false,"time":8},{"i_lat":-6.32484,"i_long":106.640411,"line":3,"distance":2519,"transit":false,"station_name":"Cisauk","is_transit":false,"station_id":"CSK","time":4},{"station_id":"SRP","distance":1784,"station_name":"Serpong","i_long":106.66566,"line":6,"transit":false,"time":4,"is_transit":false,"i_lat":-6.319871},{"i_long":106.675475,"distance":2413,"is_transit":false,"station_id":"RU","transit":false,"line":6,"station_name":"Rawa Buntu","time":4,"i_lat":-6.314823},{"i_lat":-6.296963,"station_name":"Sudimara","time":6,"transit":false,"i_long":106.712277,"distance":4566,"station_id":"SDM","is_transit":false,"line":6},{"is_transit":false,"distance":1994,"station_name":"Jurangmangu","i_long":106.728916,"time":4,"station_id":"JMU","transit":false,"i_lat":-6.288927,"line":6},{"time":3,"i_lat":-6.276362,"line":6,"distance":2179,"station_id":"PDJ","station_name":"Pondokranji","transit":false,"is_transit":false,"i_long":106.74273},{"is_transit":false,"station_id":"KBY","station_name":"Kebayoran","transit":false,"time":8,"i_long":106.780334,"line":6,"distance":6218,"i_lat":-6.237242},{"i_long":106.79689,"distance":3737,"i_lat":-6.207404,"time":7,"is_transit":false,"station_name":"Palmerah","line":6,"station_id":"PLM","transit":false},{"i_long":106.811091,"time":6,"distance":3191,"station_id":"THB","transit":true,"is_transit":true,"line":1,"station_name":"Tanah Abang","i_lat":-6.185545},{"distance":3632,"line":1,"station_id":"DU","is_transit":false,"i_lat":-6.155215,"time":8,"i_long":106.800832,"station_name":"Duri","transit":false},{"line":1,"station_id":"AK","i_lat":-6.144674,"i_long":106.79867,"station_name":"Angke","transit":false,"time":4,"distance":1230,"is_transit":false},{"line":4,"time":9,"station_name":"Kampung Bandan","transit":true,"is_transit":true,"station_id":"KPB","i_lat":-6.132549,"i_long":106.826365,"distance":4102},{"time":3,"i_long":106.812439,"station_id":"JAKK","line":2,"distance":1364,"station_name":"Jakarta Kota","i_lat":-6.137569,"transit":true,"is_transit":true},{"station_id":"JAY","station_name":"Jayakarta","i_long":106.820901,"line":2,"transit":false,"time":4,"distance":1264,"i_lat":-6.141205,"is_transit":false},{"time":2,"station_id":"MGB","transit":false,"station_name":"Manggabesar","is_transit":false,"i_long":106.82482,"line":2,"i_lat":-6.149769,"distance":1080},{"station_id":"SW","line":2,"transit":false,"time":2,"station_name":"Sawah Besar","distance":906,"is_transit":false,"i_lat":-6.160725,"i_long":106.827103},{"i_long":106.828284,"station_name":"Juanda","station_id":"JUA","i_lat":-6.166716,"is_transit":false,"distance":1149,"line":2,"time":2,"transit":false},{"time":4,"line":2,"distance":2015,"is_transit":false,"station_id":"GDD","station_name":"Gondangdia","i_lat":-6.186295,"transit":false,"i_long":106.832183},{"station_id":"CKI","line":2,"transit":false,"distance":1750,"is_transit":false,"station_name":"Cikini","i_long":106.840169,"time":3,"i_lat":-6.198556},{"time":4,"distance":1590,"station_name":"Manggarai","transit":true,"is_transit":true,"i_lat":-6.209883,"i_long":106.84912,"line":2,"station_id":"MRI"},{"transit":false,"distance":1275,"station_id":"MTR","i_long":106.858896,"line":1,"is_transit":false,"time":2,"station_name":"Matraman","i_lat":-6.212485},{"i_long":106.86807400000001,"station_name":"Jatinegara","station_id":"JNG","time":8,"line":1,"i_lat":-6.215091,"distance":1377,"transit":true,"is_transit":true},{"station_name":"Pondok Jati","transit":false,"i_lat":-6.209188,"distance":1236,"line":11,"station_id":"POK","time":2,"is_transit":false,"i_long":106.861737},{"i_long":106.855437,"i_lat":-6.193792,"transit":false,"time":2,"line":11,"distance":1829,"station_id":"KMT","is_transit":false,"station_name":"Kramat"},{"i_lat":-6.185975,"i_long":106.850107,"line":11,"distance":973,"time":1,"is_transit":false,"station_name":"Gang Sentiong","transit":false,"station_id":"GST"},{"time":8,"is_transit":false,"i_long":106.84368,"distance":1567,"i_lat":-6.174784,"station_name":"Pasar Senen","station_id":"PSE","transit":false,"line":11},{"station_name":"Kemayoran","transit":false,"is_transit":false,"i_lat":-6.161728,"distance":1436,"line":11,"i_long":106.839204,"station_id":"KMO","time":4}]]}