{"data":[[{"station_name":"Cikoya","i_long":106.411216,"is_transit":false,"station_id":"CKY","transit":false,"i_lat":-6.33561,"distance":0,"time":0,"line":3},{"is_transit":false,"station_id":"TGS","i_lat":-6.328533,"station_name":"Tigaraksa","transit":false,"time":3,"distance":2651,"i_long":106.425991,"line":6},{"station_id":"TEJ","line":6,"station_name":"Tenjo","is_transit":false,"i_lat":-6.327251,"time":5,"i_long":106.460812,"transit":false,"distance":2974},{"station_name":"Daru","transit":false,"is_transit":false,"i_lat":-6.338021,"time":5,"line":0,"i_long":106.491338,"station_id":"DAR","distance":3902},{"line":3,"distance":2675,"station_name":"Cilejit","station_id":"CJT","transit":false,"time":6,"i_long":106.508482,"is_transit":false,"i_lat":-6.354349},{"station_id":"PRP","i_long":106.568863,"station_name":"Parung Panjang","i_lat":-6.3441410000000005,"distance":7025,"is_transit":false,"transit":false,"time":9,"line":6},{"time":8,"station_id":"CC","line":3,"station_name":"Cicayur","distance":5968,"i_lat":-6.329547,"i_long":106.617853,"transit":false,"is_transit":false},{"i_lat":-6.32484,"i_long":106.640411,"time":4,"transit":false,"station_id":"CSK","distance":2519,"line":3,"is_transit":false,"station_name":"Cisauk"},{"transit":false,"time":4,"station_id":"SRP","i_lat":-6.319871,"distance":1784,"is_transit":false,"station_name":"Serpong","line":6,"i_long":106.66566},{"line":6,"i_long":106.675475,"station_id":"RU","time":4,"distance":2413,"is_transit":false,"transit":false,"station_name":"Rawa Buntu","i_lat":-6.314823},{"transit":false,"i_long":106.712277,"time":6,"station_name":"Sudimara","distance":4566,"is_transit":false,"i_lat":-6.296963,"line":6,"station_id":"SDM"},{"line":6,"station_name":"Jurangmangu","i_long":106.728916,"distance":1994,"is_transit":false,"station_id":"JMU","i_lat":-6.288927,"transit":false,"time":4},{"transit":false,"station_name":"Pondokranji","distance":2179,"is_transit":false,"time":3,"i_lat":-6.276362,"i_long":106.74273,"line":6,"station_id":"PDJ"},{"time":8,"station_id":"KBY","i_lat":-6.237242,"station_name":"Kebayoran","line":6,"is_transit":false,"transit":false,"distance":6218,"i_long":106.780334},{"is_transit":false,"time":7,"line":6,"station_name":"Palmerah","i_lat":-6.207404,"distance":3737,"transit":false,"station_id":"PLM","i_long":106.79689},{"i_long":106.811091,"transit":true,"i_lat":-6.185545,"distance":3191,"time":6,"station_id":"THB","is_transit":true,"station_name":"Tanah Abang","line":1},{"i_lat":-6.20132,"is_transit":false,"line":1,"transit":false,"i_long":106.816351,"distance":2029,"station_name":"Karet","station_id":"KAT","time":5},{"i_lat":-6.201433,"station_id":"SUDB","time":1,"line":1,"transit":false,"is_transit":false,"distance":471,"station_name":"Sudirman Baru","i_long":106.819881},{"i_long":106.822649,"distance":280,"line":1,"time":1,"is_transit":false,"transit":false,"station_name":"Sudirman","i_lat":-6.202263,"station_id":"SUD"},{"distance":3186,"i_lat":-6.209883,"station_name":"Manggarai","i_long":106.84912,"station_id":"MRI","is_transit":true,"time":4,"line":2,"transit":true},{"i_lat":-6.226659,"i_long":106.857948,"is_transit":false,"distance":2610,"transit":false,"station_id":"TEB","time":4,"station_name":"Tebet","line":2},{"i_lat":-6.242512,"station_name":"Cawang","transit":false,"i_long":106.856607,"is_transit":false,"distance":1230,"station_id":"CW","line":2,"time":2},{"station_name":"Duren Kalibata","is_transit":false,"time":3,"i_lat":-6.255332,"i_long":106.85449,"line":2,"station_id":"DRN","distance":1546,"transit":false},{"i_lat":-6.263214,"is_transit":false,"distance":824,"transit":false,"line":2,"station_id":"PSMB","time":2,"station_name":"Pasar Minggu Baru","i_long":106.851577},{"transit":false,"i_lat":-6.2842400000000005,"station_id":"PSM","distance":2380,"station_name":"Pasar Minggu","line":2,"is_transit":false,"i_long":106.843999,"time":2},{"i_long":106.838896,"time":4,"is_transit":false,"transit":false,"station_name":"Tanjung Barat","station_id":"TNT","i_lat":-6.3080680000000005,"line":2,"distance":2820},{"i_lat":-6.330363,"station_id":"LNA","transit":false,"time":3,"line":2,"distance":2671,"i_long":106.832616,"is_transit":false,"station_name":"Lenteng Agung"},{"time":2,"is_transit":false,"station_id":"UP","i_lat":-6.339291,"line":2,"transit":false,"distance":1029,"i_long":106.834175,"station_name":"Univ. Pancasila"}],[{"i_long":106.411216,"station_name":"Cikoya","is_transit":false,"station_id":"CKY","distance":0,"time":0,"i_lat":-6.33561,"transit":false,"line":3},{"is_transit":false,"station_name":"Tigaraksa","i_lat":-6.328533,"i_long":106.425991,"line":6,"station_id":"TGS","time":3,"transit":false,"distance":2651},{"time":5,"i_long":106.460812,"i_lat":-6.327251,"distance":2974,"station_id":"TEJ","transit":false,"is_transit":false,"station_name":"Tenjo","line":6},{"time":5,"station_id":"DAR","is_transit":false,"station_name":"Daru","transit":false,"i_lat":-6.338021,"line":0,"i_long":106.491338,"distance":3902},{"line":3,"is_transit":false,"station_id":"CJT","i_lat":-6.354349,"time":6,"i_long":106.508482,"distance":2675,"transit":false,"station_name":"Cilejit"},{"time":9,"i_lat":-6.3441410000000005,"distance":7025,"i_long":106.568863,"transit":false,"is_transit":false,"station_id":"PRP","line":6,"station_name":"Parung Panjang"},{"i_lat":-6.329547,"transit":false,"i_long":106.617853,"line":3,"is_transit":false,"time":8,"distance":5968,"station_name":"Cicayur","station_id":"CC"},{"i_long":106.640411,"line":3,"station_id":"CSK","is_transit":false,"distance":2519,"i_lat":-6.32484,"time":4,"transit":false,"station_name":"Cisauk"},{"time":4,"station_name":"Serpong","transit":false,"station_id":"SRP","i_long":106.66566,"line":6,"distance":1784,"is_transit":false,"i_lat":-6.319871},{"station_name":"Rawa Buntu","is_transit":false,"i_lat":-6.314823,"station_id":"RU","time":4,"distance":2413,"transit":false,"i_long":106.675475,"line":6},{"time":6,"transit":false,"i_lat":-6.296963,"is_transit":false,"i_long":106.712277,"distance":4566,"station_id":"SDM","station_name":"Sudimara","line":6},{"station_id":"JMU","i_lat":-6.288927,"distance":1994,"i_long":106.728916,"station_name":"Jurangmangu","transit":false,"is_transit":false,"time":4,"line":6},{"i_lat":-6.276362,"time":3,"distance":2179,"is_transit":false,"transit":false,"i_long":106.74273,"station_name":"Pondokranji","line":6,"station_id":"PDJ"},{"time":8,"station_name":"Kebayoran","is_transit":false,"i_long":106.780334,"transit":false,"station_id":"KBY","i_lat":-6.237242,"line":6,"distance":6218},{"station_id":"PLM","line":6,"i_lat":-6.207404,"transit":false,"is_transit":false,"station_name":"Palmerah","time":7,"i_long":106.79689,"distance":3737},{"line":1,"i_lat":-6.185545,"transit":true,"distance":3191,"time":6,"is_transit":true,"station_id":"THB","station_name":"Tanah Abang","i_long":106.811091},{"distance":3632,"station_name":"Duri","time":8,"is_transit":false,"i_long":106.800832,"transit":false,"i_lat":-6.155215,"line":1,"station_id":"DU"},{"i_lat":-6.144674,"i_long":106.79867,"time":4,"transit":false,"station_id":"AK","distance":1230,"station_name":"Angke","is_transit":false,"line":1},{"time":9,"i_lat":-6.132549,"distance":4102,"station_name":"Kampung Bandan","transit":true,"i_long":106.826365,"line":4,"station_id":"KPB","is_transit":true},{"i_lat":-6.137569,"time":3,"is_transit":true,"line":2,"station_id":"JAKK","station_name":"Jakarta Kota","distance":1364,"i_long":106.812439,"transit":true},{"is_transit":false,"line":2,"time":4,"distance":1264,"transit":false,"station_name":"Jayakarta","i_lat":-6.141205,"station_id":"JAY","i_long":106.820901},{"line":2,"transit":false,"station_id":"MGB","distance":1080,"i_long":106.82482,"is_transit":false,"time":2,"station_name":"Manggabesar","i_lat":-6.149769},{"transit":false,"i_lat":-6.160725,"distance":906,"line":2,"i_long":106.827103,"time":2,"station_id":"SW","is_transit":false,"station_name":"Sawah Besar"},{"line":2,"i_lat":-6.166716,"distance":1149,"i_long":106.828284,"time":2,"is_transit":false,"transit":false,"station_id":"JUA","station_name":"Juanda"},{"time":4,"station_id":"GDD","station_name":"Gondangdia","distance":2015,"i_long":106.832183,"transit":false,"i_lat":-6.186295,"is_transit":false,"line":2},{"line":2,"time":3,"station_name":"Cikini","is_transit":false,"station_id":"CKI","i_lat":-6.198556,"transit":false,"i_long":106.840169,"distance":1750},{"i_lat":-6.209883,"i_long":106.84912,"station_name":"Manggarai","is_transit":false,"line":2,"distance":1590,"station_id":"MRI","time":4,"transit":false},{"station_id":"TEB","distance":2610,"is_transit":false,"station_name":"Tebet","i_lat":-6.226659,"transit":false,"line":2,"time":4,"i_long":106.857948},{"is_transit":false,"line":2,"time":2,"station_name":"Cawang","i_lat":-6.242512,"station_id":"CW","distance":1230,"i_long":106.856607,"transit":false},{"station_name":"Duren Kalibata","i_lat":-6.255332,"time":3,"transit":false,"is_transit":false,"line":2,"distance":1546,"station_id":"DRN","i_long":106.85449},{"i_lat":-6.263214,"station_name":"Pasar Minggu Baru","i_long":106.851577,"transit":false,"time":2,"station_id":"PSMB","distance":824,"is_transit":false,"line":2},{"time":2,"i_lat":-6.2842400000000005,"station_id":"PSM","transit":false,"station_name":"Pasar Minggu","i_long":106.843999,"distance":2380,"is_transit":false,"line":2},{"time":4,"i_long":106.838896,"station_name":"Tanjung Barat","i_lat":-6.3080680000000005,"is_transit":false,"line":2,"transit":false,"station_id":"TNT","distance":2820},{"station_name":"Lenteng Agung","i_lat":-6.330363,"is_transit":false,"i_long":106.832616,"line":2,"time":3,"transit":false,"station_id":"LNA","distance":2671},{"station_id":"UP","line":2,"transit":false,"station_name":"Univ. Pancasila","is_transit":false,"time":2,"distance":1029,"i_long":106.834175,"i_lat":-6.339291}],[{"line":3,"distance":0,"i_lat":-6.33561,"transit":false,"i_long":106.411216,"station_id":"CKY","station_name":"Cikoya","time":0,"is_transit":false},{"time":3,"i_lat":-6.328533,"line":6,"distance":2651,"station_name":"Tigaraksa","is_transit":false,"i_long":106.425991,"station_id":"TGS","transit":false},{"station_id":"TEJ","distance":2974,"i_lat":-6.327251,"time":5,"i_long":106.460812,"is_transit":false,"transit":false,"station_name":"Tenjo","line":6},{"is_transit":false,"distance":3902,"line":0,"station_name":"Daru","station_id":"DAR","i_lat":-6.338021,"time":5,"transit":false,"i_long":106.491338},{"transit":false,"i_long":106.508482,"i_lat":-6.354349,"station_name":"Cilejit","time":6,"is_transit":false,"distance":2675,"station_id":"CJT","line":3},{"station_id":"PRP","transit":false,"station_name":"Parung Panjang","time":9,"distance":7025,"i_long":106.568863,"i_lat":-6.3441410000000005,"line":6,"is_transit":false},{"station_name":"Cicayur","is_transit":false,"time":8,"i_lat":-6.329547,"distance":5968,"line":3,"i_long":106.617853,"transit":false,"station_id":"CC"},{"transit":false,"station_id":"CSK","i_long":106.640411,"line":3,"station_name":"Cisauk","time":4,"is_transit":false,"distance":2519,"i_lat":-6.32484},{"transit":false,"station_name":"Serpong","i_long":106.66566,"time":4,"station_id":"SRP","distance":1784,"line":6,"is_transit":false,"i_lat":-6.319871},{"distance":2413,"time":4,"station_name":"Rawa Buntu","is_transit":false,"station_id":"RU","i_lat":-6.314823,"line":6,"i_long":106.675475,"transit":false},{"line":6,"distance":4566,"i_long":106.712277,"transit":false,"station_id":"SDM","is_transit":false,"i_lat":-6.296963,"station_name":"Sudimara","time":6},{"distance":1994,"transit":false,"station_id":"JMU","line":6,"time":4,"is_transit":false,"station_name":"Jurangmangu","i_lat":-6.288927,"i_long":106.728916},{"station_id":"PDJ","distance":2179,"transit":false,"station_name":"Pondokranji","is_transit":false,"i_lat":-6.276362,"time":3,"i_long":106.74273,"line":6},{"station_name":"Kebayoran","i_long":106.780334,"is_transit":false,"i_lat":-6.237242,"transit":false,"distance":6218,"line":6,"station_id":"KBY","time":8},{"station_id":"PLM","i_lat":-6.207404,"time":7,"station_name":"Palmerah","line":6,"transit":false,"is_transit":false,"i_long":106.79689,"distance":3737},{"is_transit":true,"transit":true,"i_lat":-6.185545,"i_long":106.811091,"line":1,"distance":3191,"station_name":"Tanah Abang","station_id":"THB","time":6},{"time":8,"transit":false,"station_name":"Duri","i_long":106.800832,"is_transit":false,"line":1,"i_lat":-6.155215,"distance":3632,"station_id":"DU"},{"transit":false,"distance":1230,"station_name":"Angke","i_long":106.79867,"time":4,"is_transit":false,"line":1,"i_lat":-6.144674,"station_id":"AK"},{"line":4,"is_transit":true,"i_long":106.826365,"station_name":"Kampung Bandan","distance":4102,"transit":true,"station_id":"KPB","time":9,"i_lat":-6.132549},{"transit":false,"time":3,"distance":1444,"station_id":"RJW","line":11,"station_name":"Rajawali","is_transit":false,"i_long":106.836569,"i_lat":-6.14505},{"distance":1901,"station_name":"Kemayoran","is_transit":false,"line":11,"time":5,"i_lat":-6.161728,"i_long":106.839204,"transit":false,"station_id":"KMO"},{"transit":false,"is_transit":false,"i_long":106.84368,"distance":1436,"i_lat":-6.174784,"time":4,"station_name":"Pasar Senen","station_id":"PSE","line":11},{"line":11,"distance":1567,"i_lat":-6.185975,"station_name":"Gang Sentiong","transit":false,"is_transit":false,"station_id":"GST","i_long":106.850107,"time":8},{"i_long":106.855437,"station_id":"KMT","i_lat":-6.193792,"transit":false,"distance":973,"time":1,"station_name":"Kramat","line":11,"is_transit":false},{"transit":false,"line":11,"station_id":"POK","distance":1829,"i_long":106.861737,"i_lat":-6.209188,"station_name":"Pondok Jati","is_transit":false,"time":2},{"line":1,"transit":true,"time":9,"station_name":"Jatinegara","station_id":"JNG","i_long":106.86807400000001,"distance":1236,"is_transit":true,"i_lat":-6.215091},{"time":2,"station_id":"MTR","i_long":106.858896,"distance":1377,"transit":false,"station_name":"Matraman","line":1,"i_lat":-6.212485,"is_transit":false},{"line":2,"transit":true,"is_transit":true,"station_id":"MRI","i_lat":-6.209883,"distance":1275,"station_name":"Manggarai","time":2,"i_long":106.84912},{"distance":2610,"station_id":"TEB","transit":false,"time":4,"i_long":106.857948,"i_lat":-6.226659,"line":2,"station_name":"Tebet","is_transit":false},{"is_transit":false,"distance":1230,"transit":false,"station_id":"CW","i_lat":-6.242512,"time":2,"line":2,"i_long":106.856607,"station_name":"Cawang"},{"station_id":"DRN","station_name":"Duren Kalibata","line":2,"time":3,"distance":1546,"is_transit":false,"i_lat":-6.255332,"i_long":106.85449,"transit":false},{"transit":false,"i_long":106.851577,"line":2,"distance":824,"station_id":"PSMB","i_lat":-6.263214,"time":2,"is_transit":false,"station_name":"Pasar Minggu Baru"},{"is_transit":false,"time":2,"transit":false,"i_long":106.843999,"station_name":"Pasar Minggu","station_id":"PSM","line":2,"i_lat":-6.2842400000000005,"distance":2380},{"is_transit":false,"distance":2820,"station_name":"Tanjung Barat","time":4,"station_id":"TNT","line":2,"transit":false,"i_long":106.838896,"i_lat":-6.3080680000000005},{"station_id":"LNA","station_name":"Lenteng Agung","transit":false,"is_transit":false,"time":3,"distance":2671,"i_lat":-6.330363,"i_long":106.832616,"line":2},{"distance":1029,"station_id":"UP","time":2,"i_lat":-6.339291,"i_long":106.834175,"transit":false,"station_name":"Univ. Pancasila","is_transit":false,"line":2}]]}