{"data":[[{"i_lat":-6.33561,"i_long":106.411216,"transit":false,"line":3,"station_name":"Cikoya","distance":0,"is_transit":false,"time":0,"station_id":"CKY"},{"i_lat":-6.328533,"station_name":"Tigaraksa","time":3,"is_transit":false,"i_long":106.425991,"line":6,"distance":2651,"transit":false,"station_id":"TGS"},{"transit":false,"line":6,"distance":2974,"is_transit":false,"station_id":"TEJ","station_name":"Tenjo","i_lat":-6.327251,"i_long":106.460812,"time":5},{"station_name":"Daru","is_transit":false,"line":0,"i_long":106.491338,"station_id":"DAR","distance":3902,"i_lat":-6.338021,"transit":false,"time":5},{"station_name":"Cilejit","transit":false,"distance":2675,"i_long":106.508482,"station_id":"CJT","i_lat":-6.354349,"time":6,"is_transit":false,"line":3},{"station_id":"PRP","station_name":"Parung Panjang","distance":7025,"is_transit":false,"transit":false,"i_long":106.568863,"i_lat":-6.3441410000000005,"time":9,"line":6},{"transit":false,"distance":5968,"is_transit":false,"i_lat":-6.329547,"i_long":106.617853,"station_name":"Cicayur","station_id":"CC","time":8,"line":3},{"is_transit":false,"i_long":106.640411,"distance":2519,"line":3,"time":4,"station_name":"Cisauk","i_lat":-6.32484,"station_id":"CSK","transit":false},{"station_id":"SRP","line":6,"transit":false,"i_long":106.66566,"is_transit":false,"i_lat":-6.319871,"distance":1784,"station_name":"Serpong","time":4},{"is_transit":false,"time":4,"station_name":"Rawa Buntu","i_long":106.675475,"distance":2413,"i_lat":-6.314823,"transit":false,"line":6,"station_id":"RU"},{"time":6,"station_id":"SDM","station_name":"Sudimara","is_transit":false,"i_long":106.712277,"distance":4566,"transit":false,"i_lat":-6.296963,"line":6},{"transit":false,"station_id":"JMU","distance":1994,"i_lat":-6.288927,"time":4,"line":6,"is_transit":false,"i_long":106.728916,"station_name":"Jurangmangu"},{"i_long":106.74273,"distance":2179,"line":6,"station_id":"PDJ","station_name":"Pondokranji","time":3,"i_lat":-6.276362,"is_transit":false,"transit":false},{"is_transit":false,"transit":false,"i_lat":-6.237242,"line":6,"time":8,"i_long":106.780334,"distance":6218,"station_id":"KBY","station_name":"Kebayoran"},{"i_lat":-6.207404,"station_id":"PLM","time":7,"is_transit":false,"line":6,"distance":3737,"station_name":"Palmerah","i_long":106.79689,"transit":false},{"transit":true,"station_id":"THB","distance":3191,"station_name":"Tanah Abang","time":6,"is_transit":true,"i_lat":-6.185545,"i_long":106.811091,"line":1},{"station_name":"Karet","is_transit":false,"time":5,"transit":false,"i_lat":-6.20132,"i_long":106.816351,"distance":2029,"line":1,"station_id":"KAT"},{"station_id":"SUDB","is_transit":false,"i_long":106.819881,"line":1,"station_name":"Sudirman Baru","time":1,"transit":false,"i_lat":-6.201433,"distance":471},{"transit":false,"line":1,"station_name":"Sudirman","station_id":"SUD","time":1,"distance":280,"i_lat":-6.202263,"is_transit":false,"i_long":106.822649},{"i_lat":-6.209883,"time":4,"station_id":"MRI","is_transit":true,"i_long":106.84912,"distance":3186,"line":2,"transit":true,"station_name":"Manggarai"},{"is_transit":false,"i_lat":-6.226659,"line":2,"i_long":106.857948,"station_id":"TEB","distance":2610,"station_name":"Tebet","time":4,"transit":false},{"is_transit":false,"i_long":106.856607,"line":2,"distance":1230,"transit":false,"station_id":"CW","station_name":"Cawang","time":2,"i_lat":-6.242512},{"time":3,"distance":1546,"i_lat":-6.255332,"line":2,"station_name":"Duren Kalibata","transit":false,"i_long":106.85449,"station_id":"DRN","is_transit":false},{"time":2,"station_id":"PSMB","i_lat":-6.263214,"i_long":106.851577,"distance":824,"transit":false,"line":2,"is_transit":false,"station_name":"Pasar Minggu Baru"},{"station_name":"Pasar Minggu","i_long":106.843999,"is_transit":false,"time":2,"i_lat":-6.2842400000000005,"station_id":"PSM","line":2,"distance":2380,"transit":false},{"i_lat":-6.3080680000000005,"distance":2820,"transit":false,"i_long":106.838896,"is_transit":false,"station_name":"Tanjung Barat","time":4,"station_id":"TNT","line":2},{"station_id":"LNA","distance":2671,"station_name":"Lenteng Agung","time":3,"is_transit":false,"i_long":106.832616,"line":2,"i_lat":-6.330363,"transit":false},{"station_name":"Univ. Pancasila","station_id":"UP","time":2,"distance":1029,"line":2,"is_transit":false,"transit":false,"i_lat":-6.339291,"i_long":106.834175},{"line":2,"distance":2264,"i_lat":-6.360749,"station_id":"UI","transit":false,"time":3,"i_long":106.831474,"station_name":"Univ. Indonesia","is_transit":false}],[{"i_long":106.411216,"line":3,"time":0,"station_name":"Cikoya","is_transit":false,"station_id":"CKY","distance":0,"transit":false,"i_lat":-6.33561},{"station_name":"Tigaraksa","transit":false,"is_transit":false,"distance":2651,"station_id":"TGS","i_lat":-6.328533,"line":6,"time":3,"i_long":106.425991},{"is_transit":false,"time":5,"i_lat":-6.327251,"line":6,"station_name":"Tenjo","distance":2974,"transit":false,"station_id":"TEJ","i_long":106.460812},{"transit":false,"time":5,"distance":3902,"station_name":"Daru","i_long":106.491338,"i_lat":-6.338021,"is_transit":false,"station_id":"DAR","line":0},{"i_long":106.508482,"is_transit":false,"distance":2675,"transit":false,"i_lat":-6.354349,"station_name":"Cilejit","station_id":"CJT","line":3,"time":6},{"transit":false,"line":6,"is_transit":false,"station_id":"PRP","time":9,"i_lat":-6.3441410000000005,"station_name":"Parung Panjang","distance":7025,"i_long":106.568863},{"station_name":"Cicayur","distance":5968,"is_transit":false,"transit":false,"i_long":106.617853,"line":3,"station_id":"CC","time":8,"i_lat":-6.329547},{"station_name":"Cisauk","distance":2519,"time":4,"transit":false,"line":3,"i_lat":-6.32484,"station_id":"CSK","is_transit":false,"i_long":106.640411},{"i_lat":-6.319871,"station_id":"SRP","is_transit":false,"time":4,"line":6,"distance":1784,"transit":false,"station_name":"Serpong","i_long":106.66566},{"line":6,"station_id":"RU","station_name":"Rawa Buntu","i_long":106.675475,"transit":false,"i_lat":-6.314823,"time":4,"distance":2413,"is_transit":false},{"time":6,"is_transit":false,"transit":false,"distance":4566,"station_id":"SDM","station_name":"Sudimara","line":6,"i_long":106.712277,"i_lat":-6.296963},{"i_long":106.728916,"station_name":"Jurangmangu","distance":1994,"is_transit":false,"station_id":"JMU","transit":false,"line":6,"i_lat":-6.288927,"time":4},{"line":6,"i_lat":-6.276362,"distance":2179,"station_id":"PDJ","transit":false,"is_transit":false,"station_name":"Pondokranji","time":3,"i_long":106.74273},{"station_id":"KBY","distance":6218,"is_transit":false,"i_long":106.780334,"station_name":"Kebayoran","line":6,"i_lat":-6.237242,"time":8,"transit":false},{"station_id":"PLM","line":6,"time":7,"i_lat":-6.207404,"is_transit":false,"station_name":"Palmerah","distance":3737,"i_long":106.79689,"transit":false},{"time":6,"line":1,"station_name":"Tanah Abang","distance":3191,"station_id":"THB","i_long":106.811091,"transit":true,"i_lat":-6.185545,"is_transit":true},{"time":8,"i_long":106.800832,"line":1,"station_name":"Duri","station_id":"DU","i_lat":-6.155215,"distance":3632,"transit":false,"is_transit":false},{"station_id":"AK","transit":false,"i_lat":-6.144674,"time":4,"station_name":"Angke","distance":1230,"line":1,"is_transit":false,"i_long":106.79867},{"i_long":106.826365,"station_id":"KPB","station_name":"Kampung Bandan","distance":4102,"is_transit":true,"transit":true,"i_lat":-6.132549,"line":4,"time":9},{"station_name":"Jakarta Kota","is_transit":true,"transit":true,"time":3,"distance":1364,"i_lat":-6.137569,"i_long":106.812439,"line":2,"station_id":"JAKK"},{"is_transit":false,"i_lat":-6.141205,"time":4,"station_name":"Jayakarta","i_long":106.820901,"transit":false,"distance":1264,"line":2,"station_id":"JAY"},{"station_name":"Manggabesar","station_id":"MGB","i_long":106.82482,"transit":false,"line":2,"is_transit":false,"i_lat":-6.149769,"time":2,"distance":1080},{"time":2,"station_name":"Sawah Besar","i_lat":-6.160725,"transit":false,"line":2,"distance":906,"i_long":106.827103,"is_transit":false,"station_id":"SW"},{"i_lat":-6.166716,"is_transit":false,"distance":1149,"line":2,"i_long":106.828284,"station_id":"JUA","transit":false,"station_name":"Juanda","time":2},{"line":2,"is_transit":false,"i_lat":-6.186295,"i_long":106.832183,"station_name":"Gondangdia","distance":2015,"transit":false,"station_id":"GDD","time":4},{"station_name":"Cikini","is_transit":false,"time":3,"distance":1750,"line":2,"station_id":"CKI","i_long":106.840169,"transit":false,"i_lat":-6.198556},{"station_id":"MRI","i_lat":-6.209883,"i_long":106.84912,"time":4,"transit":false,"line":2,"station_name":"Manggarai","is_transit":false,"distance":1590},{"time":4,"transit":false,"distance":2610,"i_lat":-6.226659,"line":2,"i_long":106.857948,"station_id":"TEB","station_name":"Tebet","is_transit":false},{"line":2,"station_id":"CW","transit":false,"station_name":"Cawang","distance":1230,"i_lat":-6.242512,"i_long":106.856607,"time":2,"is_transit":false},{"transit":false,"is_transit":false,"i_long":106.85449,"station_name":"Duren Kalibata","station_id":"DRN","i_lat":-6.255332,"time":3,"line":2,"distance":1546},{"time":2,"is_transit":false,"station_name":"Pasar Minggu Baru","transit":false,"line":2,"distance":824,"i_long":106.851577,"i_lat":-6.263214,"station_id":"PSMB"},{"station_id":"PSM","i_long":106.843999,"i_lat":-6.2842400000000005,"is_transit":false,"station_name":"Pasar Minggu","line":2,"time":2,"distance":2380,"transit":false},{"time":4,"distance":2820,"i_lat":-6.3080680000000005,"line":2,"transit":false,"i_long":106.838896,"is_transit":false,"station_name":"Tanjung Barat","station_id":"TNT"},{"station_name":"Lenteng Agung","station_id":"LNA","distance":2671,"is_transit":false,"i_lat":-6.330363,"i_long":106.832616,"transit":false,"time":3,"line":2},{"transit":false,"i_lat":-6.339291,"distance":1029,"time":2,"i_long":106.834175,"station_name":"Univ. Pancasila","line":2,"station_id":"UP","is_transit":false},{"i_long":106.831474,"transit":false,"i_lat":-6.360749,"time":3,"distance":2264,"line":2,"station_id":"UI","station_name":"Univ. Indonesia","is_transit":false}],[{"distance":0,"i_lat":-6.33561,"station_name":"Cikoya","station_id":"CKY","line":3,"is_transit":false,"transit":false,"time":0,"i_long":106.411216},{"distance":2651,"is_transit":false,"transit":false,"time":3,"line":6,"station_name":"Tigaraksa","i_lat":-6.328533,"i_long":106.425991,"station_id":"TGS"},{"distance":2974,"time":5,"station_name":"Tenjo","line":6,"transit":false,"i_lat":-6.327251,"station_id":"TEJ","i_long":106.460812,"is_transit":false},{"station_name":"Daru","is_transit":false,"time":5,"distance":3902,"i_lat":-6.338021,"i_long":106.491338,"line":0,"station_id":"DAR","transit":false},{"distance":2675,"transit":false,"time":6,"i_lat":-6.354349,"i_long":106.508482,"is_transit":false,"line":3,"station_name":"Cilejit","station_id":"CJT"},{"line":6,"is_transit":false,"transit":false,"i_lat":-6.3441410000000005,"i_long":106.568863,"distance":7025,"time":9,"station_name":"Parung Panjang","station_id":"PRP"},{"distance":5968,"i_lat":-6.329547,"transit":false,"time":8,"station_name":"Cicayur","line":3,"station_id":"CC","i_long":106.617853,"is_transit":false},{"i_long":106.640411,"transit":false,"is_transit":false,"time":4,"station_id":"CSK","distance":2519,"line":3,"i_lat":-6.32484,"station_name":"Cisauk"},{"station_id":"SRP","time":4,"i_lat":-6.319871,"line":6,"transit":false,"i_long":106.66566,"distance":1784,"station_name":"Serpong","is_transit":false},{"station_name":"Rawa Buntu","is_transit":false,"distance":2413,"i_long":106.675475,"line":6,"station_id":"RU","time":4,"i_lat":-6.314823,"transit":false},{"transit":false,"i_long":106.712277,"line":6,"time":6,"distance":4566,"is_transit":false,"station_name":"Sudimara","i_lat":-6.296963,"station_id":"SDM"},{"line":6,"station_name":"Jurangmangu","is_transit":false,"station_id":"JMU","transit":false,"i_lat":-6.288927,"i_long":106.728916,"time":4,"distance":1994},{"i_lat":-6.276362,"station_id":"PDJ","time":3,"i_long":106.74273,"is_transit":false,"transit":false,"line":6,"station_name":"Pondokranji","distance":2179},{"time":8,"is_transit":false,"transit":false,"distance":6218,"i_lat":-6.237242,"line":6,"station_id":"KBY","i_long":106.780334,"station_name":"Kebayoran"},{"time":7,"line":6,"i_lat":-6.207404,"distance":3737,"is_transit":false,"station_name":"Palmerah","station_id":"PLM","transit":false,"i_long":106.79689},{"station_name":"Tanah Abang","is_transit":true,"transit":true,"line":1,"distance":3191,"station_id":"THB","time":6,"i_lat":-6.185545,"i_long":106.811091},{"i_lat":-6.155215,"i_long":106.800832,"is_transit":false,"transit":false,"time":8,"station_id":"DU","line":1,"distance":3632,"station_name":"Duri"},{"is_transit":false,"transit":false,"i_lat":-6.144674,"i_long":106.79867,"station_id":"AK","time":4,"distance":1230,"station_name":"Angke","line":1},{"station_name":"Kampung Bandan","transit":true,"time":9,"line":4,"i_long":106.826365,"i_lat":-6.132549,"is_transit":true,"station_id":"KPB","distance":4102},{"station_name":"Rajawali","station_id":"RJW","distance":1444,"i_lat":-6.14505,"transit":false,"time":3,"is_transit":false,"i_long":106.836569,"line":11},{"station_name":"Kemayoran","is_transit":false,"i_lat":-6.161728,"transit":false,"distance":1901,"time":5,"i_long":106.839204,"line":11,"station_id":"KMO"},{"distance":1436,"is_transit":false,"i_lat":-6.174784,"transit":false,"i_long":106.84368,"line":11,"time":4,"station_name":"Pasar Senen","station_id":"PSE"},{"i_lat":-6.185975,"station_name":"Gang Sentiong","i_long":106.850107,"time":8,"is_transit":false,"line":11,"transit":false,"station_id":"GST","distance":1567},{"distance":973,"line":11,"transit":false,"is_transit":false,"station_name":"Kramat","i_long":106.855437,"i_lat":-6.193792,"time":1,"station_id":"KMT"},{"i_lat":-6.209188,"station_name":"Pondok Jati","i_long":106.861737,"line":11,"transit":false,"is_transit":false,"station_id":"POK","time":2,"distance":1829},{"is_transit":true,"line":1,"time":9,"station_name":"Jatinegara","distance":1236,"transit":true,"i_long":106.86807400000001,"station_id":"JNG","i_lat":-6.215091},{"transit":false,"station_id":"MTR","station_name":"Matraman","i_long":106.858896,"line":1,"time":2,"distance":1377,"is_transit":false,"i_lat":-6.212485},{"is_transit":true,"distance":1275,"line":2,"i_lat":-6.209883,"i_long":106.84912,"station_id":"MRI","transit":true,"time":2,"station_name":"Manggarai"},{"time":4,"line":2,"transit":false,"i_long":106.857948,"distance":2610,"is_transit":false,"station_id":"TEB","i_lat":-6.226659,"station_name":"Tebet"},{"time":2,"i_long":106.856607,"transit":false,"line":2,"distance":1230,"i_lat":-6.242512,"station_id":"CW","is_transit":false,"station_name":"Cawang"},{"station_name":"Duren Kalibata","time":3,"transit":false,"distance":1546,"line":2,"station_id":"DRN","i_long":106.85449,"is_transit":false,"i_lat":-6.255332},{"i_long":106.851577,"line":2,"distance":824,"time":2,"is_transit":false,"transit":false,"i_lat":-6.263214,"station_id":"PSMB","station_name":"Pasar Minggu Baru"},{"station_id":"PSM","is_transit":false,"station_name":"Pasar Minggu","i_long":106.843999,"line":2,"transit":false,"time":2,"i_lat":-6.2842400000000005,"distance":2380},{"station_name":"Tanjung Barat","i_lat":-6.3080680000000005,"distance":2820,"time":4,"station_id":"TNT","line":2,"i_long":106.838896,"transit":false,"is_transit":false},{"is_transit":false,"distance":2671,"i_long":106.832616,"line":2,"station_name":"Lenteng Agung","transit":false,"i_lat":-6.330363,"time":3,"station_id":"LNA"},{"transit":false,"i_long":106.834175,"station_id":"UP","time":2,"distance":1029,"i_lat":-6.339291,"line":2,"is_transit":false,"station_name":"Univ. Pancasila"},{"transit":false,"distance":2264,"i_lat":-6.360749,"line":2,"station_id":"UI","time":3,"station_name":"Univ. Indonesia","is_transit":false,"i_long":106.831474}]]}