{"data":[[{"time":0,"station_id":"CKY","distance":0,"i_long":106.411216,"line":3,"station_name":"Cikoya","transit":false,"is_transit":false,"i_lat":-6.33561},{"i_long":106.425991,"station_id":"TGS","time":3,"is_transit":false,"distance":2651,"i_lat":-6.328533,"line":6,"station_name":"Tigaraksa","transit":false},{"i_long":106.460812,"transit":false,"line":6,"time":5,"i_lat":-6.327251,"station_name":"Tenjo","station_id":"TEJ","is_transit":false,"distance":2974},{"station_id":"DAR","line":0,"distance":3902,"is_transit":false,"i_long":106.491338,"station_name":"Daru","i_lat":-6.338021,"transit":false,"time":5},{"station_name":"Cilejit","i_lat":-6.354349,"transit":false,"i_long":106.508482,"line":3,"distance":2675,"time":6,"is_transit":false,"station_id":"CJT"},{"distance":7025,"time":9,"i_lat":-6.3441410000000005,"station_name":"Parung Panjang","transit":false,"station_id":"PRP","line":6,"is_transit":false,"i_long":106.568863},{"time":8,"i_lat":-6.329547,"i_long":106.617853,"distance":5968,"line":3,"station_name":"Cicayur","station_id":"CC","is_transit":false,"transit":false},{"station_id":"CSK","i_long":106.640411,"line":3,"i_lat":-6.32484,"time":4,"station_name":"Cisauk","is_transit":false,"distance":2519,"transit":false},{"station_id":"SRP","transit":false,"line":6,"i_long":106.66566,"distance":1784,"i_lat":-6.319871,"is_transit":false,"station_name":"Serpong","time":4},{"station_id":"RU","time":4,"line":6,"is_transit":false,"station_name":"Rawa Buntu","transit":false,"distance":2413,"i_lat":-6.314823,"i_long":106.675475},{"line":6,"distance":4566,"i_lat":-6.296963,"transit":false,"is_transit":false,"i_long":106.712277,"station_name":"Sudimara","station_id":"SDM","time":6},{"transit":false,"i_long":106.728916,"is_transit":false,"time":4,"station_id":"JMU","station_name":"Jurangmangu","line":6,"distance":1994,"i_lat":-6.288927},{"i_long":106.74273,"time":3,"station_id":"PDJ","i_lat":-6.276362,"line":6,"transit":false,"station_name":"Pondokranji","is_transit":false,"distance":2179},{"i_lat":-6.237242,"i_long":106.780334,"distance":6218,"station_name":"Kebayoran","line":6,"is_transit":false,"time":8,"station_id":"KBY","transit":false},{"is_transit":false,"i_lat":-6.207404,"distance":3737,"station_name":"Palmerah","i_long":106.79689,"transit":false,"station_id":"PLM","time":7,"line":6},{"distance":3191,"i_lat":-6.185545,"i_long":106.811091,"is_transit":true,"station_id":"THB","station_name":"Tanah Abang","transit":true,"line":1,"time":6},{"station_name":"Karet","distance":2029,"station_id":"KAT","line":1,"time":5,"transit":false,"i_lat":-6.20132,"i_long":106.816351,"is_transit":false},{"transit":false,"is_transit":false,"distance":471,"station_id":"SUDB","station_name":"Sudirman Baru","i_long":106.819881,"time":1,"line":1,"i_lat":-6.201433},{"station_id":"SUD","station_name":"Sudirman","transit":false,"time":1,"i_lat":-6.202263,"is_transit":false,"line":1,"i_long":106.822649,"distance":280},{"station_id":"MRI","is_transit":false,"station_name":"Manggarai","i_long":106.84912,"line":2,"transit":false,"i_lat":-6.209883,"distance":3186,"time":4},{"transit":false,"distance":1275,"station_id":"MTR","station_name":"Matraman","time":2,"i_lat":-6.212485,"i_long":106.858896,"line":1,"is_transit":false},{"i_long":106.86807400000001,"line":1,"distance":1377,"transit":false,"is_transit":false,"i_lat":-6.215091,"time":8,"station_id":"JNG","station_name":"Jatinegara"},{"station_id":"KLD","transit":false,"i_lat":-6.2135,"distance":3395,"is_transit":false,"line":1,"time":3,"station_name":"Klender","i_long":106.899548},{"station_id":"BUA","is_transit":false,"transit":false,"time":2,"station_name":"Buaran","i_lat":-6.215568,"i_long":106.922662,"line":1,"distance":3100},{"station_name":"Klenderbaru","transit":false,"is_transit":false,"line":1,"distance":1305,"i_lat":-6.217455,"i_long":106.939679,"station_id":"KLDB","time":1},{"distance":1385,"i_lat":-6.219053,"i_long":106.951283,"is_transit":false,"station_name":"Cakung","line":1,"transit":false,"time":8,"station_id":"CUK"},{"i_long":106.977657,"line":1,"is_transit":false,"distance":3097,"transit":false,"time":3,"i_lat":-6.224515,"station_id":"KRI","station_name":"Kranji"},{"i_lat":-6.236616,"is_transit":false,"line":1,"transit":false,"time":4,"distance":2520,"station_id":"BKS","i_long":106.997013,"station_name":"Bekasi"},{"i_lat":-6.248029,"station_id":"BKST","transit":false,"time":2,"is_transit":false,"distance":2368,"station_name":"Bekasi Timur","i_long":107.016735,"line":1},{"transit":false,"time":7,"i_long":107.055722,"line":1,"i_lat":-6.258864,"is_transit":false,"station_name":"Tambun","station_id":"TB","distance":4460},{"station_id":"CIT","transit":false,"line":1,"station_name":"Cibitung","i_lat":-6.261877,"time":3,"i_long":107.083084,"is_transit":false,"distance":3420}],[{"distance":0,"line":3,"station_name":"Cikoya","station_id":"CKY","is_transit":false,"time":0,"transit":false,"i_lat":-6.33561,"i_long":106.411216},{"station_name":"Tigaraksa","line":6,"station_id":"TGS","distance":2651,"is_transit":false,"transit":false,"i_long":106.425991,"time":3,"i_lat":-6.328533},{"is_transit":false,"distance":2974,"station_id":"TEJ","station_name":"Tenjo","i_lat":-6.327251,"line":6,"time":5,"transit":false,"i_long":106.460812},{"is_transit":false,"i_lat":-6.338021,"distance":3902,"time":5,"station_name":"Daru","line":0,"station_id":"DAR","i_long":106.491338,"transit":false},{"transit":false,"station_name":"Cilejit","line":3,"i_long":106.508482,"time":6,"station_id":"CJT","i_lat":-6.354349,"distance":2675,"is_transit":false},{"time":9,"station_name":"Parung Panjang","distance":7025,"transit":false,"is_transit":false,"i_lat":-6.3441410000000005,"i_long":106.568863,"station_id":"PRP","line":6},{"transit":false,"distance":5968,"time":8,"i_lat":-6.329547,"line":3,"station_name":"Cicayur","station_id":"CC","is_transit":false,"i_long":106.617853},{"time":4,"station_name":"Cisauk","line":3,"is_transit":false,"distance":2519,"i_lat":-6.32484,"i_long":106.640411,"transit":false,"station_id":"CSK"},{"transit":false,"distance":1784,"is_transit":false,"time":4,"i_lat":-6.319871,"i_long":106.66566,"station_id":"SRP","line":6,"station_name":"Serpong"},{"station_name":"Rawa Buntu","time":4,"distance":2413,"i_lat":-6.314823,"i_long":106.675475,"station_id":"RU","transit":false,"is_transit":false,"line":6},{"station_id":"SDM","i_lat":-6.296963,"distance":4566,"i_long":106.712277,"transit":false,"time":6,"is_transit":false,"line":6,"station_name":"Sudimara"},{"distance":1994,"line":6,"is_transit":false,"transit":false,"time":4,"i_lat":-6.288927,"station_name":"Jurangmangu","station_id":"JMU","i_long":106.728916},{"transit":false,"is_transit":false,"station_id":"PDJ","time":3,"i_lat":-6.276362,"station_name":"Pondokranji","i_long":106.74273,"line":6,"distance":2179},{"time":8,"distance":6218,"station_name":"Kebayoran","transit":false,"station_id":"KBY","is_transit":false,"i_long":106.780334,"line":6,"i_lat":-6.237242},{"station_name":"Palmerah","station_id":"PLM","transit":false,"time":7,"i_lat":-6.207404,"line":6,"i_long":106.79689,"distance":3737,"is_transit":false},{"i_lat":-6.185545,"i_long":106.811091,"line":1,"station_id":"THB","station_name":"Tanah Abang","transit":true,"time":6,"distance":3191,"is_transit":true},{"station_name":"Duri","transit":false,"station_id":"DU","i_long":106.800832,"line":1,"i_lat":-6.155215,"distance":3632,"is_transit":false,"time":8},{"is_transit":false,"i_lat":-6.144674,"transit":false,"station_id":"AK","time":4,"station_name":"Angke","i_long":106.79867,"line":1,"distance":1230},{"station_id":"KPB","i_long":106.826365,"time":9,"line":4,"transit":true,"is_transit":true,"distance":4102,"station_name":"Kampung Bandan","i_lat":-6.132549},{"time":3,"transit":false,"i_long":106.836569,"station_name":"Rajawali","line":11,"station_id":"RJW","is_transit":false,"i_lat":-6.14505,"distance":1444},{"is_transit":false,"station_name":"Kemayoran","line":11,"time":5,"distance":1901,"transit":false,"i_lat":-6.161728,"station_id":"KMO","i_long":106.839204},{"time":4,"line":11,"distance":1436,"transit":false,"is_transit":false,"station_name":"Pasar Senen","i_lat":-6.174784,"i_long":106.84368,"station_id":"PSE"},{"transit":false,"time":8,"i_lat":-6.185975,"distance":1567,"station_id":"GST","i_long":106.850107,"is_transit":false,"line":11,"station_name":"Gang Sentiong"},{"distance":973,"i_long":106.855437,"line":11,"transit":false,"is_transit":false,"station_id":"KMT","i_lat":-6.193792,"station_name":"Kramat","time":1},{"distance":1829,"i_lat":-6.209188,"station_name":"Pondok Jati","line":11,"i_long":106.861737,"station_id":"POK","is_transit":false,"transit":false,"time":2},{"i_lat":-6.215091,"line":1,"transit":true,"is_transit":true,"time":9,"station_id":"JNG","i_long":106.86807400000001,"distance":1236,"station_name":"Jatinegara"},{"station_id":"KLD","station_name":"Klender","line":1,"time":3,"i_long":106.899548,"distance":3395,"is_transit":false,"transit":false,"i_lat":-6.2135},{"station_name":"Buaran","time":2,"distance":3100,"i_lat":-6.215568,"station_id":"BUA","line":1,"transit":false,"is_transit":false,"i_long":106.922662},{"distance":1305,"transit":false,"station_name":"Klenderbaru","line":1,"station_id":"KLDB","i_long":106.939679,"i_lat":-6.217455,"time":1,"is_transit":false},{"i_long":106.951283,"i_lat":-6.219053,"transit":false,"is_transit":false,"line":1,"station_id":"CUK","time":8,"distance":1385,"station_name":"Cakung"},{"station_id":"KRI","distance":3097,"transit":false,"i_lat":-6.224515,"station_name":"Kranji","line":1,"i_long":106.977657,"time":3,"is_transit":false},{"i_long":106.997013,"transit":false,"distance":2520,"station_id":"BKS","station_name":"Bekasi","i_lat":-6.236616,"time":4,"line":1,"is_transit":false},{"station_id":"BKST","distance":2368,"is_transit":false,"time":2,"station_name":"Bekasi Timur","i_long":107.016735,"line":1,"transit":false,"i_lat":-6.248029},{"time":7,"i_lat":-6.258864,"line":1,"transit":false,"station_id":"TB","distance":4460,"is_transit":false,"i_long":107.055722,"station_name":"Tambun"},{"distance":3420,"station_id":"CIT","is_transit":false,"line":1,"time":3,"transit":false,"i_long":107.083084,"station_name":"Cibitung","i_lat":-6.261877}],[{"i_lat":-6.33561,"time":0,"station_name":"Cikoya","transit":false,"is_transit":false,"distance":0,"line":3,"station_id":"CKY","i_long":106.411216},{"i_long":106.425991,"is_transit":false,"station_id":"TGS","transit":false,"distance":2651,"i_lat":-6.328533,"time":3,"line":6,"station_name":"Tigaraksa"},{"transit":false,"line":6,"i_long":106.460812,"station_id":"TEJ","distance":2974,"station_name":"Tenjo","time":5,"is_transit":false,"i_lat":-6.327251},{"i_lat":-6.338021,"station_name":"Daru","line":0,"i_long":106.491338,"is_transit":false,"transit":false,"station_id":"DAR","distance":3902,"time":5},{"distance":2675,"station_name":"Cilejit","i_lat":-6.354349,"i_long":106.508482,"line":3,"is_transit":false,"transit":false,"time":6,"station_id":"CJT"},{"station_name":"Parung Panjang","station_id":"PRP","i_lat":-6.3441410000000005,"i_long":106.568863,"time":9,"distance":7025,"transit":false,"is_transit":false,"line":6},{"is_transit":false,"line":3,"station_name":"Cicayur","i_lat":-6.329547,"time":8,"transit":false,"station_id":"CC","distance":5968,"i_long":106.617853},{"is_transit":false,"line":3,"station_name":"Cisauk","i_long":106.640411,"i_lat":-6.32484,"distance":2519,"transit":false,"time":4,"station_id":"CSK"},{"line":6,"distance":1784,"time":4,"i_lat":-6.319871,"station_name":"Serpong","i_long":106.66566,"is_transit":false,"station_id":"SRP","transit":false},{"time":4,"transit":false,"station_name":"Rawa Buntu","i_lat":-6.314823,"line":6,"station_id":"RU","i_long":106.675475,"is_transit":false,"distance":2413},{"i_lat":-6.296963,"i_long":106.712277,"transit":false,"station_name":"Sudimara","line":6,"station_id":"SDM","distance":4566,"is_transit":false,"time":6},{"i_long":106.728916,"station_id":"JMU","distance":1994,"station_name":"Jurangmangu","is_transit":false,"transit":false,"line":6,"i_lat":-6.288927,"time":4},{"station_name":"Pondokranji","transit":false,"time":3,"line":6,"station_id":"PDJ","is_transit":false,"i_long":106.74273,"i_lat":-6.276362,"distance":2179},{"i_long":106.780334,"transit":false,"station_name":"Kebayoran","line":6,"is_transit":false,"station_id":"KBY","i_lat":-6.237242,"time":8,"distance":6218},{"station_name":"Palmerah","station_id":"PLM","i_lat":-6.207404,"line":6,"transit":false,"time":7,"is_transit":false,"distance":3737,"i_long":106.79689},{"transit":true,"time":6,"distance":3191,"station_name":"Tanah Abang","i_long":106.811091,"i_lat":-6.185545,"line":1,"station_id":"THB","is_transit":true},{"station_id":"DU","i_lat":-6.155215,"distance":3632,"time":8,"i_long":106.800832,"line":1,"station_name":"Duri","is_transit":false,"transit":false},{"i_lat":-6.144674,"is_transit":false,"line":1,"station_name":"Angke","transit":false,"i_long":106.79867,"station_id":"AK","time":4,"distance":1230},{"i_lat":-6.132549,"station_id":"KPB","is_transit":true,"i_long":106.826365,"line":4,"time":9,"station_name":"Kampung Bandan","distance":4102,"transit":true},{"station_id":"JAKK","is_transit":true,"line":2,"station_name":"Jakarta Kota","distance":1364,"time":3,"i_lat":-6.137569,"transit":true,"i_long":106.812439},{"is_transit":false,"station_name":"Jayakarta","station_id":"JAY","i_long":106.820901,"line":2,"time":4,"i_lat":-6.141205,"transit":false,"distance":1264},{"station_id":"MGB","station_name":"Manggabesar","distance":1080,"transit":false,"i_long":106.82482,"time":2,"is_transit":false,"i_lat":-6.149769,"line":2},{"i_lat":-6.160725,"station_id":"SW","is_transit":false,"time":2,"i_long":106.827103,"line":2,"distance":906,"station_name":"Sawah Besar","transit":false},{"i_lat":-6.166716,"station_id":"JUA","i_long":106.828284,"distance":1149,"transit":false,"is_transit":false,"time":2,"station_name":"Juanda","line":2},{"station_id":"GDD","distance":2015,"is_transit":false,"i_long":106.832183,"station_name":"Gondangdia","i_lat":-6.186295,"transit":false,"line":2,"time":4},{"transit":false,"i_lat":-6.198556,"line":2,"is_transit":false,"i_long":106.840169,"station_id":"CKI","station_name":"Cikini","distance":1750,"time":3},{"i_long":106.84912,"station_id":"MRI","distance":1590,"station_name":"Manggarai","i_lat":-6.209883,"line":2,"is_transit":true,"time":4,"transit":true},{"distance":1275,"i_long":106.858896,"i_lat":-6.212485,"time":2,"station_id":"MTR","line":1,"is_transit":false,"station_name":"Matraman","transit":false},{"time":8,"i_long":106.86807400000001,"distance":1377,"station_name":"Jatinegara","transit":false,"i_lat":-6.215091,"is_transit":false,"station_id":"JNG","line":1},{"transit":false,"station_name":"Klender","i_lat":-6.2135,"station_id":"KLD","is_transit":false,"i_long":106.899548,"line":1,"distance":3395,"time":3},{"is_transit":false,"station_name":"Buaran","distance":3100,"transit":false,"time":2,"i_long":106.922662,"station_id":"BUA","line":1,"i_lat":-6.215568},{"station_id":"KLDB","i_lat":-6.217455,"station_name":"Klenderbaru","time":1,"is_transit":false,"distance":1305,"i_long":106.939679,"transit":false,"line":1},{"transit":false,"i_long":106.951283,"i_lat":-6.219053,"station_id":"CUK","station_name":"Cakung","is_transit":false,"distance":1385,"time":8,"line":1},{"time":3,"station_id":"KRI","is_transit":false,"transit":false,"station_name":"Kranji","i_lat":-6.224515,"i_long":106.977657,"line":1,"distance":3097},{"transit":false,"i_lat":-6.236616,"line":1,"is_transit":false,"i_long":106.997013,"time":4,"distance":2520,"station_id":"BKS","station_name":"Bekasi"},{"i_lat":-6.248029,"distance":2368,"transit":false,"station_name":"Bekasi Timur","is_transit":false,"i_long":107.016735,"station_id":"BKST","line":1,"time":2},{"distance":4460,"i_long":107.055722,"station_id":"TB","time":7,"station_name":"Tambun","line":1,"transit":false,"is_transit":false,"i_lat":-6.258864},{"station_id":"CIT","line":1,"time":3,"i_lat":-6.261877,"i_long":107.083084,"distance":3420,"is_transit":false,"station_name":"Cibitung","transit":false}],[{"i_lat":-6.33561,"i_long":106.411216,"station_id":"CKY","distance":0,"time":0,"station_name":"Cikoya","is_transit":false,"transit":false,"line":3},{"i_lat":-6.328533,"distance":2651,"time":3,"station_name":"Tigaraksa","is_transit":false,"i_long":106.425991,"line":6,"station_id":"TGS","transit":false},{"distance":2974,"is_transit":false,"i_long":106.460812,"transit":false,"station_id":"TEJ","station_name":"Tenjo","line":6,"i_lat":-6.327251,"time":5},{"distance":3902,"station_name":"Daru","station_id":"DAR","time":5,"i_lat":-6.338021,"transit":false,"i_long":106.491338,"line":0,"is_transit":false},{"i_lat":-6.354349,"station_name":"Cilejit","line":3,"station_id":"CJT","distance":2675,"is_transit":false,"transit":false,"time":6,"i_long":106.508482},{"transit":false,"time":9,"distance":7025,"i_long":106.568863,"is_transit":false,"line":6,"station_id":"PRP","i_lat":-6.3441410000000005,"station_name":"Parung Panjang"},{"i_long":106.617853,"station_id":"CC","station_name":"Cicayur","is_transit":false,"line":3,"transit":false,"time":8,"i_lat":-6.329547,"distance":5968},{"station_name":"Cisauk","station_id":"CSK","distance":2519,"is_transit":false,"i_lat":-6.32484,"line":3,"i_long":106.640411,"transit":false,"time":4},{"station_name":"Serpong","time":4,"distance":1784,"i_lat":-6.319871,"i_long":106.66566,"line":6,"is_transit":false,"station_id":"SRP","transit":false},{"time":4,"station_name":"Rawa Buntu","distance":2413,"i_lat":-6.314823,"is_transit":false,"transit":false,"i_long":106.675475,"line":6,"station_id":"RU"},{"i_lat":-6.296963,"line":6,"station_id":"SDM","is_transit":false,"i_long":106.712277,"transit":false,"time":6,"distance":4566,"station_name":"Sudimara"},{"transit":false,"is_transit":false,"station_id":"JMU","line":6,"station_name":"Jurangmangu","distance":1994,"i_lat":-6.288927,"time":4,"i_long":106.728916},{"distance":2179,"line":6,"station_id":"PDJ","i_lat":-6.276362,"station_name":"Pondokranji","time":3,"transit":false,"is_transit":false,"i_long":106.74273},{"i_long":106.780334,"i_lat":-6.237242,"station_id":"KBY","distance":6218,"is_transit":false,"time":8,"line":6,"station_name":"Kebayoran","transit":false},{"transit":false,"station_name":"Palmerah","is_transit":false,"line":6,"i_long":106.79689,"distance":3737,"station_id":"PLM","time":7,"i_lat":-6.207404},{"i_long":106.811091,"line":1,"station_id":"THB","i_lat":-6.185545,"station_name":"Tanah Abang","distance":3191,"transit":true,"is_transit":true,"time":6},{"station_name":"Karet","i_lat":-6.20132,"transit":false,"is_transit":false,"distance":2029,"station_id":"KAT","time":5,"line":1,"i_long":106.816351},{"line":1,"time":1,"station_id":"SUDB","transit":false,"distance":471,"is_transit":false,"station_name":"Sudirman Baru","i_lat":-6.201433,"i_long":106.819881},{"i_lat":-6.202263,"time":1,"i_long":106.822649,"is_transit":false,"line":1,"station_name":"Sudirman","station_id":"SUD","transit":false,"distance":280},{"distance":3186,"station_name":"Manggarai","is_transit":true,"transit":true,"time":4,"i_lat":-6.209883,"i_long":106.84912,"line":2,"station_id":"MRI"},{"is_transit":false,"time":4,"station_id":"CKI","i_lat":-6.198556,"station_name":"Cikini","line":2,"distance":1590,"transit":false,"i_long":106.840169},{"station_name":"Gondangdia","i_long":106.832183,"i_lat":-6.186295,"is_transit":false,"transit":false,"line":2,"time":3,"station_id":"GDD","distance":1750},{"time":4,"is_transit":false,"station_id":"JUA","line":2,"distance":2015,"i_lat":-6.166716,"i_long":106.828284,"station_name":"Juanda","transit":false},{"line":2,"time":2,"station_name":"Sawah Besar","i_lat":-6.160725,"i_long":106.827103,"station_id":"SW","distance":1149,"transit":false,"is_transit":false},{"i_lat":-6.149769,"station_id":"MGB","transit":false,"i_long":106.82482,"station_name":"Manggabesar","distance":906,"line":2,"is_transit":false,"time":2},{"time":2,"line":2,"i_lat":-6.141205,"transit":false,"i_long":106.820901,"is_transit":false,"station_id":"JAY","distance":1080,"station_name":"Jayakarta"},{"station_name":"Jakarta Kota","is_transit":true,"i_long":106.812439,"transit":true,"line":2,"time":4,"i_lat":-6.137569,"station_id":"JAKK","distance":1264},{"station_id":"KPB","time":3,"i_long":106.826365,"i_lat":-6.132549,"station_name":"Kampung Bandan","transit":true,"is_transit":true,"line":4,"distance":1364},{"station_id":"RJW","transit":false,"station_name":"Rajawali","is_transit":false,"time":3,"i_long":106.836569,"line":11,"i_lat":-6.14505,"distance":1444},{"transit":false,"time":5,"station_name":"Kemayoran","distance":1901,"i_lat":-6.161728,"station_id":"KMO","is_transit":false,"i_long":106.839204,"line":11},{"station_name":"Pasar Senen","i_long":106.84368,"time":4,"distance":1436,"is_transit":false,"station_id":"PSE","i_lat":-6.174784,"transit":false,"line":11},{"distance":1567,"line":11,"is_transit":false,"i_lat":-6.185975,"transit":false,"station_name":"Gang Sentiong","time":8,"i_long":106.850107,"station_id":"GST"},{"station_id":"KMT","station_name":"Kramat","transit":false,"line":11,"distance":973,"is_transit":false,"i_lat":-6.193792,"i_long":106.855437,"time":1},{"station_id":"POK","time":2,"i_lat":-6.209188,"station_name":"Pondok Jati","i_long":106.861737,"is_transit":false,"distance":1829,"transit":false,"line":11},{"distance":1236,"transit":true,"is_transit":true,"time":9,"i_long":106.86807400000001,"station_name":"Jatinegara","station_id":"JNG","i_lat":-6.215091,"line":1},{"transit":false,"i_long":106.899548,"is_transit":false,"distance":3395,"line":1,"station_id":"KLD","station_name":"Klender","time":3,"i_lat":-6.2135},{"distance":3100,"transit":false,"station_name":"Buaran","i_long":106.922662,"line":1,"station_id":"BUA","i_lat":-6.215568,"time":2,"is_transit":false},{"i_long":106.939679,"line":1,"i_lat":-6.217455,"station_name":"Klenderbaru","station_id":"KLDB","is_transit":false,"distance":1305,"transit":false,"time":1},{"time":8,"i_lat":-6.219053,"is_transit":false,"station_name":"Cakung","transit":false,"i_long":106.951283,"station_id":"CUK","line":1,"distance":1385},{"transit":false,"time":3,"i_long":106.977657,"station_id":"KRI","is_transit":false,"i_lat":-6.224515,"line":1,"station_name":"Kranji","distance":3097},{"station_id":"BKS","distance":2520,"station_name":"Bekasi","is_transit":false,"time":4,"i_long":106.997013,"transit":false,"line":1,"i_lat":-6.236616},{"distance":2368,"station_name":"Bekasi Timur","station_id":"BKST","transit":false,"i_lat":-6.248029,"time":2,"i_long":107.016735,"line":1,"is_transit":false},{"is_transit":false,"station_id":"TB","i_lat":-6.258864,"distance":4460,"transit":false,"station_name":"Tambun","i_long":107.055722,"line":1,"time":7},{"station_id":"CIT","station_name":"Cibitung","i_long":107.083084,"time":3,"transit":false,"distance":3420,"is_transit":false,"line":1,"i_lat":-6.261877}]]}