{"data":[[{"distance":0,"station_id":"CKY","time":0,"station_name":"Cikoya","line":0,"i_long":106.411216,"transit":false,"is_transit":false,"i_lat":-6.33561},{"is_transit":false,"station_name":"Tigaraksa","time":3,"station_id":"TGS","transit":false,"i_lat":-6.328533,"i_long":106.425991,"distance":2651,"line":6},{"station_id":"TEJ","line":6,"time":5,"distance":2974,"transit":false,"station_name":"Tenjo","i_lat":-6.327251,"i_long":106.460812,"is_transit":false},{"transit":false,"is_transit":false,"line":0,"i_lat":-6.338021,"time":5,"station_name":"Daru","distance":3902,"station_id":"DAR","i_long":106.491338},{"transit":false,"is_transit":false,"distance":2675,"i_lat":-6.354349,"time":6,"station_id":"CJT","i_long":106.508482,"station_name":"Cilejit","line":0},{"station_id":"PRP","station_name":"Parung Panjang","distance":7025,"transit":false,"i_lat":-6.3441410000000005,"i_long":106.568863,"is_transit":false,"line":6,"time":9}]]}