{"data":[[{"station_id":"CKY","i_lat":-6.33561,"i_long":106.411216,"time":0,"line":3,"station_name":"Cikoya","is_transit":false,"transit":false,"distance":0},{"i_long":106.425991,"is_transit":false,"transit":false,"i_lat":-6.328533,"time":3,"line":6,"distance":2651,"station_id":"TGS","station_name":"Tigaraksa"},{"i_long":106.460812,"time":5,"distance":2974,"station_id":"TEJ","station_name":"Tenjo","is_transit":false,"i_lat":-6.327251,"line":6,"transit":false},{"i_long":106.491338,"line":0,"station_id":"DAR","i_lat":-6.338021,"station_name":"Daru","transit":false,"time":5,"is_transit":false,"distance":3902},{"is_transit":false,"transit":false,"i_lat":-6.354349,"distance":2675,"i_long":106.508482,"station_name":"Cilejit","line":3,"station_id":"CJT","time":6},{"time":9,"line":6,"i_lat":-6.3441410000000005,"transit":false,"station_id":"PRP","is_transit":false,"station_name":"Parung Panjang","distance":7025,"i_long":106.568863},{"distance":5968,"time":8,"station_name":"Cicayur","station_id":"CC","i_lat":-6.329547,"i_long":106.617853,"line":3,"is_transit":false,"transit":false},{"i_long":106.640411,"distance":2519,"time":4,"line":3,"transit":false,"station_id":"CSK","is_transit":false,"station_name":"Cisauk","i_lat":-6.32484},{"time":4,"station_id":"SRP","is_transit":false,"station_name":"Serpong","i_long":106.66566,"transit":false,"line":6,"i_lat":-6.319871,"distance":1784},{"time":4,"station_name":"Rawa Buntu","distance":2413,"transit":false,"is_transit":false,"line":6,"station_id":"RU","i_lat":-6.314823,"i_long":106.675475},{"is_transit":false,"time":6,"transit":false,"station_name":"Sudimara","line":6,"distance":4566,"i_lat":-6.296963,"station_id":"SDM","i_long":106.712277},{"transit":false,"i_lat":-6.288927,"i_long":106.728916,"station_id":"JMU","line":6,"time":4,"distance":1994,"is_transit":false,"station_name":"Jurangmangu"},{"station_name":"Pondokranji","distance":2179,"is_transit":false,"i_lat":-6.276362,"station_id":"PDJ","i_long":106.74273,"line":6,"transit":false,"time":3},{"distance":6218,"line":6,"time":8,"station_name":"Kebayoran","is_transit":false,"station_id":"KBY","i_lat":-6.237242,"i_long":106.780334,"transit":false},{"i_long":106.79689,"station_id":"PLM","distance":3737,"is_transit":false,"time":7,"station_name":"Palmerah","i_lat":-6.207404,"line":6,"transit":false},{"station_name":"Tanah Abang","is_transit":true,"station_id":"THB","transit":true,"i_long":106.811091,"time":6,"distance":3191,"line":1,"i_lat":-6.185545},{"time":5,"line":1,"transit":false,"station_name":"Karet","station_id":"KAT","is_transit":false,"i_long":106.816351,"distance":2029,"i_lat":-6.20132},{"line":1,"time":1,"i_lat":-6.201433,"station_name":"Sudirman Baru","is_transit":false,"distance":471,"station_id":"SUDB","i_long":106.819881,"transit":false},{"time":1,"station_name":"Sudirman","is_transit":false,"i_long":106.822649,"line":1,"transit":false,"distance":280,"i_lat":-6.202263,"station_id":"SUD"},{"transit":false,"station_id":"MRI","distance":3186,"i_long":106.84912,"line":2,"station_name":"Manggarai","is_transit":false,"time":4,"i_lat":-6.209883},{"station_name":"Matraman","transit":false,"time":2,"line":1,"i_long":106.858896,"i_lat":-6.212485,"distance":1275,"is_transit":false,"station_id":"MTR"},{"station_id":"JNG","station_name":"Jatinegara","distance":1377,"transit":false,"i_long":106.86807400000001,"i_lat":-6.215091,"is_transit":false,"time":8,"line":1},{"transit":false,"station_id":"KLD","is_transit":false,"distance":3395,"time":3,"station_name":"Klender","i_lat":-6.2135,"line":1,"i_long":106.899548},{"station_name":"Buaran","i_long":106.922662,"line":1,"station_id":"BUA","distance":3100,"is_transit":false,"transit":false,"i_lat":-6.215568,"time":2},{"line":1,"station_id":"KLDB","distance":1305,"i_lat":-6.217455,"time":1,"station_name":"Klenderbaru","is_transit":false,"transit":false,"i_long":106.939679}],[{"i_long":106.411216,"time":0,"is_transit":false,"i_lat":-6.33561,"distance":0,"line":3,"station_name":"Cikoya","station_id":"CKY","transit":false},{"transit":false,"time":3,"station_name":"Tigaraksa","i_long":106.425991,"station_id":"TGS","line":6,"is_transit":false,"i_lat":-6.328533,"distance":2651},{"station_name":"Tenjo","transit":false,"station_id":"TEJ","i_lat":-6.327251,"distance":2974,"is_transit":false,"i_long":106.460812,"line":6,"time":5},{"station_id":"DAR","line":0,"i_long":106.491338,"is_transit":false,"transit":false,"station_name":"Daru","time":5,"i_lat":-6.338021,"distance":3902},{"station_name":"Cilejit","line":3,"i_lat":-6.354349,"distance":2675,"is_transit":false,"i_long":106.508482,"transit":false,"time":6,"station_id":"CJT"},{"time":9,"i_long":106.568863,"transit":false,"distance":7025,"is_transit":false,"i_lat":-6.3441410000000005,"line":6,"station_id":"PRP","station_name":"Parung Panjang"},{"transit":false,"is_transit":false,"i_lat":-6.329547,"time":8,"distance":5968,"station_name":"Cicayur","i_long":106.617853,"line":3,"station_id":"CC"},{"i_long":106.640411,"station_id":"CSK","i_lat":-6.32484,"distance":2519,"line":3,"time":4,"station_name":"Cisauk","transit":false,"is_transit":false},{"i_long":106.66566,"i_lat":-6.319871,"line":6,"transit":false,"distance":1784,"is_transit":false,"time":4,"station_id":"SRP","station_name":"Serpong"},{"i_lat":-6.314823,"station_id":"RU","distance":2413,"i_long":106.675475,"station_name":"Rawa Buntu","time":4,"is_transit":false,"transit":false,"line":6},{"station_id":"SDM","i_lat":-6.296963,"i_long":106.712277,"distance":4566,"line":6,"time":6,"station_name":"Sudimara","is_transit":false,"transit":false},{"i_long":106.728916,"transit":false,"station_id":"JMU","is_transit":false,"line":6,"station_name":"Jurangmangu","time":4,"distance":1994,"i_lat":-6.288927},{"transit":false,"time":3,"station_name":"Pondokranji","is_transit":false,"line":6,"station_id":"PDJ","distance":2179,"i_lat":-6.276362,"i_long":106.74273},{"transit":false,"time":8,"line":6,"distance":6218,"station_id":"KBY","is_transit":false,"i_long":106.780334,"station_name":"Kebayoran","i_lat":-6.237242},{"i_long":106.79689,"station_id":"PLM","time":7,"is_transit":false,"station_name":"Palmerah","distance":3737,"i_lat":-6.207404,"transit":false,"line":6},{"i_long":106.811091,"station_name":"Tanah Abang","time":6,"is_transit":true,"i_lat":-6.185545,"line":1,"transit":true,"distance":3191,"station_id":"THB"},{"time":8,"line":1,"is_transit":false,"distance":3632,"station_name":"Duri","station_id":"DU","i_long":106.800832,"transit":false,"i_lat":-6.155215},{"distance":1230,"transit":false,"is_transit":false,"i_long":106.79867,"time":4,"station_id":"AK","i_lat":-6.144674,"line":1,"station_name":"Angke"},{"i_lat":-6.132549,"station_id":"KPB","time":9,"station_name":"Kampung Bandan","transit":true,"line":4,"distance":4102,"is_transit":true,"i_long":106.826365},{"i_long":106.836569,"time":3,"distance":1444,"line":11,"station_id":"RJW","station_name":"Rajawali","i_lat":-6.14505,"transit":false,"is_transit":false},{"station_name":"Kemayoran","i_lat":-6.161728,"station_id":"KMO","transit":false,"time":5,"line":11,"distance":1901,"i_long":106.839204,"is_transit":false},{"i_long":106.84368,"transit":false,"station_id":"PSE","distance":1436,"i_lat":-6.174784,"time":4,"is_transit":false,"station_name":"Pasar Senen","line":11},{"distance":1567,"is_transit":false,"station_id":"GST","time":8,"i_long":106.850107,"transit":false,"station_name":"Gang Sentiong","i_lat":-6.185975,"line":11},{"distance":973,"station_id":"KMT","is_transit":false,"time":1,"i_lat":-6.193792,"i_long":106.855437,"transit":false,"station_name":"Kramat","line":11},{"station_id":"POK","time":2,"station_name":"Pondok Jati","i_lat":-6.209188,"is_transit":false,"line":11,"transit":false,"distance":1829,"i_long":106.861737},{"is_transit":true,"time":9,"line":1,"i_lat":-6.215091,"station_id":"JNG","station_name":"Jatinegara","i_long":106.86807400000001,"distance":1236,"transit":true},{"station_name":"Klender","i_lat":-6.2135,"station_id":"KLD","is_transit":false,"line":1,"i_long":106.899548,"distance":3395,"transit":false,"time":3},{"is_transit":false,"time":2,"station_name":"Buaran","transit":false,"distance":3100,"i_lat":-6.215568,"line":1,"i_long":106.922662,"station_id":"BUA"},{"distance":1305,"i_long":106.939679,"i_lat":-6.217455,"station_name":"Klenderbaru","transit":false,"time":1,"is_transit":false,"station_id":"KLDB","line":1}],[{"transit":false,"is_transit":false,"i_long":106.411216,"line":3,"time":0,"station_name":"Cikoya","i_lat":-6.33561,"station_id":"CKY","distance":0},{"is_transit":false,"line":6,"station_id":"TGS","i_lat":-6.328533,"time":3,"station_name":"Tigaraksa","transit":false,"distance":2651,"i_long":106.425991},{"transit":false,"line":6,"is_transit":false,"time":5,"station_id":"TEJ","distance":2974,"station_name":"Tenjo","i_long":106.460812,"i_lat":-6.327251},{"i_lat":-6.338021,"distance":3902,"i_long":106.491338,"transit":false,"time":5,"station_name":"Daru","is_transit":false,"line":0,"station_id":"DAR"},{"i_lat":-6.354349,"line":3,"distance":2675,"station_id":"CJT","station_name":"Cilejit","transit":false,"time":6,"i_long":106.508482,"is_transit":false},{"transit":false,"time":9,"station_name":"Parung Panjang","station_id":"PRP","distance":7025,"is_transit":false,"i_lat":-6.3441410000000005,"i_long":106.568863,"line":6},{"time":8,"distance":5968,"station_name":"Cicayur","i_long":106.617853,"i_lat":-6.329547,"transit":false,"is_transit":false,"line":3,"station_id":"CC"},{"line":3,"i_long":106.640411,"transit":false,"is_transit":false,"i_lat":-6.32484,"time":4,"distance":2519,"station_id":"CSK","station_name":"Cisauk"},{"i_lat":-6.319871,"is_transit":false,"i_long":106.66566,"transit":false,"station_id":"SRP","time":4,"line":6,"distance":1784,"station_name":"Serpong"},{"time":4,"station_id":"RU","i_long":106.675475,"transit":false,"distance":2413,"station_name":"Rawa Buntu","line":6,"i_lat":-6.314823,"is_transit":false},{"station_id":"SDM","transit":false,"i_lat":-6.296963,"distance":4566,"is_transit":false,"i_long":106.712277,"line":6,"time":6,"station_name":"Sudimara"},{"transit":false,"distance":1994,"station_name":"Jurangmangu","i_lat":-6.288927,"i_long":106.728916,"line":6,"time":4,"is_transit":false,"station_id":"JMU"},{"station_name":"Pondokranji","is_transit":false,"i_lat":-6.276362,"time":3,"transit":false,"station_id":"PDJ","i_long":106.74273,"distance":2179,"line":6},{"time":8,"station_id":"KBY","i_lat":-6.237242,"line":6,"distance":6218,"transit":false,"station_name":"Kebayoran","i_long":106.780334,"is_transit":false},{"line":6,"transit":false,"station_id":"PLM","time":7,"distance":3737,"station_name":"Palmerah","is_transit":false,"i_lat":-6.207404,"i_long":106.79689},{"i_lat":-6.185545,"station_id":"THB","i_long":106.811091,"station_name":"Tanah Abang","time":6,"distance":3191,"line":1,"transit":true,"is_transit":true},{"station_name":"Duri","line":1,"i_lat":-6.155215,"transit":false,"time":8,"distance":3632,"i_long":106.800832,"station_id":"DU","is_transit":false},{"i_long":106.79867,"line":1,"station_id":"AK","is_transit":false,"distance":1230,"i_lat":-6.144674,"station_name":"Angke","transit":false,"time":4},{"line":4,"transit":true,"station_id":"KPB","distance":4102,"station_name":"Kampung Bandan","is_transit":true,"i_long":106.826365,"time":9,"i_lat":-6.132549},{"time":3,"distance":1364,"is_transit":true,"i_lat":-6.137569,"line":2,"station_id":"JAKK","station_name":"Jakarta Kota","i_long":106.812439,"transit":true},{"time":4,"distance":1264,"i_lat":-6.141205,"transit":false,"line":2,"station_id":"JAY","station_name":"Jayakarta","i_long":106.820901,"is_transit":false},{"station_name":"Manggabesar","i_lat":-6.149769,"time":2,"transit":false,"distance":1080,"is_transit":false,"station_id":"MGB","line":2,"i_long":106.82482},{"line":2,"is_transit":false,"distance":906,"transit":false,"time":2,"station_id":"SW","i_lat":-6.160725,"station_name":"Sawah Besar","i_long":106.827103},{"is_transit":false,"i_lat":-6.166716,"distance":1149,"station_name":"Juanda","transit":false,"i_long":106.828284,"time":2,"line":2,"station_id":"JUA"},{"time":4,"is_transit":false,"distance":2015,"i_long":106.832183,"transit":false,"line":2,"i_lat":-6.186295,"station_id":"GDD","station_name":"Gondangdia"},{"distance":1750,"station_id":"CKI","time":3,"station_name":"Cikini","line":2,"is_transit":false,"i_long":106.840169,"i_lat":-6.198556,"transit":false},{"station_id":"MRI","distance":1590,"is_transit":true,"i_lat":-6.209883,"time":4,"line":2,"transit":true,"station_name":"Manggarai","i_long":106.84912},{"time":2,"distance":1275,"station_name":"Matraman","line":1,"is_transit":false,"station_id":"MTR","transit":false,"i_lat":-6.212485,"i_long":106.858896},{"i_lat":-6.215091,"transit":false,"is_transit":false,"time":8,"station_name":"Jatinegara","distance":1377,"line":1,"station_id":"JNG","i_long":106.86807400000001},{"distance":3395,"transit":false,"line":1,"station_name":"Klender","is_transit":false,"i_long":106.899548,"time":3,"i_lat":-6.2135,"station_id":"KLD"},{"line":1,"station_id":"BUA","time":2,"station_name":"Buaran","transit":false,"i_lat":-6.215568,"i_long":106.922662,"is_transit":false,"distance":3100},{"station_name":"Klenderbaru","i_lat":-6.217455,"time":1,"transit":false,"distance":1305,"line":1,"station_id":"KLDB","is_transit":false,"i_long":106.939679}],[{"transit":false,"time":0,"i_lat":-6.33561,"is_transit":false,"i_long":106.411216,"station_id":"CKY","line":3,"distance":0,"station_name":"Cikoya"},{"time":3,"distance":2651,"station_name":"Tigaraksa","i_long":106.425991,"transit":false,"i_lat":-6.328533,"is_transit":false,"station_id":"TGS","line":6},{"transit":false,"time":5,"i_long":106.460812,"station_id":"TEJ","line":6,"is_transit":false,"i_lat":-6.327251,"station_name":"Tenjo","distance":2974},{"i_long":106.491338,"is_transit":false,"station_name":"Daru","station_id":"DAR","i_lat":-6.338021,"transit":false,"line":0,"time":5,"distance":3902},{"i_lat":-6.354349,"line":3,"distance":2675,"i_long":106.508482,"station_id":"CJT","station_name":"Cilejit","is_transit":false,"transit":false,"time":6},{"i_long":106.568863,"line":6,"distance":7025,"is_transit":false,"transit":false,"time":9,"station_name":"Parung Panjang","i_lat":-6.3441410000000005,"station_id":"PRP"},{"station_name":"Cicayur","station_id":"CC","i_lat":-6.329547,"time":8,"i_long":106.617853,"transit":false,"line":3,"is_transit":false,"distance":5968},{"is_transit":false,"transit":false,"i_lat":-6.32484,"line":3,"station_id":"CSK","distance":2519,"station_name":"Cisauk","time":4,"i_long":106.640411},{"distance":1784,"time":4,"i_long":106.66566,"station_name":"Serpong","line":6,"station_id":"SRP","transit":false,"is_transit":false,"i_lat":-6.319871},{"time":4,"distance":2413,"i_lat":-6.314823,"i_long":106.675475,"line":6,"is_transit":false,"transit":false,"station_id":"RU","station_name":"Rawa Buntu"},{"i_lat":-6.296963,"time":6,"line":6,"transit":false,"station_name":"Sudimara","i_long":106.712277,"is_transit":false,"station_id":"SDM","distance":4566},{"time":4,"i_lat":-6.288927,"distance":1994,"i_long":106.728916,"line":6,"is_transit":false,"station_name":"Jurangmangu","transit":false,"station_id":"JMU"},{"line":6,"station_id":"PDJ","distance":2179,"transit":false,"i_lat":-6.276362,"time":3,"i_long":106.74273,"is_transit":false,"station_name":"Pondokranji"},{"transit":false,"i_long":106.780334,"station_name":"Kebayoran","distance":6218,"is_transit":false,"i_lat":-6.237242,"time":8,"station_id":"KBY","line":6},{"i_lat":-6.207404,"station_name":"Palmerah","distance":3737,"i_long":106.79689,"line":6,"time":7,"transit":false,"station_id":"PLM","is_transit":false},{"line":1,"i_long":106.811091,"is_transit":true,"i_lat":-6.185545,"distance":3191,"station_id":"THB","station_name":"Tanah Abang","transit":true,"time":6},{"i_lat":-6.20132,"distance":2029,"station_name":"Karet","transit":false,"time":5,"is_transit":false,"station_id":"KAT","line":1,"i_long":106.816351},{"time":1,"station_id":"SUDB","station_name":"Sudirman Baru","is_transit":false,"line":1,"distance":471,"i_lat":-6.201433,"i_long":106.819881,"transit":false},{"i_long":106.822649,"transit":false,"line":1,"station_name":"Sudirman","i_lat":-6.202263,"is_transit":false,"distance":280,"time":1,"station_id":"SUD"},{"station_id":"MRI","distance":3186,"i_lat":-6.209883,"time":4,"i_long":106.84912,"station_name":"Manggarai","line":2,"is_transit":true,"transit":true},{"station_name":"Cikini","transit":false,"distance":1590,"station_id":"CKI","is_transit":false,"i_lat":-6.198556,"time":4,"i_long":106.840169,"line":2},{"transit":false,"i_lat":-6.186295,"line":2,"distance":1750,"is_transit":false,"time":3,"station_name":"Gondangdia","station_id":"GDD","i_long":106.832183},{"line":2,"transit":false,"time":4,"station_name":"Juanda","distance":2015,"i_lat":-6.166716,"i_long":106.828284,"station_id":"JUA","is_transit":false},{"i_lat":-6.160725,"station_id":"SW","station_name":"Sawah Besar","is_transit":false,"i_long":106.827103,"line":2,"distance":1149,"time":2,"transit":false},{"i_long":106.82482,"line":2,"station_name":"Manggabesar","is_transit":false,"distance":906,"station_id":"MGB","time":2,"transit":false,"i_lat":-6.149769},{"distance":1080,"i_lat":-6.141205,"station_name":"Jayakarta","station_id":"JAY","transit":false,"i_long":106.820901,"line":2,"time":2,"is_transit":false},{"station_name":"Jakarta Kota","is_transit":true,"time":4,"i_lat":-6.137569,"station_id":"JAKK","distance":1264,"i_long":106.812439,"transit":true,"line":2},{"line":4,"i_lat":-6.132549,"distance":1364,"station_id":"KPB","time":3,"transit":true,"is_transit":true,"station_name":"Kampung Bandan","i_long":106.826365},{"i_lat":-6.14505,"i_long":106.836569,"line":11,"distance":1444,"station_name":"Rajawali","time":3,"station_id":"RJW","is_transit":false,"transit":false},{"i_long":106.839204,"line":11,"station_name":"Kemayoran","distance":1901,"time":5,"i_lat":-6.161728,"transit":false,"is_transit":false,"station_id":"KMO"},{"time":4,"station_id":"PSE","station_name":"Pasar Senen","is_transit":false,"distance":1436,"i_long":106.84368,"line":11,"transit":false,"i_lat":-6.174784},{"distance":1567,"i_lat":-6.185975,"line":11,"i_long":106.850107,"station_name":"Gang Sentiong","time":8,"is_transit":false,"transit":false,"station_id":"GST"},{"line":11,"station_name":"Kramat","i_long":106.855437,"distance":973,"time":1,"i_lat":-6.193792,"is_transit":false,"station_id":"KMT","transit":false},{"time":2,"transit":false,"station_id":"POK","is_transit":false,"i_long":106.861737,"line":11,"i_lat":-6.209188,"station_name":"Pondok Jati","distance":1829},{"station_id":"JNG","transit":true,"station_name":"Jatinegara","is_transit":true,"i_lat":-6.215091,"i_long":106.86807400000001,"time":9,"line":1,"distance":1236},{"i_lat":-6.2135,"distance":3395,"line":1,"station_name":"Klender","time":3,"station_id":"KLD","transit":false,"i_long":106.899548,"is_transit":false},{"station_id":"BUA","is_transit":false,"i_lat":-6.215568,"transit":false,"distance":3100,"line":1,"i_long":106.922662,"station_name":"Buaran","time":2},{"i_lat":-6.217455,"line":1,"distance":1305,"is_transit":false,"station_id":"KLDB","time":1,"station_name":"Klenderbaru","transit":false,"i_long":106.939679}]]}