{"data":[[{"transit":false,"i_long":106.411216,"is_transit":false,"time":0,"distance":0,"station_id":"CKY","station_name":"Cikoya","line":3,"i_lat":-6.33561},{"station_name":"Tigaraksa","distance":2651,"transit":false,"time":3,"i_long":106.425991,"line":6,"is_transit":false,"station_id":"TGS","i_lat":-6.328533},{"distance":2974,"time":5,"is_transit":false,"station_id":"TEJ","i_long":106.460812,"i_lat":-6.327251,"line":6,"station_name":"Tenjo","transit":false},{"i_long":106.491338,"transit":false,"time":5,"i_lat":-6.338021,"is_transit":false,"line":0,"station_id":"DAR","station_name":"Daru","distance":3902},{"line":3,"i_long":106.508482,"distance":2675,"i_lat":-6.354349,"transit":false,"station_id":"CJT","is_transit":false,"time":6,"station_name":"Cilejit"},{"transit":false,"time":9,"station_id":"PRP","is_transit":false,"i_lat":-6.3441410000000005,"line":6,"i_long":106.568863,"distance":7025,"station_name":"Parung Panjang"},{"i_long":106.617853,"line":3,"time":8,"station_name":"Cicayur","transit":false,"is_transit":false,"station_id":"CC","distance":5968,"i_lat":-6.329547},{"station_id":"CSK","i_long":106.640411,"station_name":"Cisauk","time":4,"distance":2519,"transit":false,"i_lat":-6.32484,"is_transit":false,"line":3},{"is_transit":false,"distance":1784,"station_id":"SRP","time":4,"station_name":"Serpong","transit":false,"i_lat":-6.319871,"i_long":106.66566,"line":6},{"transit":false,"station_id":"RU","i_long":106.675475,"station_name":"Rawa Buntu","time":4,"is_transit":false,"line":6,"i_lat":-6.314823,"distance":2413},{"line":6,"distance":4566,"i_long":106.712277,"is_transit":false,"station_id":"SDM","transit":false,"time":6,"station_name":"Sudimara","i_lat":-6.296963},{"is_transit":false,"station_name":"Jurangmangu","station_id":"JMU","i_lat":-6.288927,"transit":false,"time":4,"line":6,"i_long":106.728916,"distance":1994},{"transit":false,"line":6,"station_name":"Pondokranji","station_id":"PDJ","is_transit":false,"i_lat":-6.276362,"i_long":106.74273,"time":3,"distance":2179},{"station_id":"KBY","station_name":"Kebayoran","i_long":106.780334,"transit":false,"is_transit":false,"time":8,"i_lat":-6.237242,"line":6,"distance":6218},{"station_id":"PLM","line":6,"station_name":"Palmerah","i_lat":-6.207404,"distance":3737,"time":7,"i_long":106.79689,"is_transit":false,"transit":false},{"i_lat":-6.185545,"transit":true,"is_transit":true,"i_long":106.811091,"station_name":"Tanah Abang","distance":3191,"line":1,"station_id":"THB","time":6},{"is_transit":true,"i_lat":-6.155215,"transit":true,"time":8,"i_long":106.800832,"distance":3632,"station_name":"Duri","station_id":"DU","line":1},{"is_transit":false,"time":3,"i_lat":-6.162021,"station_id":"GGL","transit":false,"station_name":"Grogol","distance":1700,"i_long":106.788277,"line":5},{"i_long":106.771379,"station_id":"PSG","time":2,"i_lat":-6.161433,"transit":false,"is_transit":false,"station_name":"Pesing","line":5,"distance":2036},{"i_long":106.756522,"line":5,"transit":false,"station_name":"Taman Kota","is_transit":false,"station_id":"TKO","distance":1614,"i_lat":-6.1587309999999995,"time":2},{"station_name":"Bojongindah","is_transit":false,"line":5,"time":2,"i_long":106.737035,"transit":false,"distance":2334,"station_id":"BOI","i_lat":-6.159876}],[{"transit":false,"station_id":"CKY","is_transit":false,"i_lat":-6.33561,"time":0,"i_long":106.411216,"line":3,"station_name":"Cikoya","distance":0},{"station_id":"TGS","is_transit":false,"distance":2651,"station_name":"Tigaraksa","i_lat":-6.328533,"transit":false,"i_long":106.425991,"line":6,"time":3},{"i_long":106.460812,"is_transit":false,"station_name":"Tenjo","time":5,"line":6,"distance":2974,"i_lat":-6.327251,"transit":false,"station_id":"TEJ"},{"is_transit":false,"station_id":"DAR","line":0,"station_name":"Daru","transit":false,"distance":3902,"i_lat":-6.338021,"i_long":106.491338,"time":5},{"distance":2675,"station_id":"CJT","i_lat":-6.354349,"station_name":"Cilejit","transit":false,"i_long":106.508482,"time":6,"line":3,"is_transit":false},{"station_name":"Parung Panjang","is_transit":false,"transit":false,"time":9,"i_lat":-6.3441410000000005,"i_long":106.568863,"station_id":"PRP","distance":7025,"line":6},{"time":8,"line":3,"station_id":"CC","distance":5968,"transit":false,"station_name":"Cicayur","is_transit":false,"i_long":106.617853,"i_lat":-6.329547},{"is_transit":false,"time":4,"station_name":"Cisauk","distance":2519,"i_lat":-6.32484,"i_long":106.640411,"line":3,"station_id":"CSK","transit":false},{"line":6,"station_id":"SRP","time":4,"station_name":"Serpong","distance":1784,"is_transit":false,"i_lat":-6.319871,"transit":false,"i_long":106.66566},{"i_lat":-6.314823,"transit":false,"time":4,"i_long":106.675475,"is_transit":false,"station_id":"RU","distance":2413,"station_name":"Rawa Buntu","line":6},{"is_transit":false,"distance":4566,"i_lat":-6.296963,"i_long":106.712277,"line":6,"station_id":"SDM","time":6,"station_name":"Sudimara","transit":false},{"station_name":"Jurangmangu","line":6,"transit":false,"i_lat":-6.288927,"station_id":"JMU","distance":1994,"i_long":106.728916,"is_transit":false,"time":4},{"time":3,"station_name":"Pondokranji","is_transit":false,"line":6,"station_id":"PDJ","i_long":106.74273,"transit":false,"i_lat":-6.276362,"distance":2179},{"station_id":"KBY","i_lat":-6.237242,"station_name":"Kebayoran","time":8,"distance":6218,"transit":false,"i_long":106.780334,"is_transit":false,"line":6},{"i_lat":-6.207404,"line":6,"station_id":"PLM","transit":false,"time":7,"i_long":106.79689,"station_name":"Palmerah","is_transit":false,"distance":3737},{"distance":3191,"i_lat":-6.185545,"is_transit":true,"i_long":106.811091,"line":1,"station_name":"Tanah Abang","time":6,"station_id":"THB","transit":true},{"distance":2029,"i_long":106.816351,"line":1,"time":5,"is_transit":false,"station_name":"Karet","transit":false,"station_id":"KAT","i_lat":-6.20132},{"i_lat":-6.201433,"i_long":106.819881,"line":1,"station_name":"Sudirman Baru","distance":471,"time":1,"transit":false,"is_transit":false,"station_id":"SUDB"},{"station_name":"Sudirman","i_long":106.822649,"distance":280,"transit":false,"time":1,"i_lat":-6.202263,"line":1,"is_transit":false,"station_id":"SUD"},{"distance":3186,"i_long":106.84912,"station_id":"MRI","is_transit":true,"line":2,"transit":true,"time":4,"i_lat":-6.209883,"station_name":"Manggarai"},{"distance":1590,"i_long":106.840169,"station_name":"Cikini","i_lat":-6.198556,"station_id":"CKI","time":4,"line":2,"is_transit":false,"transit":false},{"station_name":"Gondangdia","station_id":"GDD","distance":1750,"time":3,"is_transit":false,"transit":false,"i_long":106.832183,"line":2,"i_lat":-6.186295},{"i_lat":-6.166716,"transit":false,"time":4,"is_transit":false,"station_id":"JUA","i_long":106.828284,"station_name":"Juanda","line":2,"distance":2015},{"distance":1149,"station_name":"Sawah Besar","line":2,"is_transit":false,"time":2,"i_long":106.827103,"i_lat":-6.160725,"transit":false,"station_id":"SW"},{"distance":906,"is_transit":false,"station_id":"MGB","i_lat":-6.149769,"station_name":"Manggabesar","line":2,"transit":false,"time":2,"i_long":106.82482},{"i_long":106.820901,"transit":false,"is_transit":false,"time":2,"station_name":"Jayakarta","distance":1080,"line":2,"i_lat":-6.141205,"station_id":"JAY"},{"station_name":"Jakarta Kota","station_id":"JAKK","transit":true,"time":4,"line":2,"i_long":106.812439,"distance":1264,"i_lat":-6.137569,"is_transit":true},{"i_long":106.826365,"line":4,"is_transit":true,"station_id":"KPB","transit":true,"time":3,"i_lat":-6.132549,"distance":1364,"station_name":"Kampung Bandan"},{"i_lat":-6.144674,"is_transit":false,"transit":false,"distance":4102,"i_long":106.79867,"station_name":"Angke","station_id":"AK","line":1,"time":9},{"distance":1230,"station_name":"Duri","time":4,"i_lat":-6.155215,"station_id":"DU","i_long":106.800832,"transit":true,"line":1,"is_transit":true},{"station_name":"Grogol","line":5,"transit":false,"distance":1700,"time":3,"station_id":"GGL","i_lat":-6.162021,"is_transit":false,"i_long":106.788277},{"i_long":106.771379,"station_name":"Pesing","is_transit":false,"distance":2036,"transit":false,"time":2,"i_lat":-6.161433,"station_id":"PSG","line":5},{"i_lat":-6.1587309999999995,"i_long":106.756522,"line":5,"time":2,"station_name":"Taman Kota","distance":1614,"is_transit":false,"station_id":"TKO","transit":false},{"distance":2334,"transit":false,"time":2,"i_long":106.737035,"station_name":"Bojongindah","station_id":"BOI","i_lat":-6.159876,"line":5,"is_transit":false}],[{"station_id":"CKY","time":0,"line":3,"is_transit":false,"i_long":106.411216,"distance":0,"transit":false,"station_name":"Cikoya","i_lat":-6.33561},{"i_lat":-6.328533,"line":6,"time":3,"station_id":"TGS","distance":2651,"i_long":106.425991,"station_name":"Tigaraksa","is_transit":false,"transit":false},{"distance":2974,"time":5,"i_lat":-6.327251,"i_long":106.460812,"line":6,"is_transit":false,"station_id":"TEJ","station_name":"Tenjo","transit":false},{"station_id":"DAR","station_name":"Daru","is_transit":false,"transit":false,"i_lat":-6.338021,"i_long":106.491338,"time":5,"line":0,"distance":3902},{"time":6,"distance":2675,"i_lat":-6.354349,"transit":false,"is_transit":false,"i_long":106.508482,"station_name":"Cilejit","line":3,"station_id":"CJT"},{"station_id":"PRP","is_transit":false,"transit":false,"time":9,"i_lat":-6.3441410000000005,"i_long":106.568863,"distance":7025,"line":6,"station_name":"Parung Panjang"},{"transit":false,"i_long":106.617853,"i_lat":-6.329547,"is_transit":false,"line":3,"station_name":"Cicayur","time":8,"distance":5968,"station_id":"CC"},{"is_transit":false,"station_id":"CSK","line":3,"distance":2519,"i_lat":-6.32484,"i_long":106.640411,"time":4,"transit":false,"station_name":"Cisauk"},{"i_long":106.66566,"station_id":"SRP","station_name":"Serpong","transit":false,"distance":1784,"i_lat":-6.319871,"line":6,"is_transit":false,"time":4},{"is_transit":false,"distance":2413,"i_lat":-6.314823,"line":6,"station_name":"Rawa Buntu","i_long":106.675475,"station_id":"RU","transit":false,"time":4},{"station_id":"SDM","station_name":"Sudimara","is_transit":false,"line":6,"time":6,"i_lat":-6.296963,"i_long":106.712277,"distance":4566,"transit":false},{"station_name":"Jurangmangu","distance":1994,"station_id":"JMU","transit":false,"i_lat":-6.288927,"line":6,"time":4,"is_transit":false,"i_long":106.728916},{"is_transit":false,"i_lat":-6.276362,"i_long":106.74273,"transit":false,"distance":2179,"time":3,"station_name":"Pondokranji","station_id":"PDJ","line":6},{"line":6,"is_transit":false,"i_lat":-6.237242,"transit":false,"time":8,"station_name":"Kebayoran","station_id":"KBY","distance":6218,"i_long":106.780334},{"station_id":"PLM","time":7,"i_lat":-6.207404,"transit":false,"line":6,"is_transit":false,"distance":3737,"station_name":"Palmerah","i_long":106.79689},{"is_transit":true,"line":1,"station_name":"Tanah Abang","station_id":"THB","i_long":106.811091,"transit":true,"time":6,"i_lat":-6.185545,"distance":3191},{"transit":false,"time":5,"station_id":"KAT","distance":2029,"is_transit":false,"i_lat":-6.20132,"line":1,"station_name":"Karet","i_long":106.816351},{"station_name":"Sudirman Baru","time":1,"line":1,"i_lat":-6.201433,"station_id":"SUDB","distance":471,"transit":false,"is_transit":false,"i_long":106.819881},{"is_transit":false,"distance":280,"i_lat":-6.202263,"line":1,"station_id":"SUD","transit":false,"time":1,"i_long":106.822649,"station_name":"Sudirman"},{"line":2,"station_name":"Manggarai","i_long":106.84912,"transit":false,"is_transit":false,"station_id":"MRI","distance":3186,"time":4,"i_lat":-6.209883},{"is_transit":false,"transit":false,"i_lat":-6.212485,"line":1,"time":2,"distance":1275,"station_name":"Matraman","i_long":106.858896,"station_id":"MTR"},{"station_name":"Jatinegara","station_id":"JNG","transit":true,"is_transit":true,"time":8,"distance":1377,"line":1,"i_lat":-6.215091,"i_long":106.86807400000001},{"line":11,"is_transit":false,"distance":1236,"transit":false,"time":2,"i_lat":-6.209188,"station_id":"POK","station_name":"Pondok Jati","i_long":106.861737},{"i_lat":-6.193792,"distance":1829,"line":11,"i_long":106.855437,"transit":false,"is_transit":false,"time":2,"station_name":"Kramat","station_id":"KMT"},{"station_name":"Gang Sentiong","station_id":"GST","line":11,"time":1,"i_lat":-6.185975,"distance":973,"is_transit":false,"transit":false,"i_long":106.850107},{"distance":1567,"is_transit":false,"line":11,"transit":false,"i_lat":-6.174784,"station_id":"PSE","i_long":106.84368,"time":8,"station_name":"Pasar Senen"},{"station_name":"Kemayoran","is_transit":false,"i_lat":-6.161728,"distance":1436,"transit":false,"station_id":"KMO","time":4,"line":11,"i_long":106.839204},{"i_lat":-6.14505,"distance":1901,"i_long":106.836569,"line":11,"time":5,"is_transit":false,"station_name":"Rajawali","station_id":"RJW","transit":false},{"is_transit":true,"time":3,"line":4,"i_long":106.826365,"distance":1444,"i_lat":-6.132549,"station_id":"KPB","station_name":"Kampung Bandan","transit":true},{"station_id":"AK","transit":false,"time":9,"line":1,"i_lat":-6.144674,"is_transit":false,"station_name":"Angke","i_long":106.79867,"distance":4102},{"station_id":"DU","station_name":"Duri","time":4,"transit":true,"i_lat":-6.155215,"line":1,"i_long":106.800832,"is_transit":true,"distance":1230},{"i_lat":-6.162021,"transit":false,"station_name":"Grogol","time":3,"line":5,"distance":1700,"i_long":106.788277,"is_transit":false,"station_id":"GGL"},{"distance":2036,"station_name":"Pesing","transit":false,"line":5,"station_id":"PSG","is_transit":false,"i_lat":-6.161433,"time":2,"i_long":106.771379},{"station_id":"TKO","time":2,"i_long":106.756522,"distance":1614,"i_lat":-6.1587309999999995,"line":5,"station_name":"Taman Kota","transit":false,"is_transit":false},{"transit":false,"distance":2334,"time":2,"i_lat":-6.159876,"line":5,"i_long":106.737035,"station_name":"Bojongindah","is_transit":false,"station_id":"BOI"}]]}