{"data":[[{"station_name":"Cikoya","line":3,"distance":0,"time":0,"i_lat":-6.33561,"i_long":106.411216,"is_transit":false,"station_id":"CKY","transit":false},{"station_id":"TGS","distance":2651,"station_name":"Tigaraksa","i_long":106.425991,"is_transit":false,"line":6,"transit":false,"i_lat":-6.328533,"time":3},{"line":6,"is_transit":false,"station_name":"Tenjo","i_long":106.460812,"time":5,"transit":false,"i_lat":-6.327251,"distance":2974,"station_id":"TEJ"},{"i_long":106.491338,"transit":false,"time":5,"station_id":"DAR","is_transit":false,"i_lat":-6.338021,"distance":3902,"station_name":"Daru","line":0},{"time":6,"distance":2675,"transit":false,"station_name":"Cilejit","line":3,"station_id":"CJT","i_long":106.508482,"is_transit":false,"i_lat":-6.354349},{"transit":false,"distance":7025,"time":9,"line":6,"i_lat":-6.3441410000000005,"i_long":106.568863,"station_name":"Parung Panjang","station_id":"PRP","is_transit":false},{"line":3,"distance":5968,"is_transit":false,"station_name":"Cicayur","i_lat":-6.329547,"time":8,"transit":false,"station_id":"CC","i_long":106.617853}]]}