{"data":[[{"i_long":106.411216,"line":0,"station_name":"Cikoya","station_id":"CKY","transit":false,"i_lat":-6.33561,"is_transit":false,"time":0,"distance":0},{"i_lat":-6.328533,"station_id":"TGS","distance":2651,"transit":false,"line":6,"i_long":106.425991,"station_name":"Tigaraksa","is_transit":false,"time":3},{"time":5,"i_long":106.460812,"transit":false,"is_transit":false,"line":6,"distance":2974,"station_id":"TEJ","station_name":"Tenjo","i_lat":-6.327251},{"distance":3902,"transit":false,"station_name":"Daru","station_id":"DAR","time":5,"line":0,"i_long":106.491338,"i_lat":-6.338021,"is_transit":false},{"time":6,"is_transit":false,"distance":2675,"station_id":"CJT","i_lat":-6.354349,"line":0,"station_name":"Cilejit","i_long":106.508482,"transit":false},{"is_transit":false,"time":9,"distance":7025,"station_id":"PRP","station_name":"Parung Panjang","i_long":106.568863,"line":6,"i_lat":-6.3441410000000005,"transit":false},{"station_id":"CC","station_name":"Cicayur","distance":5968,"line":0,"i_lat":-6.329547,"is_transit":false,"transit":false,"time":8,"i_long":106.617853},{"i_long":106.640411,"line":0,"distance":2519,"i_lat":-6.32484,"station_name":"Cisauk","transit":false,"station_id":"CSK","time":4,"is_transit":false},{"i_long":106.66566,"station_id":"SRP","i_lat":-6.319871,"line":6,"transit":false,"time":4,"is_transit":false,"station_name":"Serpong","distance":1784},{"i_lat":-6.314823,"station_name":"Rawa Buntu","station_id":"RU","line":6,"is_transit":false,"i_long":106.675475,"distance":2413,"time":4,"transit":false},{"i_long":106.712277,"distance":4566,"time":6,"transit":false,"i_lat":-6.296963,"station_id":"SDM","station_name":"Sudimara","line":6,"is_transit":false},{"line":6,"transit":false,"i_long":106.728916,"station_id":"JMU","is_transit":false,"station_name":"Jurangmangu","time":4,"i_lat":-6.288927,"distance":1994},{"is_transit":false,"distance":2179,"station_id":"PDJ","i_long":106.74273,"transit":false,"time":3,"station_name":"Pondokranji","i_lat":-6.276362,"line":6},{"time":8,"is_transit":false,"station_name":"Kebayoran","transit":false,"i_long":106.780334,"line":6,"station_id":"KBY","distance":6218,"i_lat":-6.237242},{"time":7,"transit":false,"is_transit":false,"station_id":"PLM","distance":3737,"station_name":"Palmerah","line":6,"i_lat":-6.207404,"i_long":106.79689},{"transit":true,"time":6,"station_name":"Tanah Abang","i_long":106.811091,"station_id":"THB","i_lat":-6.185545,"is_transit":true,"distance":3191,"line":1},{"i_lat":-6.20132,"is_transit":false,"line":1,"station_id":"KAT","i_long":106.816351,"time":5,"station_name":"Karet","distance":2029,"transit":false},{"time":1,"station_name":"Sudirman Baru","i_lat":-6.201433,"i_long":106.819881,"transit":false,"line":1,"station_id":"SUDB","is_transit":false,"distance":471},{"is_transit":false,"time":1,"distance":280,"line":1,"i_long":106.822649,"station_name":"Sudirman","station_id":"SUD","transit":false,"i_lat":-6.202263},{"station_id":"MRI","station_name":"Manggarai","is_transit":true,"transit":false,"i_lat":-6.209883,"line":0,"distance":3186,"i_long":106.84912,"time":4},{"i_lat":-6.212485,"i_long":106.858896,"line":1,"distance":1275,"station_id":"MTR","time":2,"transit":false,"is_transit":false,"station_name":"Matraman"},{"i_lat":-6.215091,"i_long":106.86807400000001,"transit":false,"is_transit":true,"time":8,"distance":1377,"station_name":"Jatinegara","station_id":"JNG","line":0},{"distance":3395,"time":3,"i_lat":-6.2135,"station_name":"Klender","transit":false,"line":1,"station_id":"KLD","is_transit":false,"i_long":106.899548},{"station_id":"BUA","i_lat":-6.215568,"time":2,"distance":3100,"line":0,"is_transit":false,"station_name":"Buaran","i_long":106.922662,"transit":false},{"is_transit":false,"i_long":106.939679,"distance":1305,"time":1,"i_lat":-6.217455,"line":1,"transit":false,"station_id":"KLDB","station_name":"Klenderbaru"},{"distance":1385,"time":8,"station_id":"CUK","i_lat":-6.219053,"i_long":106.951283,"is_transit":false,"transit":false,"station_name":"Cakung","line":0},{"station_id":"KRI","i_long":106.977657,"time":3,"is_transit":false,"i_lat":-6.224515,"station_name":"Kranji","distance":3097,"transit":false,"line":1},{"i_long":106.997013,"transit":false,"is_transit":false,"station_name":"Bekasi","i_lat":-6.236616,"station_id":"BKS","time":4,"line":0,"distance":2520},{"line":0,"station_id":"BKST","distance":2368,"time":2,"station_name":"Bekasi Timur","i_long":107.016735,"i_lat":-6.248029,"is_transit":false,"transit":false},{"is_transit":false,"i_long":107.055722,"time":7,"distance":4460,"station_name":"Tambun","i_lat":-6.258864,"station_id":"TB","line":1,"transit":false},{"distance":3420,"i_long":107.083084,"i_lat":-6.261877,"transit":false,"station_name":"Cibitung","time":3,"station_id":"CIT","line":0,"is_transit":false}],[{"station_name":"Cikoya","i_long":106.411216,"station_id":"CKY","i_lat":-6.33561,"time":0,"line":0,"transit":false,"is_transit":false,"distance":0},{"time":3,"distance":2651,"is_transit":false,"i_lat":-6.328533,"station_id":"TGS","transit":false,"line":6,"station_name":"Tigaraksa","i_long":106.425991},{"distance":2974,"time":5,"station_id":"TEJ","is_transit":false,"line":6,"station_name":"Tenjo","i_lat":-6.327251,"transit":false,"i_long":106.460812},{"transit":false,"i_long":106.491338,"time":5,"i_lat":-6.338021,"is_transit":false,"distance":3902,"line":0,"station_id":"DAR","station_name":"Daru"},{"line":0,"distance":2675,"transit":false,"station_name":"Cilejit","time":6,"i_long":106.508482,"is_transit":false,"i_lat":-6.354349,"station_id":"CJT"},{"line":6,"distance":7025,"i_lat":-6.3441410000000005,"time":9,"station_name":"Parung Panjang","is_transit":false,"transit":false,"i_long":106.568863,"station_id":"PRP"},{"i_lat":-6.329547,"i_long":106.617853,"distance":5968,"line":0,"is_transit":false,"time":8,"station_name":"Cicayur","transit":false,"station_id":"CC"},{"station_name":"Cisauk","transit":false,"i_lat":-6.32484,"station_id":"CSK","is_transit":false,"time":4,"line":0,"distance":2519,"i_long":106.640411},{"station_id":"SRP","transit":false,"line":6,"time":4,"distance":1784,"station_name":"Serpong","is_transit":false,"i_long":106.66566,"i_lat":-6.319871},{"is_transit":false,"time":4,"i_lat":-6.314823,"station_name":"Rawa Buntu","transit":false,"station_id":"RU","distance":2413,"i_long":106.675475,"line":6},{"i_long":106.712277,"i_lat":-6.296963,"time":6,"station_name":"Sudimara","station_id":"SDM","line":6,"transit":false,"is_transit":false,"distance":4566},{"i_long":106.728916,"transit":false,"station_id":"JMU","station_name":"Jurangmangu","time":4,"is_transit":false,"line":6,"i_lat":-6.288927,"distance":1994},{"distance":2179,"time":3,"station_name":"Pondokranji","transit":false,"i_lat":-6.276362,"line":6,"station_id":"PDJ","i_long":106.74273,"is_transit":false},{"distance":6218,"transit":false,"i_lat":-6.237242,"i_long":106.780334,"line":6,"time":8,"station_name":"Kebayoran","is_transit":false,"station_id":"KBY"},{"station_name":"Palmerah","line":6,"i_lat":-6.207404,"is_transit":false,"distance":3737,"transit":false,"station_id":"PLM","i_long":106.79689,"time":7},{"i_lat":-6.185545,"station_name":"Tanah Abang","i_long":106.811091,"line":1,"station_id":"THB","distance":3191,"time":6,"transit":true,"is_transit":true},{"transit":true,"i_lat":-6.155215,"time":8,"station_id":"DU","is_transit":true,"distance":3632,"i_long":106.800832,"line":1,"station_name":"Duri"},{"station_name":"Angke","transit":false,"i_long":106.79867,"line":0,"distance":1230,"is_transit":false,"i_lat":-6.144674,"time":4,"station_id":"AK"},{"transit":true,"i_lat":-6.132549,"is_transit":true,"station_name":"Kampung Bandan","line":0,"time":9,"i_long":106.826365,"station_id":"KPB","distance":4102},{"is_transit":false,"i_lat":-6.14505,"station_name":"Rajawali","transit":false,"i_long":106.836569,"line":11,"time":3,"station_id":"RJW","distance":1444},{"i_lat":-6.161728,"station_name":"Kemayoran","station_id":"KMO","time":5,"is_transit":false,"line":11,"distance":1901,"i_long":106.839204,"transit":false},{"time":4,"station_name":"Pasar Senen","station_id":"PSE","i_lat":-6.174784,"i_long":106.84368,"distance":1436,"line":11,"is_transit":false,"transit":false},{"line":11,"is_transit":false,"distance":1567,"time":8,"i_lat":-6.185975,"station_id":"GST","i_long":106.850107,"transit":false,"station_name":"Gang Sentiong"},{"i_long":106.855437,"line":11,"is_transit":false,"distance":973,"i_lat":-6.193792,"time":1,"transit":false,"station_id":"KMT","station_name":"Kramat"},{"transit":false,"i_long":106.861737,"station_id":"POK","is_transit":false,"i_lat":-6.209188,"station_name":"Pondok Jati","line":11,"distance":1829,"time":2},{"i_long":106.86807400000001,"station_name":"Jatinegara","station_id":"JNG","is_transit":true,"time":9,"i_lat":-6.215091,"transit":true,"line":0,"distance":1236},{"distance":3395,"i_lat":-6.2135,"is_transit":false,"i_long":106.899548,"station_id":"KLD","station_name":"Klender","time":3,"transit":false,"line":1},{"transit":false,"line":0,"station_name":"Buaran","station_id":"BUA","time":2,"i_long":106.922662,"is_transit":false,"i_lat":-6.215568,"distance":3100},{"time":1,"station_name":"Klenderbaru","transit":false,"i_lat":-6.217455,"is_transit":false,"i_long":106.939679,"line":1,"station_id":"KLDB","distance":1305},{"is_transit":false,"line":0,"i_long":106.951283,"distance":1385,"station_name":"Cakung","i_lat":-6.219053,"station_id":"CUK","transit":false,"time":8},{"i_lat":-6.224515,"time":3,"i_long":106.977657,"transit":false,"is_transit":false,"distance":3097,"station_id":"KRI","station_name":"Kranji","line":1},{"station_name":"Bekasi","i_long":106.997013,"transit":false,"station_id":"BKS","time":4,"line":0,"is_transit":false,"distance":2520,"i_lat":-6.236616},{"i_long":107.016735,"station_name":"Bekasi Timur","time":2,"distance":2368,"i_lat":-6.248029,"line":0,"transit":false,"is_transit":false,"station_id":"BKST"},{"is_transit":false,"distance":4460,"i_long":107.055722,"line":1,"time":7,"transit":false,"station_name":"Tambun","station_id":"TB","i_lat":-6.258864},{"is_transit":false,"time":3,"transit":false,"station_id":"CIT","i_long":107.083084,"station_name":"Cibitung","distance":3420,"line":0,"i_lat":-6.261877}],[{"i_lat":-6.33561,"time":0,"line":0,"i_long":106.411216,"transit":false,"station_id":"CKY","is_transit":false,"distance":0,"station_name":"Cikoya"},{"i_lat":-6.328533,"station_id":"TGS","time":3,"transit":false,"distance":2651,"i_long":106.425991,"line":6,"station_name":"Tigaraksa","is_transit":false},{"station_name":"Tenjo","station_id":"TEJ","i_long":106.460812,"line":6,"i_lat":-6.327251,"is_transit":false,"transit":false,"distance":2974,"time":5},{"i_long":106.491338,"transit":false,"is_transit":false,"i_lat":-6.338021,"line":0,"time":5,"station_name":"Daru","station_id":"DAR","distance":3902},{"station_id":"CJT","transit":false,"is_transit":false,"i_long":106.508482,"time":6,"station_name":"Cilejit","i_lat":-6.354349,"line":0,"distance":2675},{"is_transit":false,"time":9,"distance":7025,"i_long":106.568863,"transit":false,"station_id":"PRP","station_name":"Parung Panjang","i_lat":-6.3441410000000005,"line":6},{"time":8,"transit":false,"distance":5968,"station_name":"Cicayur","i_lat":-6.329547,"station_id":"CC","is_transit":false,"i_long":106.617853,"line":0},{"is_transit":false,"distance":2519,"transit":false,"time":4,"i_long":106.640411,"station_name":"Cisauk","i_lat":-6.32484,"station_id":"CSK","line":0},{"i_long":106.66566,"distance":1784,"i_lat":-6.319871,"line":6,"station_name":"Serpong","is_transit":false,"station_id":"SRP","transit":false,"time":4},{"i_lat":-6.314823,"transit":false,"i_long":106.675475,"station_id":"RU","is_transit":false,"time":4,"distance":2413,"station_name":"Rawa Buntu","line":6},{"distance":4566,"line":6,"is_transit":false,"station_name":"Sudimara","i_lat":-6.296963,"station_id":"SDM","transit":false,"time":6,"i_long":106.712277},{"distance":1994,"i_long":106.728916,"transit":false,"time":4,"station_name":"Jurangmangu","station_id":"JMU","i_lat":-6.288927,"line":6,"is_transit":false},{"is_transit":false,"station_id":"PDJ","distance":2179,"i_lat":-6.276362,"time":3,"i_long":106.74273,"station_name":"Pondokranji","transit":false,"line":6},{"station_id":"KBY","station_name":"Kebayoran","transit":false,"i_lat":-6.237242,"i_long":106.780334,"line":6,"is_transit":false,"time":8,"distance":6218},{"distance":3737,"transit":false,"line":6,"station_id":"PLM","i_lat":-6.207404,"is_transit":false,"i_long":106.79689,"station_name":"Palmerah","time":7},{"is_transit":true,"i_lat":-6.185545,"transit":true,"distance":3191,"time":6,"station_name":"Tanah Abang","i_long":106.811091,"line":1,"station_id":"THB"},{"time":8,"i_lat":-6.155215,"line":1,"is_transit":true,"station_id":"DU","distance":3632,"station_name":"Duri","i_long":106.800832,"transit":true},{"distance":1230,"line":0,"station_id":"AK","time":4,"transit":false,"i_lat":-6.144674,"is_transit":false,"i_long":106.79867,"station_name":"Angke"},{"line":0,"transit":false,"station_id":"KPB","time":9,"i_lat":-6.132549,"distance":4102,"i_long":106.826365,"station_name":"Kampung Bandan","is_transit":true},{"time":3,"distance":1364,"is_transit":true,"line":0,"transit":true,"i_lat":-6.137569,"station_name":"Jakarta Kota","i_long":106.812439,"station_id":"JAKK"},{"station_name":"Jayakarta","i_lat":-6.141205,"distance":1264,"is_transit":false,"station_id":"JAY","i_long":106.820901,"line":7,"time":4,"transit":false},{"time":2,"station_id":"MGB","transit":false,"i_lat":-6.149769,"is_transit":false,"station_name":"Manggabesar","distance":1080,"line":2,"i_long":106.82482},{"is_transit":false,"station_id":"SW","time":2,"i_long":106.827103,"i_lat":-6.160725,"distance":906,"station_name":"Sawah Besar","transit":false,"line":2},{"time":2,"i_lat":-6.166716,"i_long":106.828284,"distance":1149,"is_transit":false,"station_name":"Juanda","transit":false,"station_id":"JUA","line":2},{"station_name":"Gondangdia","i_lat":-6.186295,"is_transit":false,"station_id":"GDD","i_long":106.832183,"transit":false,"distance":2015,"time":4,"line":2},{"distance":1750,"is_transit":false,"transit":false,"i_lat":-6.198556,"station_id":"CKI","station_name":"Cikini","time":3,"i_long":106.840169,"line":0},{"distance":1590,"station_name":"Manggarai","line":0,"time":4,"transit":true,"station_id":"MRI","i_lat":-6.209883,"i_long":106.84912,"is_transit":true},{"line":1,"i_long":106.858896,"time":2,"transit":false,"is_transit":false,"station_name":"Matraman","i_lat":-6.212485,"station_id":"MTR","distance":1275},{"i_long":106.86807400000001,"line":0,"transit":false,"distance":1377,"is_transit":true,"time":8,"station_name":"Jatinegara","i_lat":-6.215091,"station_id":"JNG"},{"line":1,"is_transit":false,"distance":3395,"station_id":"KLD","station_name":"Klender","time":3,"i_long":106.899548,"transit":false,"i_lat":-6.2135},{"transit":false,"time":2,"station_name":"Buaran","i_long":106.922662,"distance":3100,"i_lat":-6.215568,"is_transit":false,"line":0,"station_id":"BUA"},{"is_transit":false,"transit":false,"time":1,"station_id":"KLDB","distance":1305,"i_long":106.939679,"line":1,"station_name":"Klenderbaru","i_lat":-6.217455},{"distance":1385,"station_name":"Cakung","line":0,"transit":false,"station_id":"CUK","i_lat":-6.219053,"time":8,"i_long":106.951283,"is_transit":false},{"i_lat":-6.224515,"is_transit":false,"station_id":"KRI","line":1,"i_long":106.977657,"station_name":"Kranji","transit":false,"distance":3097,"time":3},{"distance":2520,"time":4,"i_lat":-6.236616,"line":0,"i_long":106.997013,"station_id":"BKS","transit":false,"station_name":"Bekasi","is_transit":false},{"station_id":"BKST","distance":2368,"i_long":107.016735,"line":0,"time":2,"station_name":"Bekasi Timur","transit":false,"is_transit":false,"i_lat":-6.248029},{"station_name":"Tambun","time":7,"i_long":107.055722,"line":1,"transit":false,"i_lat":-6.258864,"is_transit":false,"distance":4460,"station_id":"TB"},{"station_name":"Cibitung","i_long":107.083084,"i_lat":-6.261877,"time":3,"transit":false,"distance":3420,"station_id":"CIT","is_transit":false,"line":0}],[{"station_id":"CKY","time":0,"transit":false,"line":0,"is_transit":false,"distance":0,"station_name":"Cikoya","i_lat":-6.33561,"i_long":106.411216},{"time":3,"distance":2651,"i_lat":-6.328533,"station_name":"Tigaraksa","i_long":106.425991,"transit":false,"is_transit":false,"line":6,"station_id":"TGS"},{"time":5,"transit":false,"i_long":106.460812,"distance":2974,"i_lat":-6.327251,"station_id":"TEJ","is_transit":false,"line":6,"station_name":"Tenjo"},{"line":0,"distance":3902,"i_long":106.491338,"transit":false,"station_id":"DAR","is_transit":false,"i_lat":-6.338021,"station_name":"Daru","time":5},{"i_long":106.508482,"station_id":"CJT","is_transit":false,"distance":2675,"station_name":"Cilejit","transit":false,"i_lat":-6.354349,"time":6,"line":0},{"line":6,"time":9,"station_id":"PRP","station_name":"Parung Panjang","i_long":106.568863,"transit":false,"distance":7025,"is_transit":false,"i_lat":-6.3441410000000005},{"i_long":106.617853,"distance":5968,"line":0,"station_name":"Cicayur","is_transit":false,"transit":false,"time":8,"i_lat":-6.329547,"station_id":"CC"},{"distance":2519,"transit":false,"station_id":"CSK","time":4,"is_transit":false,"i_lat":-6.32484,"i_long":106.640411,"station_name":"Cisauk","line":0},{"i_lat":-6.319871,"i_long":106.66566,"time":4,"line":6,"distance":1784,"is_transit":false,"station_name":"Serpong","station_id":"SRP","transit":false},{"time":4,"station_name":"Rawa Buntu","transit":false,"distance":2413,"i_lat":-6.314823,"i_long":106.675475,"line":6,"station_id":"RU","is_transit":false},{"time":6,"line":6,"transit":false,"i_long":106.712277,"station_name":"Sudimara","i_lat":-6.296963,"is_transit":false,"distance":4566,"station_id":"SDM"},{"line":6,"station_name":"Jurangmangu","transit":false,"i_lat":-6.288927,"time":4,"station_id":"JMU","is_transit":false,"i_long":106.728916,"distance":1994},{"distance":2179,"time":3,"is_transit":false,"station_name":"Pondokranji","i_lat":-6.276362,"i_long":106.74273,"line":6,"station_id":"PDJ","transit":false},{"station_id":"KBY","station_name":"Kebayoran","line":6,"is_transit":false,"distance":6218,"transit":false,"i_long":106.780334,"i_lat":-6.237242,"time":8},{"transit":false,"i_lat":-6.207404,"is_transit":false,"station_id":"PLM","i_long":106.79689,"distance":3737,"line":6,"station_name":"Palmerah","time":7},{"i_lat":-6.185545,"line":1,"transit":true,"i_long":106.811091,"time":6,"is_transit":true,"distance":3191,"station_name":"Tanah Abang","station_id":"THB"},{"transit":false,"distance":2029,"time":5,"station_id":"KAT","station_name":"Karet","is_transit":false,"i_lat":-6.20132,"i_long":106.816351,"line":1},{"distance":471,"i_lat":-6.201433,"time":1,"i_long":106.819881,"station_id":"SUDB","is_transit":false,"transit":false,"station_name":"Sudirman Baru","line":1},{"station_id":"SUD","distance":280,"line":1,"i_lat":-6.202263,"transit":false,"i_long":106.822649,"is_transit":false,"station_name":"Sudirman","time":1},{"is_transit":true,"time":4,"line":0,"station_name":"Manggarai","distance":3186,"i_long":106.84912,"station_id":"MRI","transit":true,"i_lat":-6.209883},{"transit":false,"station_name":"Cikini","i_long":106.840169,"distance":1590,"station_id":"CKI","line":0,"i_lat":-6.198556,"is_transit":false,"time":4},{"i_long":106.832183,"is_transit":false,"distance":1750,"station_name":"Gondangdia","station_id":"GDD","time":3,"transit":false,"line":2,"i_lat":-6.186295},{"station_id":"JUA","distance":2015,"station_name":"Juanda","transit":false,"i_long":106.828284,"i_lat":-6.166716,"time":4,"is_transit":false,"line":2},{"station_name":"Sawah Besar","i_lat":-6.160725,"station_id":"SW","time":2,"i_long":106.827103,"distance":1149,"is_transit":false,"transit":false,"line":2},{"line":2,"i_lat":-6.149769,"time":2,"station_name":"Manggabesar","is_transit":false,"i_long":106.82482,"station_id":"MGB","distance":906,"transit":false},{"i_lat":-6.141205,"line":7,"station_id":"JAY","distance":1080,"time":2,"is_transit":false,"i_long":106.820901,"station_name":"Jayakarta","transit":false},{"line":0,"transit":true,"distance":1264,"is_transit":true,"time":4,"i_lat":-6.137569,"station_id":"JAKK","station_name":"Jakarta Kota","i_long":106.812439},{"station_name":"Kampung Bandan","transit":true,"station_id":"KPB","distance":1364,"i_long":106.826365,"line":0,"time":3,"i_lat":-6.132549,"is_transit":true},{"i_long":106.836569,"i_lat":-6.14505,"station_id":"RJW","distance":1444,"time":3,"station_name":"Rajawali","transit":false,"is_transit":false,"line":11},{"time":5,"transit":false,"station_id":"KMO","i_lat":-6.161728,"is_transit":false,"station_name":"Kemayoran","i_long":106.839204,"distance":1901,"line":11},{"is_transit":false,"station_id":"PSE","i_long":106.84368,"time":4,"line":11,"distance":1436,"station_name":"Pasar Senen","transit":false,"i_lat":-6.174784},{"time":8,"i_lat":-6.185975,"is_transit":false,"distance":1567,"station_id":"GST","i_long":106.850107,"station_name":"Gang Sentiong","transit":false,"line":11},{"i_lat":-6.193792,"distance":973,"is_transit":false,"time":1,"line":11,"station_name":"Kramat","station_id":"KMT","transit":false,"i_long":106.855437},{"is_transit":false,"i_lat":-6.209188,"station_name":"Pondok Jati","time":2,"line":11,"distance":1829,"station_id":"POK","i_long":106.861737,"transit":false},{"station_id":"JNG","i_long":106.86807400000001,"line":0,"station_name":"Jatinegara","time":9,"transit":true,"distance":1236,"i_lat":-6.215091,"is_transit":true},{"transit":false,"is_transit":false,"i_lat":-6.2135,"distance":3395,"line":1,"i_long":106.899548,"station_id":"KLD","station_name":"Klender","time":3},{"station_id":"BUA","time":2,"transit":false,"i_lat":-6.215568,"line":0,"is_transit":false,"distance":3100,"station_name":"Buaran","i_long":106.922662},{"station_name":"Klenderbaru","i_lat":-6.217455,"transit":false,"is_transit":false,"i_long":106.939679,"distance":1305,"line":1,"time":1,"station_id":"KLDB"},{"i_lat":-6.219053,"station_name":"Cakung","time":8,"i_long":106.951283,"transit":false,"line":0,"is_transit":false,"distance":1385,"station_id":"CUK"},{"i_lat":-6.224515,"is_transit":false,"station_id":"KRI","station_name":"Kranji","i_long":106.977657,"line":1,"distance":3097,"transit":false,"time":3},{"transit":false,"i_lat":-6.236616,"i_long":106.997013,"distance":2520,"station_name":"Bekasi","is_transit":false,"station_id":"BKS","time":4,"line":0},{"i_lat":-6.248029,"station_name":"Bekasi Timur","distance":2368,"station_id":"BKST","is_transit":false,"transit":false,"i_long":107.016735,"time":2,"line":0},{"is_transit":false,"i_lat":-6.258864,"station_id":"TB","line":1,"time":7,"distance":4460,"station_name":"Tambun","transit":false,"i_long":107.055722},{"station_id":"CIT","is_transit":false,"station_name":"Cibitung","transit":false,"i_lat":-6.261877,"i_long":107.083084,"distance":3420,"line":0,"time":3}]]}