{"data":[[{"station_name":"Cikoya","time":0,"i_long":106.411216,"distance":0,"transit":false,"is_transit":false,"i_lat":-6.33561,"station_id":"CKY","line":0},{"time":3,"station_name":"Tigaraksa","line":6,"station_id":"TGS","is_transit":false,"i_long":106.425991,"i_lat":-6.328533,"distance":2651,"transit":false},{"i_lat":-6.327251,"transit":false,"station_id":"TEJ","line":6,"station_name":"Tenjo","distance":2974,"is_transit":false,"time":5,"i_long":106.460812},{"distance":3902,"is_transit":false,"transit":false,"station_name":"Daru","i_lat":-6.338021,"line":0,"station_id":"DAR","i_long":106.491338,"time":5},{"line":0,"time":6,"is_transit":false,"station_name":"Cilejit","i_lat":-6.354349,"transit":false,"station_id":"CJT","distance":2675,"i_long":106.508482},{"i_long":106.568863,"i_lat":-6.3441410000000005,"station_name":"Parung Panjang","transit":false,"is_transit":false,"time":9,"station_id":"PRP","distance":7025,"line":6},{"is_transit":false,"transit":false,"distance":5968,"time":8,"station_name":"Cicayur","i_long":106.617853,"line":0,"station_id":"CC","i_lat":-6.329547},{"is_transit":false,"distance":2519,"time":4,"transit":false,"i_lat":-6.32484,"line":0,"i_long":106.640411,"station_name":"Cisauk","station_id":"CSK"},{"time":4,"i_lat":-6.319871,"transit":false,"distance":1784,"i_long":106.66566,"is_transit":false,"line":6,"station_id":"SRP","station_name":"Serpong"},{"station_name":"Rawa Buntu","i_lat":-6.314823,"transit":false,"time":4,"i_long":106.675475,"distance":2413,"line":6,"is_transit":false,"station_id":"RU"},{"i_long":106.712277,"time":6,"is_transit":false,"transit":false,"station_name":"Sudimara","line":6,"distance":4566,"station_id":"SDM","i_lat":-6.296963},{"station_name":"Jurangmangu","transit":false,"i_long":106.728916,"i_lat":-6.288927,"line":6,"is_transit":false,"distance":1994,"time":4,"station_id":"JMU"},{"i_long":106.74273,"station_name":"Pondokranji","transit":false,"is_transit":false,"time":3,"distance":2179,"station_id":"PDJ","i_lat":-6.276362,"line":6},{"line":6,"is_transit":false,"station_id":"KBY","station_name":"Kebayoran","transit":false,"time":8,"i_lat":-6.237242,"i_long":106.780334,"distance":6218},{"station_id":"PLM","i_long":106.79689,"time":7,"i_lat":-6.207404,"line":6,"is_transit":false,"station_name":"Palmerah","transit":false,"distance":3737},{"station_name":"Tanah Abang","i_lat":-6.185545,"transit":true,"i_long":106.811091,"is_transit":true,"time":6,"distance":3191,"station_id":"THB","line":1},{"time":5,"distance":2029,"station_name":"Karet","transit":false,"is_transit":false,"i_long":106.816351,"line":1,"station_id":"KAT","i_lat":-6.20132},{"is_transit":false,"transit":false,"time":1,"i_lat":-6.201433,"distance":471,"line":1,"station_name":"Sudirman Baru","station_id":"SUDB","i_long":106.819881},{"distance":280,"station_id":"SUD","line":1,"i_long":106.822649,"is_transit":false,"time":1,"i_lat":-6.202263,"station_name":"Sudirman","transit":false}],[{"distance":0,"time":0,"line":0,"is_transit":false,"station_name":"Cikoya","transit":false,"station_id":"CKY","i_lat":-6.33561,"i_long":106.411216},{"is_transit":false,"i_lat":-6.328533,"i_long":106.425991,"line":6,"distance":2651,"station_name":"Tigaraksa","station_id":"TGS","transit":false,"time":3},{"line":6,"distance":2974,"station_id":"TEJ","time":5,"is_transit":false,"transit":false,"i_lat":-6.327251,"station_name":"Tenjo","i_long":106.460812},{"station_name":"Daru","time":5,"transit":false,"line":0,"i_lat":-6.338021,"is_transit":false,"station_id":"DAR","distance":3902,"i_long":106.491338},{"station_id":"CJT","station_name":"Cilejit","transit":false,"distance":2675,"is_transit":false,"time":6,"i_lat":-6.354349,"line":0,"i_long":106.508482},{"i_lat":-6.3441410000000005,"i_long":106.568863,"distance":7025,"transit":false,"station_id":"PRP","is_transit":false,"line":6,"time":9,"station_name":"Parung Panjang"},{"transit":false,"line":0,"i_long":106.617853,"station_name":"Cicayur","is_transit":false,"i_lat":-6.329547,"time":8,"distance":5968,"station_id":"CC"},{"i_long":106.640411,"is_transit":false,"i_lat":-6.32484,"station_name":"Cisauk","transit":false,"line":0,"time":4,"station_id":"CSK","distance":2519},{"transit":false,"station_name":"Serpong","station_id":"SRP","line":6,"distance":1784,"i_lat":-6.319871,"i_long":106.66566,"time":4,"is_transit":false},{"i_lat":-6.314823,"is_transit":false,"time":4,"station_name":"Rawa Buntu","i_long":106.675475,"distance":2413,"station_id":"RU","line":6,"transit":false},{"is_transit":false,"line":6,"distance":4566,"station_name":"Sudimara","i_lat":-6.296963,"time":6,"station_id":"SDM","i_long":106.712277,"transit":false},{"time":4,"distance":1994,"i_lat":-6.288927,"station_id":"JMU","i_long":106.728916,"station_name":"Jurangmangu","line":6,"is_transit":false,"transit":false},{"time":3,"station_id":"PDJ","station_name":"Pondokranji","i_lat":-6.276362,"i_long":106.74273,"line":6,"distance":2179,"is_transit":false,"transit":false},{"is_transit":false,"station_id":"KBY","station_name":"Kebayoran","i_lat":-6.237242,"line":6,"transit":false,"distance":6218,"time":8,"i_long":106.780334},{"time":7,"station_id":"PLM","i_lat":-6.207404,"transit":false,"i_long":106.79689,"distance":3737,"is_transit":false,"station_name":"Palmerah","line":6},{"i_long":106.811091,"distance":3191,"is_transit":true,"line":1,"transit":true,"i_lat":-6.185545,"station_id":"THB","time":6,"station_name":"Tanah Abang"},{"i_lat":-6.155215,"distance":3632,"is_transit":true,"time":8,"line":1,"station_name":"Duri","station_id":"DU","transit":true,"i_long":106.800832},{"station_name":"Angke","is_transit":false,"i_lat":-6.144674,"i_long":106.79867,"transit":false,"line":0,"distance":1230,"station_id":"AK","time":4},{"transit":false,"station_id":"KPB","line":0,"distance":4102,"time":9,"station_name":"Kampung Bandan","is_transit":true,"i_lat":-6.132549,"i_long":106.826365},{"station_name":"Jakarta Kota","i_lat":-6.137569,"i_long":106.812439,"time":3,"is_transit":true,"distance":1364,"line":0,"station_id":"JAKK","transit":true},{"station_id":"JAY","transit":false,"station_name":"Jayakarta","distance":1264,"i_lat":-6.141205,"line":7,"i_long":106.820901,"time":4,"is_transit":false},{"i_lat":-6.149769,"time":2,"station_id":"MGB","station_name":"Manggabesar","i_long":106.82482,"distance":1080,"is_transit":false,"line":2,"transit":false},{"transit":false,"time":2,"station_id":"SW","station_name":"Sawah Besar","i_long":106.827103,"distance":906,"line":2,"is_transit":false,"i_lat":-6.160725},{"station_id":"JUA","is_transit":false,"line":2,"i_lat":-6.166716,"transit":false,"i_long":106.828284,"distance":1149,"time":2,"station_name":"Juanda"},{"time":4,"line":2,"i_long":106.832183,"i_lat":-6.186295,"is_transit":false,"transit":false,"distance":2015,"station_id":"GDD","station_name":"Gondangdia"},{"i_long":106.840169,"is_transit":false,"transit":false,"line":0,"station_name":"Cikini","time":3,"station_id":"CKI","i_lat":-6.198556,"distance":1750},{"station_name":"Manggarai","i_lat":-6.209883,"transit":true,"is_transit":true,"distance":1590,"line":0,"time":4,"i_long":106.84912,"station_id":"MRI"},{"i_lat":-6.202263,"time":4,"distance":3186,"transit":false,"i_long":106.822649,"line":1,"station_id":"SUD","is_transit":false,"station_name":"Sudirman"}],[{"line":0,"distance":0,"station_name":"Cikoya","station_id":"CKY","transit":false,"i_lat":-6.33561,"time":0,"is_transit":false,"i_long":106.411216},{"is_transit":false,"line":6,"time":3,"i_lat":-6.328533,"station_id":"TGS","distance":2651,"transit":false,"i_long":106.425991,"station_name":"Tigaraksa"},{"is_transit":false,"time":5,"station_id":"TEJ","distance":2974,"i_lat":-6.327251,"i_long":106.460812,"station_name":"Tenjo","line":6,"transit":false},{"station_name":"Daru","i_lat":-6.338021,"time":5,"i_long":106.491338,"transit":false,"distance":3902,"is_transit":false,"station_id":"DAR","line":0},{"is_transit":false,"time":6,"i_long":106.508482,"line":0,"station_id":"CJT","transit":false,"distance":2675,"i_lat":-6.354349,"station_name":"Cilejit"},{"station_name":"Parung Panjang","i_long":106.568863,"line":6,"i_lat":-6.3441410000000005,"time":9,"is_transit":false,"transit":false,"distance":7025,"station_id":"PRP"},{"i_long":106.617853,"time":8,"station_id":"CC","line":0,"distance":5968,"station_name":"Cicayur","transit":false,"i_lat":-6.329547,"is_transit":false},{"i_long":106.640411,"i_lat":-6.32484,"distance":2519,"line":0,"is_transit":false,"station_name":"Cisauk","station_id":"CSK","time":4,"transit":false},{"station_id":"SRP","is_transit":false,"i_lat":-6.319871,"i_long":106.66566,"station_name":"Serpong","line":6,"distance":1784,"transit":false,"time":4},{"time":4,"line":6,"station_name":"Rawa Buntu","transit":false,"i_lat":-6.314823,"distance":2413,"i_long":106.675475,"station_id":"RU","is_transit":false},{"time":6,"is_transit":false,"station_name":"Sudimara","i_long":106.712277,"distance":4566,"station_id":"SDM","i_lat":-6.296963,"transit":false,"line":6},{"line":6,"distance":1994,"station_id":"JMU","station_name":"Jurangmangu","i_long":106.728916,"transit":false,"time":4,"i_lat":-6.288927,"is_transit":false},{"station_name":"Pondokranji","i_lat":-6.276362,"line":6,"is_transit":false,"distance":2179,"station_id":"PDJ","i_long":106.74273,"transit":false,"time":3},{"is_transit":false,"station_name":"Kebayoran","i_lat":-6.237242,"line":6,"distance":6218,"station_id":"KBY","time":8,"i_long":106.780334,"transit":false},{"station_name":"Palmerah","i_lat":-6.207404,"transit":false,"time":7,"distance":3737,"is_transit":false,"i_long":106.79689,"line":6,"station_id":"PLM"},{"i_long":106.811091,"line":1,"station_name":"Tanah Abang","transit":true,"i_lat":-6.185545,"is_transit":true,"distance":3191,"time":6,"station_id":"THB"},{"time":8,"is_transit":true,"distance":3632,"transit":true,"station_name":"Duri","i_lat":-6.155215,"line":1,"i_long":106.800832,"station_id":"DU"},{"i_long":106.79867,"station_name":"Angke","line":0,"distance":1230,"station_id":"AK","transit":false,"i_lat":-6.144674,"time":4,"is_transit":false},{"i_long":106.826365,"line":0,"is_transit":true,"distance":4102,"station_id":"KPB","station_name":"Kampung Bandan","i_lat":-6.132549,"transit":true,"time":9},{"distance":1444,"is_transit":false,"station_name":"Rajawali","station_id":"RJW","transit":false,"i_long":106.836569,"line":11,"i_lat":-6.14505,"time":3},{"transit":false,"i_lat":-6.161728,"line":11,"time":5,"distance":1901,"station_id":"KMO","is_transit":false,"station_name":"Kemayoran","i_long":106.839204},{"station_name":"Pasar Senen","transit":false,"i_lat":-6.174784,"time":4,"station_id":"PSE","is_transit":false,"line":11,"i_long":106.84368,"distance":1436},{"station_id":"GST","i_lat":-6.185975,"transit":false,"time":8,"is_transit":false,"station_name":"Gang Sentiong","distance":1567,"i_long":106.850107,"line":11},{"station_name":"Kramat","transit":false,"i_long":106.855437,"i_lat":-6.193792,"line":11,"distance":973,"time":1,"is_transit":false,"station_id":"KMT"},{"i_lat":-6.209188,"transit":false,"time":2,"distance":1829,"line":11,"station_id":"POK","i_long":106.861737,"is_transit":false,"station_name":"Pondok Jati"},{"distance":1236,"station_id":"JNG","station_name":"Jatinegara","transit":true,"i_lat":-6.215091,"line":0,"is_transit":true,"i_long":106.86807400000001,"time":9},{"i_long":106.858896,"line":1,"time":2,"i_lat":-6.212485,"distance":1377,"is_transit":false,"station_id":"MTR","station_name":"Matraman","transit":false},{"station_name":"Manggarai","station_id":"MRI","transit":false,"line":0,"distance":1275,"i_lat":-6.209883,"is_transit":true,"i_long":106.84912,"time":2},{"is_transit":false,"i_long":106.822649,"distance":3186,"i_lat":-6.202263,"station_id":"SUD","station_name":"Sudirman","time":4,"line":1,"transit":false}]]}