{"data":[[{"i_lat":-6.33561,"line":3,"i_long":106.411216,"is_transit":false,"time":0,"transit":false,"station_name":"Cikoya","station_id":"CKY","distance":0},{"is_transit":false,"time":3,"i_lat":-6.328533,"transit":false,"station_name":"Tigaraksa","distance":2651,"i_long":106.425991,"line":6,"station_id":"TGS"},{"time":5,"line":6,"transit":false,"i_lat":-6.327251,"i_long":106.460812,"distance":2974,"station_id":"TEJ","is_transit":false,"station_name":"Tenjo"},{"line":0,"distance":3902,"is_transit":false,"time":5,"i_lat":-6.338021,"station_name":"Daru","station_id":"DAR","transit":false,"i_long":106.491338},{"i_long":106.508482,"line":3,"is_transit":false,"distance":2675,"transit":false,"station_name":"Cilejit","i_lat":-6.354349,"station_id":"CJT","time":6},{"i_long":106.568863,"station_name":"Parung Panjang","transit":false,"line":6,"i_lat":-6.3441410000000005,"is_transit":false,"distance":7025,"station_id":"PRP","time":9},{"distance":5968,"station_name":"Cicayur","i_long":106.617853,"time":8,"i_lat":-6.329547,"line":3,"transit":false,"is_transit":false,"station_id":"CC"},{"i_lat":-6.32484,"station_name":"Cisauk","station_id":"CSK","line":3,"distance":2519,"is_transit":false,"transit":false,"i_long":106.640411,"time":4},{"time":4,"i_long":106.66566,"station_name":"Serpong","transit":false,"station_id":"SRP","is_transit":false,"distance":1784,"i_lat":-6.319871,"line":6},{"i_long":106.675475,"line":6,"distance":2413,"is_transit":false,"station_name":"Rawa Buntu","time":4,"i_lat":-6.314823,"station_id":"RU","transit":false},{"time":6,"line":6,"is_transit":false,"station_id":"SDM","station_name":"Sudimara","i_lat":-6.296963,"distance":4566,"transit":false,"i_long":106.712277},{"station_id":"JMU","i_lat":-6.288927,"i_long":106.728916,"time":4,"distance":1994,"station_name":"Jurangmangu","line":6,"transit":false,"is_transit":false},{"distance":2179,"is_transit":false,"station_id":"PDJ","time":3,"transit":false,"i_lat":-6.276362,"line":6,"station_name":"Pondokranji","i_long":106.74273},{"distance":6218,"i_lat":-6.237242,"station_name":"Kebayoran","line":6,"is_transit":false,"transit":false,"i_long":106.780334,"station_id":"KBY","time":8},{"i_long":106.79689,"station_id":"PLM","line":6,"time":7,"i_lat":-6.207404,"is_transit":false,"transit":false,"station_name":"Palmerah","distance":3737},{"i_lat":-6.185545,"line":1,"station_name":"Tanah Abang","i_long":106.811091,"distance":3191,"station_id":"THB","time":6,"transit":true,"is_transit":true},{"line":1,"i_long":106.816351,"station_name":"Karet","i_lat":-6.20132,"is_transit":false,"station_id":"KAT","time":5,"transit":false,"distance":2029},{"is_transit":false,"distance":471,"i_lat":-6.201433,"time":1,"station_id":"SUDB","station_name":"Sudirman Baru","line":1,"transit":false,"i_long":106.819881},{"i_long":106.822649,"is_transit":false,"time":1,"transit":false,"station_id":"SUD","distance":280,"line":1,"station_name":"Sudirman","i_lat":-6.202263},{"i_lat":-6.209883,"time":4,"is_transit":true,"transit":true,"station_name":"Manggarai","distance":3186,"i_long":106.84912,"station_id":"MRI","line":2},{"i_lat":-6.226659,"distance":2610,"time":4,"is_transit":false,"transit":false,"line":2,"station_name":"Tebet","station_id":"TEB","i_long":106.857948},{"i_lat":-6.242512,"i_long":106.856607,"is_transit":false,"station_id":"CW","transit":false,"station_name":"Cawang","line":2,"time":2,"distance":1230},{"time":3,"transit":false,"station_name":"Duren Kalibata","line":2,"station_id":"DRN","i_long":106.85449,"distance":1546,"i_lat":-6.255332,"is_transit":false},{"distance":824,"station_id":"PSMB","transit":false,"line":2,"time":2,"station_name":"Pasar Minggu Baru","is_transit":false,"i_lat":-6.263214,"i_long":106.851577},{"transit":false,"distance":2380,"line":2,"station_id":"PSM","station_name":"Pasar Minggu","i_long":106.843999,"is_transit":false,"time":2,"i_lat":-6.2842400000000005},{"i_long":106.838896,"time":4,"line":2,"distance":2820,"transit":false,"is_transit":false,"station_id":"TNT","i_lat":-6.3080680000000005,"station_name":"Tanjung Barat"},{"distance":2671,"i_lat":-6.330363,"line":2,"i_long":106.832616,"time":3,"station_id":"LNA","transit":false,"station_name":"Lenteng Agung","is_transit":false},{"transit":false,"distance":1029,"i_long":106.834175,"line":2,"i_lat":-6.339291,"is_transit":false,"station_name":"Univ. Pancasila","station_id":"UP","time":2},{"line":2,"distance":2264,"transit":false,"i_long":106.831474,"station_name":"Univ. Indonesia","station_id":"UI","i_lat":-6.360749,"time":3,"is_transit":false}],[{"time":0,"transit":false,"station_name":"Cikoya","i_long":106.411216,"i_lat":-6.33561,"station_id":"CKY","distance":0,"is_transit":false,"line":3},{"line":6,"time":3,"station_id":"TGS","i_lat":-6.328533,"station_name":"Tigaraksa","distance":2651,"i_long":106.425991,"is_transit":false,"transit":false},{"i_long":106.460812,"time":5,"is_transit":false,"transit":false,"distance":2974,"i_lat":-6.327251,"station_name":"Tenjo","line":6,"station_id":"TEJ"},{"i_long":106.491338,"station_id":"DAR","time":5,"distance":3902,"transit":false,"i_lat":-6.338021,"is_transit":false,"line":0,"station_name":"Daru"},{"station_id":"CJT","i_lat":-6.354349,"time":6,"station_name":"Cilejit","distance":2675,"line":3,"i_long":106.508482,"transit":false,"is_transit":false},{"i_lat":-6.3441410000000005,"distance":7025,"is_transit":false,"time":9,"i_long":106.568863,"station_name":"Parung Panjang","station_id":"PRP","line":6,"transit":false},{"line":3,"time":8,"distance":5968,"station_id":"CC","is_transit":false,"i_long":106.617853,"transit":false,"i_lat":-6.329547,"station_name":"Cicayur"},{"is_transit":false,"i_lat":-6.32484,"transit":false,"line":3,"station_id":"CSK","i_long":106.640411,"time":4,"distance":2519,"station_name":"Cisauk"},{"i_long":106.66566,"station_id":"SRP","i_lat":-6.319871,"transit":false,"station_name":"Serpong","time":4,"is_transit":false,"line":6,"distance":1784},{"is_transit":false,"time":4,"transit":false,"station_name":"Rawa Buntu","station_id":"RU","i_long":106.675475,"i_lat":-6.314823,"distance":2413,"line":6},{"i_lat":-6.296963,"station_id":"SDM","i_long":106.712277,"station_name":"Sudimara","transit":false,"line":6,"is_transit":false,"time":6,"distance":4566},{"distance":1994,"i_lat":-6.288927,"time":4,"transit":false,"i_long":106.728916,"line":6,"station_id":"JMU","is_transit":false,"station_name":"Jurangmangu"},{"i_long":106.74273,"time":3,"line":6,"distance":2179,"is_transit":false,"station_id":"PDJ","transit":false,"station_name":"Pondokranji","i_lat":-6.276362},{"station_id":"KBY","station_name":"Kebayoran","transit":false,"is_transit":false,"i_lat":-6.237242,"i_long":106.780334,"distance":6218,"line":6,"time":8},{"line":6,"is_transit":false,"station_id":"PLM","time":7,"transit":false,"station_name":"Palmerah","i_long":106.79689,"i_lat":-6.207404,"distance":3737},{"i_long":106.811091,"line":1,"time":6,"station_name":"Tanah Abang","is_transit":true,"station_id":"THB","distance":3191,"transit":true,"i_lat":-6.185545},{"line":1,"i_long":106.800832,"is_transit":false,"transit":false,"distance":3632,"station_id":"DU","time":8,"i_lat":-6.155215,"station_name":"Duri"},{"line":1,"station_name":"Angke","time":4,"station_id":"AK","is_transit":false,"distance":1230,"i_lat":-6.144674,"i_long":106.79867,"transit":false},{"i_lat":-6.132549,"is_transit":true,"line":4,"distance":4102,"station_name":"Kampung Bandan","transit":true,"station_id":"KPB","time":9,"i_long":106.826365},{"station_id":"JAKK","is_transit":true,"time":3,"transit":true,"distance":1364,"i_lat":-6.137569,"i_long":106.812439,"line":2,"station_name":"Jakarta Kota"},{"line":2,"transit":false,"is_transit":false,"i_lat":-6.141205,"distance":1264,"station_id":"JAY","station_name":"Jayakarta","time":4,"i_long":106.820901},{"transit":false,"time":2,"distance":1080,"i_lat":-6.149769,"is_transit":false,"station_id":"MGB","i_long":106.82482,"line":2,"station_name":"Manggabesar"},{"station_name":"Sawah Besar","distance":906,"transit":false,"time":2,"i_long":106.827103,"line":2,"station_id":"SW","is_transit":false,"i_lat":-6.160725},{"line":2,"station_id":"JUA","i_long":106.828284,"distance":1149,"transit":false,"station_name":"Juanda","is_transit":false,"i_lat":-6.166716,"time":2},{"distance":2015,"transit":false,"station_id":"GDD","line":2,"is_transit":false,"i_lat":-6.186295,"time":4,"station_name":"Gondangdia","i_long":106.832183},{"distance":1750,"i_lat":-6.198556,"station_id":"CKI","is_transit":false,"station_name":"Cikini","transit":false,"i_long":106.840169,"time":3,"line":2},{"station_id":"MRI","station_name":"Manggarai","i_lat":-6.209883,"i_long":106.84912,"time":4,"is_transit":false,"transit":false,"distance":1590,"line":2},{"station_name":"Tebet","i_lat":-6.226659,"distance":2610,"line":2,"transit":false,"is_transit":false,"time":4,"station_id":"TEB","i_long":106.857948},{"time":2,"station_name":"Cawang","distance":1230,"station_id":"CW","line":2,"i_lat":-6.242512,"transit":false,"i_long":106.856607,"is_transit":false},{"station_name":"Duren Kalibata","distance":1546,"station_id":"DRN","time":3,"i_lat":-6.255332,"line":2,"i_long":106.85449,"is_transit":false,"transit":false},{"transit":false,"distance":824,"line":2,"i_lat":-6.263214,"time":2,"is_transit":false,"i_long":106.851577,"station_id":"PSMB","station_name":"Pasar Minggu Baru"},{"station_id":"PSM","station_name":"Pasar Minggu","distance":2380,"i_long":106.843999,"is_transit":false,"i_lat":-6.2842400000000005,"line":2,"transit":false,"time":2},{"time":4,"i_lat":-6.3080680000000005,"i_long":106.838896,"is_transit":false,"station_id":"TNT","station_name":"Tanjung Barat","line":2,"transit":false,"distance":2820},{"transit":false,"station_name":"Lenteng Agung","i_lat":-6.330363,"is_transit":false,"distance":2671,"line":2,"station_id":"LNA","i_long":106.832616,"time":3},{"i_lat":-6.339291,"transit":false,"distance":1029,"line":2,"i_long":106.834175,"station_id":"UP","time":2,"is_transit":false,"station_name":"Univ. Pancasila"},{"transit":false,"station_id":"UI","is_transit":false,"time":3,"i_lat":-6.360749,"i_long":106.831474,"distance":2264,"line":2,"station_name":"Univ. Indonesia"}],[{"transit":false,"i_long":106.411216,"is_transit":false,"station_id":"CKY","distance":0,"line":3,"time":0,"station_name":"Cikoya","i_lat":-6.33561},{"is_transit":false,"time":3,"i_long":106.425991,"i_lat":-6.328533,"transit":false,"station_name":"Tigaraksa","line":6,"station_id":"TGS","distance":2651},{"i_long":106.460812,"station_name":"Tenjo","time":5,"distance":2974,"line":6,"station_id":"TEJ","is_transit":false,"i_lat":-6.327251,"transit":false},{"i_lat":-6.338021,"time":5,"line":0,"is_transit":false,"station_name":"Daru","distance":3902,"i_long":106.491338,"station_id":"DAR","transit":false},{"i_long":106.508482,"distance":2675,"time":6,"line":3,"i_lat":-6.354349,"station_id":"CJT","transit":false,"station_name":"Cilejit","is_transit":false},{"line":6,"transit":false,"time":9,"distance":7025,"i_long":106.568863,"i_lat":-6.3441410000000005,"is_transit":false,"station_id":"PRP","station_name":"Parung Panjang"},{"time":8,"i_lat":-6.329547,"i_long":106.617853,"distance":5968,"transit":false,"station_id":"CC","station_name":"Cicayur","line":3,"is_transit":false},{"time":4,"station_name":"Cisauk","station_id":"CSK","transit":false,"distance":2519,"line":3,"is_transit":false,"i_lat":-6.32484,"i_long":106.640411},{"line":6,"is_transit":false,"time":4,"station_id":"SRP","distance":1784,"i_long":106.66566,"i_lat":-6.319871,"transit":false,"station_name":"Serpong"},{"i_lat":-6.314823,"i_long":106.675475,"station_name":"Rawa Buntu","transit":false,"line":6,"time":4,"is_transit":false,"station_id":"RU","distance":2413},{"line":6,"transit":false,"distance":4566,"station_id":"SDM","time":6,"is_transit":false,"station_name":"Sudimara","i_long":106.712277,"i_lat":-6.296963},{"is_transit":false,"i_long":106.728916,"station_name":"Jurangmangu","time":4,"line":6,"i_lat":-6.288927,"distance":1994,"transit":false,"station_id":"JMU"},{"station_id":"PDJ","is_transit":false,"station_name":"Pondokranji","transit":false,"i_long":106.74273,"i_lat":-6.276362,"line":6,"time":3,"distance":2179},{"line":6,"station_name":"Kebayoran","i_lat":-6.237242,"is_transit":false,"time":8,"i_long":106.780334,"distance":6218,"station_id":"KBY","transit":false},{"i_long":106.79689,"is_transit":false,"station_id":"PLM","i_lat":-6.207404,"transit":false,"station_name":"Palmerah","time":7,"distance":3737,"line":6},{"station_id":"THB","transit":true,"station_name":"Tanah Abang","is_transit":true,"distance":3191,"i_lat":-6.185545,"i_long":106.811091,"time":6,"line":1},{"is_transit":false,"station_id":"DU","station_name":"Duri","i_lat":-6.155215,"time":8,"line":1,"transit":false,"distance":3632,"i_long":106.800832},{"transit":false,"station_name":"Angke","station_id":"AK","i_lat":-6.144674,"i_long":106.79867,"is_transit":false,"distance":1230,"time":4,"line":1},{"i_long":106.826365,"station_id":"KPB","is_transit":true,"transit":true,"distance":4102,"line":4,"time":9,"station_name":"Kampung Bandan","i_lat":-6.132549},{"i_long":106.836569,"line":11,"station_id":"RJW","station_name":"Rajawali","transit":false,"is_transit":false,"distance":1444,"i_lat":-6.14505,"time":3},{"is_transit":false,"line":11,"transit":false,"station_id":"KMO","time":5,"distance":1901,"station_name":"Kemayoran","i_lat":-6.161728,"i_long":106.839204},{"distance":1436,"station_name":"Pasar Senen","i_long":106.84368,"is_transit":false,"transit":false,"i_lat":-6.174784,"station_id":"PSE","line":11,"time":4},{"is_transit":false,"time":8,"line":11,"station_name":"Gang Sentiong","station_id":"GST","i_lat":-6.185975,"distance":1567,"transit":false,"i_long":106.850107},{"is_transit":false,"i_long":106.855437,"station_name":"Kramat","distance":973,"time":1,"station_id":"KMT","i_lat":-6.193792,"transit":false,"line":11},{"distance":1829,"transit":false,"is_transit":false,"station_name":"Pondok Jati","station_id":"POK","i_lat":-6.209188,"time":2,"i_long":106.861737,"line":11},{"i_lat":-6.215091,"line":1,"station_name":"Jatinegara","i_long":106.86807400000001,"time":9,"is_transit":true,"transit":true,"distance":1236,"station_id":"JNG"},{"is_transit":false,"i_lat":-6.212485,"distance":1377,"station_name":"Matraman","transit":false,"line":1,"station_id":"MTR","time":2,"i_long":106.858896},{"line":2,"i_lat":-6.209883,"station_id":"MRI","station_name":"Manggarai","transit":true,"is_transit":true,"i_long":106.84912,"time":2,"distance":1275},{"transit":false,"station_id":"TEB","time":4,"station_name":"Tebet","is_transit":false,"distance":2610,"i_long":106.857948,"i_lat":-6.226659,"line":2},{"time":2,"station_id":"CW","transit":false,"i_long":106.856607,"line":2,"is_transit":false,"i_lat":-6.242512,"distance":1230,"station_name":"Cawang"},{"transit":false,"line":2,"distance":1546,"i_lat":-6.255332,"station_name":"Duren Kalibata","is_transit":false,"station_id":"DRN","i_long":106.85449,"time":3},{"station_id":"PSMB","station_name":"Pasar Minggu Baru","line":2,"transit":false,"i_lat":-6.263214,"time":2,"distance":824,"is_transit":false,"i_long":106.851577},{"transit":false,"station_id":"PSM","time":2,"i_long":106.843999,"station_name":"Pasar Minggu","line":2,"i_lat":-6.2842400000000005,"distance":2380,"is_transit":false},{"station_id":"TNT","line":2,"transit":false,"time":4,"distance":2820,"station_name":"Tanjung Barat","is_transit":false,"i_long":106.838896,"i_lat":-6.3080680000000005},{"station_id":"LNA","station_name":"Lenteng Agung","i_long":106.832616,"line":2,"distance":2671,"is_transit":false,"transit":false,"i_lat":-6.330363,"time":3},{"line":2,"i_long":106.834175,"station_name":"Univ. Pancasila","is_transit":false,"station_id":"UP","time":2,"transit":false,"distance":1029,"i_lat":-6.339291},{"time":3,"station_id":"UI","is_transit":false,"distance":2264,"line":2,"i_long":106.831474,"i_lat":-6.360749,"transit":false,"station_name":"Univ. Indonesia"}]]}