{"data":[[{"i_long":106.411216,"line":0,"time":0,"is_transit":false,"station_name":"Cikoya","station_id":"CKY","distance":0,"transit":false,"i_lat":-6.33561},{"i_lat":-6.328533,"transit":false,"time":3,"station_name":"Tigaraksa","is_transit":false,"station_id":"TGS","i_long":106.425991,"distance":2651,"line":6},{"station_id":"TEJ","is_transit":false,"transit":false,"i_long":106.460812,"line":6,"i_lat":-6.327251,"station_name":"Tenjo","time":5,"distance":2974},{"distance":3902,"i_lat":-6.338021,"time":5,"line":0,"is_transit":false,"transit":false,"station_name":"Daru","i_long":106.491338,"station_id":"DAR"},{"line":0,"station_id":"CJT","is_transit":false,"time":6,"distance":2675,"i_lat":-6.354349,"i_long":106.508482,"station_name":"Cilejit","transit":false},{"station_id":"PRP","is_transit":false,"i_lat":-6.3441410000000005,"i_long":106.568863,"transit":false,"time":9,"distance":7025,"station_name":"Parung Panjang","line":6},{"station_name":"Cicayur","station_id":"CC","time":8,"i_long":106.617853,"line":0,"is_transit":false,"transit":false,"i_lat":-6.329547,"distance":5968},{"line":0,"i_lat":-6.32484,"i_long":106.640411,"is_transit":false,"distance":2519,"station_id":"CSK","time":4,"station_name":"Cisauk","transit":false},{"i_lat":-6.319871,"station_name":"Serpong","time":4,"line":6,"is_transit":false,"distance":1784,"i_long":106.66566,"station_id":"SRP","transit":false},{"i_lat":-6.314823,"is_transit":false,"time":4,"line":6,"i_long":106.675475,"transit":false,"station_id":"RU","distance":2413,"station_name":"Rawa Buntu"},{"time":6,"i_lat":-6.296963,"line":6,"station_id":"SDM","distance":4566,"station_name":"Sudimara","transit":false,"i_long":106.712277,"is_transit":false},{"time":4,"i_long":106.728916,"transit":false,"station_id":"JMU","distance":1994,"i_lat":-6.288927,"line":6,"is_transit":false,"station_name":"Jurangmangu"},{"is_transit":false,"transit":false,"station_name":"Pondokranji","line":6,"time":3,"i_lat":-6.276362,"distance":2179,"station_id":"PDJ","i_long":106.74273},{"i_long":106.780334,"station_name":"Kebayoran","i_lat":-6.237242,"distance":6218,"is_transit":false,"time":8,"transit":false,"station_id":"KBY","line":6},{"line":6,"i_long":106.79689,"station_name":"Palmerah","transit":false,"is_transit":false,"station_id":"PLM","time":7,"distance":3737,"i_lat":-6.207404},{"line":1,"time":6,"station_id":"THB","station_name":"Tanah Abang","i_long":106.811091,"is_transit":true,"transit":true,"i_lat":-6.185545,"distance":3191},{"i_lat":-6.155215,"station_id":"DU","distance":3632,"time":8,"station_name":"Duri","line":1,"is_transit":true,"transit":true,"i_long":106.800832},{"station_name":"Grogol","i_lat":-6.162021,"time":3,"line":5,"is_transit":false,"station_id":"GGL","transit":false,"distance":1700,"i_long":106.788277},{"station_name":"Pesing","time":2,"is_transit":false,"i_long":106.771379,"station_id":"PSG","transit":false,"i_lat":-6.161433,"line":5,"distance":2036},{"station_name":"Taman Kota","i_long":106.756522,"time":2,"distance":1614,"station_id":"TKO","is_transit":false,"transit":false,"i_lat":-6.1587309999999995,"line":5},{"station_id":"BOI","is_transit":false,"time":2,"station_name":"Bojongindah","transit":false,"i_lat":-6.159876,"line":0,"i_long":106.737035,"distance":2334},{"i_lat":-6.162758,"is_transit":false,"distance":1152,"station_name":"Rawa Buaya","line":5,"i_long":106.723064,"time":4,"transit":false,"station_id":"RW"},{"line":5,"i_lat":-6.166068,"distance":2504,"transit":false,"time":3,"station_name":"Kalideres","is_transit":false,"i_long":106.701612,"station_id":"KDS"},{"transit":false,"distance":2548,"i_lat":-6.169933,"line":5,"i_long":106.679458,"is_transit":false,"station_id":"PI","station_name":"Poris","time":3},{"station_name":"Batuceper","time":3,"station_id":"BPR","distance":1834,"is_transit":false,"transit":false,"i_lat":-6.171811,"i_long":106.665036,"line":0},{"i_lat":-6.17331,"line":5,"is_transit":false,"station_id":"TTI","distance":2028,"transit":false,"station_name":"Tanah Tinggi","time":3,"i_long":106.64657}],[{"distance":0,"station_id":"CKY","is_transit":false,"line":0,"i_lat":-6.33561,"transit":false,"time":0,"station_name":"Cikoya","i_long":106.411216},{"line":6,"station_name":"Tigaraksa","station_id":"TGS","i_lat":-6.328533,"is_transit":false,"time":3,"transit":false,"distance":2651,"i_long":106.425991},{"station_name":"Tenjo","distance":2974,"station_id":"TEJ","time":5,"is_transit":false,"transit":false,"i_lat":-6.327251,"i_long":106.460812,"line":6},{"transit":false,"i_long":106.491338,"i_lat":-6.338021,"distance":3902,"station_id":"DAR","time":5,"station_name":"Daru","line":0,"is_transit":false},{"i_long":106.508482,"station_name":"Cilejit","station_id":"CJT","time":6,"transit":false,"i_lat":-6.354349,"distance":2675,"is_transit":false,"line":0},{"line":6,"distance":7025,"i_long":106.568863,"station_name":"Parung Panjang","station_id":"PRP","is_transit":false,"time":9,"transit":false,"i_lat":-6.3441410000000005},{"time":8,"i_long":106.617853,"is_transit":false,"station_id":"CC","i_lat":-6.329547,"line":0,"transit":false,"distance":5968,"station_name":"Cicayur"},{"i_lat":-6.32484,"i_long":106.640411,"distance":2519,"station_id":"CSK","is_transit":false,"transit":false,"time":4,"station_name":"Cisauk","line":0},{"is_transit":false,"transit":false,"station_name":"Serpong","station_id":"SRP","distance":1784,"time":4,"i_long":106.66566,"i_lat":-6.319871,"line":6},{"station_id":"RU","i_long":106.675475,"i_lat":-6.314823,"time":4,"station_name":"Rawa Buntu","transit":false,"is_transit":false,"line":6,"distance":2413},{"station_id":"SDM","is_transit":false,"station_name":"Sudimara","time":6,"line":6,"i_lat":-6.296963,"transit":false,"i_long":106.712277,"distance":4566},{"i_lat":-6.288927,"line":6,"distance":1994,"transit":false,"i_long":106.728916,"station_name":"Jurangmangu","time":4,"is_transit":false,"station_id":"JMU"},{"distance":2179,"i_lat":-6.276362,"is_transit":false,"transit":false,"time":3,"i_long":106.74273,"station_name":"Pondokranji","line":6,"station_id":"PDJ"},{"station_name":"Kebayoran","i_lat":-6.237242,"station_id":"KBY","is_transit":false,"transit":false,"time":8,"i_long":106.780334,"distance":6218,"line":6},{"station_name":"Palmerah","line":6,"i_long":106.79689,"time":7,"distance":3737,"i_lat":-6.207404,"transit":false,"is_transit":false,"station_id":"PLM"},{"i_lat":-6.185545,"i_long":106.811091,"time":6,"line":1,"station_id":"THB","transit":true,"is_transit":true,"distance":3191,"station_name":"Tanah Abang"},{"distance":2029,"is_transit":false,"transit":false,"time":5,"station_id":"KAT","line":1,"station_name":"Karet","i_lat":-6.20132,"i_long":106.816351},{"station_id":"SUDB","distance":471,"time":1,"is_transit":false,"station_name":"Sudirman Baru","i_lat":-6.201433,"transit":false,"i_long":106.819881,"line":1},{"distance":280,"transit":false,"station_name":"Sudirman","i_long":106.822649,"time":1,"line":1,"is_transit":false,"i_lat":-6.202263,"station_id":"SUD"},{"i_lat":-6.209883,"time":4,"line":0,"distance":3186,"transit":true,"station_id":"MRI","is_transit":true,"i_long":106.84912,"station_name":"Manggarai"},{"i_long":106.840169,"station_id":"CKI","transit":false,"is_transit":false,"distance":1590,"i_lat":-6.198556,"line":0,"station_name":"Cikini","time":4},{"time":3,"line":2,"is_transit":false,"i_lat":-6.186295,"i_long":106.832183,"station_name":"Gondangdia","station_id":"GDD","distance":1750,"transit":false},{"transit":false,"line":2,"station_id":"JUA","is_transit":false,"distance":2015,"station_name":"Juanda","time":4,"i_lat":-6.166716,"i_long":106.828284},{"time":2,"distance":1149,"i_lat":-6.160725,"is_transit":false,"transit":false,"station_name":"Sawah Besar","i_long":106.827103,"line":2,"station_id":"SW"},{"station_name":"Manggabesar","time":2,"i_lat":-6.149769,"station_id":"MGB","transit":false,"i_long":106.82482,"is_transit":false,"line":2,"distance":906},{"station_id":"JAY","distance":1080,"i_long":106.820901,"is_transit":false,"time":2,"station_name":"Jayakarta","transit":false,"line":7,"i_lat":-6.141205},{"station_name":"Jakarta Kota","station_id":"JAKK","time":4,"i_long":106.812439,"transit":true,"i_lat":-6.137569,"line":0,"is_transit":true,"distance":1264},{"station_id":"KPB","distance":1364,"line":0,"is_transit":true,"station_name":"Kampung Bandan","transit":false,"i_long":106.826365,"time":3,"i_lat":-6.132549},{"station_id":"AK","line":0,"transit":false,"station_name":"Angke","i_lat":-6.144674,"is_transit":false,"time":9,"i_long":106.79867,"distance":4102},{"time":4,"station_name":"Duri","transit":true,"i_long":106.800832,"i_lat":-6.155215,"station_id":"DU","line":1,"distance":1230,"is_transit":true},{"station_name":"Grogol","station_id":"GGL","distance":1700,"transit":false,"time":3,"i_lat":-6.162021,"i_long":106.788277,"line":5,"is_transit":false},{"station_name":"Pesing","line":5,"i_long":106.771379,"station_id":"PSG","time":2,"distance":2036,"is_transit":false,"i_lat":-6.161433,"transit":false},{"is_transit":false,"transit":false,"station_name":"Taman Kota","i_lat":-6.1587309999999995,"station_id":"TKO","i_long":106.756522,"time":2,"line":5,"distance":1614},{"transit":false,"line":0,"is_transit":false,"station_id":"BOI","distance":2334,"station_name":"Bojongindah","time":2,"i_lat":-6.159876,"i_long":106.737035},{"is_transit":false,"distance":1152,"transit":false,"i_long":106.723064,"i_lat":-6.162758,"station_id":"RW","station_name":"Rawa Buaya","line":5,"time":4},{"time":3,"i_long":106.701612,"transit":false,"is_transit":false,"station_id":"KDS","distance":2504,"line":5,"station_name":"Kalideres","i_lat":-6.166068},{"transit":false,"time":3,"i_long":106.679458,"distance":2548,"station_id":"PI","is_transit":false,"station_name":"Poris","i_lat":-6.169933,"line":5},{"transit":false,"is_transit":false,"i_lat":-6.171811,"i_long":106.665036,"line":0,"distance":1834,"time":3,"station_id":"BPR","station_name":"Batuceper"},{"i_long":106.64657,"is_transit":false,"transit":false,"distance":2028,"time":3,"station_name":"Tanah Tinggi","line":5,"station_id":"TTI","i_lat":-6.17331}],[{"time":0,"is_transit":false,"transit":false,"i_lat":-6.33561,"i_long":106.411216,"station_name":"Cikoya","distance":0,"station_id":"CKY","line":0},{"is_transit":false,"distance":2651,"transit":false,"line":6,"station_id":"TGS","time":3,"i_long":106.425991,"i_lat":-6.328533,"station_name":"Tigaraksa"},{"station_id":"TEJ","time":5,"i_long":106.460812,"station_name":"Tenjo","line":6,"is_transit":false,"transit":false,"i_lat":-6.327251,"distance":2974},{"is_transit":false,"i_lat":-6.338021,"station_name":"Daru","i_long":106.491338,"line":0,"transit":false,"time":5,"distance":3902,"station_id":"DAR"},{"station_name":"Cilejit","time":6,"i_lat":-6.354349,"i_long":106.508482,"line":0,"distance":2675,"station_id":"CJT","is_transit":false,"transit":false},{"line":6,"is_transit":false,"station_name":"Parung Panjang","time":9,"transit":false,"i_long":106.568863,"station_id":"PRP","distance":7025,"i_lat":-6.3441410000000005},{"station_id":"CC","is_transit":false,"station_name":"Cicayur","i_lat":-6.329547,"i_long":106.617853,"line":0,"time":8,"transit":false,"distance":5968},{"time":4,"i_lat":-6.32484,"is_transit":false,"station_name":"Cisauk","line":0,"i_long":106.640411,"distance":2519,"transit":false,"station_id":"CSK"},{"line":6,"is_transit":false,"transit":false,"i_long":106.66566,"time":4,"i_lat":-6.319871,"station_name":"Serpong","distance":1784,"station_id":"SRP"},{"is_transit":false,"station_name":"Rawa Buntu","station_id":"RU","line":6,"i_lat":-6.314823,"time":4,"distance":2413,"transit":false,"i_long":106.675475},{"i_lat":-6.296963,"transit":false,"station_name":"Sudimara","i_long":106.712277,"distance":4566,"station_id":"SDM","is_transit":false,"line":6,"time":6},{"station_id":"JMU","line":6,"i_lat":-6.288927,"distance":1994,"transit":false,"time":4,"station_name":"Jurangmangu","is_transit":false,"i_long":106.728916},{"i_long":106.74273,"station_id":"PDJ","line":6,"distance":2179,"time":3,"station_name":"Pondokranji","i_lat":-6.276362,"is_transit":false,"transit":false},{"is_transit":false,"station_name":"Kebayoran","i_long":106.780334,"distance":6218,"station_id":"KBY","time":8,"i_lat":-6.237242,"transit":false,"line":6},{"distance":3737,"transit":false,"i_long":106.79689,"is_transit":false,"line":6,"station_name":"Palmerah","station_id":"PLM","i_lat":-6.207404,"time":7},{"is_transit":true,"i_long":106.811091,"station_id":"THB","line":1,"time":6,"i_lat":-6.185545,"station_name":"Tanah Abang","distance":3191,"transit":true},{"distance":2029,"station_id":"KAT","i_long":106.816351,"line":1,"is_transit":false,"transit":false,"time":5,"station_name":"Karet","i_lat":-6.20132},{"is_transit":false,"i_lat":-6.201433,"transit":false,"line":1,"i_long":106.819881,"time":1,"distance":471,"station_name":"Sudirman Baru","station_id":"SUDB"},{"transit":false,"distance":280,"time":1,"station_id":"SUD","i_lat":-6.202263,"station_name":"Sudirman","is_transit":false,"line":1,"i_long":106.822649},{"i_lat":-6.209883,"distance":3186,"time":4,"station_name":"Manggarai","is_transit":true,"transit":false,"i_long":106.84912,"line":0,"station_id":"MRI"},{"transit":false,"time":2,"distance":1275,"i_lat":-6.212485,"station_name":"Matraman","i_long":106.858896,"is_transit":false,"line":1,"station_id":"MTR"},{"station_name":"Jatinegara","station_id":"JNG","distance":1377,"transit":true,"i_long":106.86807400000001,"line":0,"time":8,"i_lat":-6.215091,"is_transit":true},{"time":2,"line":11,"transit":false,"i_long":106.861737,"station_id":"POK","distance":1236,"station_name":"Pondok Jati","is_transit":false,"i_lat":-6.209188},{"distance":1829,"time":2,"i_lat":-6.193792,"i_long":106.855437,"transit":false,"station_id":"KMT","is_transit":false,"line":11,"station_name":"Kramat"},{"distance":973,"is_transit":false,"time":1,"transit":false,"station_name":"Gang Sentiong","i_long":106.850107,"station_id":"GST","line":11,"i_lat":-6.185975},{"i_long":106.84368,"station_id":"PSE","is_transit":false,"line":11,"distance":1567,"time":8,"station_name":"Pasar Senen","i_lat":-6.174784,"transit":false},{"is_transit":false,"time":4,"station_name":"Kemayoran","i_lat":-6.161728,"i_long":106.839204,"transit":false,"distance":1436,"line":11,"station_id":"KMO"},{"i_lat":-6.14505,"time":5,"station_name":"Rajawali","is_transit":false,"i_long":106.836569,"line":11,"station_id":"RJW","transit":false,"distance":1901},{"time":3,"transit":true,"station_id":"KPB","i_lat":-6.132549,"line":0,"i_long":106.826365,"distance":1444,"station_name":"Kampung Bandan","is_transit":true},{"station_name":"Angke","station_id":"AK","i_lat":-6.144674,"transit":false,"distance":4102,"i_long":106.79867,"time":9,"line":0,"is_transit":false},{"time":4,"distance":1230,"station_name":"Duri","line":1,"transit":true,"i_lat":-6.155215,"is_transit":true,"i_long":106.800832,"station_id":"DU"},{"is_transit":false,"time":3,"station_name":"Grogol","transit":false,"distance":1700,"i_lat":-6.162021,"line":5,"i_long":106.788277,"station_id":"GGL"},{"i_lat":-6.161433,"distance":2036,"station_id":"PSG","station_name":"Pesing","line":5,"i_long":106.771379,"time":2,"is_transit":false,"transit":false},{"time":2,"transit":false,"line":5,"distance":1614,"i_lat":-6.1587309999999995,"station_name":"Taman Kota","station_id":"TKO","i_long":106.756522,"is_transit":false},{"is_transit":false,"station_name":"Bojongindah","station_id":"BOI","i_long":106.737035,"i_lat":-6.159876,"time":2,"line":0,"transit":false,"distance":2334},{"distance":1152,"line":5,"transit":false,"station_name":"Rawa Buaya","is_transit":false,"time":4,"i_lat":-6.162758,"station_id":"RW","i_long":106.723064},{"station_id":"KDS","is_transit":false,"distance":2504,"i_lat":-6.166068,"transit":false,"line":5,"time":3,"station_name":"Kalideres","i_long":106.701612},{"i_long":106.679458,"time":3,"station_name":"Poris","is_transit":false,"distance":2548,"i_lat":-6.169933,"line":5,"station_id":"PI","transit":false},{"transit":false,"i_lat":-6.171811,"station_name":"Batuceper","line":0,"is_transit":false,"distance":1834,"i_long":106.665036,"station_id":"BPR","time":3},{"i_lat":-6.17331,"time":3,"distance":2028,"is_transit":false,"station_name":"Tanah Tinggi","station_id":"TTI","i_long":106.64657,"transit":false,"line":5}]]}