{"data":[[{"transit":false,"is_transit":false,"station_id":"CKY","i_lat":-6.33561,"station_name":"Cikoya","time":0,"distance":0,"line":3,"i_long":106.411216},{"transit":false,"time":3,"i_long":106.425991,"line":6,"distance":2651,"station_id":"TGS","is_transit":false,"i_lat":-6.328533,"station_name":"Tigaraksa"},{"i_lat":-6.327251,"time":5,"is_transit":false,"distance":2974,"i_long":106.460812,"transit":false,"station_name":"Tenjo","station_id":"TEJ","line":6},{"i_long":106.491338,"distance":3902,"station_id":"DAR","transit":false,"is_transit":false,"line":0,"time":5,"i_lat":-6.338021,"station_name":"Daru"},{"time":6,"station_id":"CJT","i_long":106.508482,"transit":false,"line":3,"i_lat":-6.354349,"is_transit":false,"distance":2675,"station_name":"Cilejit"},{"transit":false,"is_transit":false,"line":6,"time":9,"station_id":"PRP","distance":7025,"i_long":106.568863,"station_name":"Parung Panjang","i_lat":-6.3441410000000005},{"station_id":"CC","time":8,"transit":false,"station_name":"Cicayur","line":3,"i_long":106.617853,"distance":5968,"i_lat":-6.329547,"is_transit":false},{"distance":2519,"i_lat":-6.32484,"i_long":106.640411,"station_name":"Cisauk","station_id":"CSK","time":4,"transit":false,"is_transit":false,"line":3},{"time":4,"is_transit":false,"station_name":"Serpong","transit":false,"distance":1784,"i_long":106.66566,"line":6,"i_lat":-6.319871,"station_id":"SRP"},{"time":4,"i_lat":-6.314823,"station_id":"RU","i_long":106.675475,"station_name":"Rawa Buntu","transit":false,"line":6,"is_transit":false,"distance":2413}]]}