{"data":[[{"transit":false,"i_long":106.411216,"line":3,"time":0,"i_lat":-6.33561,"station_name":"Cikoya","is_transit":false,"station_id":"CKY","distance":0},{"i_lat":-6.328533,"transit":false,"station_id":"TGS","time":3,"station_name":"Tigaraksa","is_transit":false,"line":6,"distance":2651,"i_long":106.425991},{"line":6,"time":5,"station_name":"Tenjo","is_transit":false,"distance":2974,"i_long":106.460812,"i_lat":-6.327251,"station_id":"TEJ","transit":false},{"is_transit":false,"i_long":106.491338,"distance":3902,"station_id":"DAR","transit":false,"i_lat":-6.338021,"station_name":"Daru","line":0,"time":5},{"distance":2675,"transit":false,"i_lat":-6.354349,"i_long":106.508482,"station_id":"CJT","line":3,"time":6,"is_transit":false,"station_name":"Cilejit"},{"line":6,"i_lat":-6.3441410000000005,"station_name":"Parung Panjang","station_id":"PRP","time":9,"distance":7025,"is_transit":false,"transit":false,"i_long":106.568863},{"time":8,"i_lat":-6.329547,"station_name":"Cicayur","i_long":106.617853,"line":3,"distance":5968,"transit":false,"station_id":"CC","is_transit":false},{"is_transit":false,"transit":false,"line":3,"i_long":106.640411,"station_id":"CSK","i_lat":-6.32484,"time":4,"distance":2519,"station_name":"Cisauk"},{"is_transit":false,"i_lat":-6.319871,"i_long":106.66566,"station_id":"SRP","line":6,"distance":1784,"transit":false,"station_name":"Serpong","time":4},{"is_transit":false,"station_id":"RU","time":4,"distance":2413,"station_name":"Rawa Buntu","line":6,"transit":false,"i_lat":-6.314823,"i_long":106.675475},{"station_name":"Sudimara","line":6,"time":6,"is_transit":false,"i_long":106.712277,"station_id":"SDM","transit":false,"i_lat":-6.296963,"distance":4566},{"time":4,"distance":1994,"i_lat":-6.288927,"i_long":106.728916,"is_transit":false,"transit":false,"line":6,"station_name":"Jurangmangu","station_id":"JMU"},{"distance":2179,"station_name":"Pondokranji","i_lat":-6.276362,"line":6,"time":3,"is_transit":false,"i_long":106.74273,"station_id":"PDJ","transit":false},{"station_id":"KBY","is_transit":false,"station_name":"Kebayoran","i_long":106.780334,"time":8,"line":6,"i_lat":-6.237242,"distance":6218,"transit":false},{"transit":false,"distance":3737,"i_lat":-6.207404,"is_transit":false,"line":6,"time":7,"i_long":106.79689,"station_name":"Palmerah","station_id":"PLM"},{"time":6,"distance":3191,"station_name":"Tanah Abang","i_lat":-6.185545,"line":1,"station_id":"THB","transit":true,"i_long":106.811091,"is_transit":true},{"distance":2029,"transit":false,"i_lat":-6.20132,"i_long":106.816351,"time":5,"is_transit":false,"station_name":"Karet","line":1,"station_id":"KAT"},{"distance":471,"station_name":"Sudirman Baru","i_long":106.819881,"time":1,"transit":false,"station_id":"SUDB","i_lat":-6.201433,"line":1,"is_transit":false},{"station_name":"Sudirman","station_id":"SUD","is_transit":false,"transit":false,"line":1,"distance":280,"i_lat":-6.202263,"i_long":106.822649,"time":1},{"station_id":"MRI","line":2,"station_name":"Manggarai","i_long":106.84912,"is_transit":false,"time":4,"i_lat":-6.209883,"distance":3186,"transit":false},{"line":1,"i_lat":-6.212485,"time":2,"is_transit":false,"distance":1275,"i_long":106.858896,"station_id":"MTR","station_name":"Matraman","transit":false},{"is_transit":false,"station_id":"JNG","transit":false,"station_name":"Jatinegara","i_lat":-6.215091,"line":1,"distance":1377,"i_long":106.86807400000001,"time":8},{"station_name":"Klender","station_id":"KLD","is_transit":false,"transit":false,"i_long":106.899548,"line":1,"distance":3395,"time":3,"i_lat":-6.2135},{"i_lat":-6.215568,"i_long":106.922662,"station_id":"BUA","is_transit":false,"distance":3100,"time":2,"transit":false,"station_name":"Buaran","line":1},{"transit":false,"station_name":"Klenderbaru","station_id":"KLDB","is_transit":false,"i_lat":-6.217455,"time":1,"line":1,"i_long":106.939679,"distance":1305},{"line":1,"distance":1385,"transit":false,"station_name":"Cakung","station_id":"CUK","is_transit":false,"time":8,"i_lat":-6.219053,"i_long":106.951283},{"transit":false,"i_lat":-6.224515,"i_long":106.977657,"is_transit":false,"line":1,"station_id":"KRI","station_name":"Kranji","distance":3097,"time":3},{"time":4,"distance":2520,"is_transit":false,"i_lat":-6.236616,"line":1,"i_long":106.997013,"station_id":"BKS","transit":false,"station_name":"Bekasi"},{"i_long":107.016735,"distance":2368,"is_transit":false,"line":1,"i_lat":-6.248029,"transit":false,"station_id":"BKST","time":2,"station_name":"Bekasi Timur"},{"i_lat":-6.258864,"is_transit":false,"distance":4460,"time":7,"station_id":"TB","transit":false,"i_long":107.055722,"line":1,"station_name":"Tambun"},{"is_transit":false,"distance":3420,"time":3,"transit":false,"station_name":"Cibitung","line":1,"i_long":107.083084,"i_lat":-6.261877,"station_id":"CIT"}],[{"time":0,"i_long":106.411216,"transit":false,"is_transit":false,"i_lat":-6.33561,"station_name":"Cikoya","line":3,"distance":0,"station_id":"CKY"},{"is_transit":false,"station_name":"Tigaraksa","transit":false,"distance":2651,"i_long":106.425991,"i_lat":-6.328533,"line":6,"time":3,"station_id":"TGS"},{"i_long":106.460812,"line":6,"is_transit":false,"station_name":"Tenjo","distance":2974,"station_id":"TEJ","transit":false,"i_lat":-6.327251,"time":5},{"line":0,"is_transit":false,"station_id":"DAR","time":5,"station_name":"Daru","i_lat":-6.338021,"transit":false,"distance":3902,"i_long":106.491338},{"station_id":"CJT","station_name":"Cilejit","transit":false,"distance":2675,"line":3,"i_lat":-6.354349,"i_long":106.508482,"is_transit":false,"time":6},{"transit":false,"distance":7025,"is_transit":false,"station_id":"PRP","i_long":106.568863,"line":6,"station_name":"Parung Panjang","i_lat":-6.3441410000000005,"time":9},{"time":8,"station_name":"Cicayur","i_long":106.617853,"transit":false,"i_lat":-6.329547,"line":3,"distance":5968,"station_id":"CC","is_transit":false},{"distance":2519,"time":4,"transit":false,"is_transit":false,"line":3,"station_id":"CSK","i_lat":-6.32484,"station_name":"Cisauk","i_long":106.640411},{"is_transit":false,"transit":false,"distance":1784,"i_lat":-6.319871,"station_name":"Serpong","i_long":106.66566,"line":6,"station_id":"SRP","time":4},{"station_name":"Rawa Buntu","station_id":"RU","time":4,"line":6,"is_transit":false,"i_lat":-6.314823,"i_long":106.675475,"distance":2413,"transit":false},{"transit":false,"i_long":106.712277,"is_transit":false,"station_id":"SDM","time":6,"line":6,"i_lat":-6.296963,"distance":4566,"station_name":"Sudimara"},{"is_transit":false,"time":4,"station_name":"Jurangmangu","transit":false,"distance":1994,"line":6,"i_long":106.728916,"station_id":"JMU","i_lat":-6.288927},{"distance":2179,"i_long":106.74273,"is_transit":false,"line":6,"transit":false,"station_name":"Pondokranji","time":3,"i_lat":-6.276362,"station_id":"PDJ"},{"time":8,"station_name":"Kebayoran","i_lat":-6.237242,"distance":6218,"station_id":"KBY","is_transit":false,"i_long":106.780334,"transit":false,"line":6},{"station_id":"PLM","is_transit":false,"time":7,"i_lat":-6.207404,"transit":false,"line":6,"station_name":"Palmerah","distance":3737,"i_long":106.79689},{"transit":true,"is_transit":true,"distance":3191,"station_name":"Tanah Abang","line":1,"i_lat":-6.185545,"station_id":"THB","i_long":106.811091,"time":6},{"is_transit":false,"i_lat":-6.155215,"i_long":106.800832,"transit":false,"distance":3632,"time":8,"line":1,"station_name":"Duri","station_id":"DU"},{"distance":1230,"i_long":106.79867,"station_id":"AK","time":4,"station_name":"Angke","i_lat":-6.144674,"line":1,"transit":false,"is_transit":false},{"i_lat":-6.132549,"transit":true,"is_transit":true,"i_long":106.826365,"station_name":"Kampung Bandan","line":4,"distance":4102,"station_id":"KPB","time":9},{"line":11,"station_name":"Rajawali","station_id":"RJW","time":3,"i_long":106.836569,"is_transit":false,"distance":1444,"transit":false,"i_lat":-6.14505},{"transit":false,"time":5,"i_long":106.839204,"distance":1901,"station_id":"KMO","is_transit":false,"station_name":"Kemayoran","line":11,"i_lat":-6.161728},{"distance":1436,"is_transit":false,"time":4,"transit":false,"line":11,"i_lat":-6.174784,"i_long":106.84368,"station_name":"Pasar Senen","station_id":"PSE"},{"station_name":"Gang Sentiong","i_long":106.850107,"time":8,"station_id":"GST","transit":false,"line":11,"distance":1567,"is_transit":false,"i_lat":-6.185975},{"line":11,"station_id":"KMT","station_name":"Kramat","time":1,"distance":973,"i_lat":-6.193792,"transit":false,"is_transit":false,"i_long":106.855437},{"is_transit":false,"distance":1829,"time":2,"transit":false,"i_lat":-6.209188,"line":11,"station_id":"POK","station_name":"Pondok Jati","i_long":106.861737},{"time":9,"i_lat":-6.215091,"is_transit":true,"transit":true,"station_name":"Jatinegara","line":1,"distance":1236,"i_long":106.86807400000001,"station_id":"JNG"},{"is_transit":false,"line":1,"i_long":106.899548,"time":3,"transit":false,"station_name":"Klender","station_id":"KLD","i_lat":-6.2135,"distance":3395},{"station_name":"Buaran","distance":3100,"transit":false,"i_lat":-6.215568,"i_long":106.922662,"station_id":"BUA","is_transit":false,"time":2,"line":1},{"station_id":"KLDB","station_name":"Klenderbaru","transit":false,"is_transit":false,"i_lat":-6.217455,"distance":1305,"line":1,"time":1,"i_long":106.939679},{"station_id":"CUK","station_name":"Cakung","distance":1385,"is_transit":false,"transit":false,"i_lat":-6.219053,"time":8,"i_long":106.951283,"line":1},{"station_id":"KRI","distance":3097,"time":3,"line":1,"i_long":106.977657,"i_lat":-6.224515,"station_name":"Kranji","transit":false,"is_transit":false},{"line":1,"station_id":"BKS","transit":false,"distance":2520,"station_name":"Bekasi","i_lat":-6.236616,"is_transit":false,"i_long":106.997013,"time":4},{"i_lat":-6.248029,"time":2,"is_transit":false,"transit":false,"i_long":107.016735,"distance":2368,"station_id":"BKST","line":1,"station_name":"Bekasi Timur"},{"is_transit":false,"distance":4460,"time":7,"station_id":"TB","transit":false,"i_lat":-6.258864,"i_long":107.055722,"line":1,"station_name":"Tambun"},{"time":3,"station_id":"CIT","station_name":"Cibitung","distance":3420,"transit":false,"i_lat":-6.261877,"line":1,"is_transit":false,"i_long":107.083084}],[{"is_transit":false,"time":0,"i_lat":-6.33561,"distance":0,"i_long":106.411216,"station_id":"CKY","station_name":"Cikoya","transit":false,"line":3},{"i_long":106.425991,"line":6,"i_lat":-6.328533,"transit":false,"distance":2651,"station_id":"TGS","time":3,"is_transit":false,"station_name":"Tigaraksa"},{"time":5,"transit":false,"is_transit":false,"line":6,"station_id":"TEJ","station_name":"Tenjo","distance":2974,"i_long":106.460812,"i_lat":-6.327251},{"i_lat":-6.338021,"transit":false,"line":0,"i_long":106.491338,"station_id":"DAR","distance":3902,"station_name":"Daru","is_transit":false,"time":5},{"is_transit":false,"time":6,"station_id":"CJT","station_name":"Cilejit","i_long":106.508482,"i_lat":-6.354349,"distance":2675,"transit":false,"line":3},{"i_lat":-6.3441410000000005,"i_long":106.568863,"station_name":"Parung Panjang","is_transit":false,"station_id":"PRP","distance":7025,"time":9,"line":6,"transit":false},{"transit":false,"i_lat":-6.329547,"station_name":"Cicayur","distance":5968,"time":8,"line":3,"is_transit":false,"station_id":"CC","i_long":106.617853},{"time":4,"transit":false,"station_id":"CSK","i_long":106.640411,"i_lat":-6.32484,"distance":2519,"station_name":"Cisauk","line":3,"is_transit":false},{"station_name":"Serpong","distance":1784,"is_transit":false,"time":4,"i_long":106.66566,"transit":false,"line":6,"station_id":"SRP","i_lat":-6.319871},{"i_long":106.675475,"transit":false,"is_transit":false,"i_lat":-6.314823,"station_name":"Rawa Buntu","distance":2413,"station_id":"RU","line":6,"time":4},{"i_lat":-6.296963,"i_long":106.712277,"time":6,"station_name":"Sudimara","station_id":"SDM","line":6,"transit":false,"distance":4566,"is_transit":false},{"time":4,"distance":1994,"i_lat":-6.288927,"is_transit":false,"transit":false,"station_name":"Jurangmangu","i_long":106.728916,"station_id":"JMU","line":6},{"i_lat":-6.276362,"distance":2179,"station_id":"PDJ","is_transit":false,"transit":false,"line":6,"time":3,"station_name":"Pondokranji","i_long":106.74273},{"i_long":106.780334,"distance":6218,"transit":false,"station_name":"Kebayoran","time":8,"i_lat":-6.237242,"line":6,"station_id":"KBY","is_transit":false},{"distance":3737,"transit":false,"station_name":"Palmerah","is_transit":false,"i_lat":-6.207404,"i_long":106.79689,"time":7,"station_id":"PLM","line":6},{"station_id":"THB","line":1,"time":6,"is_transit":true,"i_lat":-6.185545,"station_name":"Tanah Abang","transit":true,"distance":3191,"i_long":106.811091},{"transit":false,"is_transit":false,"time":8,"line":1,"station_id":"DU","i_lat":-6.155215,"station_name":"Duri","i_long":106.800832,"distance":3632},{"station_name":"Angke","is_transit":false,"time":4,"distance":1230,"transit":false,"station_id":"AK","i_lat":-6.144674,"i_long":106.79867,"line":1},{"distance":4102,"is_transit":true,"i_lat":-6.132549,"time":9,"line":4,"station_name":"Kampung Bandan","transit":true,"station_id":"KPB","i_long":106.826365},{"station_name":"Jakarta Kota","i_lat":-6.137569,"distance":1364,"i_long":106.812439,"line":2,"is_transit":true,"transit":true,"station_id":"JAKK","time":3},{"station_id":"JAY","transit":false,"i_lat":-6.141205,"line":2,"station_name":"Jayakarta","is_transit":false,"distance":1264,"i_long":106.820901,"time":4},{"distance":1080,"i_lat":-6.149769,"is_transit":false,"i_long":106.82482,"station_name":"Manggabesar","line":2,"time":2,"station_id":"MGB","transit":false},{"transit":false,"i_long":106.827103,"line":2,"i_lat":-6.160725,"is_transit":false,"time":2,"station_id":"SW","distance":906,"station_name":"Sawah Besar"},{"transit":false,"i_long":106.828284,"is_transit":false,"station_id":"JUA","station_name":"Juanda","time":2,"line":2,"distance":1149,"i_lat":-6.166716},{"is_transit":false,"station_name":"Gondangdia","line":2,"distance":2015,"i_long":106.832183,"time":4,"i_lat":-6.186295,"transit":false,"station_id":"GDD"},{"line":2,"i_lat":-6.198556,"station_id":"CKI","distance":1750,"i_long":106.840169,"is_transit":false,"transit":false,"time":3,"station_name":"Cikini"},{"time":4,"distance":1590,"station_id":"MRI","is_transit":true,"line":2,"transit":true,"station_name":"Manggarai","i_lat":-6.209883,"i_long":106.84912},{"station_id":"MTR","line":1,"station_name":"Matraman","is_transit":false,"i_lat":-6.212485,"time":2,"i_long":106.858896,"transit":false,"distance":1275},{"station_id":"JNG","i_long":106.86807400000001,"time":8,"is_transit":false,"transit":false,"distance":1377,"i_lat":-6.215091,"line":1,"station_name":"Jatinegara"},{"is_transit":false,"i_long":106.899548,"i_lat":-6.2135,"station_id":"KLD","time":3,"distance":3395,"transit":false,"line":1,"station_name":"Klender"},{"station_name":"Buaran","i_lat":-6.215568,"line":1,"station_id":"BUA","i_long":106.922662,"distance":3100,"transit":false,"is_transit":false,"time":2},{"station_id":"KLDB","line":1,"i_lat":-6.217455,"is_transit":false,"distance":1305,"time":1,"transit":false,"station_name":"Klenderbaru","i_long":106.939679},{"time":8,"i_long":106.951283,"station_name":"Cakung","distance":1385,"is_transit":false,"line":1,"station_id":"CUK","transit":false,"i_lat":-6.219053},{"line":1,"is_transit":false,"i_long":106.977657,"time":3,"distance":3097,"i_lat":-6.224515,"station_name":"Kranji","station_id":"KRI","transit":false},{"i_long":106.997013,"distance":2520,"station_name":"Bekasi","transit":false,"line":1,"is_transit":false,"time":4,"i_lat":-6.236616,"station_id":"BKS"},{"station_id":"BKST","transit":false,"distance":2368,"station_name":"Bekasi Timur","line":1,"i_lat":-6.248029,"is_transit":false,"time":2,"i_long":107.016735},{"line":1,"time":7,"is_transit":false,"station_id":"TB","distance":4460,"i_lat":-6.258864,"station_name":"Tambun","transit":false,"i_long":107.055722},{"time":3,"distance":3420,"station_id":"CIT","line":1,"is_transit":false,"station_name":"Cibitung","i_lat":-6.261877,"i_long":107.083084,"transit":false}],[{"is_transit":false,"i_lat":-6.33561,"station_id":"CKY","line":3,"station_name":"Cikoya","time":0,"i_long":106.411216,"transit":false,"distance":0},{"distance":2651,"station_name":"Tigaraksa","line":6,"station_id":"TGS","is_transit":false,"time":3,"i_lat":-6.328533,"i_long":106.425991,"transit":false},{"time":5,"is_transit":false,"distance":2974,"line":6,"i_long":106.460812,"station_id":"TEJ","transit":false,"i_lat":-6.327251,"station_name":"Tenjo"},{"i_long":106.491338,"line":0,"distance":3902,"is_transit":false,"station_name":"Daru","station_id":"DAR","time":5,"i_lat":-6.338021,"transit":false},{"time":6,"line":3,"station_id":"CJT","distance":2675,"transit":false,"station_name":"Cilejit","i_lat":-6.354349,"i_long":106.508482,"is_transit":false},{"line":6,"time":9,"i_lat":-6.3441410000000005,"i_long":106.568863,"station_id":"PRP","is_transit":false,"station_name":"Parung Panjang","distance":7025,"transit":false},{"time":8,"is_transit":false,"i_lat":-6.329547,"line":3,"distance":5968,"transit":false,"i_long":106.617853,"station_name":"Cicayur","station_id":"CC"},{"station_id":"CSK","distance":2519,"i_long":106.640411,"transit":false,"i_lat":-6.32484,"is_transit":false,"time":4,"station_name":"Cisauk","line":3},{"time":4,"is_transit":false,"i_lat":-6.319871,"line":6,"station_name":"Serpong","i_long":106.66566,"transit":false,"station_id":"SRP","distance":1784},{"time":4,"distance":2413,"station_name":"Rawa Buntu","transit":false,"is_transit":false,"station_id":"RU","i_lat":-6.314823,"i_long":106.675475,"line":6},{"is_transit":false,"time":6,"transit":false,"station_name":"Sudimara","station_id":"SDM","i_lat":-6.296963,"line":6,"i_long":106.712277,"distance":4566},{"time":4,"line":6,"i_lat":-6.288927,"is_transit":false,"transit":false,"i_long":106.728916,"distance":1994,"station_id":"JMU","station_name":"Jurangmangu"},{"station_id":"PDJ","station_name":"Pondokranji","distance":2179,"i_lat":-6.276362,"i_long":106.74273,"time":3,"line":6,"transit":false,"is_transit":false},{"distance":6218,"is_transit":false,"station_id":"KBY","time":8,"transit":false,"station_name":"Kebayoran","i_lat":-6.237242,"i_long":106.780334,"line":6},{"is_transit":false,"transit":false,"station_id":"PLM","i_lat":-6.207404,"time":7,"line":6,"distance":3737,"i_long":106.79689,"station_name":"Palmerah"},{"is_transit":true,"time":6,"station_name":"Tanah Abang","i_lat":-6.185545,"i_long":106.811091,"transit":true,"distance":3191,"line":1,"station_id":"THB"},{"is_transit":false,"i_lat":-6.20132,"i_long":106.816351,"line":1,"station_id":"KAT","time":5,"transit":false,"distance":2029,"station_name":"Karet"},{"i_lat":-6.201433,"time":1,"is_transit":false,"line":1,"distance":471,"station_name":"Sudirman Baru","station_id":"SUDB","i_long":106.819881,"transit":false},{"is_transit":false,"i_lat":-6.202263,"time":1,"i_long":106.822649,"station_name":"Sudirman","transit":false,"line":1,"distance":280,"station_id":"SUD"},{"transit":true,"i_long":106.84912,"station_id":"MRI","distance":3186,"is_transit":true,"line":2,"time":4,"i_lat":-6.209883,"station_name":"Manggarai"},{"station_name":"Cikini","time":4,"transit":false,"is_transit":false,"station_id":"CKI","distance":1590,"i_lat":-6.198556,"line":2,"i_long":106.840169},{"station_id":"GDD","time":3,"transit":false,"i_lat":-6.186295,"i_long":106.832183,"line":2,"is_transit":false,"distance":1750,"station_name":"Gondangdia"},{"distance":2015,"time":4,"i_long":106.828284,"i_lat":-6.166716,"transit":false,"station_name":"Juanda","line":2,"station_id":"JUA","is_transit":false},{"time":2,"station_id":"SW","is_transit":false,"station_name":"Sawah Besar","distance":1149,"i_long":106.827103,"line":2,"i_lat":-6.160725,"transit":false},{"time":2,"i_lat":-6.149769,"line":2,"distance":906,"is_transit":false,"i_long":106.82482,"transit":false,"station_name":"Manggabesar","station_id":"MGB"},{"line":2,"time":2,"i_lat":-6.141205,"i_long":106.820901,"station_name":"Jayakarta","transit":false,"is_transit":false,"distance":1080,"station_id":"JAY"},{"i_lat":-6.137569,"station_id":"JAKK","distance":1264,"station_name":"Jakarta Kota","is_transit":true,"line":2,"i_long":106.812439,"transit":true,"time":4},{"transit":true,"i_lat":-6.132549,"is_transit":true,"distance":1364,"station_name":"Kampung Bandan","i_long":106.826365,"line":4,"time":3,"station_id":"KPB"},{"line":11,"transit":false,"is_transit":false,"station_id":"RJW","distance":1444,"i_long":106.836569,"station_name":"Rajawali","time":3,"i_lat":-6.14505},{"time":5,"station_name":"Kemayoran","i_long":106.839204,"transit":false,"line":11,"distance":1901,"is_transit":false,"i_lat":-6.161728,"station_id":"KMO"},{"station_name":"Pasar Senen","time":4,"line":11,"station_id":"PSE","transit":false,"i_long":106.84368,"distance":1436,"i_lat":-6.174784,"is_transit":false},{"is_transit":false,"distance":1567,"i_lat":-6.185975,"i_long":106.850107,"line":11,"transit":false,"station_id":"GST","station_name":"Gang Sentiong","time":8},{"i_lat":-6.193792,"is_transit":false,"i_long":106.855437,"transit":false,"time":1,"station_id":"KMT","station_name":"Kramat","line":11,"distance":973},{"is_transit":false,"i_long":106.861737,"station_name":"Pondok Jati","station_id":"POK","transit":false,"distance":1829,"time":2,"i_lat":-6.209188,"line":11},{"line":1,"time":9,"is_transit":true,"i_long":106.86807400000001,"i_lat":-6.215091,"station_id":"JNG","station_name":"Jatinegara","distance":1236,"transit":true},{"is_transit":false,"line":1,"station_id":"KLD","i_long":106.899548,"distance":3395,"time":3,"transit":false,"i_lat":-6.2135,"station_name":"Klender"},{"distance":3100,"line":1,"is_transit":false,"transit":false,"station_name":"Buaran","i_lat":-6.215568,"time":2,"station_id":"BUA","i_long":106.922662},{"i_lat":-6.217455,"transit":false,"station_name":"Klenderbaru","station_id":"KLDB","is_transit":false,"line":1,"time":1,"i_long":106.939679,"distance":1305},{"station_name":"Cakung","transit":false,"i_lat":-6.219053,"line":1,"distance":1385,"is_transit":false,"station_id":"CUK","time":8,"i_long":106.951283},{"time":3,"distance":3097,"line":1,"i_lat":-6.224515,"station_name":"Kranji","transit":false,"i_long":106.977657,"is_transit":false,"station_id":"KRI"},{"transit":false,"distance":2520,"i_lat":-6.236616,"station_name":"Bekasi","is_transit":false,"i_long":106.997013,"line":1,"time":4,"station_id":"BKS"},{"distance":2368,"is_transit":false,"line":1,"time":2,"station_name":"Bekasi Timur","transit":false,"i_long":107.016735,"i_lat":-6.248029,"station_id":"BKST"},{"line":1,"transit":false,"is_transit":false,"distance":4460,"station_id":"TB","time":7,"station_name":"Tambun","i_long":107.055722,"i_lat":-6.258864},{"distance":3420,"is_transit":false,"transit":false,"line":1,"i_long":107.083084,"station_name":"Cibitung","time":3,"i_lat":-6.261877,"station_id":"CIT"}]]}