{"data":[[{"distance":0,"is_transit":false,"line":3,"i_lat":-6.33561,"station_name":"Cikoya","station_id":"CKY","transit":false,"time":0,"i_long":106.411216},{"time":3,"line":6,"i_long":106.425991,"station_id":"TGS","i_lat":-6.328533,"distance":2651,"station_name":"Tigaraksa","transit":false,"is_transit":false},{"i_long":106.460812,"station_id":"TEJ","transit":false,"distance":2974,"i_lat":-6.327251,"time":5,"station_name":"Tenjo","line":6,"is_transit":false},{"is_transit":false,"time":5,"transit":false,"station_id":"DAR","station_name":"Daru","i_long":106.491338,"i_lat":-6.338021,"distance":3902,"line":0},{"is_transit":false,"time":6,"station_name":"Cilejit","i_long":106.508482,"station_id":"CJT","transit":false,"line":3,"distance":2675,"i_lat":-6.354349},{"line":6,"i_long":106.568863,"transit":false,"time":9,"is_transit":false,"distance":7025,"station_name":"Parung Panjang","station_id":"PRP","i_lat":-6.3441410000000005},{"transit":false,"line":3,"station_id":"CC","is_transit":false,"distance":5968,"i_long":106.617853,"i_lat":-6.329547,"time":8,"station_name":"Cicayur"},{"i_lat":-6.32484,"transit":false,"i_long":106.640411,"line":3,"distance":2519,"time":4,"is_transit":false,"station_name":"Cisauk","station_id":"CSK"},{"i_lat":-6.319871,"station_name":"Serpong","distance":1784,"time":4,"transit":false,"i_long":106.66566,"is_transit":false,"station_id":"SRP","line":6},{"is_transit":false,"time":4,"line":6,"i_lat":-6.314823,"distance":2413,"station_name":"Rawa Buntu","station_id":"RU","transit":false,"i_long":106.675475},{"line":6,"distance":4566,"i_lat":-6.296963,"station_id":"SDM","is_transit":false,"time":6,"transit":false,"i_long":106.712277,"station_name":"Sudimara"},{"line":6,"i_lat":-6.288927,"distance":1994,"time":4,"transit":false,"station_id":"JMU","station_name":"Jurangmangu","i_long":106.728916,"is_transit":false},{"station_name":"Pondokranji","distance":2179,"station_id":"PDJ","transit":false,"i_long":106.74273,"i_lat":-6.276362,"line":6,"time":3,"is_transit":false},{"i_lat":-6.237242,"is_transit":false,"station_id":"KBY","distance":6218,"station_name":"Kebayoran","time":8,"transit":false,"line":6,"i_long":106.780334},{"station_name":"Palmerah","time":7,"station_id":"PLM","is_transit":false,"distance":3737,"transit":false,"i_lat":-6.207404,"i_long":106.79689,"line":6},{"i_long":106.811091,"time":6,"transit":true,"distance":3191,"station_id":"THB","line":1,"is_transit":true,"i_lat":-6.185545,"station_name":"Tanah Abang"},{"time":5,"is_transit":false,"i_lat":-6.20132,"station_id":"KAT","transit":false,"line":1,"i_long":106.816351,"station_name":"Karet","distance":2029},{"time":1,"i_lat":-6.201433,"station_id":"SUDB","distance":471,"transit":false,"station_name":"Sudirman Baru","is_transit":false,"i_long":106.819881,"line":1},{"transit":false,"station_id":"SUD","i_lat":-6.202263,"station_name":"Sudirman","distance":280,"i_long":106.822649,"line":1,"time":1,"is_transit":false},{"transit":false,"distance":3186,"i_long":106.84912,"station_id":"MRI","station_name":"Manggarai","time":4,"line":2,"is_transit":false,"i_lat":-6.209883},{"station_id":"MTR","transit":false,"line":1,"is_transit":false,"i_long":106.858896,"station_name":"Matraman","distance":1275,"time":2,"i_lat":-6.212485},{"station_id":"JNG","time":8,"is_transit":false,"i_lat":-6.215091,"line":1,"distance":1377,"transit":false,"station_name":"Jatinegara","i_long":106.86807400000001},{"i_long":106.899548,"transit":false,"time":3,"station_name":"Klender","line":1,"station_id":"KLD","distance":3395,"i_lat":-6.2135,"is_transit":false},{"transit":false,"is_transit":false,"i_lat":-6.215568,"station_name":"Buaran","line":1,"station_id":"BUA","i_long":106.922662,"distance":3100,"time":2},{"i_lat":-6.217455,"distance":1305,"time":1,"transit":false,"is_transit":false,"station_name":"Klenderbaru","station_id":"KLDB","i_long":106.939679,"line":1},{"station_id":"CUK","transit":false,"is_transit":false,"i_long":106.951283,"i_lat":-6.219053,"time":8,"station_name":"Cakung","distance":1385,"line":1},{"station_name":"Kranji","transit":false,"time":3,"distance":3097,"station_id":"KRI","i_lat":-6.224515,"i_long":106.977657,"line":1,"is_transit":false},{"station_id":"BKS","time":4,"line":1,"station_name":"Bekasi","is_transit":false,"i_lat":-6.236616,"distance":2520,"transit":false,"i_long":106.997013},{"is_transit":false,"time":2,"station_id":"BKST","i_long":107.016735,"transit":false,"station_name":"Bekasi Timur","distance":2368,"line":1,"i_lat":-6.248029},{"i_lat":-6.258864,"time":7,"transit":false,"distance":4460,"is_transit":false,"line":1,"i_long":107.055722,"station_id":"TB","station_name":"Tambun"}],[{"transit":false,"i_lat":-6.33561,"station_id":"CKY","i_long":106.411216,"line":3,"distance":0,"time":0,"station_name":"Cikoya","is_transit":false},{"is_transit":false,"line":6,"station_name":"Tigaraksa","transit":false,"distance":2651,"station_id":"TGS","i_lat":-6.328533,"time":3,"i_long":106.425991},{"i_lat":-6.327251,"time":5,"station_name":"Tenjo","station_id":"TEJ","distance":2974,"is_transit":false,"transit":false,"i_long":106.460812,"line":6},{"i_lat":-6.338021,"distance":3902,"time":5,"is_transit":false,"transit":false,"station_id":"DAR","i_long":106.491338,"line":0,"station_name":"Daru"},{"time":6,"station_name":"Cilejit","i_long":106.508482,"is_transit":false,"transit":false,"line":3,"distance":2675,"i_lat":-6.354349,"station_id":"CJT"},{"distance":7025,"station_id":"PRP","time":9,"i_long":106.568863,"station_name":"Parung Panjang","i_lat":-6.3441410000000005,"transit":false,"line":6,"is_transit":false},{"station_id":"CC","transit":false,"station_name":"Cicayur","time":8,"distance":5968,"i_lat":-6.329547,"i_long":106.617853,"line":3,"is_transit":false},{"is_transit":false,"transit":false,"i_long":106.640411,"i_lat":-6.32484,"time":4,"station_name":"Cisauk","station_id":"CSK","distance":2519,"line":3},{"station_id":"SRP","time":4,"line":6,"distance":1784,"i_lat":-6.319871,"transit":false,"station_name":"Serpong","is_transit":false,"i_long":106.66566},{"station_id":"RU","i_lat":-6.314823,"time":4,"is_transit":false,"i_long":106.675475,"distance":2413,"station_name":"Rawa Buntu","transit":false,"line":6},{"line":6,"i_lat":-6.296963,"transit":false,"is_transit":false,"i_long":106.712277,"station_id":"SDM","time":6,"station_name":"Sudimara","distance":4566},{"time":4,"line":6,"is_transit":false,"i_lat":-6.288927,"distance":1994,"station_name":"Jurangmangu","station_id":"JMU","transit":false,"i_long":106.728916},{"transit":false,"distance":2179,"station_id":"PDJ","i_lat":-6.276362,"time":3,"is_transit":false,"i_long":106.74273,"line":6,"station_name":"Pondokranji"},{"time":8,"distance":6218,"line":6,"transit":false,"i_long":106.780334,"station_id":"KBY","is_transit":false,"station_name":"Kebayoran","i_lat":-6.237242},{"station_id":"PLM","time":7,"is_transit":false,"station_name":"Palmerah","distance":3737,"line":6,"i_long":106.79689,"transit":false,"i_lat":-6.207404},{"transit":true,"station_id":"THB","station_name":"Tanah Abang","distance":3191,"i_lat":-6.185545,"i_long":106.811091,"is_transit":true,"line":1,"time":6},{"line":1,"station_id":"DU","i_long":106.800832,"transit":false,"station_name":"Duri","i_lat":-6.155215,"is_transit":false,"time":8,"distance":3632},{"time":4,"line":1,"station_name":"Angke","is_transit":false,"transit":false,"distance":1230,"i_lat":-6.144674,"i_long":106.79867,"station_id":"AK"},{"station_name":"Kampung Bandan","station_id":"KPB","time":9,"is_transit":true,"distance":4102,"transit":true,"i_lat":-6.132549,"i_long":106.826365,"line":4},{"line":11,"transit":false,"station_id":"RJW","time":3,"station_name":"Rajawali","distance":1444,"is_transit":false,"i_lat":-6.14505,"i_long":106.836569},{"line":11,"i_long":106.839204,"station_name":"Kemayoran","distance":1901,"is_transit":false,"station_id":"KMO","time":5,"transit":false,"i_lat":-6.161728},{"line":11,"station_name":"Pasar Senen","i_lat":-6.174784,"transit":false,"i_long":106.84368,"time":4,"station_id":"PSE","distance":1436,"is_transit":false},{"transit":false,"i_long":106.850107,"line":11,"station_id":"GST","is_transit":false,"distance":1567,"time":8,"i_lat":-6.185975,"station_name":"Gang Sentiong"},{"line":11,"time":1,"is_transit":false,"station_id":"KMT","distance":973,"transit":false,"i_lat":-6.193792,"i_long":106.855437,"station_name":"Kramat"},{"station_id":"POK","transit":false,"line":11,"is_transit":false,"i_lat":-6.209188,"station_name":"Pondok Jati","time":2,"distance":1829,"i_long":106.861737},{"time":9,"line":1,"distance":1236,"transit":true,"is_transit":true,"i_lat":-6.215091,"station_id":"JNG","i_long":106.86807400000001,"station_name":"Jatinegara"},{"distance":3395,"i_lat":-6.2135,"station_id":"KLD","time":3,"is_transit":false,"i_long":106.899548,"line":1,"station_name":"Klender","transit":false},{"line":1,"time":2,"station_id":"BUA","is_transit":false,"station_name":"Buaran","transit":false,"i_long":106.922662,"i_lat":-6.215568,"distance":3100},{"distance":1305,"i_long":106.939679,"time":1,"is_transit":false,"i_lat":-6.217455,"station_id":"KLDB","transit":false,"line":1,"station_name":"Klenderbaru"},{"station_id":"CUK","is_transit":false,"transit":false,"i_lat":-6.219053,"time":8,"station_name":"Cakung","distance":1385,"i_long":106.951283,"line":1},{"transit":false,"is_transit":false,"station_id":"KRI","distance":3097,"i_long":106.977657,"station_name":"Kranji","i_lat":-6.224515,"time":3,"line":1},{"station_name":"Bekasi","is_transit":false,"i_long":106.997013,"line":1,"i_lat":-6.236616,"transit":false,"time":4,"station_id":"BKS","distance":2520},{"is_transit":false,"time":2,"line":1,"transit":false,"station_name":"Bekasi Timur","station_id":"BKST","distance":2368,"i_long":107.016735,"i_lat":-6.248029},{"i_long":107.055722,"time":7,"transit":false,"distance":4460,"line":1,"is_transit":false,"station_id":"TB","i_lat":-6.258864,"station_name":"Tambun"}],[{"distance":0,"i_lat":-6.33561,"station_id":"CKY","is_transit":false,"time":0,"station_name":"Cikoya","i_long":106.411216,"line":3,"transit":false},{"is_transit":false,"line":6,"transit":false,"distance":2651,"i_long":106.425991,"i_lat":-6.328533,"station_id":"TGS","time":3,"station_name":"Tigaraksa"},{"i_long":106.460812,"distance":2974,"time":5,"station_name":"Tenjo","is_transit":false,"i_lat":-6.327251,"station_id":"TEJ","line":6,"transit":false},{"station_name":"Daru","i_lat":-6.338021,"time":5,"i_long":106.491338,"transit":false,"distance":3902,"station_id":"DAR","is_transit":false,"line":0},{"time":6,"transit":false,"station_name":"Cilejit","i_lat":-6.354349,"i_long":106.508482,"is_transit":false,"station_id":"CJT","distance":2675,"line":3},{"line":6,"time":9,"is_transit":false,"i_lat":-6.3441410000000005,"i_long":106.568863,"station_id":"PRP","transit":false,"station_name":"Parung Panjang","distance":7025},{"time":8,"transit":false,"station_name":"Cicayur","is_transit":false,"i_lat":-6.329547,"station_id":"CC","distance":5968,"line":3,"i_long":106.617853},{"station_name":"Cisauk","i_long":106.640411,"station_id":"CSK","time":4,"i_lat":-6.32484,"line":3,"transit":false,"distance":2519,"is_transit":false},{"i_long":106.66566,"line":6,"station_id":"SRP","distance":1784,"i_lat":-6.319871,"is_transit":false,"transit":false,"station_name":"Serpong","time":4},{"distance":2413,"i_lat":-6.314823,"time":4,"transit":false,"station_id":"RU","station_name":"Rawa Buntu","is_transit":false,"i_long":106.675475,"line":6},{"station_name":"Sudimara","time":6,"i_long":106.712277,"line":6,"is_transit":false,"distance":4566,"i_lat":-6.296963,"transit":false,"station_id":"SDM"},{"is_transit":false,"distance":1994,"i_long":106.728916,"i_lat":-6.288927,"line":6,"time":4,"transit":false,"station_id":"JMU","station_name":"Jurangmangu"},{"is_transit":false,"i_long":106.74273,"time":3,"station_id":"PDJ","distance":2179,"i_lat":-6.276362,"transit":false,"station_name":"Pondokranji","line":6},{"is_transit":false,"station_name":"Kebayoran","transit":false,"distance":6218,"station_id":"KBY","line":6,"i_lat":-6.237242,"time":8,"i_long":106.780334},{"i_long":106.79689,"station_id":"PLM","time":7,"station_name":"Palmerah","is_transit":false,"i_lat":-6.207404,"line":6,"distance":3737,"transit":false},{"i_long":106.811091,"distance":3191,"is_transit":true,"i_lat":-6.185545,"line":1,"station_id":"THB","time":6,"station_name":"Tanah Abang","transit":true},{"line":1,"transit":false,"station_name":"Duri","i_lat":-6.155215,"time":8,"station_id":"DU","is_transit":false,"distance":3632,"i_long":106.800832},{"transit":false,"station_id":"AK","is_transit":false,"station_name":"Angke","distance":1230,"i_long":106.79867,"i_lat":-6.144674,"line":1,"time":4},{"transit":true,"distance":4102,"i_long":106.826365,"i_lat":-6.132549,"is_transit":true,"time":9,"station_id":"KPB","station_name":"Kampung Bandan","line":4},{"is_transit":true,"station_name":"Jakarta Kota","transit":true,"i_lat":-6.137569,"station_id":"JAKK","time":3,"line":2,"distance":1364,"i_long":106.812439},{"time":4,"transit":false,"station_name":"Jayakarta","i_lat":-6.141205,"station_id":"JAY","distance":1264,"is_transit":false,"i_long":106.820901,"line":2},{"i_lat":-6.149769,"station_id":"MGB","line":2,"time":2,"transit":false,"station_name":"Manggabesar","i_long":106.82482,"is_transit":false,"distance":1080},{"line":2,"time":2,"transit":false,"station_id":"SW","distance":906,"i_long":106.827103,"i_lat":-6.160725,"station_name":"Sawah Besar","is_transit":false},{"line":2,"station_id":"JUA","station_name":"Juanda","is_transit":false,"transit":false,"i_lat":-6.166716,"time":2,"distance":1149,"i_long":106.828284},{"i_lat":-6.186295,"station_name":"Gondangdia","line":2,"is_transit":false,"i_long":106.832183,"transit":false,"station_id":"GDD","time":4,"distance":2015},{"distance":1750,"is_transit":false,"line":2,"transit":false,"station_name":"Cikini","station_id":"CKI","time":3,"i_long":106.840169,"i_lat":-6.198556},{"transit":true,"is_transit":true,"distance":1590,"station_id":"MRI","i_lat":-6.209883,"time":4,"line":2,"station_name":"Manggarai","i_long":106.84912},{"station_name":"Matraman","line":1,"i_long":106.858896,"distance":1275,"transit":false,"time":2,"station_id":"MTR","i_lat":-6.212485,"is_transit":false},{"station_id":"JNG","time":8,"transit":false,"station_name":"Jatinegara","is_transit":false,"distance":1377,"i_long":106.86807400000001,"i_lat":-6.215091,"line":1},{"time":3,"station_id":"KLD","transit":false,"station_name":"Klender","is_transit":false,"i_lat":-6.2135,"i_long":106.899548,"distance":3395,"line":1},{"i_lat":-6.215568,"distance":3100,"station_name":"Buaran","i_long":106.922662,"line":1,"is_transit":false,"transit":false,"station_id":"BUA","time":2},{"time":1,"transit":false,"line":1,"i_long":106.939679,"station_id":"KLDB","distance":1305,"station_name":"Klenderbaru","is_transit":false,"i_lat":-6.217455},{"distance":1385,"line":1,"i_lat":-6.219053,"time":8,"station_id":"CUK","i_long":106.951283,"is_transit":false,"transit":false,"station_name":"Cakung"},{"station_name":"Kranji","distance":3097,"transit":false,"i_lat":-6.224515,"i_long":106.977657,"is_transit":false,"time":3,"line":1,"station_id":"KRI"},{"station_id":"BKS","i_long":106.997013,"is_transit":false,"i_lat":-6.236616,"time":4,"distance":2520,"line":1,"station_name":"Bekasi","transit":false},{"i_long":107.016735,"line":1,"transit":false,"station_id":"BKST","is_transit":false,"station_name":"Bekasi Timur","distance":2368,"time":2,"i_lat":-6.248029},{"is_transit":false,"line":1,"time":7,"transit":false,"i_long":107.055722,"i_lat":-6.258864,"station_id":"TB","station_name":"Tambun","distance":4460}],[{"distance":0,"i_lat":-6.33561,"i_long":106.411216,"station_id":"CKY","time":0,"line":3,"is_transit":false,"station_name":"Cikoya","transit":false},{"i_lat":-6.328533,"i_long":106.425991,"line":6,"station_id":"TGS","time":3,"distance":2651,"is_transit":false,"station_name":"Tigaraksa","transit":false},{"station_name":"Tenjo","i_long":106.460812,"station_id":"TEJ","i_lat":-6.327251,"time":5,"distance":2974,"is_transit":false,"line":6,"transit":false},{"is_transit":false,"transit":false,"station_name":"Daru","i_long":106.491338,"i_lat":-6.338021,"time":5,"distance":3902,"line":0,"station_id":"DAR"},{"station_name":"Cilejit","is_transit":false,"transit":false,"distance":2675,"i_lat":-6.354349,"line":3,"time":6,"station_id":"CJT","i_long":106.508482},{"i_lat":-6.3441410000000005,"station_id":"PRP","line":6,"station_name":"Parung Panjang","transit":false,"distance":7025,"is_transit":false,"time":9,"i_long":106.568863},{"is_transit":false,"transit":false,"station_id":"CC","i_lat":-6.329547,"time":8,"line":3,"i_long":106.617853,"distance":5968,"station_name":"Cicayur"},{"transit":false,"station_id":"CSK","distance":2519,"i_lat":-6.32484,"time":4,"is_transit":false,"station_name":"Cisauk","line":3,"i_long":106.640411},{"i_lat":-6.319871,"station_id":"SRP","transit":false,"station_name":"Serpong","line":6,"i_long":106.66566,"is_transit":false,"distance":1784,"time":4},{"i_lat":-6.314823,"time":4,"i_long":106.675475,"line":6,"station_id":"RU","station_name":"Rawa Buntu","distance":2413,"is_transit":false,"transit":false},{"station_name":"Sudimara","i_long":106.712277,"distance":4566,"is_transit":false,"i_lat":-6.296963,"station_id":"SDM","line":6,"time":6,"transit":false},{"line":6,"is_transit":false,"i_lat":-6.288927,"time":4,"transit":false,"distance":1994,"station_id":"JMU","station_name":"Jurangmangu","i_long":106.728916},{"time":3,"transit":false,"line":6,"distance":2179,"station_id":"PDJ","is_transit":false,"i_lat":-6.276362,"i_long":106.74273,"station_name":"Pondokranji"},{"station_name":"Kebayoran","is_transit":false,"transit":false,"station_id":"KBY","time":8,"i_lat":-6.237242,"i_long":106.780334,"distance":6218,"line":6},{"line":6,"transit":false,"time":7,"station_id":"PLM","i_lat":-6.207404,"distance":3737,"station_name":"Palmerah","is_transit":false,"i_long":106.79689},{"time":6,"transit":true,"distance":3191,"i_long":106.811091,"i_lat":-6.185545,"station_name":"Tanah Abang","station_id":"THB","is_transit":true,"line":1},{"time":5,"transit":false,"distance":2029,"station_id":"KAT","i_lat":-6.20132,"station_name":"Karet","i_long":106.816351,"line":1,"is_transit":false},{"i_long":106.819881,"station_id":"SUDB","transit":false,"i_lat":-6.201433,"line":1,"station_name":"Sudirman Baru","distance":471,"is_transit":false,"time":1},{"is_transit":false,"transit":false,"i_long":106.822649,"line":1,"station_id":"SUD","distance":280,"station_name":"Sudirman","i_lat":-6.202263,"time":1},{"station_name":"Manggarai","i_lat":-6.209883,"i_long":106.84912,"station_id":"MRI","time":4,"line":2,"transit":true,"is_transit":true,"distance":3186},{"station_id":"CKI","time":4,"transit":false,"i_long":106.840169,"i_lat":-6.198556,"distance":1590,"station_name":"Cikini","is_transit":false,"line":2},{"time":3,"transit":false,"station_name":"Gondangdia","i_lat":-6.186295,"is_transit":false,"distance":1750,"i_long":106.832183,"line":2,"station_id":"GDD"},{"station_id":"JUA","distance":2015,"line":2,"time":4,"station_name":"Juanda","i_lat":-6.166716,"transit":false,"i_long":106.828284,"is_transit":false},{"distance":1149,"station_id":"SW","time":2,"i_lat":-6.160725,"transit":false,"line":2,"is_transit":false,"i_long":106.827103,"station_name":"Sawah Besar"},{"time":2,"i_long":106.82482,"station_id":"MGB","distance":906,"line":2,"is_transit":false,"station_name":"Manggabesar","i_lat":-6.149769,"transit":false},{"i_lat":-6.141205,"transit":false,"station_name":"Jayakarta","distance":1080,"time":2,"line":2,"station_id":"JAY","is_transit":false,"i_long":106.820901},{"time":4,"i_long":106.812439,"distance":1264,"line":2,"transit":true,"station_name":"Jakarta Kota","i_lat":-6.137569,"is_transit":true,"station_id":"JAKK"},{"distance":1364,"i_lat":-6.132549,"time":3,"i_long":106.826365,"line":4,"is_transit":true,"transit":true,"station_id":"KPB","station_name":"Kampung Bandan"},{"distance":1444,"line":11,"station_name":"Rajawali","time":3,"is_transit":false,"i_lat":-6.14505,"i_long":106.836569,"station_id":"RJW","transit":false},{"time":5,"station_name":"Kemayoran","transit":false,"i_lat":-6.161728,"i_long":106.839204,"is_transit":false,"distance":1901,"station_id":"KMO","line":11},{"station_name":"Pasar Senen","i_long":106.84368,"line":11,"transit":false,"is_transit":false,"distance":1436,"station_id":"PSE","i_lat":-6.174784,"time":4},{"transit":false,"time":8,"i_lat":-6.185975,"i_long":106.850107,"station_id":"GST","station_name":"Gang Sentiong","line":11,"distance":1567,"is_transit":false},{"station_id":"KMT","i_lat":-6.193792,"line":11,"is_transit":false,"distance":973,"time":1,"station_name":"Kramat","i_long":106.855437,"transit":false},{"distance":1829,"time":2,"transit":false,"station_name":"Pondok Jati","is_transit":false,"i_long":106.861737,"line":11,"station_id":"POK","i_lat":-6.209188},{"is_transit":true,"i_long":106.86807400000001,"time":9,"distance":1236,"i_lat":-6.215091,"station_id":"JNG","transit":true,"line":1,"station_name":"Jatinegara"},{"i_lat":-6.2135,"is_transit":false,"transit":false,"station_name":"Klender","station_id":"KLD","time":3,"distance":3395,"i_long":106.899548,"line":1},{"station_id":"BUA","time":2,"transit":false,"station_name":"Buaran","i_lat":-6.215568,"is_transit":false,"line":1,"i_long":106.922662,"distance":3100},{"transit":false,"line":1,"time":1,"station_name":"Klenderbaru","is_transit":false,"i_long":106.939679,"distance":1305,"station_id":"KLDB","i_lat":-6.217455},{"is_transit":false,"station_name":"Cakung","transit":false,"time":8,"i_long":106.951283,"i_lat":-6.219053,"distance":1385,"line":1,"station_id":"CUK"},{"transit":false,"is_transit":false,"line":1,"station_id":"KRI","time":3,"i_long":106.977657,"station_name":"Kranji","i_lat":-6.224515,"distance":3097},{"station_name":"Bekasi","distance":2520,"time":4,"is_transit":false,"line":1,"station_id":"BKS","i_long":106.997013,"i_lat":-6.236616,"transit":false},{"time":2,"is_transit":false,"i_long":107.016735,"station_name":"Bekasi Timur","line":1,"station_id":"BKST","i_lat":-6.248029,"transit":false,"distance":2368},{"transit":false,"time":7,"distance":4460,"i_lat":-6.258864,"line":1,"i_long":107.055722,"station_id":"TB","station_name":"Tambun","is_transit":false}]]}