{"data":[[{"is_transit":false,"time":0,"i_long":106.411216,"station_name":"Cikoya","transit":false,"station_id":"CKY","distance":0,"i_lat":-6.33561,"line":3},{"station_name":"Tigaraksa","is_transit":false,"i_long":106.425991,"station_id":"TGS","time":3,"transit":false,"distance":2651,"line":6,"i_lat":-6.328533},{"i_long":106.460812,"line":6,"time":5,"station_name":"Tenjo","station_id":"TEJ","i_lat":-6.327251,"distance":2974,"transit":false,"is_transit":false},{"distance":3902,"station_name":"Daru","transit":false,"station_id":"DAR","i_lat":-6.338021,"line":0,"i_long":106.491338,"is_transit":false,"time":5},{"line":3,"distance":2675,"is_transit":false,"station_name":"Cilejit","i_lat":-6.354349,"time":6,"transit":false,"i_long":106.508482,"station_id":"CJT"},{"distance":7025,"i_lat":-6.3441410000000005,"station_id":"PRP","i_long":106.568863,"station_name":"Parung Panjang","line":6,"time":9,"transit":false,"is_transit":false},{"i_lat":-6.329547,"i_long":106.617853,"time":8,"distance":5968,"is_transit":false,"station_id":"CC","station_name":"Cicayur","transit":false,"line":3}]]}