{"data":[[{"is_transit":false,"time":0,"transit":false,"station_name":"Cikoya","i_long":106.411216,"line":0,"i_lat":-6.33561,"station_id":"CKY","distance":0},{"station_id":"TGS","distance":2651,"transit":false,"i_lat":-6.328533,"i_long":106.425991,"is_transit":false,"time":3,"station_name":"Tigaraksa","line":6},{"line":6,"is_transit":false,"time":5,"station_id":"TEJ","station_name":"Tenjo","distance":2974,"i_lat":-6.327251,"transit":false,"i_long":106.460812},{"line":0,"station_id":"DAR","station_name":"Daru","is_transit":false,"transit":false,"distance":3902,"time":5,"i_lat":-6.338021,"i_long":106.491338},{"station_id":"CJT","transit":false,"i_long":106.508482,"is_transit":false,"station_name":"Cilejit","time":6,"line":0,"i_lat":-6.354349,"distance":2675},{"transit":false,"time":9,"i_lat":-6.3441410000000005,"i_long":106.568863,"station_id":"PRP","station_name":"Parung Panjang","is_transit":false,"distance":7025,"line":6},{"is_transit":false,"time":8,"station_id":"CC","station_name":"Cicayur","transit":false,"i_lat":-6.329547,"distance":5968,"i_long":106.617853,"line":0},{"i_long":106.640411,"is_transit":false,"distance":2519,"station_name":"Cisauk","time":4,"i_lat":-6.32484,"line":0,"station_id":"CSK","transit":false},{"line":6,"station_id":"SRP","time":4,"transit":false,"i_lat":-6.319871,"i_long":106.66566,"station_name":"Serpong","distance":1784,"is_transit":false},{"distance":2413,"is_transit":false,"station_id":"RU","time":4,"station_name":"Rawa Buntu","i_lat":-6.314823,"i_long":106.675475,"transit":false,"line":6}]]}