{"data":[[{"time":0,"i_long":106.411216,"distance":0,"station_name":"Cikoya","i_lat":-6.33561,"transit":false,"station_id":"CKY","is_transit":false,"line":3},{"distance":2651,"time":3,"is_transit":false,"station_id":"TGS","station_name":"Tigaraksa","i_lat":-6.328533,"i_long":106.425991,"line":6,"transit":false},{"station_name":"Tenjo","is_transit":false,"transit":false,"i_long":106.460812,"line":6,"station_id":"TEJ","i_lat":-6.327251,"time":5,"distance":2974},{"station_name":"Daru","distance":3902,"station_id":"DAR","i_lat":-6.338021,"i_long":106.491338,"transit":false,"is_transit":false,"time":5,"line":0},{"line":3,"distance":2675,"station_id":"CJT","time":6,"transit":false,"station_name":"Cilejit","i_long":106.508482,"i_lat":-6.354349,"is_transit":false},{"station_name":"Parung Panjang","line":6,"i_lat":-6.3441410000000005,"station_id":"PRP","transit":false,"time":9,"distance":7025,"is_transit":false,"i_long":106.568863},{"transit":false,"time":8,"distance":5968,"i_long":106.617853,"line":3,"station_name":"Cicayur","is_transit":false,"i_lat":-6.329547,"station_id":"CC"},{"line":3,"station_id":"CSK","time":4,"distance":2519,"station_name":"Cisauk","is_transit":false,"i_lat":-6.32484,"transit":false,"i_long":106.640411},{"transit":false,"distance":1784,"line":6,"station_id":"SRP","time":4,"station_name":"Serpong","is_transit":false,"i_lat":-6.319871,"i_long":106.66566},{"station_id":"RU","is_transit":false,"transit":false,"station_name":"Rawa Buntu","distance":2413,"i_lat":-6.314823,"line":6,"i_long":106.675475,"time":4},{"i_lat":-6.296963,"time":6,"is_transit":false,"station_id":"SDM","transit":false,"distance":4566,"line":6,"i_long":106.712277,"station_name":"Sudimara"},{"station_name":"Jurangmangu","distance":1994,"is_transit":false,"station_id":"JMU","transit":false,"i_lat":-6.288927,"line":6,"time":4,"i_long":106.728916},{"station_name":"Pondokranji","time":3,"distance":2179,"is_transit":false,"i_long":106.74273,"transit":false,"i_lat":-6.276362,"station_id":"PDJ","line":6},{"station_id":"KBY","i_long":106.780334,"i_lat":-6.237242,"line":6,"transit":false,"distance":6218,"time":8,"station_name":"Kebayoran","is_transit":false},{"time":7,"station_id":"PLM","line":6,"i_long":106.79689,"station_name":"Palmerah","transit":false,"i_lat":-6.207404,"distance":3737,"is_transit":false},{"station_name":"Tanah Abang","i_long":106.811091,"line":1,"is_transit":true,"time":6,"distance":3191,"transit":true,"station_id":"THB","i_lat":-6.185545},{"transit":false,"i_lat":-6.20132,"time":5,"line":1,"i_long":106.816351,"distance":2029,"is_transit":false,"station_id":"KAT","station_name":"Karet"},{"distance":471,"line":1,"transit":false,"station_id":"SUDB","i_lat":-6.201433,"i_long":106.819881,"is_transit":false,"station_name":"Sudirman Baru","time":1},{"i_long":106.822649,"distance":280,"i_lat":-6.202263,"transit":false,"station_id":"SUD","line":1,"time":1,"station_name":"Sudirman","is_transit":false},{"i_lat":-6.209883,"line":2,"time":4,"distance":3186,"station_name":"Manggarai","is_transit":true,"station_id":"MRI","transit":true,"i_long":106.84912},{"is_transit":false,"time":4,"station_name":"Tebet","i_lat":-6.226659,"i_long":106.857948,"transit":false,"distance":2610,"station_id":"TEB","line":2},{"station_id":"CW","i_lat":-6.242512,"i_long":106.856607,"station_name":"Cawang","is_transit":false,"distance":1230,"line":2,"transit":false,"time":2},{"station_id":"DRN","is_transit":false,"station_name":"Duren Kalibata","distance":1546,"i_lat":-6.255332,"i_long":106.85449,"transit":false,"time":3,"line":2},{"line":2,"transit":false,"i_lat":-6.263214,"station_name":"Pasar Minggu Baru","is_transit":false,"distance":824,"station_id":"PSMB","i_long":106.851577,"time":2},{"distance":2380,"station_id":"PSM","is_transit":false,"time":2,"transit":false,"i_long":106.843999,"line":2,"station_name":"Pasar Minggu","i_lat":-6.2842400000000005},{"i_long":106.838896,"transit":false,"line":2,"distance":2820,"station_name":"Tanjung Barat","is_transit":false,"time":4,"i_lat":-6.3080680000000005,"station_id":"TNT"},{"i_lat":-6.330363,"time":3,"distance":2671,"station_id":"LNA","is_transit":false,"station_name":"Lenteng Agung","i_long":106.832616,"line":2,"transit":false},{"time":2,"is_transit":false,"station_name":"Univ. Pancasila","distance":1029,"i_lat":-6.339291,"i_long":106.834175,"transit":false,"station_id":"UP","line":2},{"line":2,"i_long":106.831474,"station_id":"UI","time":3,"is_transit":false,"station_name":"Univ. Indonesia","distance":2264,"i_lat":-6.360749,"transit":false},{"station_name":"Pondok Cina","i_long":106.831114,"line":2,"is_transit":false,"station_id":"POC","transit":false,"i_lat":-6.369073,"time":2,"distance":1109},{"distance":2727,"i_lat":-6.391065,"line":2,"time":4,"transit":false,"i_long":106.819451,"is_transit":false,"station_name":"Depokbaru","station_id":"DPB"},{"i_lat":-6.405256,"line":2,"i_long":106.816926,"station_id":"DP","distance":1584,"time":3,"station_name":"Depok","is_transit":false,"transit":false}],[{"time":0,"i_long":106.411216,"line":3,"is_transit":false,"station_name":"Cikoya","transit":false,"station_id":"CKY","distance":0,"i_lat":-6.33561},{"distance":2651,"station_id":"TGS","station_name":"Tigaraksa","time":3,"transit":false,"i_long":106.425991,"is_transit":false,"i_lat":-6.328533,"line":6},{"transit":false,"station_name":"Tenjo","distance":2974,"is_transit":false,"time":5,"station_id":"TEJ","i_long":106.460812,"i_lat":-6.327251,"line":6},{"i_long":106.491338,"station_id":"DAR","time":5,"transit":false,"is_transit":false,"distance":3902,"station_name":"Daru","i_lat":-6.338021,"line":0},{"time":6,"is_transit":false,"transit":false,"line":3,"station_name":"Cilejit","station_id":"CJT","i_lat":-6.354349,"i_long":106.508482,"distance":2675},{"i_lat":-6.3441410000000005,"line":6,"distance":7025,"station_id":"PRP","i_long":106.568863,"time":9,"is_transit":false,"station_name":"Parung Panjang","transit":false},{"is_transit":false,"i_lat":-6.329547,"line":3,"distance":5968,"transit":false,"i_long":106.617853,"station_name":"Cicayur","station_id":"CC","time":8},{"time":4,"station_name":"Cisauk","station_id":"CSK","i_long":106.640411,"is_transit":false,"transit":false,"line":3,"i_lat":-6.32484,"distance":2519},{"time":4,"transit":false,"station_name":"Serpong","is_transit":false,"station_id":"SRP","i_lat":-6.319871,"i_long":106.66566,"line":6,"distance":1784},{"distance":2413,"station_name":"Rawa Buntu","i_lat":-6.314823,"is_transit":false,"time":4,"transit":false,"station_id":"RU","i_long":106.675475,"line":6},{"station_id":"SDM","line":6,"station_name":"Sudimara","time":6,"i_lat":-6.296963,"is_transit":false,"transit":false,"distance":4566,"i_long":106.712277},{"transit":false,"time":4,"distance":1994,"i_long":106.728916,"line":6,"i_lat":-6.288927,"is_transit":false,"station_name":"Jurangmangu","station_id":"JMU"},{"station_id":"PDJ","is_transit":false,"line":6,"station_name":"Pondokranji","transit":false,"time":3,"i_lat":-6.276362,"i_long":106.74273,"distance":2179},{"i_lat":-6.237242,"station_name":"Kebayoran","distance":6218,"time":8,"transit":false,"station_id":"KBY","is_transit":false,"i_long":106.780334,"line":6},{"station_name":"Palmerah","is_transit":false,"line":6,"i_lat":-6.207404,"station_id":"PLM","time":7,"transit":false,"distance":3737,"i_long":106.79689},{"distance":3191,"station_id":"THB","transit":true,"i_lat":-6.185545,"station_name":"Tanah Abang","i_long":106.811091,"time":6,"is_transit":true,"line":1},{"is_transit":false,"station_name":"Duri","station_id":"DU","distance":3632,"i_lat":-6.155215,"line":1,"time":8,"transit":false,"i_long":106.800832},{"time":4,"i_long":106.79867,"transit":false,"line":1,"station_id":"AK","i_lat":-6.144674,"is_transit":false,"station_name":"Angke","distance":1230},{"i_long":106.826365,"transit":true,"line":4,"distance":4102,"time":9,"is_transit":true,"i_lat":-6.132549,"station_name":"Kampung Bandan","station_id":"KPB"},{"station_name":"Jakarta Kota","i_long":106.812439,"transit":true,"distance":1364,"line":2,"i_lat":-6.137569,"is_transit":true,"time":3,"station_id":"JAKK"},{"distance":1264,"transit":false,"i_lat":-6.141205,"is_transit":false,"i_long":106.820901,"station_name":"Jayakarta","station_id":"JAY","time":4,"line":2},{"time":2,"station_name":"Manggabesar","is_transit":false,"i_lat":-6.149769,"line":2,"distance":1080,"station_id":"MGB","i_long":106.82482,"transit":false},{"distance":906,"is_transit":false,"station_id":"SW","line":2,"time":2,"station_name":"Sawah Besar","transit":false,"i_long":106.827103,"i_lat":-6.160725},{"line":2,"transit":false,"is_transit":false,"station_name":"Juanda","i_lat":-6.166716,"station_id":"JUA","time":2,"distance":1149,"i_long":106.828284},{"time":4,"transit":false,"station_name":"Gondangdia","station_id":"GDD","i_lat":-6.186295,"i_long":106.832183,"line":2,"distance":2015,"is_transit":false},{"station_id":"CKI","time":3,"distance":1750,"i_long":106.840169,"line":2,"transit":false,"is_transit":false,"station_name":"Cikini","i_lat":-6.198556},{"transit":false,"distance":1590,"i_long":106.84912,"i_lat":-6.209883,"time":4,"line":2,"station_id":"MRI","station_name":"Manggarai","is_transit":false},{"transit":false,"distance":2610,"i_long":106.857948,"is_transit":false,"time":4,"station_name":"Tebet","line":2,"station_id":"TEB","i_lat":-6.226659},{"station_name":"Cawang","i_lat":-6.242512,"line":2,"i_long":106.856607,"transit":false,"time":2,"distance":1230,"is_transit":false,"station_id":"CW"},{"i_long":106.85449,"distance":1546,"time":3,"transit":false,"i_lat":-6.255332,"station_name":"Duren Kalibata","station_id":"DRN","line":2,"is_transit":false},{"i_long":106.851577,"station_id":"PSMB","transit":false,"i_lat":-6.263214,"is_transit":false,"line":2,"time":2,"distance":824,"station_name":"Pasar Minggu Baru"},{"i_long":106.843999,"is_transit":false,"time":2,"station_id":"PSM","station_name":"Pasar Minggu","distance":2380,"i_lat":-6.2842400000000005,"line":2,"transit":false},{"station_name":"Tanjung Barat","station_id":"TNT","time":4,"distance":2820,"i_lat":-6.3080680000000005,"i_long":106.838896,"is_transit":false,"transit":false,"line":2},{"time":3,"station_name":"Lenteng Agung","distance":2671,"transit":false,"i_lat":-6.330363,"i_long":106.832616,"line":2,"is_transit":false,"station_id":"LNA"},{"station_name":"Univ. Pancasila","is_transit":false,"line":2,"transit":false,"i_long":106.834175,"i_lat":-6.339291,"distance":1029,"time":2,"station_id":"UP"},{"i_long":106.831474,"distance":2264,"time":3,"transit":false,"station_name":"Univ. Indonesia","station_id":"UI","line":2,"i_lat":-6.360749,"is_transit":false},{"station_name":"Pondok Cina","distance":1109,"i_long":106.831114,"station_id":"POC","i_lat":-6.369073,"transit":false,"line":2,"is_transit":false,"time":2},{"distance":2727,"station_name":"Depokbaru","station_id":"DPB","i_lat":-6.391065,"line":2,"transit":false,"i_long":106.819451,"time":4,"is_transit":false},{"is_transit":false,"transit":false,"distance":1584,"i_lat":-6.405256,"i_long":106.816926,"time":3,"station_name":"Depok","station_id":"DP","line":2}],[{"distance":0,"station_name":"Cikoya","transit":false,"is_transit":false,"i_lat":-6.33561,"i_long":106.411216,"time":0,"station_id":"CKY","line":3},{"time":3,"station_name":"Tigaraksa","transit":false,"distance":2651,"is_transit":false,"i_long":106.425991,"line":6,"station_id":"TGS","i_lat":-6.328533},{"station_name":"Tenjo","line":6,"distance":2974,"station_id":"TEJ","i_long":106.460812,"i_lat":-6.327251,"time":5,"transit":false,"is_transit":false},{"station_name":"Daru","transit":false,"distance":3902,"i_long":106.491338,"i_lat":-6.338021,"line":0,"station_id":"DAR","time":5,"is_transit":false},{"distance":2675,"line":3,"i_long":106.508482,"i_lat":-6.354349,"time":6,"is_transit":false,"station_name":"Cilejit","station_id":"CJT","transit":false},{"is_transit":false,"i_long":106.568863,"time":9,"transit":false,"distance":7025,"station_name":"Parung Panjang","i_lat":-6.3441410000000005,"line":6,"station_id":"PRP"},{"distance":5968,"is_transit":false,"time":8,"i_lat":-6.329547,"station_name":"Cicayur","i_long":106.617853,"transit":false,"station_id":"CC","line":3},{"transit":false,"time":4,"line":3,"station_name":"Cisauk","i_lat":-6.32484,"is_transit":false,"i_long":106.640411,"distance":2519,"station_id":"CSK"},{"time":4,"transit":false,"i_lat":-6.319871,"is_transit":false,"station_name":"Serpong","station_id":"SRP","i_long":106.66566,"distance":1784,"line":6},{"time":4,"line":6,"is_transit":false,"station_id":"RU","station_name":"Rawa Buntu","distance":2413,"transit":false,"i_lat":-6.314823,"i_long":106.675475},{"time":6,"station_id":"SDM","is_transit":false,"transit":false,"distance":4566,"line":6,"station_name":"Sudimara","i_lat":-6.296963,"i_long":106.712277},{"i_long":106.728916,"distance":1994,"station_id":"JMU","is_transit":false,"i_lat":-6.288927,"station_name":"Jurangmangu","transit":false,"time":4,"line":6},{"i_lat":-6.276362,"line":6,"station_id":"PDJ","time":3,"distance":2179,"transit":false,"station_name":"Pondokranji","i_long":106.74273,"is_transit":false},{"line":6,"station_id":"KBY","distance":6218,"transit":false,"is_transit":false,"i_lat":-6.237242,"i_long":106.780334,"time":8,"station_name":"Kebayoran"},{"distance":3737,"i_lat":-6.207404,"i_long":106.79689,"station_id":"PLM","line":6,"time":7,"station_name":"Palmerah","is_transit":false,"transit":false},{"time":6,"transit":true,"i_lat":-6.185545,"is_transit":true,"station_name":"Tanah Abang","line":1,"distance":3191,"i_long":106.811091,"station_id":"THB"},{"time":8,"is_transit":false,"line":1,"station_name":"Duri","i_long":106.800832,"station_id":"DU","distance":3632,"transit":false,"i_lat":-6.155215},{"station_name":"Angke","distance":1230,"station_id":"AK","is_transit":false,"transit":false,"i_lat":-6.144674,"line":1,"i_long":106.79867,"time":4},{"transit":true,"station_id":"KPB","time":9,"line":4,"distance":4102,"i_lat":-6.132549,"is_transit":true,"i_long":106.826365,"station_name":"Kampung Bandan"},{"station_name":"Rajawali","distance":1444,"i_lat":-6.14505,"transit":false,"station_id":"RJW","is_transit":false,"time":3,"i_long":106.836569,"line":11},{"is_transit":false,"i_lat":-6.161728,"transit":false,"distance":1901,"i_long":106.839204,"station_name":"Kemayoran","line":11,"time":5,"station_id":"KMO"},{"time":4,"is_transit":false,"transit":false,"i_long":106.84368,"station_name":"Pasar Senen","distance":1436,"station_id":"PSE","i_lat":-6.174784,"line":11},{"transit":false,"station_name":"Gang Sentiong","distance":1567,"line":11,"i_long":106.850107,"time":8,"is_transit":false,"station_id":"GST","i_lat":-6.185975},{"station_id":"KMT","is_transit":false,"i_long":106.855437,"station_name":"Kramat","line":11,"time":1,"i_lat":-6.193792,"transit":false,"distance":973},{"is_transit":false,"station_id":"POK","i_lat":-6.209188,"distance":1829,"transit":false,"i_long":106.861737,"line":11,"station_name":"Pondok Jati","time":2},{"line":1,"station_id":"JNG","is_transit":true,"i_lat":-6.215091,"station_name":"Jatinegara","time":9,"transit":true,"distance":1236,"i_long":106.86807400000001},{"i_long":106.858896,"time":2,"transit":false,"i_lat":-6.212485,"line":1,"station_id":"MTR","distance":1377,"is_transit":false,"station_name":"Matraman"},{"station_id":"MRI","transit":true,"time":2,"is_transit":true,"distance":1275,"station_name":"Manggarai","i_long":106.84912,"line":2,"i_lat":-6.209883},{"transit":false,"line":2,"station_name":"Tebet","distance":2610,"time":4,"station_id":"TEB","is_transit":false,"i_lat":-6.226659,"i_long":106.857948},{"i_long":106.856607,"station_id":"CW","distance":1230,"station_name":"Cawang","transit":false,"line":2,"is_transit":false,"i_lat":-6.242512,"time":2},{"station_name":"Duren Kalibata","is_transit":false,"i_lat":-6.255332,"distance":1546,"i_long":106.85449,"time":3,"transit":false,"line":2,"station_id":"DRN"},{"distance":824,"transit":false,"station_name":"Pasar Minggu Baru","station_id":"PSMB","i_lat":-6.263214,"line":2,"is_transit":false,"time":2,"i_long":106.851577},{"line":2,"distance":2380,"i_long":106.843999,"transit":false,"time":2,"station_id":"PSM","is_transit":false,"i_lat":-6.2842400000000005,"station_name":"Pasar Minggu"},{"line":2,"station_name":"Tanjung Barat","time":4,"is_transit":false,"distance":2820,"i_long":106.838896,"station_id":"TNT","transit":false,"i_lat":-6.3080680000000005},{"line":2,"station_name":"Lenteng Agung","distance":2671,"station_id":"LNA","i_long":106.832616,"transit":false,"i_lat":-6.330363,"is_transit":false,"time":3},{"distance":1029,"transit":false,"station_id":"UP","i_lat":-6.339291,"station_name":"Univ. Pancasila","line":2,"is_transit":false,"time":2,"i_long":106.834175},{"line":2,"i_long":106.831474,"is_transit":false,"station_name":"Univ. Indonesia","distance":2264,"station_id":"UI","time":3,"i_lat":-6.360749,"transit":false},{"distance":1109,"transit":false,"station_name":"Pondok Cina","time":2,"station_id":"POC","line":2,"is_transit":false,"i_long":106.831114,"i_lat":-6.369073},{"line":2,"station_name":"Depokbaru","time":4,"station_id":"DPB","i_long":106.819451,"is_transit":false,"transit":false,"distance":2727,"i_lat":-6.391065},{"distance":1584,"station_id":"DP","station_name":"Depok","time":3,"i_lat":-6.405256,"i_long":106.816926,"line":2,"is_transit":false,"transit":false}]]}