{"data":[[{"station_id":"CKY","distance":0,"station_name":"Cikoya","i_long":106.411216,"line":3,"is_transit":false,"i_lat":-6.33561,"time":0,"transit":false},{"is_transit":false,"i_long":106.425991,"time":3,"i_lat":-6.328533,"transit":false,"distance":2651,"line":6,"station_id":"TGS","station_name":"Tigaraksa"},{"transit":false,"station_id":"TEJ","distance":2974,"line":6,"time":5,"is_transit":false,"station_name":"Tenjo","i_lat":-6.327251,"i_long":106.460812},{"distance":3902,"is_transit":false,"station_name":"Daru","station_id":"DAR","i_lat":-6.338021,"i_long":106.491338,"line":0,"time":5,"transit":false},{"line":3,"is_transit":false,"time":6,"transit":false,"i_long":106.508482,"station_id":"CJT","distance":2675,"i_lat":-6.354349,"station_name":"Cilejit"},{"i_long":106.568863,"distance":7025,"line":6,"station_name":"Parung Panjang","station_id":"PRP","is_transit":false,"time":9,"i_lat":-6.3441410000000005,"transit":false},{"i_long":106.617853,"distance":5968,"i_lat":-6.329547,"station_id":"CC","time":8,"line":3,"transit":false,"station_name":"Cicayur","is_transit":false},{"station_id":"CSK","i_lat":-6.32484,"line":3,"time":4,"transit":false,"station_name":"Cisauk","i_long":106.640411,"is_transit":false,"distance":2519},{"time":4,"i_lat":-6.319871,"station_name":"Serpong","station_id":"SRP","transit":false,"is_transit":false,"i_long":106.66566,"distance":1784,"line":6},{"i_long":106.675475,"is_transit":false,"i_lat":-6.314823,"distance":2413,"station_name":"Rawa Buntu","transit":false,"station_id":"RU","time":4,"line":6},{"station_id":"SDM","time":6,"i_lat":-6.296963,"station_name":"Sudimara","is_transit":false,"transit":false,"i_long":106.712277,"distance":4566,"line":6},{"station_name":"Jurangmangu","is_transit":false,"i_long":106.728916,"transit":false,"distance":1994,"station_id":"JMU","i_lat":-6.288927,"line":6,"time":4},{"time":3,"distance":2179,"station_name":"Pondokranji","station_id":"PDJ","i_lat":-6.276362,"i_long":106.74273,"line":6,"is_transit":false,"transit":false},{"line":6,"station_id":"KBY","transit":false,"distance":6218,"station_name":"Kebayoran","i_lat":-6.237242,"is_transit":false,"i_long":106.780334,"time":8},{"transit":false,"i_lat":-6.207404,"station_name":"Palmerah","time":7,"station_id":"PLM","line":6,"is_transit":false,"i_long":106.79689,"distance":3737},{"i_lat":-6.185545,"is_transit":true,"transit":true,"i_long":106.811091,"distance":3191,"station_id":"THB","line":1,"time":6,"station_name":"Tanah Abang"},{"station_name":"Duri","i_long":106.800832,"station_id":"DU","time":8,"i_lat":-6.155215,"is_transit":false,"line":1,"transit":false,"distance":3632},{"transit":false,"station_name":"Angke","i_lat":-6.144674,"distance":1230,"line":1,"station_id":"AK","i_long":106.79867,"time":4,"is_transit":false},{"station_name":"Kampung Bandan","time":9,"distance":4102,"is_transit":true,"transit":true,"station_id":"KPB","line":4,"i_lat":-6.132549,"i_long":106.826365},{"time":3,"is_transit":false,"station_name":"Jakarta Kota","line":2,"i_lat":-6.137569,"distance":1364,"station_id":"JAKK","transit":false,"i_long":106.812439}],[{"i_long":106.411216,"distance":0,"station_name":"Cikoya","time":0,"line":3,"is_transit":false,"station_id":"CKY","i_lat":-6.33561,"transit":false},{"transit":false,"time":3,"i_long":106.425991,"line":6,"is_transit":false,"station_name":"Tigaraksa","distance":2651,"station_id":"TGS","i_lat":-6.328533},{"station_name":"Tenjo","transit":false,"i_lat":-6.327251,"line":6,"i_long":106.460812,"distance":2974,"time":5,"is_transit":false,"station_id":"TEJ"},{"i_long":106.491338,"time":5,"transit":false,"distance":3902,"i_lat":-6.338021,"station_name":"Daru","is_transit":false,"station_id":"DAR","line":0},{"station_name":"Cilejit","time":6,"is_transit":false,"i_lat":-6.354349,"transit":false,"station_id":"CJT","i_long":106.508482,"line":3,"distance":2675},{"station_id":"PRP","i_lat":-6.3441410000000005,"time":9,"is_transit":false,"distance":7025,"i_long":106.568863,"line":6,"station_name":"Parung Panjang","transit":false},{"i_lat":-6.329547,"i_long":106.617853,"transit":false,"distance":5968,"station_name":"Cicayur","station_id":"CC","time":8,"is_transit":false,"line":3},{"station_id":"CSK","transit":false,"distance":2519,"time":4,"i_long":106.640411,"line":3,"is_transit":false,"station_name":"Cisauk","i_lat":-6.32484},{"line":6,"time":4,"distance":1784,"station_name":"Serpong","is_transit":false,"i_long":106.66566,"station_id":"SRP","i_lat":-6.319871,"transit":false},{"time":4,"station_name":"Rawa Buntu","transit":false,"i_long":106.675475,"distance":2413,"line":6,"station_id":"RU","is_transit":false,"i_lat":-6.314823},{"distance":4566,"i_lat":-6.296963,"station_name":"Sudimara","time":6,"is_transit":false,"transit":false,"station_id":"SDM","i_long":106.712277,"line":6},{"i_long":106.728916,"distance":1994,"time":4,"transit":false,"line":6,"station_id":"JMU","is_transit":false,"station_name":"Jurangmangu","i_lat":-6.288927},{"is_transit":false,"line":6,"station_name":"Pondokranji","i_lat":-6.276362,"time":3,"transit":false,"i_long":106.74273,"station_id":"PDJ","distance":2179},{"is_transit":false,"distance":6218,"station_name":"Kebayoran","time":8,"transit":false,"i_lat":-6.237242,"station_id":"KBY","line":6,"i_long":106.780334},{"time":7,"distance":3737,"station_id":"PLM","transit":false,"i_long":106.79689,"i_lat":-6.207404,"line":6,"station_name":"Palmerah","is_transit":false},{"is_transit":true,"transit":true,"station_id":"THB","distance":3191,"line":1,"i_long":106.811091,"station_name":"Tanah Abang","i_lat":-6.185545,"time":6},{"i_lat":-6.20132,"i_long":106.816351,"distance":2029,"time":5,"is_transit":false,"station_id":"KAT","line":1,"transit":false,"station_name":"Karet"},{"i_long":106.819881,"is_transit":false,"station_name":"Sudirman Baru","time":1,"distance":471,"line":1,"transit":false,"station_id":"SUDB","i_lat":-6.201433},{"station_id":"SUD","i_long":106.822649,"time":1,"is_transit":false,"line":1,"distance":280,"i_lat":-6.202263,"station_name":"Sudirman","transit":false},{"distance":3186,"i_lat":-6.209883,"is_transit":true,"time":4,"transit":true,"station_id":"MRI","i_long":106.84912,"station_name":"Manggarai","line":2},{"distance":1590,"line":2,"transit":false,"time":4,"is_transit":false,"station_name":"Cikini","i_long":106.840169,"i_lat":-6.198556,"station_id":"CKI"},{"time":3,"distance":1750,"i_lat":-6.186295,"line":2,"station_name":"Gondangdia","transit":false,"station_id":"GDD","i_long":106.832183,"is_transit":false},{"time":4,"is_transit":false,"i_lat":-6.166716,"i_long":106.828284,"line":2,"station_name":"Juanda","transit":false,"station_id":"JUA","distance":2015},{"station_id":"SW","time":2,"station_name":"Sawah Besar","transit":false,"i_lat":-6.160725,"line":2,"i_long":106.827103,"distance":1149,"is_transit":false},{"is_transit":false,"distance":906,"i_lat":-6.149769,"i_long":106.82482,"time":2,"transit":false,"line":2,"station_id":"MGB","station_name":"Manggabesar"},{"transit":false,"i_lat":-6.141205,"station_id":"JAY","is_transit":false,"distance":1080,"line":2,"station_name":"Jayakarta","time":2,"i_long":106.820901},{"transit":false,"station_id":"JAKK","station_name":"Jakarta Kota","is_transit":false,"line":2,"i_lat":-6.137569,"time":4,"distance":1264,"i_long":106.812439}],[{"transit":false,"station_id":"CKY","i_long":106.411216,"is_transit":false,"distance":0,"line":3,"station_name":"Cikoya","time":0,"i_lat":-6.33561},{"line":6,"distance":2651,"time":3,"transit":false,"is_transit":false,"i_lat":-6.328533,"station_id":"TGS","station_name":"Tigaraksa","i_long":106.425991},{"station_id":"TEJ","i_long":106.460812,"time":5,"station_name":"Tenjo","i_lat":-6.327251,"distance":2974,"is_transit":false,"line":6,"transit":false},{"is_transit":false,"station_id":"DAR","station_name":"Daru","transit":false,"i_lat":-6.338021,"distance":3902,"i_long":106.491338,"line":0,"time":5},{"i_lat":-6.354349,"time":6,"station_id":"CJT","is_transit":false,"i_long":106.508482,"line":3,"station_name":"Cilejit","distance":2675,"transit":false},{"transit":false,"i_long":106.568863,"i_lat":-6.3441410000000005,"station_id":"PRP","distance":7025,"time":9,"line":6,"station_name":"Parung Panjang","is_transit":false},{"i_lat":-6.329547,"station_name":"Cicayur","transit":false,"distance":5968,"is_transit":false,"time":8,"station_id":"CC","i_long":106.617853,"line":3},{"i_lat":-6.32484,"time":4,"distance":2519,"transit":false,"i_long":106.640411,"is_transit":false,"line":3,"station_name":"Cisauk","station_id":"CSK"},{"time":4,"i_long":106.66566,"line":6,"distance":1784,"transit":false,"station_id":"SRP","i_lat":-6.319871,"station_name":"Serpong","is_transit":false},{"is_transit":false,"station_id":"RU","i_lat":-6.314823,"i_long":106.675475,"distance":2413,"line":6,"time":4,"transit":false,"station_name":"Rawa Buntu"},{"i_long":106.712277,"station_id":"SDM","i_lat":-6.296963,"is_transit":false,"station_name":"Sudimara","transit":false,"distance":4566,"line":6,"time":6},{"transit":false,"station_id":"JMU","is_transit":false,"time":4,"station_name":"Jurangmangu","i_lat":-6.288927,"i_long":106.728916,"distance":1994,"line":6},{"station_name":"Pondokranji","transit":false,"distance":2179,"i_lat":-6.276362,"i_long":106.74273,"line":6,"station_id":"PDJ","time":3,"is_transit":false},{"distance":6218,"station_name":"Kebayoran","station_id":"KBY","is_transit":false,"transit":false,"time":8,"line":6,"i_lat":-6.237242,"i_long":106.780334},{"time":7,"station_id":"PLM","line":6,"i_long":106.79689,"distance":3737,"i_lat":-6.207404,"is_transit":false,"station_name":"Palmerah","transit":false},{"transit":true,"i_long":106.811091,"station_name":"Tanah Abang","time":6,"is_transit":true,"distance":3191,"station_id":"THB","i_lat":-6.185545,"line":1},{"station_name":"Karet","station_id":"KAT","i_lat":-6.20132,"is_transit":false,"line":1,"i_long":106.816351,"transit":false,"distance":2029,"time":5},{"distance":471,"transit":false,"time":1,"is_transit":false,"i_lat":-6.201433,"station_name":"Sudirman Baru","station_id":"SUDB","i_long":106.819881,"line":1},{"transit":false,"i_lat":-6.202263,"station_id":"SUD","i_long":106.822649,"distance":280,"is_transit":false,"line":1,"station_name":"Sudirman","time":1},{"station_name":"Manggarai","i_lat":-6.209883,"time":4,"distance":3186,"transit":false,"station_id":"MRI","i_long":106.84912,"line":2,"is_transit":false},{"transit":false,"line":1,"distance":1275,"time":2,"station_id":"MTR","is_transit":false,"i_long":106.858896,"station_name":"Matraman","i_lat":-6.212485},{"is_transit":true,"transit":true,"i_lat":-6.215091,"station_name":"Jatinegara","line":1,"i_long":106.86807400000001,"station_id":"JNG","distance":1377,"time":8},{"distance":1236,"i_long":106.861737,"transit":false,"line":11,"is_transit":false,"station_id":"POK","i_lat":-6.209188,"station_name":"Pondok Jati","time":2},{"transit":false,"station_id":"KMT","time":2,"is_transit":false,"distance":1829,"i_long":106.855437,"line":11,"i_lat":-6.193792,"station_name":"Kramat"},{"i_lat":-6.185975,"station_name":"Gang Sentiong","transit":false,"time":1,"i_long":106.850107,"line":11,"is_transit":false,"distance":973,"station_id":"GST"},{"is_transit":false,"time":8,"distance":1567,"station_id":"PSE","i_long":106.84368,"transit":false,"i_lat":-6.174784,"line":11,"station_name":"Pasar Senen"},{"i_long":106.839204,"line":11,"is_transit":false,"distance":1436,"time":4,"station_name":"Kemayoran","i_lat":-6.161728,"transit":false,"station_id":"KMO"},{"station_name":"Rajawali","time":5,"distance":1901,"i_long":106.836569,"transit":false,"i_lat":-6.14505,"line":11,"station_id":"RJW","is_transit":false},{"station_name":"Kampung Bandan","time":3,"is_transit":true,"transit":true,"i_lat":-6.132549,"station_id":"KPB","distance":1444,"i_long":106.826365,"line":4},{"i_lat":-6.137569,"time":3,"is_transit":false,"station_name":"Jakarta Kota","distance":1364,"transit":false,"station_id":"JAKK","i_long":106.812439,"line":2}],[{"i_long":106.411216,"line":3,"i_lat":-6.33561,"distance":0,"station_id":"CKY","time":0,"is_transit":false,"transit":false,"station_name":"Cikoya"},{"is_transit":false,"i_long":106.425991,"time":3,"i_lat":-6.328533,"station_name":"Tigaraksa","distance":2651,"transit":false,"station_id":"TGS","line":6},{"line":6,"i_lat":-6.327251,"transit":false,"station_name":"Tenjo","time":5,"distance":2974,"is_transit":false,"station_id":"TEJ","i_long":106.460812},{"is_transit":false,"i_long":106.491338,"line":0,"distance":3902,"station_id":"DAR","transit":false,"time":5,"station_name":"Daru","i_lat":-6.338021},{"distance":2675,"station_id":"CJT","i_long":106.508482,"time":6,"transit":false,"i_lat":-6.354349,"station_name":"Cilejit","line":3,"is_transit":false},{"line":6,"transit":false,"distance":7025,"is_transit":false,"station_name":"Parung Panjang","time":9,"station_id":"PRP","i_lat":-6.3441410000000005,"i_long":106.568863},{"is_transit":false,"station_name":"Cicayur","transit":false,"i_long":106.617853,"line":3,"i_lat":-6.329547,"distance":5968,"time":8,"station_id":"CC"},{"transit":false,"station_name":"Cisauk","distance":2519,"station_id":"CSK","time":4,"is_transit":false,"i_lat":-6.32484,"i_long":106.640411,"line":3},{"i_long":106.66566,"station_id":"SRP","station_name":"Serpong","i_lat":-6.319871,"is_transit":false,"transit":false,"time":4,"line":6,"distance":1784},{"time":4,"is_transit":false,"transit":false,"station_id":"RU","distance":2413,"i_lat":-6.314823,"i_long":106.675475,"station_name":"Rawa Buntu","line":6},{"i_long":106.712277,"is_transit":false,"station_id":"SDM","station_name":"Sudimara","transit":false,"line":6,"time":6,"distance":4566,"i_lat":-6.296963},{"station_name":"Jurangmangu","station_id":"JMU","line":6,"time":4,"distance":1994,"transit":false,"is_transit":false,"i_lat":-6.288927,"i_long":106.728916},{"station_id":"PDJ","station_name":"Pondokranji","transit":false,"time":3,"i_lat":-6.276362,"i_long":106.74273,"line":6,"is_transit":false,"distance":2179},{"i_lat":-6.237242,"time":8,"station_name":"Kebayoran","distance":6218,"transit":false,"i_long":106.780334,"station_id":"KBY","line":6,"is_transit":false},{"distance":3737,"transit":false,"station_id":"PLM","time":7,"station_name":"Palmerah","line":6,"i_long":106.79689,"i_lat":-6.207404,"is_transit":false},{"is_transit":true,"line":1,"transit":true,"time":6,"station_name":"Tanah Abang","distance":3191,"station_id":"THB","i_lat":-6.185545,"i_long":106.811091},{"i_long":106.800832,"transit":false,"station_id":"DU","line":1,"station_name":"Duri","distance":3632,"i_lat":-6.155215,"time":8,"is_transit":false},{"i_long":106.79867,"time":4,"i_lat":-6.144674,"transit":false,"is_transit":false,"distance":1230,"station_name":"Angke","line":1,"station_id":"AK"},{"time":9,"station_id":"KPB","line":4,"i_long":106.826365,"transit":true,"i_lat":-6.132549,"is_transit":true,"distance":4102,"station_name":"Kampung Bandan"},{"station_name":"Rajawali","i_lat":-6.14505,"time":3,"i_long":106.836569,"is_transit":false,"line":11,"station_id":"RJW","distance":1444,"transit":false},{"time":5,"distance":1901,"station_name":"Kemayoran","station_id":"KMO","transit":false,"i_lat":-6.161728,"line":11,"is_transit":false,"i_long":106.839204},{"time":4,"is_transit":false,"transit":false,"i_long":106.84368,"line":11,"i_lat":-6.174784,"station_name":"Pasar Senen","distance":1436,"station_id":"PSE"},{"line":11,"transit":false,"station_id":"GST","distance":1567,"station_name":"Gang Sentiong","i_lat":-6.185975,"time":8,"is_transit":false,"i_long":106.850107},{"distance":973,"transit":false,"station_id":"KMT","i_lat":-6.193792,"station_name":"Kramat","i_long":106.855437,"is_transit":false,"line":11,"time":1},{"line":11,"time":2,"station_id":"POK","transit":false,"distance":1829,"is_transit":false,"station_name":"Pondok Jati","i_lat":-6.209188,"i_long":106.861737},{"line":1,"distance":1236,"station_name":"Jatinegara","i_lat":-6.215091,"is_transit":true,"i_long":106.86807400000001,"transit":true,"time":9,"station_id":"JNG"},{"is_transit":false,"station_id":"MTR","i_lat":-6.212485,"time":2,"distance":1377,"transit":false,"i_long":106.858896,"line":1,"station_name":"Matraman"},{"time":2,"i_lat":-6.209883,"station_id":"MRI","line":2,"is_transit":true,"transit":true,"station_name":"Manggarai","i_long":106.84912,"distance":1275},{"is_transit":false,"i_long":106.840169,"line":2,"distance":1590,"transit":false,"station_name":"Cikini","time":4,"i_lat":-6.198556,"station_id":"CKI"},{"transit":false,"time":3,"line":2,"distance":1750,"station_name":"Gondangdia","i_lat":-6.186295,"is_transit":false,"station_id":"GDD","i_long":106.832183},{"time":4,"transit":false,"is_transit":false,"distance":2015,"i_long":106.828284,"line":2,"station_id":"JUA","i_lat":-6.166716,"station_name":"Juanda"},{"is_transit":false,"station_id":"SW","i_long":106.827103,"i_lat":-6.160725,"distance":1149,"station_name":"Sawah Besar","line":2,"transit":false,"time":2},{"station_id":"MGB","time":2,"station_name":"Manggabesar","i_long":106.82482,"i_lat":-6.149769,"line":2,"transit":false,"distance":906,"is_transit":false},{"i_long":106.820901,"is_transit":false,"transit":false,"time":2,"station_name":"Jayakarta","i_lat":-6.141205,"line":2,"distance":1080,"station_id":"JAY"},{"station_name":"Jakarta Kota","i_long":106.812439,"time":4,"is_transit":false,"distance":1264,"station_id":"JAKK","transit":false,"line":2,"i_lat":-6.137569}]]}