{"data":[[{"i_lat":-6.33561,"is_transit":false,"time":0,"transit":false,"line":0,"distance":0,"station_name":"Cikoya","station_id":"CKY","i_long":106.411216},{"is_transit":false,"station_name":"Tigaraksa","line":6,"time":3,"i_lat":-6.328533,"station_id":"TGS","transit":false,"distance":2651,"i_long":106.425991},{"is_transit":false,"i_lat":-6.327251,"distance":2974,"station_name":"Tenjo","transit":false,"time":5,"station_id":"TEJ","i_long":106.460812,"line":6},{"i_lat":-6.338021,"is_transit":false,"transit":false,"distance":3902,"station_id":"DAR","line":0,"i_long":106.491338,"station_name":"Daru","time":5},{"i_long":106.508482,"distance":2675,"station_id":"CJT","i_lat":-6.354349,"line":0,"time":6,"is_transit":false,"station_name":"Cilejit","transit":false},{"distance":7025,"station_name":"Parung Panjang","i_lat":-6.3441410000000005,"is_transit":false,"i_long":106.568863,"line":6,"time":9,"transit":false,"station_id":"PRP"},{"station_id":"CC","is_transit":false,"station_name":"Cicayur","distance":5968,"line":0,"i_lat":-6.329547,"transit":false,"i_long":106.617853,"time":8}]]}