{"data":[[{"distance":0,"i_lat":-6.33561,"i_long":106.411216,"station_id":"CKY","line":3,"station_name":"Cikoya","transit":false,"is_transit":false,"time":0},{"i_lat":-6.328533,"station_name":"Tigaraksa","distance":2651,"station_id":"TGS","time":3,"transit":false,"i_long":106.425991,"is_transit":false,"line":6},{"station_id":"TEJ","transit":false,"i_lat":-6.327251,"distance":2974,"is_transit":false,"time":5,"line":6,"station_name":"Tenjo","i_long":106.460812},{"i_lat":-6.338021,"line":0,"station_id":"DAR","transit":false,"i_long":106.491338,"station_name":"Daru","distance":3902,"is_transit":false,"time":5},{"time":6,"station_name":"Cilejit","is_transit":false,"station_id":"CJT","i_lat":-6.354349,"distance":2675,"i_long":106.508482,"transit":false,"line":3},{"i_lat":-6.3441410000000005,"station_name":"Parung Panjang","i_long":106.568863,"transit":false,"distance":7025,"line":6,"station_id":"PRP","time":9,"is_transit":false},{"station_name":"Cicayur","line":3,"transit":false,"station_id":"CC","distance":5968,"is_transit":false,"time":8,"i_long":106.617853,"i_lat":-6.329547},{"i_long":106.640411,"i_lat":-6.32484,"line":3,"time":4,"is_transit":false,"transit":false,"station_id":"CSK","station_name":"Cisauk","distance":2519},{"i_long":106.66566,"is_transit":false,"line":6,"station_name":"Serpong","i_lat":-6.319871,"station_id":"SRP","time":4,"distance":1784,"transit":false},{"i_long":106.675475,"time":4,"line":6,"is_transit":false,"station_name":"Rawa Buntu","distance":2413,"i_lat":-6.314823,"station_id":"RU","transit":false},{"i_lat":-6.296963,"time":6,"line":6,"distance":4566,"i_long":106.712277,"transit":false,"station_name":"Sudimara","station_id":"SDM","is_transit":false},{"station_id":"JMU","i_long":106.728916,"line":6,"station_name":"Jurangmangu","distance":1994,"time":4,"i_lat":-6.288927,"transit":false,"is_transit":false},{"transit":false,"station_name":"Pondokranji","time":3,"line":6,"i_long":106.74273,"station_id":"PDJ","is_transit":false,"distance":2179,"i_lat":-6.276362},{"is_transit":false,"distance":6218,"transit":false,"station_id":"KBY","station_name":"Kebayoran","i_lat":-6.237242,"time":8,"i_long":106.780334,"line":6},{"station_id":"PLM","distance":3737,"i_long":106.79689,"station_name":"Palmerah","is_transit":false,"time":7,"i_lat":-6.207404,"line":6,"transit":false},{"transit":true,"time":6,"i_lat":-6.185545,"station_name":"Tanah Abang","distance":3191,"is_transit":true,"i_long":106.811091,"line":1,"station_id":"THB"},{"distance":3632,"i_lat":-6.155215,"station_id":"DU","line":1,"transit":false,"station_name":"Duri","i_long":106.800832,"is_transit":false,"time":8},{"transit":false,"i_lat":-6.144674,"i_long":106.79867,"station_name":"Angke","is_transit":false,"time":4,"distance":1230,"line":1,"station_id":"AK"}],[{"is_transit":false,"i_long":106.411216,"i_lat":-6.33561,"time":0,"station_name":"Cikoya","station_id":"CKY","transit":false,"distance":0,"line":3},{"is_transit":false,"distance":2651,"transit":false,"i_long":106.425991,"line":6,"station_id":"TGS","i_lat":-6.328533,"time":3,"station_name":"Tigaraksa"},{"is_transit":false,"line":6,"transit":false,"distance":2974,"i_long":106.460812,"station_name":"Tenjo","time":5,"i_lat":-6.327251,"station_id":"TEJ"},{"station_id":"DAR","distance":3902,"i_long":106.491338,"is_transit":false,"station_name":"Daru","i_lat":-6.338021,"transit":false,"time":5,"line":0},{"line":3,"station_id":"CJT","i_lat":-6.354349,"station_name":"Cilejit","time":6,"distance":2675,"i_long":106.508482,"is_transit":false,"transit":false},{"i_long":106.568863,"line":6,"transit":false,"distance":7025,"time":9,"is_transit":false,"station_name":"Parung Panjang","station_id":"PRP","i_lat":-6.3441410000000005},{"i_long":106.617853,"i_lat":-6.329547,"distance":5968,"station_name":"Cicayur","transit":false,"station_id":"CC","time":8,"line":3,"is_transit":false},{"is_transit":false,"i_lat":-6.32484,"distance":2519,"i_long":106.640411,"line":3,"time":4,"station_name":"Cisauk","transit":false,"station_id":"CSK"},{"station_name":"Serpong","i_lat":-6.319871,"time":4,"distance":1784,"transit":false,"i_long":106.66566,"line":6,"is_transit":false,"station_id":"SRP"},{"station_name":"Rawa Buntu","i_long":106.675475,"line":6,"transit":false,"is_transit":false,"time":4,"distance":2413,"station_id":"RU","i_lat":-6.314823},{"transit":false,"station_name":"Sudimara","is_transit":false,"time":6,"i_long":106.712277,"line":6,"station_id":"SDM","i_lat":-6.296963,"distance":4566},{"i_long":106.728916,"station_id":"JMU","transit":false,"time":4,"i_lat":-6.288927,"line":6,"station_name":"Jurangmangu","is_transit":false,"distance":1994},{"distance":2179,"time":3,"i_lat":-6.276362,"station_id":"PDJ","is_transit":false,"station_name":"Pondokranji","i_long":106.74273,"transit":false,"line":6},{"i_lat":-6.237242,"line":6,"time":8,"distance":6218,"i_long":106.780334,"is_transit":false,"transit":false,"station_name":"Kebayoran","station_id":"KBY"},{"transit":false,"is_transit":false,"time":7,"distance":3737,"station_id":"PLM","i_long":106.79689,"line":6,"station_name":"Palmerah","i_lat":-6.207404},{"line":1,"is_transit":true,"station_name":"Tanah Abang","i_long":106.811091,"transit":true,"distance":3191,"station_id":"THB","time":6,"i_lat":-6.185545},{"time":5,"station_name":"Karet","i_lat":-6.20132,"line":1,"station_id":"KAT","distance":2029,"transit":false,"is_transit":false,"i_long":106.816351},{"transit":false,"station_id":"SUDB","i_lat":-6.201433,"is_transit":false,"line":1,"i_long":106.819881,"distance":471,"station_name":"Sudirman Baru","time":1},{"i_lat":-6.202263,"station_id":"SUD","station_name":"Sudirman","is_transit":false,"time":1,"line":1,"distance":280,"transit":false,"i_long":106.822649},{"transit":true,"station_name":"Manggarai","station_id":"MRI","is_transit":true,"time":4,"i_long":106.84912,"i_lat":-6.209883,"line":2,"distance":3186},{"station_id":"CKI","line":2,"transit":false,"is_transit":false,"time":4,"distance":1590,"i_long":106.840169,"station_name":"Cikini","i_lat":-6.198556},{"time":3,"is_transit":false,"line":2,"station_id":"GDD","distance":1750,"i_lat":-6.186295,"station_name":"Gondangdia","i_long":106.832183,"transit":false},{"station_id":"JUA","time":4,"i_long":106.828284,"is_transit":false,"i_lat":-6.166716,"distance":2015,"transit":false,"line":2,"station_name":"Juanda"},{"is_transit":false,"transit":false,"distance":1149,"line":2,"time":2,"station_id":"SW","i_lat":-6.160725,"station_name":"Sawah Besar","i_long":106.827103},{"station_id":"MGB","distance":906,"line":2,"i_lat":-6.149769,"transit":false,"i_long":106.82482,"time":2,"station_name":"Manggabesar","is_transit":false},{"station_id":"JAY","time":2,"transit":false,"i_lat":-6.141205,"station_name":"Jayakarta","distance":1080,"i_long":106.820901,"is_transit":false,"line":2},{"station_id":"JAKK","i_long":106.812439,"transit":true,"line":2,"time":4,"is_transit":true,"station_name":"Jakarta Kota","distance":1264,"i_lat":-6.137569},{"is_transit":true,"i_lat":-6.132549,"transit":true,"station_name":"Kampung Bandan","i_long":106.826365,"line":4,"distance":1364,"time":3,"station_id":"KPB"},{"station_name":"Angke","distance":4102,"station_id":"AK","is_transit":false,"time":9,"i_long":106.79867,"line":1,"i_lat":-6.144674,"transit":false}],[{"distance":0,"station_id":"CKY","time":0,"i_long":106.411216,"line":3,"i_lat":-6.33561,"station_name":"Cikoya","is_transit":false,"transit":false},{"line":6,"is_transit":false,"transit":false,"station_id":"TGS","time":3,"station_name":"Tigaraksa","i_lat":-6.328533,"distance":2651,"i_long":106.425991},{"transit":false,"station_name":"Tenjo","line":6,"time":5,"i_lat":-6.327251,"i_long":106.460812,"is_transit":false,"station_id":"TEJ","distance":2974},{"station_name":"Daru","station_id":"DAR","line":0,"is_transit":false,"i_lat":-6.338021,"time":5,"distance":3902,"transit":false,"i_long":106.491338},{"station_name":"Cilejit","station_id":"CJT","distance":2675,"i_long":106.508482,"transit":false,"time":6,"is_transit":false,"line":3,"i_lat":-6.354349},{"station_id":"PRP","line":6,"i_long":106.568863,"time":9,"is_transit":false,"i_lat":-6.3441410000000005,"station_name":"Parung Panjang","transit":false,"distance":7025},{"transit":false,"distance":5968,"i_lat":-6.329547,"i_long":106.617853,"line":3,"station_id":"CC","station_name":"Cicayur","is_transit":false,"time":8},{"transit":false,"line":3,"station_id":"CSK","distance":2519,"i_long":106.640411,"time":4,"station_name":"Cisauk","is_transit":false,"i_lat":-6.32484},{"station_name":"Serpong","distance":1784,"station_id":"SRP","is_transit":false,"i_long":106.66566,"transit":false,"i_lat":-6.319871,"time":4,"line":6},{"i_lat":-6.314823,"i_long":106.675475,"distance":2413,"time":4,"station_name":"Rawa Buntu","line":6,"station_id":"RU","transit":false,"is_transit":false},{"i_long":106.712277,"distance":4566,"time":6,"station_name":"Sudimara","station_id":"SDM","transit":false,"is_transit":false,"i_lat":-6.296963,"line":6},{"distance":1994,"station_name":"Jurangmangu","i_long":106.728916,"line":6,"i_lat":-6.288927,"is_transit":false,"time":4,"transit":false,"station_id":"JMU"},{"transit":false,"is_transit":false,"time":3,"station_name":"Pondokranji","station_id":"PDJ","i_lat":-6.276362,"i_long":106.74273,"distance":2179,"line":6},{"is_transit":false,"line":6,"station_id":"KBY","station_name":"Kebayoran","time":8,"distance":6218,"i_lat":-6.237242,"transit":false,"i_long":106.780334},{"distance":3737,"station_name":"Palmerah","station_id":"PLM","is_transit":false,"time":7,"i_lat":-6.207404,"transit":false,"i_long":106.79689,"line":6},{"is_transit":true,"time":6,"distance":3191,"i_lat":-6.185545,"station_id":"THB","i_long":106.811091,"transit":true,"line":1,"station_name":"Tanah Abang"},{"transit":false,"is_transit":false,"line":1,"i_lat":-6.20132,"i_long":106.816351,"time":5,"distance":2029,"station_id":"KAT","station_name":"Karet"},{"time":1,"station_name":"Sudirman Baru","i_lat":-6.201433,"line":1,"i_long":106.819881,"distance":471,"transit":false,"station_id":"SUDB","is_transit":false},{"station_name":"Sudirman","is_transit":false,"i_lat":-6.202263,"transit":false,"station_id":"SUD","i_long":106.822649,"line":1,"distance":280,"time":1},{"line":2,"station_id":"MRI","transit":false,"is_transit":false,"distance":3186,"time":4,"station_name":"Manggarai","i_long":106.84912,"i_lat":-6.209883},{"transit":false,"distance":1275,"i_lat":-6.212485,"time":2,"station_id":"MTR","station_name":"Matraman","i_long":106.858896,"line":1,"is_transit":false},{"line":1,"transit":true,"i_long":106.86807400000001,"i_lat":-6.215091,"time":8,"is_transit":true,"distance":1377,"station_id":"JNG","station_name":"Jatinegara"},{"station_name":"Pondok Jati","distance":1236,"transit":false,"i_long":106.861737,"line":11,"i_lat":-6.209188,"is_transit":false,"station_id":"POK","time":2},{"i_long":106.855437,"i_lat":-6.193792,"line":11,"distance":1829,"station_name":"Kramat","is_transit":false,"transit":false,"time":2,"station_id":"KMT"},{"distance":973,"i_lat":-6.185975,"time":1,"line":11,"station_id":"GST","station_name":"Gang Sentiong","i_long":106.850107,"transit":false,"is_transit":false},{"time":8,"station_name":"Pasar Senen","i_lat":-6.174784,"distance":1567,"is_transit":false,"line":11,"i_long":106.84368,"transit":false,"station_id":"PSE"},{"time":4,"is_transit":false,"i_lat":-6.161728,"transit":false,"i_long":106.839204,"station_id":"KMO","line":11,"distance":1436,"station_name":"Kemayoran"},{"time":5,"line":11,"i_long":106.836569,"station_id":"RJW","is_transit":false,"distance":1901,"station_name":"Rajawali","i_lat":-6.14505,"transit":false},{"transit":true,"i_lat":-6.132549,"line":4,"station_name":"Kampung Bandan","is_transit":true,"station_id":"KPB","time":3,"i_long":106.826365,"distance":1444},{"station_name":"Angke","transit":false,"time":9,"i_lat":-6.144674,"i_long":106.79867,"line":1,"is_transit":false,"station_id":"AK","distance":4102}]]}