{"data":[[{"line":2,"station_name":"Cilebut","time":0,"is_transit":false,"transit":false,"i_long":106.800016,"station_id":"CLT","distance":0,"i_lat":-6.530544},{"time":5,"station_id":"BJD","i_long":106.792719,"station_name":"Bojonggede","distance":4331,"transit":false,"is_transit":false,"i_lat":-6.493243,"line":2},{"i_long":106.800298,"time":5,"line":2,"station_name":"Citayam","transit":false,"distance":5197,"i_lat":-6.448811,"station_id":"CTA","is_transit":false},{"distance":5084,"transit":false,"station_id":"DP","is_transit":false,"i_long":106.816926,"time":6,"station_name":"Depok","i_lat":-6.405256,"line":2},{"station_id":"DPB","transit":false,"i_long":106.819451,"is_transit":false,"i_lat":-6.391065,"time":3,"line":2,"distance":1584,"station_name":"Depokbaru"},{"time":4,"i_long":106.831114,"station_id":"POC","is_transit":false,"station_name":"Pondok Cina","distance":2727,"i_lat":-6.369073,"line":2,"transit":false},{"station_name":"Univ. Indonesia","i_long":106.831474,"time":2,"station_id":"UI","is_transit":false,"i_lat":-6.360749,"transit":false,"distance":1109,"line":2},{"station_name":"Univ. Pancasila","time":3,"station_id":"UP","distance":2264,"transit":false,"i_long":106.834175,"i_lat":-6.339291,"is_transit":false,"line":2},{"station_name":"Lenteng Agung","i_lat":-6.330363,"time":2,"distance":1029,"station_id":"LNA","is_transit":false,"i_long":106.832616,"line":2,"transit":false},{"station_id":"TNT","station_name":"Tanjung Barat","time":3,"i_lat":-6.3080680000000005,"distance":2671,"i_long":106.838896,"is_transit":false,"line":2,"transit":false},{"station_name":"Pasar Minggu","distance":2820,"i_long":106.843999,"time":4,"i_lat":-6.2842400000000005,"line":2,"is_transit":false,"station_id":"PSM","transit":false},{"time":2,"distance":2380,"transit":false,"i_lat":-6.263214,"line":2,"i_long":106.851577,"station_id":"PSMB","station_name":"Pasar Minggu Baru","is_transit":false},{"station_id":"DRN","distance":824,"is_transit":false,"time":2,"i_long":106.85449,"transit":false,"station_name":"Duren Kalibata","line":2,"i_lat":-6.255332},{"line":2,"distance":1546,"is_transit":false,"i_lat":-6.242512,"station_name":"Cawang","time":3,"i_long":106.856607,"transit":false,"station_id":"CW"},{"line":2,"i_long":106.857948,"distance":1230,"station_id":"TEB","station_name":"Tebet","time":2,"transit":false,"is_transit":false,"i_lat":-6.226659},{"is_transit":true,"i_lat":-6.209883,"transit":true,"time":4,"distance":2610,"i_long":106.84912,"line":2,"station_name":"Manggarai","station_id":"MRI"},{"station_name":"Matraman","time":2,"station_id":"MTR","distance":1275,"i_lat":-6.212485,"is_transit":false,"line":1,"transit":false,"i_long":106.858896},{"i_long":106.86807400000001,"line":1,"station_id":"JNG","is_transit":false,"time":8,"i_lat":-6.215091,"station_name":"Jatinegara","distance":1377,"transit":false},{"i_lat":-6.2135,"transit":false,"station_name":"Klender","i_long":106.899548,"distance":3395,"station_id":"KLD","line":1,"is_transit":false,"time":3}],[{"i_long":106.800016,"line":2,"station_id":"CLT","time":0,"station_name":"Cilebut","transit":false,"is_transit":false,"i_lat":-6.530544,"distance":0},{"time":5,"distance":4331,"station_name":"Bojonggede","transit":false,"is_transit":false,"station_id":"BJD","line":2,"i_lat":-6.493243,"i_long":106.792719},{"station_name":"Citayam","i_lat":-6.448811,"time":5,"transit":false,"station_id":"CTA","distance":5197,"is_transit":false,"i_long":106.800298,"line":2},{"station_id":"DP","distance":5084,"transit":false,"i_lat":-6.405256,"line":2,"station_name":"Depok","is_transit":false,"i_long":106.816926,"time":6},{"time":3,"i_long":106.819451,"distance":1584,"is_transit":false,"line":2,"station_name":"Depokbaru","station_id":"DPB","transit":false,"i_lat":-6.391065},{"station_name":"Pondok Cina","distance":2727,"i_long":106.831114,"station_id":"POC","line":2,"transit":false,"time":4,"i_lat":-6.369073,"is_transit":false},{"i_long":106.831474,"station_id":"UI","is_transit":false,"time":2,"station_name":"Univ. Indonesia","line":2,"distance":1109,"transit":false,"i_lat":-6.360749},{"i_long":106.834175,"time":3,"station_id":"UP","is_transit":false,"station_name":"Univ. Pancasila","distance":2264,"transit":false,"line":2,"i_lat":-6.339291},{"line":2,"time":2,"distance":1029,"i_lat":-6.330363,"transit":false,"i_long":106.832616,"station_id":"LNA","station_name":"Lenteng Agung","is_transit":false},{"transit":false,"i_lat":-6.3080680000000005,"station_id":"TNT","time":3,"is_transit":false,"i_long":106.838896,"line":2,"distance":2671,"station_name":"Tanjung Barat"},{"station_name":"Pasar Minggu","is_transit":false,"i_long":106.843999,"time":4,"station_id":"PSM","distance":2820,"transit":false,"i_lat":-6.2842400000000005,"line":2},{"i_lat":-6.263214,"distance":2380,"station_id":"PSMB","time":2,"station_name":"Pasar Minggu Baru","transit":false,"is_transit":false,"i_long":106.851577,"line":2},{"time":2,"transit":false,"distance":824,"station_id":"DRN","line":2,"is_transit":false,"station_name":"Duren Kalibata","i_lat":-6.255332,"i_long":106.85449},{"i_lat":-6.242512,"distance":1546,"time":3,"is_transit":false,"i_long":106.856607,"station_name":"Cawang","station_id":"CW","line":2,"transit":false},{"transit":false,"time":2,"distance":1230,"station_id":"TEB","i_long":106.857948,"line":2,"station_name":"Tebet","is_transit":false,"i_lat":-6.226659},{"i_lat":-6.209883,"distance":2610,"i_long":106.84912,"time":4,"transit":true,"station_id":"MRI","station_name":"Manggarai","line":2,"is_transit":true},{"i_long":106.822649,"line":1,"i_lat":-6.202263,"distance":3186,"time":4,"station_name":"Sudirman","transit":false,"station_id":"SUD","is_transit":false},{"transit":false,"station_id":"SUDB","i_long":106.819881,"is_transit":false,"time":1,"i_lat":-6.201433,"distance":280,"station_name":"Sudirman Baru","line":1},{"station_id":"KAT","time":1,"i_long":106.816351,"is_transit":false,"line":1,"distance":471,"i_lat":-6.20132,"station_name":"Karet","transit":false},{"time":5,"station_name":"Tanah Abang","station_id":"THB","i_long":106.811091,"is_transit":false,"transit":false,"distance":2029,"i_lat":-6.185545,"line":1},{"is_transit":false,"line":1,"distance":3632,"i_lat":-6.155215,"station_id":"DU","i_long":106.800832,"time":8,"station_name":"Duri","transit":false},{"time":4,"line":1,"station_name":"Angke","i_lat":-6.144674,"is_transit":false,"station_id":"AK","transit":false,"distance":1230,"i_long":106.79867},{"is_transit":true,"station_id":"KPB","line":4,"transit":true,"i_long":106.826365,"time":9,"distance":4102,"i_lat":-6.132549,"station_name":"Kampung Bandan"},{"distance":1444,"transit":false,"time":3,"station_id":"RJW","is_transit":false,"i_lat":-6.14505,"i_long":106.836569,"line":11,"station_name":"Rajawali"},{"transit":false,"i_long":106.839204,"station_id":"KMO","is_transit":false,"distance":1901,"station_name":"Kemayoran","i_lat":-6.161728,"time":5,"line":11},{"i_long":106.84368,"transit":false,"station_name":"Pasar Senen","is_transit":false,"time":4,"station_id":"PSE","line":11,"distance":1436,"i_lat":-6.174784},{"distance":1567,"station_id":"GST","line":11,"i_lat":-6.185975,"is_transit":false,"station_name":"Gang Sentiong","i_long":106.850107,"transit":false,"time":8},{"is_transit":false,"distance":973,"line":11,"station_id":"KMT","transit":false,"station_name":"Kramat","i_lat":-6.193792,"time":1,"i_long":106.855437},{"line":11,"station_id":"POK","time":2,"distance":1829,"i_long":106.861737,"is_transit":false,"i_lat":-6.209188,"station_name":"Pondok Jati","transit":false},{"station_name":"Jatinegara","line":1,"distance":1236,"is_transit":true,"transit":true,"i_long":106.86807400000001,"station_id":"JNG","time":9,"i_lat":-6.215091},{"distance":3395,"is_transit":false,"time":3,"station_id":"KLD","transit":false,"line":1,"i_long":106.899548,"i_lat":-6.2135,"station_name":"Klender"}],[{"time":0,"station_id":"CLT","i_lat":-6.530544,"i_long":106.800016,"line":2,"station_name":"Cilebut","transit":false,"is_transit":false,"distance":0},{"line":2,"transit":false,"distance":4331,"station_name":"Bojonggede","is_transit":false,"station_id":"BJD","i_lat":-6.493243,"i_long":106.792719,"time":5},{"station_name":"Citayam","line":2,"station_id":"CTA","is_transit":false,"i_lat":-6.448811,"time":5,"transit":false,"i_long":106.800298,"distance":5197},{"line":2,"i_long":106.816926,"distance":5084,"i_lat":-6.405256,"station_name":"Depok","time":6,"transit":false,"is_transit":false,"station_id":"DP"},{"is_transit":false,"i_long":106.819451,"line":2,"time":3,"distance":1584,"station_name":"Depokbaru","transit":false,"i_lat":-6.391065,"station_id":"DPB"},{"time":4,"transit":false,"i_long":106.831114,"is_transit":false,"station_name":"Pondok Cina","i_lat":-6.369073,"station_id":"POC","distance":2727,"line":2},{"station_name":"Univ. Indonesia","station_id":"UI","transit":false,"line":2,"is_transit":false,"i_lat":-6.360749,"time":2,"distance":1109,"i_long":106.831474},{"transit":false,"distance":2264,"time":3,"is_transit":false,"i_long":106.834175,"i_lat":-6.339291,"line":2,"station_name":"Univ. Pancasila","station_id":"UP"},{"i_long":106.832616,"station_name":"Lenteng Agung","station_id":"LNA","i_lat":-6.330363,"line":2,"time":2,"distance":1029,"is_transit":false,"transit":false},{"distance":2671,"line":2,"station_id":"TNT","i_lat":-6.3080680000000005,"i_long":106.838896,"transit":false,"is_transit":false,"time":3,"station_name":"Tanjung Barat"},{"i_long":106.843999,"is_transit":false,"time":4,"distance":2820,"station_id":"PSM","station_name":"Pasar Minggu","line":2,"i_lat":-6.2842400000000005,"transit":false},{"is_transit":false,"transit":false,"station_name":"Pasar Minggu Baru","station_id":"PSMB","i_long":106.851577,"line":2,"time":2,"distance":2380,"i_lat":-6.263214},{"station_name":"Duren Kalibata","station_id":"DRN","transit":false,"i_lat":-6.255332,"is_transit":false,"i_long":106.85449,"time":2,"line":2,"distance":824},{"i_long":106.856607,"transit":false,"line":2,"station_name":"Cawang","is_transit":false,"time":3,"distance":1546,"station_id":"CW","i_lat":-6.242512},{"i_lat":-6.226659,"time":2,"transit":false,"is_transit":false,"distance":1230,"line":2,"station_name":"Tebet","i_long":106.857948,"station_id":"TEB"},{"i_long":106.84912,"time":4,"station_id":"MRI","station_name":"Manggarai","distance":2610,"transit":false,"is_transit":false,"i_lat":-6.209883,"line":2},{"transit":false,"i_long":106.840169,"station_id":"CKI","line":2,"station_name":"Cikini","distance":1590,"i_lat":-6.198556,"time":4,"is_transit":false},{"i_long":106.832183,"distance":1750,"transit":false,"line":2,"i_lat":-6.186295,"time":3,"station_name":"Gondangdia","station_id":"GDD","is_transit":false},{"i_long":106.828284,"station_id":"JUA","line":2,"transit":false,"distance":2015,"is_transit":false,"time":4,"station_name":"Juanda","i_lat":-6.166716},{"station_name":"Sawah Besar","i_long":106.827103,"station_id":"SW","time":2,"transit":false,"is_transit":false,"i_lat":-6.160725,"line":2,"distance":1149},{"station_id":"MGB","transit":false,"time":2,"i_lat":-6.149769,"i_long":106.82482,"station_name":"Manggabesar","distance":906,"line":2,"is_transit":false},{"is_transit":false,"station_name":"Jayakarta","time":2,"i_lat":-6.141205,"station_id":"JAY","distance":1080,"transit":false,"i_long":106.820901,"line":2},{"station_id":"JAKK","line":2,"time":4,"station_name":"Jakarta Kota","transit":true,"distance":1264,"i_lat":-6.137569,"is_transit":true,"i_long":106.812439},{"i_long":106.826365,"line":4,"i_lat":-6.132549,"station_id":"KPB","time":3,"transit":true,"is_transit":true,"station_name":"Kampung Bandan","distance":1364},{"time":3,"is_transit":false,"transit":false,"distance":1444,"station_name":"Rajawali","station_id":"RJW","i_lat":-6.14505,"i_long":106.836569,"line":11},{"station_id":"KMO","transit":false,"i_lat":-6.161728,"distance":1901,"station_name":"Kemayoran","is_transit":false,"time":5,"i_long":106.839204,"line":11},{"i_lat":-6.174784,"i_long":106.84368,"line":11,"is_transit":false,"distance":1436,"time":4,"station_name":"Pasar Senen","station_id":"PSE","transit":false},{"station_name":"Gang Sentiong","time":8,"station_id":"GST","transit":false,"distance":1567,"i_long":106.850107,"line":11,"is_transit":false,"i_lat":-6.185975},{"station_name":"Kramat","time":1,"transit":false,"is_transit":false,"station_id":"KMT","line":11,"i_long":106.855437,"distance":973,"i_lat":-6.193792},{"station_name":"Pondok Jati","station_id":"POK","i_long":106.861737,"distance":1829,"transit":false,"line":11,"is_transit":false,"i_lat":-6.209188,"time":2},{"transit":true,"line":1,"station_id":"JNG","station_name":"Jatinegara","time":9,"is_transit":true,"i_long":106.86807400000001,"distance":1236,"i_lat":-6.215091},{"station_id":"KLD","time":3,"transit":false,"is_transit":false,"distance":3395,"station_name":"Klender","i_lat":-6.2135,"line":1,"i_long":106.899548}]]}