{"data":[[{"transit":false,"station_name":"Cilebut","time":0,"distance":0,"i_lat":-6.530544,"i_long":106.800016,"is_transit":false,"station_id":"CLT","line":2},{"i_long":106.792719,"line":2,"transit":false,"i_lat":-6.493243,"is_transit":false,"station_name":"Bojonggede","distance":4331,"time":5,"station_id":"BJD"},{"i_lat":-6.448811,"is_transit":false,"distance":5197,"i_long":106.800298,"transit":false,"station_name":"Citayam","line":2,"station_id":"CTA","time":5},{"transit":false,"station_id":"DP","station_name":"Depok","i_lat":-6.405256,"distance":5084,"i_long":106.816926,"line":2,"is_transit":false,"time":6},{"is_transit":false,"distance":1584,"transit":false,"line":2,"i_long":106.819451,"station_name":"Depokbaru","station_id":"DPB","time":3,"i_lat":-6.391065},{"station_name":"Pondok Cina","is_transit":false,"line":2,"transit":false,"station_id":"POC","i_lat":-6.369073,"time":4,"distance":2727,"i_long":106.831114},{"line":2,"is_transit":false,"i_long":106.831474,"distance":1109,"transit":false,"station_id":"UI","station_name":"Univ. Indonesia","time":2,"i_lat":-6.360749},{"is_transit":false,"line":2,"transit":false,"station_id":"UP","station_name":"Univ. Pancasila","i_long":106.834175,"i_lat":-6.339291,"distance":2264,"time":3},{"line":2,"station_name":"Lenteng Agung","time":2,"transit":false,"i_lat":-6.330363,"i_long":106.832616,"station_id":"LNA","is_transit":false,"distance":1029},{"time":3,"station_id":"TNT","is_transit":false,"i_long":106.838896,"line":2,"distance":2671,"i_lat":-6.3080680000000005,"transit":false,"station_name":"Tanjung Barat"},{"station_id":"PSM","is_transit":false,"line":2,"i_long":106.843999,"i_lat":-6.2842400000000005,"station_name":"Pasar Minggu","time":4,"transit":false,"distance":2820},{"distance":2380,"time":2,"i_lat":-6.263214,"is_transit":false,"transit":false,"i_long":106.851577,"station_name":"Pasar Minggu Baru","station_id":"PSMB","line":2},{"is_transit":false,"distance":824,"station_name":"Duren Kalibata","transit":false,"station_id":"DRN","time":2,"i_lat":-6.255332,"i_long":106.85449,"line":2},{"i_long":106.856607,"transit":false,"station_id":"CW","time":3,"distance":1546,"station_name":"Cawang","line":2,"i_lat":-6.242512,"is_transit":false},{"line":2,"distance":1230,"transit":false,"time":2,"is_transit":false,"i_lat":-6.226659,"station_id":"TEB","station_name":"Tebet","i_long":106.857948},{"transit":true,"station_id":"MRI","time":4,"i_lat":-6.209883,"line":2,"station_name":"Manggarai","is_transit":true,"distance":2610,"i_long":106.84912},{"distance":1275,"station_name":"Matraman","time":2,"is_transit":false,"i_lat":-6.212485,"i_long":106.858896,"station_id":"MTR","transit":false,"line":1},{"i_lat":-6.215091,"i_long":106.86807400000001,"is_transit":false,"transit":false,"distance":1377,"time":8,"station_name":"Jatinegara","line":1,"station_id":"JNG"},{"time":3,"distance":3395,"station_name":"Klender","is_transit":false,"transit":false,"i_lat":-6.2135,"i_long":106.899548,"line":1,"station_id":"KLD"}],[{"i_long":106.800016,"station_id":"CLT","i_lat":-6.530544,"distance":0,"time":0,"is_transit":false,"line":2,"transit":false,"station_name":"Cilebut"},{"transit":false,"distance":4331,"i_long":106.792719,"time":5,"i_lat":-6.493243,"station_name":"Bojonggede","line":2,"is_transit":false,"station_id":"BJD"},{"transit":false,"distance":5197,"i_long":106.800298,"is_transit":false,"i_lat":-6.448811,"time":5,"line":2,"station_name":"Citayam","station_id":"CTA"},{"i_lat":-6.405256,"transit":false,"station_name":"Depok","time":6,"distance":5084,"i_long":106.816926,"station_id":"DP","line":2,"is_transit":false},{"distance":1584,"i_lat":-6.391065,"transit":false,"line":2,"i_long":106.819451,"station_id":"DPB","is_transit":false,"time":3,"station_name":"Depokbaru"},{"i_lat":-6.369073,"transit":false,"station_name":"Pondok Cina","station_id":"POC","time":4,"is_transit":false,"distance":2727,"i_long":106.831114,"line":2},{"line":2,"transit":false,"station_id":"UI","distance":1109,"is_transit":false,"station_name":"Univ. Indonesia","time":2,"i_lat":-6.360749,"i_long":106.831474},{"station_name":"Univ. Pancasila","i_lat":-6.339291,"i_long":106.834175,"station_id":"UP","is_transit":false,"distance":2264,"line":2,"transit":false,"time":3},{"line":2,"time":2,"station_name":"Lenteng Agung","is_transit":false,"i_long":106.832616,"transit":false,"i_lat":-6.330363,"station_id":"LNA","distance":1029},{"station_name":"Tanjung Barat","i_lat":-6.3080680000000005,"time":3,"distance":2671,"transit":false,"line":2,"i_long":106.838896,"is_transit":false,"station_id":"TNT"},{"station_name":"Pasar Minggu","distance":2820,"i_lat":-6.2842400000000005,"line":2,"is_transit":false,"i_long":106.843999,"time":4,"transit":false,"station_id":"PSM"},{"time":2,"station_name":"Pasar Minggu Baru","distance":2380,"i_lat":-6.263214,"i_long":106.851577,"line":2,"transit":false,"station_id":"PSMB","is_transit":false},{"i_lat":-6.255332,"distance":824,"transit":false,"station_id":"DRN","i_long":106.85449,"is_transit":false,"time":2,"line":2,"station_name":"Duren Kalibata"},{"i_long":106.856607,"transit":false,"station_name":"Cawang","station_id":"CW","i_lat":-6.242512,"line":2,"is_transit":false,"distance":1546,"time":3},{"station_name":"Tebet","is_transit":false,"line":2,"i_lat":-6.226659,"distance":1230,"i_long":106.857948,"time":2,"transit":false,"station_id":"TEB"},{"time":4,"transit":true,"distance":2610,"i_lat":-6.209883,"i_long":106.84912,"station_name":"Manggarai","line":2,"station_id":"MRI","is_transit":true},{"line":1,"transit":false,"station_id":"SUD","time":4,"station_name":"Sudirman","is_transit":false,"distance":3186,"i_lat":-6.202263,"i_long":106.822649},{"station_id":"SUDB","time":1,"i_lat":-6.201433,"station_name":"Sudirman Baru","transit":false,"distance":280,"is_transit":false,"i_long":106.819881,"line":1},{"transit":false,"is_transit":false,"time":1,"i_long":106.816351,"station_id":"KAT","line":1,"distance":471,"i_lat":-6.20132,"station_name":"Karet"},{"line":1,"station_id":"THB","i_lat":-6.185545,"station_name":"Tanah Abang","transit":false,"is_transit":false,"distance":2029,"i_long":106.811091,"time":5},{"line":1,"distance":3632,"transit":false,"is_transit":false,"time":8,"station_id":"DU","station_name":"Duri","i_lat":-6.155215,"i_long":106.800832},{"is_transit":false,"time":4,"i_long":106.79867,"transit":false,"i_lat":-6.144674,"distance":1230,"line":1,"station_id":"AK","station_name":"Angke"},{"is_transit":true,"i_long":106.826365,"station_name":"Kampung Bandan","line":4,"time":9,"i_lat":-6.132549,"station_id":"KPB","distance":4102,"transit":true},{"line":11,"i_long":106.836569,"station_name":"Rajawali","distance":1444,"is_transit":false,"i_lat":-6.14505,"time":3,"station_id":"RJW","transit":false},{"i_long":106.839204,"time":5,"station_id":"KMO","line":11,"distance":1901,"transit":false,"i_lat":-6.161728,"is_transit":false,"station_name":"Kemayoran"},{"line":11,"transit":false,"i_long":106.84368,"i_lat":-6.174784,"station_name":"Pasar Senen","time":4,"station_id":"PSE","distance":1436,"is_transit":false},{"time":8,"station_id":"GST","i_long":106.850107,"line":11,"station_name":"Gang Sentiong","is_transit":false,"i_lat":-6.185975,"transit":false,"distance":1567},{"distance":973,"i_long":106.855437,"i_lat":-6.193792,"line":11,"is_transit":false,"station_id":"KMT","transit":false,"time":1,"station_name":"Kramat"},{"time":2,"line":11,"is_transit":false,"station_id":"POK","transit":false,"station_name":"Pondok Jati","i_lat":-6.209188,"distance":1829,"i_long":106.861737},{"station_name":"Jatinegara","distance":1236,"line":1,"time":9,"is_transit":true,"i_long":106.86807400000001,"station_id":"JNG","i_lat":-6.215091,"transit":true},{"distance":3395,"i_long":106.899548,"station_name":"Klender","i_lat":-6.2135,"line":1,"transit":false,"station_id":"KLD","time":3,"is_transit":false}],[{"line":2,"time":0,"transit":false,"i_lat":-6.530544,"station_id":"CLT","station_name":"Cilebut","is_transit":false,"distance":0,"i_long":106.800016},{"i_lat":-6.493243,"i_long":106.792719,"line":2,"transit":false,"station_name":"Bojonggede","time":5,"station_id":"BJD","distance":4331,"is_transit":false},{"distance":5197,"is_transit":false,"time":5,"station_id":"CTA","i_lat":-6.448811,"i_long":106.800298,"line":2,"transit":false,"station_name":"Citayam"},{"distance":5084,"station_id":"DP","line":2,"station_name":"Depok","transit":false,"time":6,"i_lat":-6.405256,"i_long":106.816926,"is_transit":false},{"station_id":"DPB","is_transit":false,"i_long":106.819451,"i_lat":-6.391065,"station_name":"Depokbaru","time":3,"transit":false,"line":2,"distance":1584},{"i_lat":-6.369073,"line":2,"is_transit":false,"transit":false,"station_name":"Pondok Cina","station_id":"POC","i_long":106.831114,"time":4,"distance":2727},{"station_id":"UI","is_transit":false,"time":2,"station_name":"Univ. Indonesia","distance":1109,"i_lat":-6.360749,"i_long":106.831474,"line":2,"transit":false},{"station_id":"UP","is_transit":false,"i_long":106.834175,"line":2,"station_name":"Univ. Pancasila","time":3,"distance":2264,"transit":false,"i_lat":-6.339291},{"station_id":"LNA","i_lat":-6.330363,"station_name":"Lenteng Agung","is_transit":false,"time":2,"distance":1029,"transit":false,"line":2,"i_long":106.832616},{"distance":2671,"i_lat":-6.3080680000000005,"line":2,"station_id":"TNT","i_long":106.838896,"time":3,"transit":false,"station_name":"Tanjung Barat","is_transit":false},{"line":2,"transit":false,"station_id":"PSM","is_transit":false,"distance":2820,"i_lat":-6.2842400000000005,"time":4,"i_long":106.843999,"station_name":"Pasar Minggu"},{"i_long":106.851577,"time":2,"i_lat":-6.263214,"station_name":"Pasar Minggu Baru","is_transit":false,"station_id":"PSMB","transit":false,"distance":2380,"line":2},{"station_name":"Duren Kalibata","time":2,"i_long":106.85449,"distance":824,"station_id":"DRN","i_lat":-6.255332,"is_transit":false,"transit":false,"line":2},{"transit":false,"i_lat":-6.242512,"line":2,"station_id":"CW","time":3,"station_name":"Cawang","i_long":106.856607,"distance":1546,"is_transit":false},{"station_name":"Tebet","distance":1230,"transit":false,"i_long":106.857948,"time":2,"station_id":"TEB","i_lat":-6.226659,"line":2,"is_transit":false},{"is_transit":false,"transit":false,"station_name":"Manggarai","station_id":"MRI","line":2,"i_long":106.84912,"distance":2610,"time":4,"i_lat":-6.209883},{"transit":false,"station_name":"Cikini","distance":1590,"line":2,"i_lat":-6.198556,"is_transit":false,"station_id":"CKI","i_long":106.840169,"time":4},{"time":3,"i_lat":-6.186295,"transit":false,"i_long":106.832183,"line":2,"station_id":"GDD","distance":1750,"is_transit":false,"station_name":"Gondangdia"},{"is_transit":false,"i_lat":-6.166716,"i_long":106.828284,"transit":false,"station_name":"Juanda","station_id":"JUA","time":4,"line":2,"distance":2015},{"line":2,"time":2,"distance":1149,"station_id":"SW","is_transit":false,"i_lat":-6.160725,"i_long":106.827103,"transit":false,"station_name":"Sawah Besar"},{"i_lat":-6.149769,"distance":906,"transit":false,"station_id":"MGB","line":2,"is_transit":false,"station_name":"Manggabesar","i_long":106.82482,"time":2},{"station_name":"Jayakarta","time":2,"transit":false,"is_transit":false,"i_long":106.820901,"i_lat":-6.141205,"line":2,"distance":1080,"station_id":"JAY"},{"transit":true,"is_transit":true,"i_lat":-6.137569,"time":4,"line":2,"i_long":106.812439,"station_name":"Jakarta Kota","station_id":"JAKK","distance":1264},{"time":3,"line":4,"i_long":106.826365,"i_lat":-6.132549,"station_name":"Kampung Bandan","station_id":"KPB","distance":1364,"is_transit":true,"transit":true},{"transit":false,"distance":1444,"is_transit":false,"station_id":"RJW","station_name":"Rajawali","time":3,"i_lat":-6.14505,"i_long":106.836569,"line":11},{"station_name":"Kemayoran","is_transit":false,"time":5,"station_id":"KMO","i_lat":-6.161728,"i_long":106.839204,"transit":false,"line":11,"distance":1901},{"i_long":106.84368,"line":11,"station_id":"PSE","distance":1436,"time":4,"station_name":"Pasar Senen","is_transit":false,"i_lat":-6.174784,"transit":false},{"i_lat":-6.185975,"line":11,"station_name":"Gang Sentiong","distance":1567,"is_transit":false,"i_long":106.850107,"transit":false,"station_id":"GST","time":8},{"line":11,"transit":false,"station_name":"Kramat","i_lat":-6.193792,"station_id":"KMT","time":1,"is_transit":false,"distance":973,"i_long":106.855437},{"station_id":"POK","station_name":"Pondok Jati","i_lat":-6.209188,"i_long":106.861737,"transit":false,"time":2,"distance":1829,"is_transit":false,"line":11},{"transit":true,"station_id":"JNG","is_transit":true,"i_lat":-6.215091,"distance":1236,"i_long":106.86807400000001,"time":9,"station_name":"Jatinegara","line":1},{"is_transit":false,"time":3,"i_long":106.899548,"i_lat":-6.2135,"line":1,"station_id":"KLD","distance":3395,"transit":false,"station_name":"Klender"}]]}