{"data":[[{"i_lat":-6.530544,"station_id":"CLT","distance":0,"i_long":106.800016,"time":0,"is_transit":false,"line":0,"station_name":"Cilebut","transit":false},{"station_id":"BJD","distance":4331,"is_transit":false,"time":5,"transit":false,"station_name":"Bojonggede","i_long":106.792719,"line":0,"i_lat":-6.493243},{"distance":5197,"station_id":"CTA","is_transit":true,"time":5,"i_long":106.800298,"station_name":"Citayam","transit":false,"i_lat":-6.448811,"line":1},{"station_name":"Depok","transit":false,"distance":5084,"i_lat":-6.405256,"is_transit":false,"i_long":106.816926,"time":6,"line":0,"station_id":"DP"},{"station_id":"DPB","station_name":"Depokbaru","transit":false,"time":3,"is_transit":false,"i_long":106.819451,"line":0,"i_lat":-6.391065,"distance":1584},{"transit":false,"distance":2727,"i_lat":-6.369073,"time":4,"line":2,"i_long":106.831114,"station_id":"POC","is_transit":false,"station_name":"Pondok Cina"},{"line":2,"is_transit":false,"time":2,"i_lat":-6.360749,"i_long":106.831474,"distance":1109,"station_id":"UI","station_name":"Univ. Indonesia","transit":false},{"time":3,"line":2,"i_lat":-6.339291,"station_id":"UP","is_transit":false,"transit":false,"distance":2264,"i_long":106.834175,"station_name":"Univ. Pancasila"},{"is_transit":false,"distance":1029,"line":2,"i_lat":-6.330363,"time":2,"station_name":"Lenteng Agung","station_id":"LNA","transit":false,"i_long":106.832616},{"transit":false,"line":2,"time":3,"i_long":106.838896,"is_transit":false,"distance":2671,"i_lat":-6.3080680000000005,"station_name":"Tanjung Barat","station_id":"TNT"},{"i_lat":-6.2842400000000005,"i_long":106.843999,"is_transit":false,"time":4,"station_name":"Pasar Minggu","transit":false,"station_id":"PSM","line":2,"distance":2820},{"station_name":"Pasar Minggu Baru","is_transit":false,"i_lat":-6.263214,"line":2,"time":2,"i_long":106.851577,"transit":false,"distance":2380,"station_id":"PSMB"},{"time":2,"i_long":106.85449,"station_name":"Duren Kalibata","is_transit":false,"line":0,"transit":false,"distance":824,"i_lat":-6.255332,"station_id":"DRN"},{"distance":1546,"transit":false,"line":0,"is_transit":false,"i_lat":-6.242512,"i_long":106.856607,"station_id":"CW","time":3,"station_name":"Cawang"},{"distance":1230,"i_lat":-6.226659,"line":2,"station_name":"Tebet","station_id":"TEB","is_transit":false,"time":2,"transit":false,"i_long":106.857948},{"transit":true,"station_id":"MRI","is_transit":true,"i_lat":-6.209883,"distance":2610,"line":0,"i_long":106.84912,"station_name":"Manggarai","time":4},{"station_id":"MTR","i_long":106.858896,"is_transit":false,"line":1,"station_name":"Matraman","transit":false,"i_lat":-6.212485,"distance":1275,"time":2},{"is_transit":true,"station_id":"JNG","i_lat":-6.215091,"time":8,"distance":1377,"station_name":"Jatinegara","transit":false,"i_long":106.86807400000001,"line":0},{"distance":3395,"i_lat":-6.2135,"time":3,"is_transit":false,"station_name":"Klender","station_id":"KLD","line":1,"i_long":106.899548,"transit":false},{"time":2,"line":0,"i_long":106.922662,"station_id":"BUA","station_name":"Buaran","i_lat":-6.215568,"is_transit":false,"distance":3100,"transit":false},{"i_long":106.939679,"line":1,"distance":1305,"time":1,"is_transit":false,"station_id":"KLDB","i_lat":-6.217455,"station_name":"Klenderbaru","transit":false},{"station_id":"CUK","i_lat":-6.219053,"is_transit":false,"station_name":"Cakung","time":8,"i_long":106.951283,"line":0,"distance":1385,"transit":false},{"time":3,"distance":3097,"is_transit":false,"transit":false,"i_lat":-6.224515,"station_id":"KRI","station_name":"Kranji","i_long":106.977657,"line":1}],[{"station_id":"CLT","transit":false,"is_transit":false,"i_long":106.800016,"time":0,"i_lat":-6.530544,"line":0,"station_name":"Cilebut","distance":0},{"station_name":"Bojonggede","transit":false,"i_lat":-6.493243,"i_long":106.792719,"line":0,"is_transit":false,"distance":4331,"station_id":"BJD","time":5},{"distance":5197,"transit":false,"line":1,"i_long":106.800298,"time":5,"station_name":"Citayam","i_lat":-6.448811,"is_transit":true,"station_id":"CTA"},{"station_name":"Depok","distance":5084,"time":6,"line":0,"is_transit":false,"station_id":"DP","transit":false,"i_lat":-6.405256,"i_long":106.816926},{"line":0,"i_long":106.819451,"transit":false,"i_lat":-6.391065,"time":3,"station_id":"DPB","distance":1584,"is_transit":false,"station_name":"Depokbaru"},{"line":2,"is_transit":false,"distance":2727,"time":4,"transit":false,"station_name":"Pondok Cina","i_lat":-6.369073,"i_long":106.831114,"station_id":"POC"},{"is_transit":false,"i_lat":-6.360749,"station_id":"UI","time":2,"distance":1109,"station_name":"Univ. Indonesia","transit":false,"i_long":106.831474,"line":2},{"station_id":"UP","i_long":106.834175,"is_transit":false,"distance":2264,"time":3,"station_name":"Univ. Pancasila","i_lat":-6.339291,"transit":false,"line":2},{"distance":1029,"station_id":"LNA","is_transit":false,"transit":false,"time":2,"i_lat":-6.330363,"station_name":"Lenteng Agung","line":2,"i_long":106.832616},{"station_name":"Tanjung Barat","is_transit":false,"transit":false,"time":3,"distance":2671,"i_lat":-6.3080680000000005,"line":2,"station_id":"TNT","i_long":106.838896},{"transit":false,"i_lat":-6.2842400000000005,"station_name":"Pasar Minggu","station_id":"PSM","time":4,"i_long":106.843999,"distance":2820,"is_transit":false,"line":2},{"station_name":"Pasar Minggu Baru","i_lat":-6.263214,"i_long":106.851577,"line":2,"transit":false,"station_id":"PSMB","time":2,"is_transit":false,"distance":2380},{"station_name":"Duren Kalibata","is_transit":false,"station_id":"DRN","time":2,"transit":false,"distance":824,"i_lat":-6.255332,"i_long":106.85449,"line":0},{"station_name":"Cawang","time":3,"transit":false,"i_long":106.856607,"line":0,"is_transit":false,"i_lat":-6.242512,"station_id":"CW","distance":1546},{"distance":1230,"station_id":"TEB","time":2,"i_long":106.857948,"is_transit":false,"line":2,"transit":false,"i_lat":-6.226659,"station_name":"Tebet"},{"i_long":106.84912,"station_id":"MRI","time":4,"distance":2610,"transit":true,"is_transit":true,"station_name":"Manggarai","i_lat":-6.209883,"line":0},{"transit":false,"distance":3186,"i_lat":-6.202263,"line":1,"i_long":106.822649,"station_id":"SUD","station_name":"Sudirman","is_transit":false,"time":4},{"station_name":"Sudirman Baru","station_id":"SUDB","i_lat":-6.201433,"distance":280,"is_transit":false,"time":1,"transit":false,"i_long":106.819881,"line":1},{"station_name":"Karet","distance":471,"time":1,"station_id":"KAT","transit":false,"line":1,"is_transit":false,"i_lat":-6.20132,"i_long":106.816351},{"i_lat":-6.185545,"line":1,"station_name":"Tanah Abang","time":5,"transit":false,"i_long":106.811091,"distance":2029,"station_id":"THB","is_transit":true},{"transit":true,"i_lat":-6.155215,"i_long":106.800832,"time":8,"distance":3632,"line":1,"station_id":"DU","is_transit":true,"station_name":"Duri"},{"line":0,"is_transit":false,"distance":1230,"station_name":"Angke","time":4,"transit":false,"i_long":106.79867,"i_lat":-6.144674,"station_id":"AK"},{"i_long":106.826365,"line":0,"station_id":"KPB","is_transit":true,"i_lat":-6.132549,"time":9,"distance":4102,"transit":true,"station_name":"Kampung Bandan"},{"station_name":"Rajawali","line":11,"i_lat":-6.14505,"i_long":106.836569,"station_id":"RJW","distance":1444,"time":3,"transit":false,"is_transit":false},{"is_transit":false,"line":11,"time":5,"station_id":"KMO","distance":1901,"station_name":"Kemayoran","transit":false,"i_long":106.839204,"i_lat":-6.161728},{"time":4,"is_transit":false,"station_name":"Pasar Senen","transit":false,"i_lat":-6.174784,"line":11,"station_id":"PSE","distance":1436,"i_long":106.84368},{"distance":1567,"station_id":"GST","transit":false,"is_transit":false,"i_lat":-6.185975,"i_long":106.850107,"line":11,"time":8,"station_name":"Gang Sentiong"},{"is_transit":false,"distance":973,"time":1,"i_long":106.855437,"station_id":"KMT","transit":false,"i_lat":-6.193792,"line":11,"station_name":"Kramat"},{"line":11,"distance":1829,"is_transit":false,"i_long":106.861737,"transit":false,"station_id":"POK","time":2,"station_name":"Pondok Jati","i_lat":-6.209188},{"distance":1236,"station_id":"JNG","station_name":"Jatinegara","i_long":106.86807400000001,"is_transit":true,"time":9,"line":0,"transit":true,"i_lat":-6.215091},{"station_id":"KLD","time":3,"station_name":"Klender","i_lat":-6.2135,"is_transit":false,"transit":false,"i_long":106.899548,"distance":3395,"line":1},{"station_name":"Buaran","station_id":"BUA","i_lat":-6.215568,"distance":3100,"is_transit":false,"i_long":106.922662,"transit":false,"line":0,"time":2},{"time":1,"is_transit":false,"station_id":"KLDB","station_name":"Klenderbaru","transit":false,"distance":1305,"i_long":106.939679,"line":1,"i_lat":-6.217455},{"transit":false,"time":8,"station_name":"Cakung","station_id":"CUK","i_lat":-6.219053,"i_long":106.951283,"line":0,"distance":1385,"is_transit":false},{"transit":false,"is_transit":false,"time":3,"i_lat":-6.224515,"i_long":106.977657,"station_id":"KRI","distance":3097,"station_name":"Kranji","line":1}],[{"time":0,"i_lat":-6.530544,"distance":0,"station_name":"Cilebut","i_long":106.800016,"is_transit":false,"transit":false,"station_id":"CLT","line":0},{"station_name":"Bojonggede","is_transit":false,"transit":false,"line":0,"i_lat":-6.493243,"station_id":"BJD","time":5,"distance":4331,"i_long":106.792719},{"distance":5197,"station_name":"Citayam","i_lat":-6.448811,"line":1,"is_transit":true,"station_id":"CTA","transit":false,"i_long":106.800298,"time":5},{"is_transit":false,"transit":false,"i_long":106.816926,"i_lat":-6.405256,"distance":5084,"time":6,"line":0,"station_id":"DP","station_name":"Depok"},{"i_lat":-6.391065,"i_long":106.819451,"line":0,"station_name":"Depokbaru","transit":false,"station_id":"DPB","is_transit":false,"distance":1584,"time":3},{"i_long":106.831114,"distance":2727,"station_id":"POC","station_name":"Pondok Cina","time":4,"is_transit":false,"line":2,"transit":false,"i_lat":-6.369073},{"time":2,"transit":false,"i_long":106.831474,"line":2,"i_lat":-6.360749,"is_transit":false,"distance":1109,"station_name":"Univ. Indonesia","station_id":"UI"},{"station_id":"UP","is_transit":false,"time":3,"distance":2264,"station_name":"Univ. Pancasila","transit":false,"line":2,"i_long":106.834175,"i_lat":-6.339291},{"time":2,"is_transit":false,"station_id":"LNA","i_lat":-6.330363,"i_long":106.832616,"transit":false,"station_name":"Lenteng Agung","line":2,"distance":1029},{"is_transit":false,"distance":2671,"transit":false,"station_id":"TNT","time":3,"station_name":"Tanjung Barat","i_lat":-6.3080680000000005,"i_long":106.838896,"line":2},{"transit":false,"station_id":"PSM","is_transit":false,"station_name":"Pasar Minggu","distance":2820,"i_lat":-6.2842400000000005,"line":2,"i_long":106.843999,"time":4},{"station_name":"Pasar Minggu Baru","transit":false,"time":2,"i_long":106.851577,"line":2,"distance":2380,"station_id":"PSMB","i_lat":-6.263214,"is_transit":false},{"i_long":106.85449,"time":2,"transit":false,"is_transit":false,"distance":824,"station_name":"Duren Kalibata","line":0,"i_lat":-6.255332,"station_id":"DRN"},{"time":3,"is_transit":false,"i_lat":-6.242512,"transit":false,"line":0,"station_name":"Cawang","i_long":106.856607,"station_id":"CW","distance":1546},{"is_transit":false,"time":2,"i_lat":-6.226659,"line":2,"i_long":106.857948,"transit":false,"distance":1230,"station_id":"TEB","station_name":"Tebet"},{"i_lat":-6.209883,"station_id":"MRI","transit":true,"distance":2610,"is_transit":true,"line":0,"station_name":"Manggarai","time":4,"i_long":106.84912},{"i_lat":-6.198556,"time":4,"station_name":"Cikini","station_id":"CKI","is_transit":false,"line":0,"transit":false,"distance":1590,"i_long":106.840169},{"station_name":"Gondangdia","i_lat":-6.186295,"i_long":106.832183,"station_id":"GDD","line":2,"transit":false,"time":3,"is_transit":false,"distance":1750},{"transit":false,"i_lat":-6.166716,"i_long":106.828284,"distance":2015,"line":2,"time":4,"station_id":"JUA","is_transit":false,"station_name":"Juanda"},{"distance":1149,"is_transit":false,"time":2,"line":2,"station_id":"SW","station_name":"Sawah Besar","i_long":106.827103,"transit":false,"i_lat":-6.160725},{"transit":false,"time":2,"station_name":"Manggabesar","line":2,"station_id":"MGB","is_transit":false,"i_lat":-6.149769,"distance":906,"i_long":106.82482},{"line":7,"i_lat":-6.141205,"station_name":"Jayakarta","transit":false,"distance":1080,"is_transit":false,"time":2,"i_long":106.820901,"station_id":"JAY"},{"is_transit":true,"line":0,"i_long":106.812439,"time":4,"station_id":"JAKK","distance":1264,"station_name":"Jakarta Kota","transit":true,"i_lat":-6.137569},{"i_lat":-6.132549,"station_name":"Kampung Bandan","i_long":106.826365,"line":0,"distance":1364,"station_id":"KPB","is_transit":true,"time":3,"transit":true},{"i_lat":-6.14505,"transit":false,"is_transit":false,"i_long":106.836569,"station_id":"RJW","distance":1444,"time":3,"station_name":"Rajawali","line":11},{"line":11,"transit":false,"station_id":"KMO","is_transit":false,"time":5,"distance":1901,"station_name":"Kemayoran","i_long":106.839204,"i_lat":-6.161728},{"i_long":106.84368,"line":11,"is_transit":false,"station_name":"Pasar Senen","distance":1436,"station_id":"PSE","time":4,"transit":false,"i_lat":-6.174784},{"is_transit":false,"i_lat":-6.185975,"transit":false,"distance":1567,"station_name":"Gang Sentiong","time":8,"station_id":"GST","i_long":106.850107,"line":11},{"station_name":"Kramat","i_long":106.855437,"station_id":"KMT","transit":false,"line":11,"time":1,"i_lat":-6.193792,"distance":973,"is_transit":false},{"line":11,"time":2,"transit":false,"i_lat":-6.209188,"distance":1829,"station_id":"POK","station_name":"Pondok Jati","i_long":106.861737,"is_transit":false},{"i_lat":-6.215091,"line":0,"time":9,"station_id":"JNG","is_transit":true,"distance":1236,"i_long":106.86807400000001,"station_name":"Jatinegara","transit":true},{"station_name":"Klender","station_id":"KLD","line":1,"i_lat":-6.2135,"distance":3395,"is_transit":false,"time":3,"transit":false,"i_long":106.899548},{"station_id":"BUA","station_name":"Buaran","i_long":106.922662,"is_transit":false,"distance":3100,"transit":false,"line":0,"time":2,"i_lat":-6.215568},{"i_long":106.939679,"line":1,"transit":false,"time":1,"distance":1305,"station_id":"KLDB","station_name":"Klenderbaru","is_transit":false,"i_lat":-6.217455},{"is_transit":false,"time":8,"i_lat":-6.219053,"i_long":106.951283,"line":0,"distance":1385,"transit":false,"station_id":"CUK","station_name":"Cakung"},{"time":3,"is_transit":false,"distance":3097,"transit":false,"i_lat":-6.224515,"line":1,"station_id":"KRI","station_name":"Kranji","i_long":106.977657}]]}