{"data":[[{"is_transit":false,"transit":false,"i_lat":-6.530544,"time":0,"station_name":"Cilebut","i_long":106.800016,"line":2,"distance":0,"station_id":"CLT"},{"station_name":"Bojonggede","station_id":"BJD","is_transit":false,"line":2,"time":5,"distance":4331,"i_lat":-6.493243,"transit":false,"i_long":106.792719},{"station_id":"CTA","station_name":"Citayam","is_transit":false,"transit":false,"time":5,"i_lat":-6.448811,"i_long":106.800298,"distance":5197,"line":2},{"station_name":"Depok","is_transit":false,"time":6,"transit":false,"i_lat":-6.405256,"distance":5084,"station_id":"DP","i_long":106.816926,"line":2},{"distance":1584,"line":2,"i_long":106.819451,"time":3,"i_lat":-6.391065,"transit":false,"is_transit":false,"station_id":"DPB","station_name":"Depokbaru"},{"is_transit":false,"time":4,"i_long":106.831114,"station_id":"POC","station_name":"Pondok Cina","transit":false,"i_lat":-6.369073,"distance":2727,"line":2},{"is_transit":false,"distance":1109,"station_id":"UI","station_name":"Univ. Indonesia","i_lat":-6.360749,"transit":false,"time":2,"i_long":106.831474,"line":2},{"is_transit":false,"time":3,"distance":2264,"transit":false,"station_id":"UP","i_lat":-6.339291,"line":2,"station_name":"Univ. Pancasila","i_long":106.834175},{"distance":1029,"station_id":"LNA","i_long":106.832616,"is_transit":false,"time":2,"station_name":"Lenteng Agung","transit":false,"i_lat":-6.330363,"line":2},{"time":3,"distance":2671,"transit":false,"i_lat":-6.3080680000000005,"station_name":"Tanjung Barat","is_transit":false,"line":2,"i_long":106.838896,"station_id":"TNT"},{"time":4,"is_transit":false,"station_id":"PSM","transit":false,"i_lat":-6.2842400000000005,"line":2,"station_name":"Pasar Minggu","distance":2820,"i_long":106.843999},{"distance":2380,"line":2,"i_long":106.851577,"station_id":"PSMB","station_name":"Pasar Minggu Baru","time":2,"is_transit":false,"i_lat":-6.263214,"transit":false},{"i_lat":-6.255332,"station_id":"DRN","line":2,"time":2,"transit":false,"distance":824,"i_long":106.85449,"is_transit":false,"station_name":"Duren Kalibata"},{"distance":1546,"station_name":"Cawang","i_lat":-6.242512,"time":3,"line":2,"station_id":"CW","i_long":106.856607,"is_transit":false,"transit":false},{"transit":false,"is_transit":false,"distance":1230,"time":2,"line":2,"station_name":"Tebet","i_long":106.857948,"i_lat":-6.226659,"station_id":"TEB"},{"distance":2610,"station_id":"MRI","is_transit":true,"time":4,"i_lat":-6.209883,"station_name":"Manggarai","i_long":106.84912,"line":2,"transit":true},{"i_long":106.858896,"transit":false,"i_lat":-6.212485,"time":2,"line":1,"distance":1275,"station_name":"Matraman","is_transit":false,"station_id":"MTR"},{"transit":true,"distance":1377,"i_long":106.86807400000001,"is_transit":true,"i_lat":-6.215091,"station_name":"Jatinegara","station_id":"JNG","line":1,"time":8},{"time":2,"station_id":"POK","is_transit":false,"line":11,"i_lat":-6.209188,"transit":false,"station_name":"Pondok Jati","i_long":106.861737,"distance":1236},{"distance":1829,"i_lat":-6.193792,"is_transit":false,"transit":false,"time":2,"station_id":"KMT","i_long":106.855437,"station_name":"Kramat","line":11},{"line":11,"i_lat":-6.185975,"is_transit":false,"time":1,"distance":973,"station_id":"GST","station_name":"Gang Sentiong","transit":false,"i_long":106.850107},{"is_transit":false,"i_lat":-6.174784,"station_id":"PSE","distance":1567,"transit":false,"line":11,"station_name":"Pasar Senen","time":8,"i_long":106.84368},{"is_transit":false,"transit":false,"station_id":"KMO","distance":1436,"i_lat":-6.161728,"time":4,"line":11,"station_name":"Kemayoran","i_long":106.839204},{"i_long":106.836569,"line":11,"i_lat":-6.14505,"distance":1901,"station_id":"RJW","transit":false,"time":5,"station_name":"Rajawali","is_transit":false}],[{"time":0,"station_name":"Cilebut","distance":0,"transit":false,"station_id":"CLT","i_long":106.800016,"is_transit":false,"i_lat":-6.530544,"line":2},{"transit":false,"line":2,"time":5,"i_long":106.792719,"station_id":"BJD","i_lat":-6.493243,"station_name":"Bojonggede","is_transit":false,"distance":4331},{"distance":5197,"line":2,"station_id":"CTA","transit":false,"i_long":106.800298,"is_transit":false,"station_name":"Citayam","i_lat":-6.448811,"time":5},{"transit":false,"line":2,"i_long":106.816926,"distance":5084,"is_transit":false,"time":6,"station_id":"DP","station_name":"Depok","i_lat":-6.405256},{"is_transit":false,"line":2,"station_id":"DPB","i_long":106.819451,"station_name":"Depokbaru","time":3,"distance":1584,"i_lat":-6.391065,"transit":false},{"station_name":"Pondok Cina","i_long":106.831114,"station_id":"POC","line":2,"is_transit":false,"distance":2727,"time":4,"transit":false,"i_lat":-6.369073},{"transit":false,"is_transit":false,"time":2,"station_id":"UI","i_long":106.831474,"station_name":"Univ. Indonesia","distance":1109,"line":2,"i_lat":-6.360749},{"station_name":"Univ. Pancasila","time":3,"distance":2264,"i_long":106.834175,"station_id":"UP","transit":false,"line":2,"i_lat":-6.339291,"is_transit":false},{"station_name":"Lenteng Agung","is_transit":false,"i_long":106.832616,"line":2,"i_lat":-6.330363,"time":2,"station_id":"LNA","distance":1029,"transit":false},{"transit":false,"line":2,"is_transit":false,"time":3,"i_long":106.838896,"station_name":"Tanjung Barat","distance":2671,"i_lat":-6.3080680000000005,"station_id":"TNT"},{"transit":false,"is_transit":false,"i_long":106.843999,"i_lat":-6.2842400000000005,"station_id":"PSM","station_name":"Pasar Minggu","line":2,"distance":2820,"time":4},{"i_long":106.851577,"distance":2380,"is_transit":false,"station_name":"Pasar Minggu Baru","i_lat":-6.263214,"line":2,"station_id":"PSMB","transit":false,"time":2},{"time":2,"is_transit":false,"distance":824,"i_lat":-6.255332,"station_id":"DRN","i_long":106.85449,"line":2,"station_name":"Duren Kalibata","transit":false},{"transit":false,"station_name":"Cawang","i_long":106.856607,"time":3,"distance":1546,"station_id":"CW","line":2,"i_lat":-6.242512,"is_transit":false},{"distance":1230,"is_transit":false,"station_name":"Tebet","station_id":"TEB","line":2,"transit":false,"time":2,"i_lat":-6.226659,"i_long":106.857948},{"time":4,"is_transit":true,"i_lat":-6.209883,"line":2,"station_name":"Manggarai","distance":2610,"transit":true,"i_long":106.84912,"station_id":"MRI"},{"station_id":"SUD","station_name":"Sudirman","distance":3186,"time":4,"is_transit":false,"i_long":106.822649,"line":1,"transit":false,"i_lat":-6.202263},{"is_transit":false,"line":1,"time":1,"transit":false,"station_id":"SUDB","distance":280,"i_long":106.819881,"station_name":"Sudirman Baru","i_lat":-6.201433},{"line":1,"time":1,"transit":false,"distance":471,"i_lat":-6.20132,"i_long":106.816351,"station_id":"KAT","station_name":"Karet","is_transit":false},{"transit":false,"station_id":"THB","station_name":"Tanah Abang","i_long":106.811091,"is_transit":false,"line":1,"distance":2029,"i_lat":-6.185545,"time":5},{"distance":3632,"transit":false,"station_id":"DU","i_long":106.800832,"i_lat":-6.155215,"station_name":"Duri","is_transit":false,"time":8,"line":1},{"station_name":"Angke","distance":1230,"line":1,"station_id":"AK","is_transit":false,"transit":false,"i_long":106.79867,"i_lat":-6.144674,"time":4},{"i_lat":-6.132549,"station_id":"KPB","line":4,"transit":true,"time":9,"i_long":106.826365,"station_name":"Kampung Bandan","distance":4102,"is_transit":true},{"is_transit":false,"distance":1444,"i_lat":-6.14505,"station_name":"Rajawali","time":3,"i_long":106.836569,"transit":false,"line":11,"station_id":"RJW"}],[{"i_long":106.800016,"transit":false,"time":0,"i_lat":-6.530544,"station_id":"CLT","is_transit":false,"station_name":"Cilebut","distance":0,"line":2},{"transit":false,"i_lat":-6.493243,"i_long":106.792719,"time":5,"line":2,"station_id":"BJD","is_transit":false,"distance":4331,"station_name":"Bojonggede"},{"distance":5197,"i_long":106.800298,"station_id":"CTA","station_name":"Citayam","i_lat":-6.448811,"line":2,"is_transit":false,"transit":false,"time":5},{"i_long":106.816926,"station_id":"DP","time":6,"station_name":"Depok","is_transit":false,"line":2,"transit":false,"distance":5084,"i_lat":-6.405256},{"station_name":"Depokbaru","station_id":"DPB","transit":false,"distance":1584,"i_lat":-6.391065,"i_long":106.819451,"time":3,"is_transit":false,"line":2},{"is_transit":false,"time":4,"i_lat":-6.369073,"distance":2727,"i_long":106.831114,"station_id":"POC","station_name":"Pondok Cina","line":2,"transit":false},{"distance":1109,"i_long":106.831474,"time":2,"line":2,"i_lat":-6.360749,"station_id":"UI","is_transit":false,"station_name":"Univ. Indonesia","transit":false},{"i_long":106.834175,"i_lat":-6.339291,"is_transit":false,"line":2,"station_name":"Univ. Pancasila","distance":2264,"transit":false,"time":3,"station_id":"UP"},{"i_lat":-6.330363,"time":2,"i_long":106.832616,"station_id":"LNA","distance":1029,"transit":false,"line":2,"is_transit":false,"station_name":"Lenteng Agung"},{"line":2,"time":3,"is_transit":false,"transit":false,"i_lat":-6.3080680000000005,"station_name":"Tanjung Barat","i_long":106.838896,"station_id":"TNT","distance":2671},{"station_name":"Pasar Minggu","time":4,"transit":false,"i_lat":-6.2842400000000005,"station_id":"PSM","line":2,"is_transit":false,"distance":2820,"i_long":106.843999},{"transit":false,"i_long":106.851577,"time":2,"station_name":"Pasar Minggu Baru","is_transit":false,"distance":2380,"station_id":"PSMB","i_lat":-6.263214,"line":2},{"station_id":"DRN","is_transit":false,"transit":false,"i_lat":-6.255332,"station_name":"Duren Kalibata","i_long":106.85449,"line":2,"distance":824,"time":2},{"time":3,"transit":false,"distance":1546,"station_name":"Cawang","is_transit":false,"station_id":"CW","i_lat":-6.242512,"i_long":106.856607,"line":2},{"station_id":"TEB","distance":1230,"time":2,"i_long":106.857948,"i_lat":-6.226659,"line":2,"station_name":"Tebet","is_transit":false,"transit":false},{"distance":2610,"station_id":"MRI","station_name":"Manggarai","is_transit":false,"i_long":106.84912,"line":2,"i_lat":-6.209883,"time":4,"transit":false},{"time":4,"distance":1590,"line":2,"station_id":"CKI","station_name":"Cikini","i_long":106.840169,"i_lat":-6.198556,"is_transit":false,"transit":false},{"is_transit":false,"distance":1750,"time":3,"i_long":106.832183,"station_name":"Gondangdia","station_id":"GDD","line":2,"transit":false,"i_lat":-6.186295},{"distance":2015,"transit":false,"time":4,"i_long":106.828284,"station_id":"JUA","is_transit":false,"i_lat":-6.166716,"line":2,"station_name":"Juanda"},{"i_long":106.827103,"line":2,"station_id":"SW","station_name":"Sawah Besar","time":2,"transit":false,"distance":1149,"is_transit":false,"i_lat":-6.160725},{"i_long":106.82482,"line":2,"station_id":"MGB","station_name":"Manggabesar","is_transit":false,"i_lat":-6.149769,"distance":906,"time":2,"transit":false},{"i_lat":-6.141205,"station_id":"JAY","time":2,"station_name":"Jayakarta","is_transit":false,"transit":false,"i_long":106.820901,"distance":1080,"line":2},{"distance":1264,"time":4,"i_long":106.812439,"line":2,"transit":true,"station_id":"JAKK","is_transit":true,"i_lat":-6.137569,"station_name":"Jakarta Kota"},{"time":3,"i_long":106.826365,"line":4,"is_transit":true,"station_id":"KPB","station_name":"Kampung Bandan","distance":1364,"transit":true,"i_lat":-6.132549},{"line":11,"station_id":"RJW","is_transit":false,"i_lat":-6.14505,"station_name":"Rajawali","time":3,"i_long":106.836569,"transit":false,"distance":1444}]]}