{"data":[[{"distance":0,"time":0,"transit":false,"station_name":"Cilebut","i_lat":-6.530544,"i_long":106.800016,"station_id":"CLT","line":0,"is_transit":false},{"time":5,"transit":false,"is_transit":false,"station_id":"BJD","i_lat":-6.493243,"i_long":106.792719,"line":0,"station_name":"Bojonggede","distance":4331},{"station_name":"Citayam","transit":false,"i_long":106.800298,"time":5,"station_id":"CTA","is_transit":true,"line":1,"i_lat":-6.448811,"distance":5197},{"i_lat":-6.405256,"station_name":"Depok","station_id":"DP","line":0,"i_long":106.816926,"time":6,"distance":5084,"is_transit":false,"transit":false},{"is_transit":false,"time":3,"distance":1584,"station_id":"DPB","i_lat":-6.391065,"i_long":106.819451,"station_name":"Depokbaru","line":0,"transit":false},{"distance":2727,"i_lat":-6.369073,"station_name":"Pondok Cina","time":4,"i_long":106.831114,"transit":false,"line":2,"is_transit":false,"station_id":"POC"},{"line":2,"i_long":106.831474,"transit":false,"is_transit":false,"time":2,"station_name":"Univ. Indonesia","i_lat":-6.360749,"distance":1109,"station_id":"UI"},{"i_long":106.834175,"transit":false,"i_lat":-6.339291,"line":2,"time":3,"station_name":"Univ. Pancasila","is_transit":false,"distance":2264,"station_id":"UP"},{"station_name":"Lenteng Agung","station_id":"LNA","i_long":106.832616,"i_lat":-6.330363,"time":2,"line":2,"transit":false,"distance":1029,"is_transit":false},{"is_transit":false,"station_name":"Tanjung Barat","station_id":"TNT","i_long":106.838896,"line":2,"transit":false,"distance":2671,"i_lat":-6.3080680000000005,"time":3},{"transit":false,"i_lat":-6.2842400000000005,"i_long":106.843999,"is_transit":false,"distance":2820,"line":2,"time":4,"station_name":"Pasar Minggu","station_id":"PSM"},{"is_transit":false,"i_long":106.851577,"transit":false,"time":2,"station_name":"Pasar Minggu Baru","station_id":"PSMB","i_lat":-6.263214,"distance":2380,"line":2},{"time":2,"transit":false,"is_transit":false,"line":0,"i_long":106.85449,"distance":824,"station_id":"DRN","i_lat":-6.255332,"station_name":"Duren Kalibata"}]]}