{"data":[[{"is_transit":false,"time":0,"transit":false,"station_name":"Cilebut","i_lat":-6.530544,"i_long":106.800016,"distance":0,"station_id":"CLT","line":2},{"station_name":"Bojonggede","is_transit":false,"i_lat":-6.493243,"i_long":106.792719,"line":2,"station_id":"BJD","transit":false,"time":5,"distance":4331},{"time":5,"station_name":"Citayam","line":2,"i_lat":-6.448811,"i_long":106.800298,"distance":5197,"transit":true,"station_id":"CTA","is_transit":true},{"is_transit":false,"i_long":106.824374,"transit":false,"time":0,"station_id":"PDRG","line":21,"distance":0,"station_name":"Pondok Rajeg","i_lat":-6.460735},{"time":0,"station_name":"Cibinong","station_id":"CBN","distance":0,"i_long":106.851978,"i_lat":-6.46424,"transit":false,"is_transit":false,"line":21}]]}