{"data":[[{"station_name":"Cilebut","transit":false,"line":2,"time":0,"distance":0,"is_transit":false,"station_id":"CLT","i_lat":-6.530544,"i_long":106.800016},{"is_transit":false,"station_name":"Bojonggede","time":5,"line":2,"transit":false,"distance":4331,"i_lat":-6.493243,"station_id":"BJD","i_long":106.792719},{"distance":5197,"is_transit":false,"i_lat":-6.448811,"station_name":"Citayam","line":2,"transit":false,"time":5,"station_id":"CTA","i_long":106.800298},{"distance":5084,"line":2,"i_long":106.816926,"station_name":"Depok","station_id":"DP","is_transit":false,"transit":false,"i_lat":-6.405256,"time":6},{"time":3,"distance":1584,"station_id":"DPB","transit":false,"station_name":"Depokbaru","is_transit":false,"i_lat":-6.391065,"line":2,"i_long":106.819451},{"station_name":"Pondok Cina","transit":false,"i_lat":-6.369073,"i_long":106.831114,"station_id":"POC","line":2,"time":4,"distance":2727,"is_transit":false},{"time":2,"line":2,"station_id":"UI","station_name":"Univ. Indonesia","is_transit":false,"transit":false,"i_long":106.831474,"distance":1109,"i_lat":-6.360749},{"i_long":106.834175,"station_id":"UP","time":3,"line":2,"distance":2264,"transit":false,"station_name":"Univ. Pancasila","i_lat":-6.339291,"is_transit":false},{"station_name":"Lenteng Agung","distance":1029,"line":2,"station_id":"LNA","time":2,"is_transit":false,"i_lat":-6.330363,"i_long":106.832616,"transit":false},{"time":3,"transit":false,"i_long":106.838896,"is_transit":false,"line":2,"i_lat":-6.3080680000000005,"distance":2671,"station_id":"TNT","station_name":"Tanjung Barat"},{"is_transit":false,"station_name":"Pasar Minggu","i_long":106.843999,"distance":2820,"line":2,"station_id":"PSM","transit":false,"time":4,"i_lat":-6.2842400000000005},{"i_lat":-6.263214,"station_id":"PSMB","is_transit":false,"line":2,"station_name":"Pasar Minggu Baru","transit":false,"distance":2380,"i_long":106.851577,"time":2},{"line":2,"time":2,"distance":824,"i_lat":-6.255332,"i_long":106.85449,"is_transit":false,"transit":false,"station_id":"DRN","station_name":"Duren Kalibata"},{"distance":1546,"i_lat":-6.242512,"station_id":"CW","station_name":"Cawang","time":3,"is_transit":false,"i_long":106.856607,"line":2,"transit":false},{"is_transit":false,"transit":false,"i_lat":-6.226659,"i_long":106.857948,"line":2,"distance":1230,"station_name":"Tebet","station_id":"TEB","time":2},{"station_name":"Manggarai","is_transit":true,"i_long":106.84912,"station_id":"MRI","i_lat":-6.209883,"line":2,"distance":2610,"time":4,"transit":true},{"station_name":"Matraman","i_long":106.858896,"distance":1275,"is_transit":false,"transit":false,"line":1,"i_lat":-6.212485,"time":2,"station_id":"MTR"},{"is_transit":false,"time":8,"i_long":106.86807400000001,"transit":false,"i_lat":-6.215091,"distance":1377,"line":1,"station_name":"Jatinegara","station_id":"JNG"},{"is_transit":false,"transit":false,"station_id":"KLD","time":3,"i_lat":-6.2135,"station_name":"Klender","distance":3395,"line":1,"i_long":106.899548},{"i_lat":-6.215568,"i_long":106.922662,"distance":3100,"time":2,"line":1,"station_name":"Buaran","station_id":"BUA","transit":false,"is_transit":false},{"station_id":"KLDB","transit":false,"distance":1305,"time":1,"station_name":"Klenderbaru","is_transit":false,"i_lat":-6.217455,"i_long":106.939679,"line":1},{"time":8,"station_id":"CUK","i_lat":-6.219053,"i_long":106.951283,"is_transit":false,"line":1,"station_name":"Cakung","transit":false,"distance":1385}],[{"i_lat":-6.530544,"i_long":106.800016,"is_transit":false,"distance":0,"line":2,"transit":false,"time":0,"station_id":"CLT","station_name":"Cilebut"},{"time":5,"transit":false,"i_lat":-6.493243,"i_long":106.792719,"is_transit":false,"station_id":"BJD","distance":4331,"station_name":"Bojonggede","line":2},{"transit":false,"is_transit":false,"time":5,"line":2,"station_name":"Citayam","i_long":106.800298,"station_id":"CTA","distance":5197,"i_lat":-6.448811},{"time":6,"i_lat":-6.405256,"is_transit":false,"station_name":"Depok","i_long":106.816926,"distance":5084,"line":2,"station_id":"DP","transit":false},{"time":3,"i_lat":-6.391065,"station_id":"DPB","is_transit":false,"station_name":"Depokbaru","i_long":106.819451,"line":2,"distance":1584,"transit":false},{"transit":false,"i_lat":-6.369073,"i_long":106.831114,"line":2,"distance":2727,"is_transit":false,"station_id":"POC","station_name":"Pondok Cina","time":4},{"i_long":106.831474,"is_transit":false,"station_id":"UI","station_name":"Univ. Indonesia","distance":1109,"time":2,"transit":false,"i_lat":-6.360749,"line":2},{"transit":false,"line":2,"distance":2264,"time":3,"i_long":106.834175,"is_transit":false,"station_name":"Univ. Pancasila","station_id":"UP","i_lat":-6.339291},{"is_transit":false,"station_name":"Lenteng Agung","i_lat":-6.330363,"station_id":"LNA","i_long":106.832616,"transit":false,"distance":1029,"time":2,"line":2},{"station_id":"TNT","line":2,"distance":2671,"station_name":"Tanjung Barat","i_long":106.838896,"time":3,"i_lat":-6.3080680000000005,"transit":false,"is_transit":false},{"distance":2820,"station_id":"PSM","line":2,"station_name":"Pasar Minggu","is_transit":false,"transit":false,"i_lat":-6.2842400000000005,"time":4,"i_long":106.843999},{"line":2,"time":2,"station_name":"Pasar Minggu Baru","transit":false,"distance":2380,"station_id":"PSMB","i_lat":-6.263214,"is_transit":false,"i_long":106.851577},{"i_long":106.85449,"station_id":"DRN","station_name":"Duren Kalibata","transit":false,"distance":824,"is_transit":false,"i_lat":-6.255332,"line":2,"time":2},{"station_id":"CW","distance":1546,"i_lat":-6.242512,"transit":false,"station_name":"Cawang","i_long":106.856607,"is_transit":false,"time":3,"line":2},{"station_name":"Tebet","i_long":106.857948,"line":2,"distance":1230,"station_id":"TEB","time":2,"is_transit":false,"transit":false,"i_lat":-6.226659},{"line":2,"i_long":106.84912,"is_transit":true,"transit":true,"distance":2610,"station_id":"MRI","time":4,"i_lat":-6.209883,"station_name":"Manggarai"},{"station_id":"SUD","distance":3186,"transit":false,"i_lat":-6.202263,"i_long":106.822649,"time":4,"station_name":"Sudirman","is_transit":false,"line":1},{"i_long":106.819881,"time":1,"i_lat":-6.201433,"station_id":"SUDB","line":1,"distance":280,"transit":false,"station_name":"Sudirman Baru","is_transit":false},{"i_long":106.816351,"distance":471,"is_transit":false,"time":1,"station_name":"Karet","station_id":"KAT","i_lat":-6.20132,"line":1,"transit":false},{"is_transit":false,"time":5,"distance":2029,"station_name":"Tanah Abang","station_id":"THB","i_lat":-6.185545,"transit":false,"i_long":106.811091,"line":1},{"station_id":"DU","station_name":"Duri","line":1,"is_transit":false,"i_lat":-6.155215,"i_long":106.800832,"time":8,"distance":3632,"transit":false},{"distance":1230,"line":1,"i_long":106.79867,"time":4,"station_id":"AK","i_lat":-6.144674,"is_transit":false,"station_name":"Angke","transit":false},{"station_id":"KPB","i_lat":-6.132549,"distance":4102,"line":4,"is_transit":true,"time":9,"station_name":"Kampung Bandan","i_long":106.826365,"transit":true},{"station_id":"RJW","line":11,"time":3,"transit":false,"distance":1444,"i_lat":-6.14505,"is_transit":false,"station_name":"Rajawali","i_long":106.836569},{"time":5,"i_lat":-6.161728,"station_name":"Kemayoran","transit":false,"is_transit":false,"distance":1901,"station_id":"KMO","i_long":106.839204,"line":11},{"i_long":106.84368,"distance":1436,"is_transit":false,"time":4,"i_lat":-6.174784,"transit":false,"station_id":"PSE","line":11,"station_name":"Pasar Senen"},{"distance":1567,"station_id":"GST","is_transit":false,"line":11,"i_lat":-6.185975,"time":8,"transit":false,"station_name":"Gang Sentiong","i_long":106.850107},{"i_long":106.855437,"is_transit":false,"transit":false,"time":1,"station_id":"KMT","station_name":"Kramat","i_lat":-6.193792,"line":11,"distance":973},{"station_id":"POK","i_long":106.861737,"i_lat":-6.209188,"time":2,"station_name":"Pondok Jati","line":11,"is_transit":false,"distance":1829,"transit":false},{"transit":true,"station_name":"Jatinegara","i_lat":-6.215091,"line":1,"is_transit":true,"station_id":"JNG","i_long":106.86807400000001,"distance":1236,"time":9},{"line":1,"is_transit":false,"i_lat":-6.2135,"distance":3395,"time":3,"station_id":"KLD","transit":false,"i_long":106.899548,"station_name":"Klender"},{"station_name":"Buaran","line":1,"time":2,"transit":false,"i_long":106.922662,"i_lat":-6.215568,"distance":3100,"is_transit":false,"station_id":"BUA"},{"time":1,"transit":false,"distance":1305,"i_long":106.939679,"station_name":"Klenderbaru","station_id":"KLDB","is_transit":false,"line":1,"i_lat":-6.217455},{"line":1,"station_id":"CUK","i_lat":-6.219053,"distance":1385,"time":8,"is_transit":false,"transit":false,"i_long":106.951283,"station_name":"Cakung"}],[{"transit":false,"time":0,"i_lat":-6.530544,"station_name":"Cilebut","i_long":106.800016,"is_transit":false,"distance":0,"line":2,"station_id":"CLT"},{"distance":4331,"transit":false,"i_long":106.792719,"station_name":"Bojonggede","i_lat":-6.493243,"line":2,"is_transit":false,"time":5,"station_id":"BJD"},{"distance":5197,"line":2,"time":5,"i_lat":-6.448811,"i_long":106.800298,"transit":false,"station_id":"CTA","is_transit":false,"station_name":"Citayam"},{"line":2,"distance":5084,"is_transit":false,"transit":false,"station_id":"DP","station_name":"Depok","time":6,"i_lat":-6.405256,"i_long":106.816926},{"station_name":"Depokbaru","i_long":106.819451,"i_lat":-6.391065,"time":3,"is_transit":false,"line":2,"distance":1584,"transit":false,"station_id":"DPB"},{"i_long":106.831114,"station_name":"Pondok Cina","i_lat":-6.369073,"line":2,"transit":false,"is_transit":false,"distance":2727,"time":4,"station_id":"POC"},{"line":2,"station_name":"Univ. Indonesia","time":2,"is_transit":false,"distance":1109,"i_lat":-6.360749,"i_long":106.831474,"transit":false,"station_id":"UI"},{"transit":false,"line":2,"station_id":"UP","time":3,"station_name":"Univ. Pancasila","i_lat":-6.339291,"distance":2264,"i_long":106.834175,"is_transit":false},{"is_transit":false,"station_id":"LNA","i_lat":-6.330363,"time":2,"i_long":106.832616,"station_name":"Lenteng Agung","transit":false,"line":2,"distance":1029},{"station_name":"Tanjung Barat","time":3,"is_transit":false,"station_id":"TNT","i_lat":-6.3080680000000005,"i_long":106.838896,"line":2,"distance":2671,"transit":false},{"distance":2820,"i_long":106.843999,"station_name":"Pasar Minggu","transit":false,"station_id":"PSM","i_lat":-6.2842400000000005,"line":2,"is_transit":false,"time":4},{"i_lat":-6.263214,"station_name":"Pasar Minggu Baru","is_transit":false,"distance":2380,"time":2,"transit":false,"station_id":"PSMB","line":2,"i_long":106.851577},{"station_id":"DRN","is_transit":false,"transit":false,"i_lat":-6.255332,"distance":824,"time":2,"station_name":"Duren Kalibata","i_long":106.85449,"line":2},{"line":2,"i_lat":-6.242512,"transit":false,"distance":1546,"station_id":"CW","is_transit":false,"time":3,"i_long":106.856607,"station_name":"Cawang"},{"station_name":"Tebet","i_lat":-6.226659,"transit":false,"distance":1230,"is_transit":false,"time":2,"station_id":"TEB","i_long":106.857948,"line":2},{"time":4,"is_transit":false,"transit":false,"station_id":"MRI","distance":2610,"station_name":"Manggarai","line":2,"i_lat":-6.209883,"i_long":106.84912},{"time":4,"station_name":"Cikini","station_id":"CKI","is_transit":false,"transit":false,"i_long":106.840169,"distance":1590,"i_lat":-6.198556,"line":2},{"i_long":106.832183,"transit":false,"distance":1750,"is_transit":false,"station_id":"GDD","station_name":"Gondangdia","line":2,"time":3,"i_lat":-6.186295},{"transit":false,"station_id":"JUA","line":2,"i_lat":-6.166716,"time":4,"station_name":"Juanda","distance":2015,"is_transit":false,"i_long":106.828284},{"distance":1149,"i_long":106.827103,"station_id":"SW","is_transit":false,"transit":false,"i_lat":-6.160725,"line":2,"station_name":"Sawah Besar","time":2},{"station_name":"Manggabesar","station_id":"MGB","distance":906,"i_lat":-6.149769,"i_long":106.82482,"line":2,"time":2,"transit":false,"is_transit":false},{"time":2,"station_id":"JAY","station_name":"Jayakarta","i_lat":-6.141205,"distance":1080,"transit":false,"line":2,"is_transit":false,"i_long":106.820901},{"station_name":"Jakarta Kota","distance":1264,"station_id":"JAKK","i_long":106.812439,"transit":true,"i_lat":-6.137569,"line":2,"is_transit":true,"time":4},{"is_transit":true,"distance":1364,"time":3,"transit":true,"line":4,"station_id":"KPB","i_lat":-6.132549,"station_name":"Kampung Bandan","i_long":106.826365},{"i_long":106.836569,"is_transit":false,"time":3,"station_id":"RJW","station_name":"Rajawali","distance":1444,"transit":false,"line":11,"i_lat":-6.14505},{"i_lat":-6.161728,"line":11,"is_transit":false,"distance":1901,"time":5,"transit":false,"station_id":"KMO","i_long":106.839204,"station_name":"Kemayoran"},{"transit":false,"i_long":106.84368,"is_transit":false,"station_id":"PSE","station_name":"Pasar Senen","line":11,"i_lat":-6.174784,"distance":1436,"time":4},{"station_id":"GST","station_name":"Gang Sentiong","line":11,"distance":1567,"time":8,"transit":false,"i_lat":-6.185975,"is_transit":false,"i_long":106.850107},{"transit":false,"i_lat":-6.193792,"i_long":106.855437,"is_transit":false,"station_name":"Kramat","station_id":"KMT","line":11,"time":1,"distance":973},{"line":11,"i_long":106.861737,"distance":1829,"is_transit":false,"i_lat":-6.209188,"time":2,"station_name":"Pondok Jati","station_id":"POK","transit":false},{"line":1,"i_long":106.86807400000001,"station_id":"JNG","time":9,"station_name":"Jatinegara","i_lat":-6.215091,"transit":true,"is_transit":true,"distance":1236},{"i_long":106.899548,"station_name":"Klender","is_transit":false,"distance":3395,"transit":false,"line":1,"station_id":"KLD","i_lat":-6.2135,"time":3},{"i_long":106.922662,"i_lat":-6.215568,"distance":3100,"station_id":"BUA","transit":false,"is_transit":false,"line":1,"time":2,"station_name":"Buaran"},{"station_id":"KLDB","distance":1305,"i_lat":-6.217455,"line":1,"time":1,"is_transit":false,"station_name":"Klenderbaru","i_long":106.939679,"transit":false},{"i_long":106.951283,"time":8,"station_id":"CUK","is_transit":false,"i_lat":-6.219053,"line":1,"distance":1385,"station_name":"Cakung","transit":false}]]}