{"data":[[{"transit":false,"is_transit":false,"line":2,"station_name":"Cilebut","i_long":106.800016,"distance":0,"station_id":"CLT","i_lat":-6.530544,"time":0},{"i_long":106.792719,"time":5,"distance":4331,"transit":false,"line":2,"station_id":"BJD","station_name":"Bojonggede","i_lat":-6.493243,"is_transit":false},{"i_long":106.800298,"transit":false,"is_transit":false,"time":5,"station_id":"CTA","line":2,"distance":5197,"i_lat":-6.448811,"station_name":"Citayam"},{"i_long":106.816926,"station_id":"DP","time":6,"distance":5084,"i_lat":-6.405256,"line":2,"station_name":"Depok","transit":false,"is_transit":false},{"transit":false,"is_transit":false,"i_long":106.819451,"distance":1584,"line":2,"time":3,"i_lat":-6.391065,"station_id":"DPB","station_name":"Depokbaru"},{"station_id":"POC","i_lat":-6.369073,"distance":2727,"time":4,"line":2,"station_name":"Pondok Cina","is_transit":false,"transit":false,"i_long":106.831114},{"distance":1109,"station_name":"Univ. Indonesia","transit":false,"i_lat":-6.360749,"line":2,"time":2,"station_id":"UI","i_long":106.831474,"is_transit":false},{"transit":false,"i_long":106.834175,"distance":2264,"station_name":"Univ. Pancasila","time":3,"is_transit":false,"station_id":"UP","i_lat":-6.339291,"line":2},{"station_id":"LNA","is_transit":false,"i_long":106.832616,"transit":false,"line":2,"time":2,"distance":1029,"station_name":"Lenteng Agung","i_lat":-6.330363},{"station_name":"Tanjung Barat","distance":2671,"is_transit":false,"transit":false,"line":2,"station_id":"TNT","i_lat":-6.3080680000000005,"i_long":106.838896,"time":3},{"time":4,"station_name":"Pasar Minggu","is_transit":false,"station_id":"PSM","i_long":106.843999,"transit":false,"distance":2820,"line":2,"i_lat":-6.2842400000000005},{"i_lat":-6.263214,"time":2,"line":2,"transit":false,"is_transit":false,"i_long":106.851577,"station_name":"Pasar Minggu Baru","distance":2380,"station_id":"PSMB"},{"is_transit":false,"transit":false,"i_lat":-6.255332,"i_long":106.85449,"time":2,"distance":824,"line":2,"station_id":"DRN","station_name":"Duren Kalibata"},{"i_long":106.856607,"is_transit":false,"line":2,"distance":1546,"transit":false,"time":3,"i_lat":-6.242512,"station_id":"CW","station_name":"Cawang"},{"is_transit":false,"distance":1230,"time":2,"station_id":"TEB","station_name":"Tebet","i_long":106.857948,"transit":false,"i_lat":-6.226659,"line":2},{"i_long":106.84912,"is_transit":true,"transit":true,"time":4,"line":2,"distance":2610,"i_lat":-6.209883,"station_name":"Manggarai","station_id":"MRI"},{"distance":3186,"i_lat":-6.202263,"station_id":"SUD","time":4,"i_long":106.822649,"is_transit":false,"station_name":"Sudirman","line":1,"transit":false},{"time":1,"station_id":"SUDB","station_name":"Sudirman Baru","is_transit":false,"i_lat":-6.201433,"transit":false,"distance":280,"i_long":106.819881,"line":1},{"station_id":"KAT","transit":false,"station_name":"Karet","i_lat":-6.20132,"line":1,"time":1,"distance":471,"i_long":106.816351,"is_transit":false},{"transit":true,"i_lat":-6.185545,"distance":2029,"i_long":106.811091,"is_transit":true,"station_id":"THB","time":5,"line":1,"station_name":"Tanah Abang"},{"i_long":106.79689,"transit":false,"station_id":"PLM","is_transit":false,"line":6,"distance":3191,"i_lat":-6.207404,"station_name":"Palmerah","time":6},{"transit":false,"is_transit":false,"station_name":"Kebayoran","distance":3737,"i_long":106.780334,"station_id":"KBY","i_lat":-6.237242,"line":6,"time":7},{"distance":6218,"is_transit":false,"i_long":106.74273,"transit":false,"line":6,"station_id":"PDJ","station_name":"Pondokranji","i_lat":-6.276362,"time":8},{"station_id":"JMU","i_lat":-6.288927,"station_name":"Jurangmangu","transit":false,"distance":2179,"time":3,"is_transit":false,"i_long":106.728916,"line":6},{"is_transit":false,"station_id":"SDM","distance":1994,"i_lat":-6.296963,"i_long":106.712277,"station_name":"Sudimara","time":4,"transit":false,"line":6},{"i_long":106.675475,"line":6,"distance":4566,"transit":false,"is_transit":false,"station_id":"RU","i_lat":-6.314823,"station_name":"Rawa Buntu","time":6},{"line":6,"station_name":"Serpong","time":4,"station_id":"SRP","i_lat":-6.319871,"i_long":106.66566,"distance":2413,"transit":false,"is_transit":false},{"i_long":106.640411,"distance":1784,"i_lat":-6.32484,"station_id":"CSK","time":4,"transit":false,"station_name":"Cisauk","is_transit":false,"line":3}],[{"is_transit":false,"i_long":106.800016,"station_id":"CLT","i_lat":-6.530544,"line":2,"transit":false,"distance":0,"time":0,"station_name":"Cilebut"},{"transit":false,"is_transit":false,"station_id":"BJD","i_long":106.792719,"time":5,"i_lat":-6.493243,"station_name":"Bojonggede","line":2,"distance":4331},{"time":5,"line":2,"station_id":"CTA","is_transit":false,"transit":false,"i_long":106.800298,"station_name":"Citayam","i_lat":-6.448811,"distance":5197},{"i_lat":-6.405256,"distance":5084,"station_id":"DP","time":6,"i_long":106.816926,"transit":false,"station_name":"Depok","is_transit":false,"line":2},{"i_lat":-6.391065,"station_id":"DPB","is_transit":false,"distance":1584,"station_name":"Depokbaru","time":3,"i_long":106.819451,"line":2,"transit":false},{"i_lat":-6.369073,"station_name":"Pondok Cina","i_long":106.831114,"is_transit":false,"station_id":"POC","time":4,"distance":2727,"line":2,"transit":false},{"i_long":106.831474,"transit":false,"station_name":"Univ. Indonesia","line":2,"is_transit":false,"i_lat":-6.360749,"time":2,"distance":1109,"station_id":"UI"},{"station_name":"Univ. Pancasila","line":2,"i_long":106.834175,"distance":2264,"station_id":"UP","is_transit":false,"time":3,"transit":false,"i_lat":-6.339291},{"time":2,"station_name":"Lenteng Agung","i_long":106.832616,"line":2,"is_transit":false,"distance":1029,"i_lat":-6.330363,"station_id":"LNA","transit":false},{"is_transit":false,"station_id":"TNT","line":2,"time":3,"station_name":"Tanjung Barat","transit":false,"distance":2671,"i_long":106.838896,"i_lat":-6.3080680000000005},{"i_long":106.843999,"transit":false,"line":2,"distance":2820,"is_transit":false,"time":4,"station_id":"PSM","station_name":"Pasar Minggu","i_lat":-6.2842400000000005},{"i_lat":-6.263214,"line":2,"time":2,"is_transit":false,"station_name":"Pasar Minggu Baru","station_id":"PSMB","distance":2380,"i_long":106.851577,"transit":false},{"line":2,"transit":false,"i_long":106.85449,"i_lat":-6.255332,"is_transit":false,"distance":824,"time":2,"station_id":"DRN","station_name":"Duren Kalibata"},{"transit":false,"i_long":106.856607,"line":2,"is_transit":false,"time":3,"i_lat":-6.242512,"station_name":"Cawang","distance":1546,"station_id":"CW"},{"time":2,"station_name":"Tebet","i_long":106.857948,"station_id":"TEB","i_lat":-6.226659,"line":2,"distance":1230,"is_transit":false,"transit":false},{"station_id":"MRI","distance":2610,"transit":false,"is_transit":false,"i_lat":-6.209883,"i_long":106.84912,"station_name":"Manggarai","line":2,"time":4},{"is_transit":false,"i_lat":-6.198556,"station_id":"CKI","line":2,"time":4,"station_name":"Cikini","distance":1590,"transit":false,"i_long":106.840169},{"station_id":"GDD","distance":1750,"time":3,"is_transit":false,"line":2,"station_name":"Gondangdia","i_long":106.832183,"i_lat":-6.186295,"transit":false},{"line":2,"station_id":"JUA","distance":2015,"station_name":"Juanda","i_lat":-6.166716,"time":4,"i_long":106.828284,"is_transit":false,"transit":false},{"time":2,"i_lat":-6.160725,"station_id":"SW","distance":1149,"station_name":"Sawah Besar","i_long":106.827103,"line":2,"is_transit":false,"transit":false},{"is_transit":false,"line":2,"time":2,"i_lat":-6.149769,"station_id":"MGB","station_name":"Manggabesar","transit":false,"distance":906,"i_long":106.82482},{"i_long":106.820901,"line":2,"time":2,"is_transit":false,"i_lat":-6.141205,"distance":1080,"station_id":"JAY","transit":false,"station_name":"Jayakarta"},{"i_long":106.812439,"distance":1264,"transit":true,"i_lat":-6.137569,"station_id":"JAKK","station_name":"Jakarta Kota","is_transit":true,"time":4,"line":2},{"transit":true,"distance":1364,"time":3,"i_long":106.826365,"station_id":"KPB","i_lat":-6.132549,"station_name":"Kampung Bandan","is_transit":true,"line":4},{"station_name":"Angke","i_lat":-6.144674,"line":1,"station_id":"AK","is_transit":false,"transit":false,"i_long":106.79867,"distance":4102,"time":9},{"line":1,"is_transit":false,"distance":1230,"time":4,"i_lat":-6.155215,"station_name":"Duri","station_id":"DU","transit":false,"i_long":106.800832},{"distance":3632,"i_long":106.811091,"line":1,"transit":true,"station_name":"Tanah Abang","is_transit":true,"station_id":"THB","i_lat":-6.185545,"time":8},{"distance":3191,"line":6,"transit":false,"i_lat":-6.207404,"i_long":106.79689,"station_id":"PLM","station_name":"Palmerah","time":6,"is_transit":false},{"time":7,"is_transit":false,"station_id":"KBY","distance":3737,"i_lat":-6.237242,"transit":false,"i_long":106.780334,"station_name":"Kebayoran","line":6},{"transit":false,"station_id":"PDJ","time":8,"station_name":"Pondokranji","distance":6218,"line":6,"i_long":106.74273,"is_transit":false,"i_lat":-6.276362},{"line":6,"transit":false,"station_name":"Jurangmangu","i_lat":-6.288927,"distance":2179,"is_transit":false,"time":3,"station_id":"JMU","i_long":106.728916},{"station_id":"SDM","station_name":"Sudimara","distance":1994,"i_long":106.712277,"transit":false,"i_lat":-6.296963,"time":4,"is_transit":false,"line":6},{"is_transit":false,"i_long":106.675475,"station_name":"Rawa Buntu","time":6,"i_lat":-6.314823,"distance":4566,"transit":false,"station_id":"RU","line":6},{"i_lat":-6.319871,"transit":false,"time":4,"station_name":"Serpong","station_id":"SRP","i_long":106.66566,"is_transit":false,"distance":2413,"line":6},{"i_long":106.640411,"time":4,"is_transit":false,"distance":1784,"station_id":"CSK","transit":false,"i_lat":-6.32484,"station_name":"Cisauk","line":3}],[{"transit":false,"time":0,"i_long":106.800016,"line":2,"station_id":"CLT","station_name":"Cilebut","is_transit":false,"distance":0,"i_lat":-6.530544},{"i_lat":-6.493243,"is_transit":false,"distance":4331,"station_id":"BJD","time":5,"station_name":"Bojonggede","line":2,"transit":false,"i_long":106.792719},{"line":2,"station_id":"CTA","is_transit":false,"i_lat":-6.448811,"station_name":"Citayam","i_long":106.800298,"transit":false,"time":5,"distance":5197},{"station_id":"DP","i_lat":-6.405256,"transit":false,"time":6,"station_name":"Depok","is_transit":false,"distance":5084,"i_long":106.816926,"line":2},{"station_id":"DPB","distance":1584,"station_name":"Depokbaru","transit":false,"time":3,"i_lat":-6.391065,"is_transit":false,"i_long":106.819451,"line":2},{"distance":2727,"time":4,"station_name":"Pondok Cina","transit":false,"i_lat":-6.369073,"i_long":106.831114,"line":2,"is_transit":false,"station_id":"POC"},{"station_name":"Univ. Indonesia","is_transit":false,"distance":1109,"station_id":"UI","transit":false,"line":2,"i_lat":-6.360749,"time":2,"i_long":106.831474},{"time":3,"line":2,"transit":false,"distance":2264,"i_long":106.834175,"is_transit":false,"station_id":"UP","i_lat":-6.339291,"station_name":"Univ. Pancasila"},{"i_lat":-6.330363,"station_id":"LNA","station_name":"Lenteng Agung","distance":1029,"i_long":106.832616,"line":2,"transit":false,"time":2,"is_transit":false},{"time":3,"station_id":"TNT","station_name":"Tanjung Barat","distance":2671,"line":2,"is_transit":false,"i_long":106.838896,"i_lat":-6.3080680000000005,"transit":false},{"time":4,"i_long":106.843999,"station_id":"PSM","station_name":"Pasar Minggu","line":2,"is_transit":false,"distance":2820,"i_lat":-6.2842400000000005,"transit":false},{"time":2,"transit":false,"station_name":"Pasar Minggu Baru","line":2,"i_lat":-6.263214,"is_transit":false,"station_id":"PSMB","i_long":106.851577,"distance":2380},{"distance":824,"station_name":"Duren Kalibata","is_transit":false,"transit":false,"i_long":106.85449,"line":2,"i_lat":-6.255332,"station_id":"DRN","time":2},{"line":2,"station_name":"Cawang","time":3,"is_transit":false,"transit":false,"i_long":106.856607,"distance":1546,"station_id":"CW","i_lat":-6.242512},{"time":2,"station_name":"Tebet","i_long":106.857948,"transit":false,"line":2,"i_lat":-6.226659,"is_transit":false,"distance":1230,"station_id":"TEB"},{"distance":2610,"transit":true,"station_name":"Manggarai","station_id":"MRI","is_transit":true,"time":4,"i_long":106.84912,"line":2,"i_lat":-6.209883},{"line":1,"transit":false,"is_transit":false,"i_long":106.858896,"station_id":"MTR","time":2,"i_lat":-6.212485,"station_name":"Matraman","distance":1275},{"is_transit":true,"distance":1377,"station_id":"JNG","i_long":106.86807400000001,"line":1,"i_lat":-6.215091,"transit":true,"station_name":"Jatinegara","time":8},{"transit":false,"time":2,"is_transit":false,"i_lat":-6.209188,"station_id":"POK","i_long":106.861737,"line":11,"distance":1236,"station_name":"Pondok Jati"},{"transit":false,"line":11,"station_id":"KMT","i_lat":-6.193792,"station_name":"Kramat","i_long":106.855437,"is_transit":false,"distance":1829,"time":2},{"i_long":106.850107,"time":1,"station_name":"Gang Sentiong","is_transit":false,"distance":973,"i_lat":-6.185975,"line":11,"transit":false,"station_id":"GST"},{"station_name":"Pasar Senen","i_lat":-6.174784,"transit":false,"time":8,"distance":1567,"i_long":106.84368,"line":11,"station_id":"PSE","is_transit":false},{"i_long":106.839204,"is_transit":false,"distance":1436,"station_id":"KMO","i_lat":-6.161728,"line":11,"transit":false,"station_name":"Kemayoran","time":4},{"transit":false,"i_long":106.836569,"station_id":"RJW","time":5,"station_name":"Rajawali","line":11,"i_lat":-6.14505,"is_transit":false,"distance":1901},{"time":3,"i_long":106.826365,"distance":1444,"line":4,"transit":true,"is_transit":true,"station_id":"KPB","i_lat":-6.132549,"station_name":"Kampung Bandan"},{"is_transit":false,"distance":4102,"line":1,"i_lat":-6.144674,"i_long":106.79867,"station_id":"AK","transit":false,"time":9,"station_name":"Angke"},{"i_long":106.800832,"line":1,"transit":false,"station_id":"DU","distance":1230,"i_lat":-6.155215,"time":4,"station_name":"Duri","is_transit":false},{"transit":true,"station_name":"Tanah Abang","distance":3632,"station_id":"THB","time":8,"i_lat":-6.185545,"i_long":106.811091,"line":1,"is_transit":true},{"distance":3191,"transit":false,"line":6,"station_name":"Palmerah","i_lat":-6.207404,"station_id":"PLM","i_long":106.79689,"is_transit":false,"time":6},{"time":7,"station_name":"Kebayoran","station_id":"KBY","is_transit":false,"distance":3737,"i_lat":-6.237242,"transit":false,"line":6,"i_long":106.780334},{"time":8,"transit":false,"is_transit":false,"station_id":"PDJ","i_long":106.74273,"station_name":"Pondokranji","i_lat":-6.276362,"line":6,"distance":6218},{"i_lat":-6.288927,"station_name":"Jurangmangu","i_long":106.728916,"line":6,"time":3,"is_transit":false,"distance":2179,"transit":false,"station_id":"JMU"},{"i_lat":-6.296963,"transit":false,"station_id":"SDM","is_transit":false,"time":4,"line":6,"i_long":106.712277,"station_name":"Sudimara","distance":1994},{"station_id":"RU","station_name":"Rawa Buntu","distance":4566,"time":6,"is_transit":false,"i_long":106.675475,"line":6,"transit":false,"i_lat":-6.314823},{"time":4,"distance":2413,"station_name":"Serpong","i_lat":-6.319871,"i_long":106.66566,"station_id":"SRP","transit":false,"line":6,"is_transit":false},{"distance":1784,"i_lat":-6.32484,"line":3,"i_long":106.640411,"transit":false,"station_id":"CSK","station_name":"Cisauk","time":4,"is_transit":false}]]}