{"data":[[{"distance":0,"is_transit":false,"line":0,"station_name":"Cilebut","transit":false,"time":0,"station_id":"CLT","i_lat":-6.530544,"i_long":106.800016},{"i_lat":-6.493243,"i_long":106.792719,"line":0,"transit":false,"station_name":"Bojonggede","distance":4331,"time":5,"is_transit":false,"station_id":"BJD"},{"transit":false,"station_id":"CTA","i_lat":-6.448811,"station_name":"Citayam","line":1,"time":5,"is_transit":true,"distance":5197,"i_long":106.800298},{"transit":false,"time":6,"i_long":106.816926,"station_name":"Depok","station_id":"DP","i_lat":-6.405256,"is_transit":false,"distance":5084,"line":0},{"i_lat":-6.391065,"i_long":106.819451,"line":0,"is_transit":false,"station_name":"Depokbaru","distance":1584,"time":3,"station_id":"DPB","transit":false},{"i_long":106.831114,"station_id":"POC","transit":false,"distance":2727,"i_lat":-6.369073,"station_name":"Pondok Cina","line":2,"is_transit":false,"time":4},{"line":2,"distance":1109,"is_transit":false,"i_lat":-6.360749,"station_name":"Univ. Indonesia","transit":false,"i_long":106.831474,"station_id":"UI","time":2},{"distance":2264,"i_long":106.834175,"station_name":"Univ. Pancasila","time":3,"line":2,"i_lat":-6.339291,"station_id":"UP","is_transit":false,"transit":false},{"is_transit":false,"transit":false,"station_name":"Lenteng Agung","distance":1029,"i_lat":-6.330363,"line":2,"station_id":"LNA","i_long":106.832616,"time":2},{"i_lat":-6.3080680000000005,"station_id":"TNT","transit":false,"distance":2671,"line":2,"time":3,"i_long":106.838896,"station_name":"Tanjung Barat","is_transit":false},{"time":4,"line":2,"station_id":"PSM","i_long":106.843999,"is_transit":false,"station_name":"Pasar Minggu","transit":false,"i_lat":-6.2842400000000005,"distance":2820},{"station_name":"Pasar Minggu Baru","distance":2380,"station_id":"PSMB","line":2,"is_transit":false,"i_lat":-6.263214,"time":2,"i_long":106.851577,"transit":false},{"i_long":106.85449,"station_name":"Duren Kalibata","time":2,"is_transit":false,"i_lat":-6.255332,"distance":824,"transit":false,"line":0,"station_id":"DRN"},{"station_name":"Cawang","transit":false,"distance":1546,"time":3,"i_long":106.856607,"i_lat":-6.242512,"line":0,"station_id":"CW","is_transit":false},{"is_transit":false,"line":2,"station_id":"TEB","i_lat":-6.226659,"station_name":"Tebet","i_long":106.857948,"transit":false,"distance":1230,"time":2},{"is_transit":true,"station_name":"Manggarai","i_lat":-6.209883,"transit":true,"time":4,"station_id":"MRI","line":0,"distance":2610,"i_long":106.84912},{"transit":false,"station_name":"Matraman","distance":1275,"i_long":106.858896,"is_transit":false,"station_id":"MTR","i_lat":-6.212485,"time":2,"line":1},{"line":0,"is_transit":true,"i_long":106.86807400000001,"station_id":"JNG","distance":1377,"transit":false,"station_name":"Jatinegara","i_lat":-6.215091,"time":8},{"i_long":106.899548,"line":1,"station_id":"KLD","transit":false,"station_name":"Klender","distance":3395,"is_transit":false,"i_lat":-6.2135,"time":3},{"line":0,"i_lat":-6.215568,"transit":false,"is_transit":false,"station_id":"BUA","distance":3100,"time":2,"station_name":"Buaran","i_long":106.922662},{"is_transit":false,"station_name":"Klenderbaru","i_long":106.939679,"station_id":"KLDB","i_lat":-6.217455,"time":1,"transit":false,"distance":1305,"line":1},{"distance":1385,"transit":false,"station_id":"CUK","time":8,"is_transit":false,"i_lat":-6.219053,"line":0,"station_name":"Cakung","i_long":106.951283}],[{"transit":false,"station_id":"CLT","station_name":"Cilebut","i_lat":-6.530544,"i_long":106.800016,"distance":0,"time":0,"line":0,"is_transit":false},{"i_long":106.792719,"distance":4331,"transit":false,"station_name":"Bojonggede","i_lat":-6.493243,"time":5,"line":0,"station_id":"BJD","is_transit":false},{"i_long":106.800298,"transit":false,"is_transit":true,"line":1,"station_id":"CTA","station_name":"Citayam","time":5,"distance":5197,"i_lat":-6.448811},{"transit":false,"time":6,"line":0,"is_transit":false,"station_name":"Depok","distance":5084,"i_lat":-6.405256,"station_id":"DP","i_long":106.816926},{"line":0,"i_long":106.819451,"distance":1584,"i_lat":-6.391065,"is_transit":false,"station_name":"Depokbaru","transit":false,"time":3,"station_id":"DPB"},{"i_lat":-6.369073,"i_long":106.831114,"station_name":"Pondok Cina","transit":false,"distance":2727,"time":4,"line":2,"station_id":"POC","is_transit":false},{"station_name":"Univ. Indonesia","i_lat":-6.360749,"transit":false,"line":2,"is_transit":false,"distance":1109,"time":2,"station_id":"UI","i_long":106.831474},{"is_transit":false,"time":3,"line":2,"i_lat":-6.339291,"station_name":"Univ. Pancasila","station_id":"UP","transit":false,"distance":2264,"i_long":106.834175},{"station_id":"LNA","distance":1029,"time":2,"is_transit":false,"i_long":106.832616,"i_lat":-6.330363,"station_name":"Lenteng Agung","line":2,"transit":false},{"i_long":106.838896,"distance":2671,"station_name":"Tanjung Barat","transit":false,"time":3,"i_lat":-6.3080680000000005,"line":2,"is_transit":false,"station_id":"TNT"},{"time":4,"station_name":"Pasar Minggu","distance":2820,"i_lat":-6.2842400000000005,"i_long":106.843999,"is_transit":false,"station_id":"PSM","line":2,"transit":false},{"transit":false,"distance":2380,"time":2,"i_long":106.851577,"station_id":"PSMB","i_lat":-6.263214,"is_transit":false,"line":2,"station_name":"Pasar Minggu Baru"},{"transit":false,"station_id":"DRN","i_long":106.85449,"line":0,"i_lat":-6.255332,"station_name":"Duren Kalibata","time":2,"is_transit":false,"distance":824},{"is_transit":false,"i_long":106.856607,"line":0,"distance":1546,"time":3,"i_lat":-6.242512,"station_name":"Cawang","station_id":"CW","transit":false},{"i_lat":-6.226659,"time":2,"distance":1230,"i_long":106.857948,"line":2,"is_transit":false,"station_id":"TEB","transit":false,"station_name":"Tebet"},{"line":0,"i_long":106.84912,"time":4,"i_lat":-6.209883,"is_transit":true,"station_id":"MRI","station_name":"Manggarai","transit":true,"distance":2610},{"is_transit":false,"station_id":"SUD","distance":3186,"station_name":"Sudirman","line":1,"i_long":106.822649,"time":4,"transit":false,"i_lat":-6.202263},{"transit":false,"station_name":"Sudirman Baru","i_long":106.819881,"line":1,"station_id":"SUDB","i_lat":-6.201433,"is_transit":false,"distance":280,"time":1},{"station_name":"Karet","i_long":106.816351,"transit":false,"is_transit":false,"distance":471,"i_lat":-6.20132,"line":1,"time":1,"station_id":"KAT"},{"i_long":106.811091,"transit":false,"station_id":"THB","line":1,"is_transit":true,"i_lat":-6.185545,"station_name":"Tanah Abang","distance":2029,"time":5},{"station_id":"DU","transit":true,"is_transit":true,"distance":3632,"station_name":"Duri","i_long":106.800832,"line":1,"i_lat":-6.155215,"time":8},{"i_long":106.79867,"time":4,"line":0,"station_id":"AK","i_lat":-6.144674,"transit":false,"station_name":"Angke","is_transit":false,"distance":1230},{"line":0,"time":9,"distance":4102,"i_long":106.826365,"station_id":"KPB","i_lat":-6.132549,"station_name":"Kampung Bandan","is_transit":true,"transit":true},{"transit":false,"is_transit":false,"distance":1444,"station_name":"Rajawali","time":3,"station_id":"RJW","i_lat":-6.14505,"i_long":106.836569,"line":11},{"station_id":"KMO","line":11,"i_lat":-6.161728,"transit":false,"station_name":"Kemayoran","time":5,"i_long":106.839204,"distance":1901,"is_transit":false},{"station_name":"Pasar Senen","line":11,"station_id":"PSE","i_long":106.84368,"is_transit":false,"transit":false,"distance":1436,"time":4,"i_lat":-6.174784},{"station_id":"GST","distance":1567,"line":11,"is_transit":false,"time":8,"i_long":106.850107,"transit":false,"station_name":"Gang Sentiong","i_lat":-6.185975},{"station_name":"Kramat","time":1,"is_transit":false,"line":11,"i_lat":-6.193792,"distance":973,"station_id":"KMT","transit":false,"i_long":106.855437},{"i_lat":-6.209188,"time":2,"station_id":"POK","is_transit":false,"line":11,"station_name":"Pondok Jati","i_long":106.861737,"distance":1829,"transit":false},{"i_lat":-6.215091,"line":0,"station_id":"JNG","time":9,"transit":true,"i_long":106.86807400000001,"station_name":"Jatinegara","distance":1236,"is_transit":true},{"distance":3395,"station_name":"Klender","station_id":"KLD","i_long":106.899548,"transit":false,"i_lat":-6.2135,"line":1,"time":3,"is_transit":false},{"time":2,"i_lat":-6.215568,"station_name":"Buaran","distance":3100,"i_long":106.922662,"is_transit":false,"line":0,"station_id":"BUA","transit":false},{"i_long":106.939679,"transit":false,"station_name":"Klenderbaru","distance":1305,"time":1,"is_transit":false,"station_id":"KLDB","i_lat":-6.217455,"line":1},{"i_long":106.951283,"i_lat":-6.219053,"time":8,"station_name":"Cakung","transit":false,"distance":1385,"station_id":"CUK","is_transit":false,"line":0}],[{"time":0,"i_lat":-6.530544,"line":0,"transit":false,"i_long":106.800016,"station_id":"CLT","is_transit":false,"distance":0,"station_name":"Cilebut"},{"is_transit":false,"station_name":"Bojonggede","distance":4331,"station_id":"BJD","transit":false,"i_lat":-6.493243,"time":5,"i_long":106.792719,"line":0},{"i_lat":-6.448811,"distance":5197,"i_long":106.800298,"time":5,"station_name":"Citayam","station_id":"CTA","transit":false,"line":1,"is_transit":true},{"station_id":"DP","station_name":"Depok","distance":5084,"i_long":106.816926,"line":0,"transit":false,"i_lat":-6.405256,"time":6,"is_transit":false},{"station_id":"DPB","distance":1584,"line":0,"i_long":106.819451,"transit":false,"time":3,"i_lat":-6.391065,"is_transit":false,"station_name":"Depokbaru"},{"is_transit":false,"time":4,"station_name":"Pondok Cina","i_long":106.831114,"line":2,"transit":false,"i_lat":-6.369073,"distance":2727,"station_id":"POC"},{"line":2,"is_transit":false,"i_lat":-6.360749,"transit":false,"distance":1109,"station_id":"UI","station_name":"Univ. Indonesia","i_long":106.831474,"time":2},{"station_id":"UP","time":3,"i_lat":-6.339291,"transit":false,"station_name":"Univ. Pancasila","distance":2264,"i_long":106.834175,"line":2,"is_transit":false},{"station_name":"Lenteng Agung","time":2,"distance":1029,"station_id":"LNA","line":2,"is_transit":false,"i_lat":-6.330363,"i_long":106.832616,"transit":false},{"is_transit":false,"station_id":"TNT","i_long":106.838896,"station_name":"Tanjung Barat","i_lat":-6.3080680000000005,"line":2,"time":3,"distance":2671,"transit":false},{"transit":false,"i_long":106.843999,"station_id":"PSM","i_lat":-6.2842400000000005,"distance":2820,"station_name":"Pasar Minggu","time":4,"line":2,"is_transit":false},{"station_id":"PSMB","time":2,"line":2,"station_name":"Pasar Minggu Baru","transit":false,"i_long":106.851577,"is_transit":false,"i_lat":-6.263214,"distance":2380},{"station_id":"DRN","distance":824,"i_long":106.85449,"station_name":"Duren Kalibata","time":2,"transit":false,"line":0,"i_lat":-6.255332,"is_transit":false},{"station_id":"CW","time":3,"line":0,"station_name":"Cawang","i_long":106.856607,"i_lat":-6.242512,"is_transit":false,"distance":1546,"transit":false},{"station_id":"TEB","is_transit":false,"distance":1230,"line":2,"station_name":"Tebet","transit":false,"time":2,"i_lat":-6.226659,"i_long":106.857948},{"i_lat":-6.209883,"station_name":"Manggarai","transit":true,"distance":2610,"station_id":"MRI","is_transit":true,"i_long":106.84912,"line":0,"time":4},{"i_lat":-6.198556,"transit":false,"i_long":106.840169,"line":0,"station_name":"Cikini","time":4,"distance":1590,"is_transit":false,"station_id":"CKI"},{"station_name":"Gondangdia","transit":false,"distance":1750,"i_long":106.832183,"line":2,"time":3,"is_transit":false,"station_id":"GDD","i_lat":-6.186295},{"line":2,"station_id":"JUA","is_transit":false,"station_name":"Juanda","distance":2015,"i_lat":-6.166716,"transit":false,"time":4,"i_long":106.828284},{"i_long":106.827103,"transit":false,"distance":1149,"time":2,"i_lat":-6.160725,"line":2,"station_name":"Sawah Besar","station_id":"SW","is_transit":false},{"is_transit":false,"distance":906,"line":2,"i_long":106.82482,"station_name":"Manggabesar","time":2,"i_lat":-6.149769,"station_id":"MGB","transit":false},{"station_name":"Jayakarta","transit":false,"distance":1080,"i_long":106.820901,"is_transit":false,"line":7,"time":2,"i_lat":-6.141205,"station_id":"JAY"},{"line":0,"is_transit":true,"time":4,"i_lat":-6.137569,"station_name":"Jakarta Kota","i_long":106.812439,"station_id":"JAKK","transit":true,"distance":1264},{"i_lat":-6.132549,"line":0,"station_name":"Kampung Bandan","is_transit":true,"transit":true,"i_long":106.826365,"time":3,"distance":1364,"station_id":"KPB"},{"time":3,"transit":false,"station_id":"RJW","i_lat":-6.14505,"station_name":"Rajawali","is_transit":false,"line":11,"distance":1444,"i_long":106.836569},{"time":5,"i_long":106.839204,"is_transit":false,"distance":1901,"line":11,"station_id":"KMO","transit":false,"i_lat":-6.161728,"station_name":"Kemayoran"},{"is_transit":false,"station_id":"PSE","transit":false,"distance":1436,"i_lat":-6.174784,"time":4,"i_long":106.84368,"line":11,"station_name":"Pasar Senen"},{"distance":1567,"is_transit":false,"time":8,"station_id":"GST","i_long":106.850107,"transit":false,"station_name":"Gang Sentiong","i_lat":-6.185975,"line":11},{"transit":false,"distance":973,"line":11,"station_id":"KMT","station_name":"Kramat","is_transit":false,"i_long":106.855437,"i_lat":-6.193792,"time":1},{"station_id":"POK","i_lat":-6.209188,"is_transit":false,"time":2,"i_long":106.861737,"line":11,"station_name":"Pondok Jati","transit":false,"distance":1829},{"i_long":106.86807400000001,"station_name":"Jatinegara","distance":1236,"is_transit":true,"time":9,"line":0,"station_id":"JNG","transit":true,"i_lat":-6.215091},{"line":1,"station_name":"Klender","transit":false,"i_long":106.899548,"distance":3395,"is_transit":false,"station_id":"KLD","i_lat":-6.2135,"time":3},{"transit":false,"time":2,"i_lat":-6.215568,"i_long":106.922662,"is_transit":false,"line":0,"distance":3100,"station_id":"BUA","station_name":"Buaran"},{"i_lat":-6.217455,"i_long":106.939679,"distance":1305,"line":1,"is_transit":false,"station_id":"KLDB","transit":false,"time":1,"station_name":"Klenderbaru"},{"station_name":"Cakung","distance":1385,"line":0,"i_long":106.951283,"transit":false,"time":8,"station_id":"CUK","is_transit":false,"i_lat":-6.219053}]]}