{"data":[[{"transit":false,"i_long":106.800016,"station_name":"Cilebut","distance":0,"i_lat":-6.530544,"station_id":"CLT","is_transit":false,"line":2,"time":0},{"transit":false,"i_long":106.792719,"time":5,"line":2,"is_transit":false,"station_id":"BJD","distance":4331,"station_name":"Bojonggede","i_lat":-6.493243},{"i_lat":-6.448811,"time":5,"station_name":"Citayam","i_long":106.800298,"station_id":"CTA","distance":5197,"line":2,"is_transit":true,"transit":true},{"i_lat":-6.460735,"line":21,"station_id":"PDRG","i_long":106.824374,"transit":false,"is_transit":false,"station_name":"Pondok Rajeg","time":0,"distance":0},{"station_id":"CBN","line":21,"transit":false,"station_name":"Cibinong","distance":0,"i_lat":-6.46424,"is_transit":false,"time":0,"i_long":106.851978}]]}