{"data":[[{"i_lat":-6.530544,"transit":false,"time":0,"i_long":106.800016,"line":2,"station_id":"CLT","is_transit":false,"distance":0,"station_name":"Cilebut"},{"i_long":106.792719,"i_lat":-6.493243,"distance":4331,"station_id":"BJD","is_transit":false,"time":5,"station_name":"Bojonggede","line":2,"transit":false},{"time":5,"line":2,"station_id":"CTA","distance":5197,"i_lat":-6.448811,"i_long":106.800298,"is_transit":false,"station_name":"Citayam","transit":false},{"distance":5084,"is_transit":false,"station_id":"DP","line":2,"transit":false,"time":6,"i_lat":-6.405256,"i_long":106.816926,"station_name":"Depok"},{"i_long":106.819451,"station_id":"DPB","i_lat":-6.391065,"time":3,"station_name":"Depokbaru","is_transit":false,"transit":false,"line":2,"distance":1584},{"distance":2727,"station_name":"Pondok Cina","station_id":"POC","transit":false,"time":4,"i_long":106.831114,"line":2,"is_transit":false,"i_lat":-6.369073},{"i_lat":-6.360749,"station_name":"Univ. Indonesia","is_transit":false,"time":2,"station_id":"UI","i_long":106.831474,"distance":1109,"transit":false,"line":2},{"station_name":"Univ. Pancasila","line":2,"is_transit":false,"distance":2264,"transit":false,"i_long":106.834175,"i_lat":-6.339291,"station_id":"UP","time":3},{"station_name":"Lenteng Agung","line":2,"is_transit":false,"station_id":"LNA","i_long":106.832616,"distance":1029,"time":2,"transit":false,"i_lat":-6.330363},{"transit":false,"station_id":"TNT","i_long":106.838896,"is_transit":false,"time":3,"i_lat":-6.3080680000000005,"distance":2671,"station_name":"Tanjung Barat","line":2},{"station_id":"PSM","time":4,"i_long":106.843999,"is_transit":false,"line":2,"distance":2820,"i_lat":-6.2842400000000005,"station_name":"Pasar Minggu","transit":false},{"time":2,"station_name":"Pasar Minggu Baru","station_id":"PSMB","i_long":106.851577,"is_transit":false,"transit":false,"distance":2380,"i_lat":-6.263214,"line":2},{"is_transit":false,"line":2,"distance":824,"i_lat":-6.255332,"station_id":"DRN","i_long":106.85449,"time":2,"station_name":"Duren Kalibata","transit":false},{"time":3,"line":2,"station_name":"Cawang","i_lat":-6.242512,"is_transit":false,"station_id":"CW","transit":false,"distance":1546,"i_long":106.856607},{"is_transit":false,"station_id":"TEB","line":2,"transit":false,"i_long":106.857948,"time":2,"distance":1230,"i_lat":-6.226659,"station_name":"Tebet"},{"distance":2610,"is_transit":true,"time":4,"station_id":"MRI","transit":true,"i_lat":-6.209883,"i_long":106.84912,"line":2,"station_name":"Manggarai"},{"transit":false,"i_long":106.858896,"station_id":"MTR","is_transit":false,"distance":1275,"station_name":"Matraman","i_lat":-6.212485,"time":2,"line":1},{"time":8,"i_long":106.86807400000001,"station_id":"JNG","transit":true,"line":1,"i_lat":-6.215091,"is_transit":true,"distance":1377,"station_name":"Jatinegara"},{"i_long":106.861737,"station_name":"Pondok Jati","line":11,"station_id":"POK","distance":1236,"is_transit":false,"i_lat":-6.209188,"time":2,"transit":false},{"time":2,"i_long":106.855437,"station_id":"KMT","transit":false,"i_lat":-6.193792,"station_name":"Kramat","distance":1829,"is_transit":false,"line":11},{"station_id":"GST","i_lat":-6.185975,"station_name":"Gang Sentiong","line":11,"i_long":106.850107,"distance":973,"time":1,"is_transit":false,"transit":false},{"station_id":"PSE","i_lat":-6.174784,"distance":1567,"time":8,"i_long":106.84368,"line":11,"is_transit":false,"station_name":"Pasar Senen","transit":false},{"is_transit":false,"i_long":106.839204,"distance":1436,"station_name":"Kemayoran","transit":false,"line":11,"time":4,"i_lat":-6.161728,"station_id":"KMO"},{"i_long":106.836569,"line":11,"distance":1901,"i_lat":-6.14505,"time":5,"station_id":"RJW","transit":false,"station_name":"Rajawali","is_transit":false}],[{"distance":0,"station_id":"CLT","i_lat":-6.530544,"transit":false,"line":2,"station_name":"Cilebut","i_long":106.800016,"time":0,"is_transit":false},{"station_id":"BJD","time":5,"distance":4331,"i_long":106.792719,"station_name":"Bojonggede","is_transit":false,"line":2,"transit":false,"i_lat":-6.493243},{"station_id":"CTA","transit":false,"is_transit":false,"i_lat":-6.448811,"i_long":106.800298,"line":2,"distance":5197,"time":5,"station_name":"Citayam"},{"time":6,"station_id":"DP","line":2,"distance":5084,"transit":false,"station_name":"Depok","is_transit":false,"i_lat":-6.405256,"i_long":106.816926},{"distance":1584,"time":3,"station_name":"Depokbaru","line":2,"station_id":"DPB","i_lat":-6.391065,"is_transit":false,"transit":false,"i_long":106.819451},{"i_long":106.831114,"station_name":"Pondok Cina","i_lat":-6.369073,"line":2,"time":4,"is_transit":false,"transit":false,"station_id":"POC","distance":2727},{"is_transit":false,"transit":false,"line":2,"distance":1109,"station_id":"UI","i_lat":-6.360749,"time":2,"i_long":106.831474,"station_name":"Univ. Indonesia"},{"is_transit":false,"station_id":"UP","transit":false,"i_lat":-6.339291,"i_long":106.834175,"line":2,"time":3,"station_name":"Univ. Pancasila","distance":2264},{"station_name":"Lenteng Agung","transit":false,"i_long":106.832616,"is_transit":false,"line":2,"distance":1029,"i_lat":-6.330363,"time":2,"station_id":"LNA"},{"station_name":"Tanjung Barat","station_id":"TNT","time":3,"i_lat":-6.3080680000000005,"line":2,"is_transit":false,"distance":2671,"i_long":106.838896,"transit":false},{"i_long":106.843999,"transit":false,"i_lat":-6.2842400000000005,"line":2,"time":4,"distance":2820,"is_transit":false,"station_name":"Pasar Minggu","station_id":"PSM"},{"time":2,"is_transit":false,"transit":false,"station_name":"Pasar Minggu Baru","i_lat":-6.263214,"i_long":106.851577,"line":2,"station_id":"PSMB","distance":2380},{"is_transit":false,"line":2,"i_long":106.85449,"time":2,"station_id":"DRN","distance":824,"station_name":"Duren Kalibata","transit":false,"i_lat":-6.255332},{"distance":1546,"i_long":106.856607,"transit":false,"i_lat":-6.242512,"station_id":"CW","is_transit":false,"station_name":"Cawang","line":2,"time":3},{"station_name":"Tebet","transit":false,"i_long":106.857948,"station_id":"TEB","line":2,"i_lat":-6.226659,"is_transit":false,"time":2,"distance":1230},{"i_lat":-6.209883,"time":4,"i_long":106.84912,"station_name":"Manggarai","station_id":"MRI","line":2,"is_transit":true,"transit":true,"distance":2610},{"i_long":106.822649,"distance":3186,"transit":false,"line":1,"i_lat":-6.202263,"time":4,"station_name":"Sudirman","station_id":"SUD","is_transit":false},{"distance":280,"i_long":106.819881,"i_lat":-6.201433,"transit":false,"time":1,"station_name":"Sudirman Baru","line":1,"is_transit":false,"station_id":"SUDB"},{"is_transit":false,"i_lat":-6.20132,"transit":false,"i_long":106.816351,"line":1,"station_name":"Karet","time":1,"distance":471,"station_id":"KAT"},{"time":5,"line":1,"distance":2029,"i_lat":-6.185545,"i_long":106.811091,"station_name":"Tanah Abang","transit":false,"station_id":"THB","is_transit":false},{"distance":3632,"time":8,"is_transit":false,"station_name":"Duri","line":1,"i_long":106.800832,"transit":false,"i_lat":-6.155215,"station_id":"DU"},{"distance":1230,"is_transit":false,"station_id":"AK","time":4,"transit":false,"i_long":106.79867,"station_name":"Angke","line":1,"i_lat":-6.144674},{"distance":4102,"line":4,"i_long":106.826365,"i_lat":-6.132549,"transit":true,"station_name":"Kampung Bandan","time":9,"station_id":"KPB","is_transit":true},{"station_name":"Rajawali","time":3,"is_transit":false,"line":11,"distance":1444,"i_lat":-6.14505,"station_id":"RJW","i_long":106.836569,"transit":false}],[{"i_lat":-6.530544,"i_long":106.800016,"is_transit":false,"transit":false,"distance":0,"line":2,"station_name":"Cilebut","time":0,"station_id":"CLT"},{"line":2,"station_id":"BJD","station_name":"Bojonggede","transit":false,"time":5,"is_transit":false,"i_lat":-6.493243,"i_long":106.792719,"distance":4331},{"is_transit":false,"time":5,"distance":5197,"station_name":"Citayam","station_id":"CTA","transit":false,"i_lat":-6.448811,"i_long":106.800298,"line":2},{"line":2,"distance":5084,"transit":false,"time":6,"station_id":"DP","is_transit":false,"station_name":"Depok","i_lat":-6.405256,"i_long":106.816926},{"i_lat":-6.391065,"line":2,"time":3,"i_long":106.819451,"is_transit":false,"station_id":"DPB","distance":1584,"station_name":"Depokbaru","transit":false},{"station_id":"POC","is_transit":false,"distance":2727,"station_name":"Pondok Cina","i_lat":-6.369073,"transit":false,"line":2,"time":4,"i_long":106.831114},{"time":2,"station_id":"UI","i_long":106.831474,"distance":1109,"transit":false,"station_name":"Univ. Indonesia","is_transit":false,"i_lat":-6.360749,"line":2},{"time":3,"is_transit":false,"transit":false,"distance":2264,"i_lat":-6.339291,"station_id":"UP","station_name":"Univ. Pancasila","line":2,"i_long":106.834175},{"station_id":"LNA","time":2,"is_transit":false,"transit":false,"i_long":106.832616,"station_name":"Lenteng Agung","distance":1029,"i_lat":-6.330363,"line":2},{"station_name":"Tanjung Barat","time":3,"i_long":106.838896,"station_id":"TNT","line":2,"transit":false,"is_transit":false,"i_lat":-6.3080680000000005,"distance":2671},{"station_name":"Pasar Minggu","time":4,"distance":2820,"is_transit":false,"transit":false,"i_long":106.843999,"i_lat":-6.2842400000000005,"line":2,"station_id":"PSM"},{"is_transit":false,"distance":2380,"station_name":"Pasar Minggu Baru","i_lat":-6.263214,"line":2,"transit":false,"station_id":"PSMB","i_long":106.851577,"time":2},{"line":2,"time":2,"i_lat":-6.255332,"distance":824,"station_id":"DRN","station_name":"Duren Kalibata","transit":false,"i_long":106.85449,"is_transit":false},{"transit":false,"distance":1546,"station_name":"Cawang","i_long":106.856607,"time":3,"is_transit":false,"line":2,"i_lat":-6.242512,"station_id":"CW"},{"station_name":"Tebet","station_id":"TEB","is_transit":false,"distance":1230,"i_lat":-6.226659,"line":2,"transit":false,"i_long":106.857948,"time":2},{"transit":false,"distance":2610,"time":4,"is_transit":false,"i_lat":-6.209883,"station_name":"Manggarai","station_id":"MRI","i_long":106.84912,"line":2},{"station_name":"Cikini","time":4,"i_lat":-6.198556,"line":2,"transit":false,"distance":1590,"i_long":106.840169,"station_id":"CKI","is_transit":false},{"transit":false,"station_name":"Gondangdia","distance":1750,"time":3,"station_id":"GDD","is_transit":false,"line":2,"i_lat":-6.186295,"i_long":106.832183},{"time":4,"station_id":"JUA","i_lat":-6.166716,"i_long":106.828284,"line":2,"distance":2015,"station_name":"Juanda","is_transit":false,"transit":false},{"is_transit":false,"station_id":"SW","i_long":106.827103,"time":2,"station_name":"Sawah Besar","transit":false,"i_lat":-6.160725,"distance":1149,"line":2},{"station_name":"Manggabesar","line":2,"time":2,"distance":906,"is_transit":false,"station_id":"MGB","i_lat":-6.149769,"transit":false,"i_long":106.82482},{"i_long":106.820901,"distance":1080,"is_transit":false,"station_id":"JAY","station_name":"Jayakarta","line":2,"transit":false,"i_lat":-6.141205,"time":2},{"station_id":"JAKK","i_long":106.812439,"distance":1264,"i_lat":-6.137569,"time":4,"is_transit":true,"station_name":"Jakarta Kota","transit":true,"line":2},{"i_long":106.826365,"distance":1364,"time":3,"station_name":"Kampung Bandan","transit":true,"i_lat":-6.132549,"station_id":"KPB","is_transit":true,"line":4},{"station_name":"Rajawali","time":3,"is_transit":false,"station_id":"RJW","line":11,"distance":1444,"i_long":106.836569,"transit":false,"i_lat":-6.14505}]]}