{"data":[[{"distance":0,"i_lat":-6.530544,"station_name":"Cilebut","i_long":106.800016,"line":0,"time":0,"transit":false,"station_id":"CLT","is_transit":false},{"station_id":"BJD","transit":false,"time":5,"line":0,"is_transit":false,"station_name":"Bojonggede","distance":4331,"i_long":106.792719,"i_lat":-6.493243},{"line":1,"time":5,"distance":5197,"station_id":"CTA","i_lat":-6.448811,"transit":false,"is_transit":true,"station_name":"Citayam","i_long":106.800298},{"i_lat":-6.405256,"i_long":106.816926,"is_transit":false,"time":6,"station_id":"DP","station_name":"Depok","line":0,"distance":5084,"transit":false},{"i_lat":-6.391065,"i_long":106.819451,"transit":false,"is_transit":false,"station_name":"Depokbaru","line":0,"time":3,"distance":1584,"station_id":"DPB"},{"distance":2727,"station_id":"POC","time":4,"line":2,"station_name":"Pondok Cina","i_lat":-6.369073,"transit":false,"is_transit":false,"i_long":106.831114},{"time":2,"i_long":106.831474,"transit":false,"station_name":"Univ. Indonesia","is_transit":false,"distance":1109,"station_id":"UI","i_lat":-6.360749,"line":2},{"station_id":"UP","station_name":"Univ. Pancasila","time":3,"is_transit":false,"distance":2264,"i_long":106.834175,"line":2,"transit":false,"i_lat":-6.339291},{"transit":false,"i_lat":-6.330363,"i_long":106.832616,"is_transit":false,"time":2,"station_name":"Lenteng Agung","line":2,"station_id":"LNA","distance":1029},{"station_id":"TNT","station_name":"Tanjung Barat","distance":2671,"i_lat":-6.3080680000000005,"time":3,"line":2,"transit":false,"i_long":106.838896,"is_transit":false},{"i_long":106.843999,"transit":false,"time":4,"i_lat":-6.2842400000000005,"line":2,"is_transit":false,"station_id":"PSM","station_name":"Pasar Minggu","distance":2820},{"transit":false,"i_long":106.851577,"time":2,"i_lat":-6.263214,"station_name":"Pasar Minggu Baru","is_transit":false,"distance":2380,"line":2,"station_id":"PSMB"},{"i_long":106.85449,"time":2,"is_transit":false,"transit":false,"station_id":"DRN","i_lat":-6.255332,"station_name":"Duren Kalibata","distance":824,"line":0},{"station_id":"CW","station_name":"Cawang","transit":false,"i_lat":-6.242512,"is_transit":false,"line":0,"i_long":106.856607,"time":3,"distance":1546},{"station_name":"Tebet","transit":false,"i_lat":-6.226659,"is_transit":false,"time":2,"station_id":"TEB","distance":1230,"i_long":106.857948,"line":2},{"i_long":106.84912,"is_transit":true,"line":0,"i_lat":-6.209883,"transit":true,"time":4,"distance":2610,"station_name":"Manggarai","station_id":"MRI"},{"station_name":"Sudirman","transit":false,"is_transit":false,"distance":3186,"i_lat":-6.202263,"line":1,"i_long":106.822649,"station_id":"SUD","time":4},{"line":1,"station_id":"SUDB","is_transit":false,"i_lat":-6.201433,"transit":false,"station_name":"Sudirman Baru","i_long":106.819881,"distance":280,"time":1},{"i_long":106.816351,"line":1,"is_transit":false,"distance":471,"i_lat":-6.20132,"station_name":"Karet","transit":false,"time":1,"station_id":"KAT"},{"transit":false,"is_transit":true,"time":5,"i_lat":-6.185545,"i_long":106.811091,"line":1,"station_name":"Tanah Abang","distance":2029,"station_id":"THB"},{"i_lat":-6.155215,"station_id":"DU","time":8,"distance":3632,"station_name":"Duri","line":1,"transit":true,"is_transit":true,"i_long":106.800832},{"i_lat":-6.144674,"transit":false,"distance":1230,"station_name":"Angke","is_transit":false,"time":4,"station_id":"AK","i_long":106.79867,"line":0}],[{"is_transit":false,"i_lat":-6.530544,"line":0,"time":0,"station_id":"CLT","transit":false,"i_long":106.800016,"distance":0,"station_name":"Cilebut"},{"line":0,"is_transit":false,"transit":false,"distance":4331,"time":5,"i_long":106.792719,"i_lat":-6.493243,"station_id":"BJD","station_name":"Bojonggede"},{"line":1,"transit":false,"time":5,"station_name":"Citayam","station_id":"CTA","is_transit":true,"distance":5197,"i_long":106.800298,"i_lat":-6.448811},{"distance":5084,"i_long":106.816926,"transit":false,"line":0,"time":6,"i_lat":-6.405256,"is_transit":false,"station_name":"Depok","station_id":"DP"},{"station_id":"DPB","i_lat":-6.391065,"line":0,"time":3,"distance":1584,"is_transit":false,"i_long":106.819451,"transit":false,"station_name":"Depokbaru"},{"station_name":"Pondok Cina","station_id":"POC","time":4,"is_transit":false,"distance":2727,"i_lat":-6.369073,"line":2,"transit":false,"i_long":106.831114},{"station_id":"UI","i_lat":-6.360749,"time":2,"line":2,"transit":false,"is_transit":false,"station_name":"Univ. Indonesia","i_long":106.831474,"distance":1109},{"is_transit":false,"station_id":"UP","transit":false,"line":2,"station_name":"Univ. Pancasila","distance":2264,"time":3,"i_lat":-6.339291,"i_long":106.834175},{"line":2,"i_lat":-6.330363,"time":2,"i_long":106.832616,"distance":1029,"is_transit":false,"station_id":"LNA","transit":false,"station_name":"Lenteng Agung"},{"i_long":106.838896,"time":3,"distance":2671,"is_transit":false,"i_lat":-6.3080680000000005,"station_id":"TNT","transit":false,"station_name":"Tanjung Barat","line":2},{"line":2,"transit":false,"time":4,"station_name":"Pasar Minggu","station_id":"PSM","i_long":106.843999,"distance":2820,"is_transit":false,"i_lat":-6.2842400000000005},{"time":2,"transit":false,"station_name":"Pasar Minggu Baru","is_transit":false,"line":2,"i_long":106.851577,"i_lat":-6.263214,"distance":2380,"station_id":"PSMB"},{"i_lat":-6.255332,"i_long":106.85449,"transit":false,"time":2,"line":0,"distance":824,"station_name":"Duren Kalibata","is_transit":false,"station_id":"DRN"},{"is_transit":false,"station_name":"Cawang","time":3,"i_lat":-6.242512,"line":0,"station_id":"CW","transit":false,"distance":1546,"i_long":106.856607},{"distance":1230,"i_long":106.857948,"line":2,"station_name":"Tebet","is_transit":false,"i_lat":-6.226659,"transit":false,"time":2,"station_id":"TEB"},{"station_id":"MRI","transit":true,"i_lat":-6.209883,"i_long":106.84912,"station_name":"Manggarai","is_transit":true,"time":4,"distance":2610,"line":0},{"transit":false,"i_lat":-6.198556,"station_name":"Cikini","distance":1590,"station_id":"CKI","time":4,"i_long":106.840169,"is_transit":false,"line":0},{"time":3,"distance":1750,"is_transit":false,"station_name":"Gondangdia","transit":false,"station_id":"GDD","i_lat":-6.186295,"i_long":106.832183,"line":2},{"i_long":106.828284,"transit":false,"station_id":"JUA","distance":2015,"station_name":"Juanda","i_lat":-6.166716,"line":2,"time":4,"is_transit":false},{"line":2,"time":2,"station_name":"Sawah Besar","distance":1149,"transit":false,"station_id":"SW","is_transit":false,"i_lat":-6.160725,"i_long":106.827103},{"is_transit":false,"transit":false,"time":2,"distance":906,"i_long":106.82482,"station_name":"Manggabesar","line":2,"station_id":"MGB","i_lat":-6.149769},{"time":2,"line":7,"distance":1080,"transit":false,"station_name":"Jayakarta","i_lat":-6.141205,"station_id":"JAY","i_long":106.820901,"is_transit":false},{"transit":true,"station_name":"Jakarta Kota","is_transit":true,"i_long":106.812439,"line":0,"i_lat":-6.137569,"distance":1264,"time":4,"station_id":"JAKK"},{"i_long":106.826365,"i_lat":-6.132549,"time":3,"line":0,"transit":false,"station_id":"KPB","is_transit":true,"distance":1364,"station_name":"Kampung Bandan"},{"transit":false,"i_long":106.79867,"station_name":"Angke","time":9,"is_transit":false,"distance":4102,"i_lat":-6.144674,"line":0,"station_id":"AK"}],[{"station_id":"CLT","station_name":"Cilebut","time":0,"distance":0,"i_lat":-6.530544,"line":0,"i_long":106.800016,"transit":false,"is_transit":false},{"line":0,"is_transit":false,"transit":false,"time":5,"i_long":106.792719,"station_id":"BJD","distance":4331,"station_name":"Bojonggede","i_lat":-6.493243},{"i_lat":-6.448811,"distance":5197,"time":5,"station_name":"Citayam","is_transit":true,"i_long":106.800298,"line":1,"station_id":"CTA","transit":false},{"is_transit":false,"distance":5084,"station_name":"Depok","transit":false,"time":6,"i_lat":-6.405256,"station_id":"DP","line":0,"i_long":106.816926},{"is_transit":false,"station_name":"Depokbaru","time":3,"distance":1584,"i_long":106.819451,"transit":false,"line":0,"station_id":"DPB","i_lat":-6.391065},{"i_lat":-6.369073,"time":4,"line":2,"i_long":106.831114,"station_id":"POC","station_name":"Pondok Cina","is_transit":false,"transit":false,"distance":2727},{"transit":false,"station_name":"Univ. Indonesia","is_transit":false,"i_long":106.831474,"i_lat":-6.360749,"time":2,"station_id":"UI","distance":1109,"line":2},{"line":2,"i_long":106.834175,"time":3,"transit":false,"station_id":"UP","i_lat":-6.339291,"is_transit":false,"station_name":"Univ. Pancasila","distance":2264},{"is_transit":false,"time":2,"line":2,"distance":1029,"i_lat":-6.330363,"station_id":"LNA","i_long":106.832616,"transit":false,"station_name":"Lenteng Agung"},{"line":2,"distance":2671,"station_id":"TNT","time":3,"transit":false,"is_transit":false,"station_name":"Tanjung Barat","i_lat":-6.3080680000000005,"i_long":106.838896},{"i_long":106.843999,"distance":2820,"transit":false,"time":4,"station_id":"PSM","i_lat":-6.2842400000000005,"line":2,"station_name":"Pasar Minggu","is_transit":false},{"station_id":"PSMB","station_name":"Pasar Minggu Baru","transit":false,"i_long":106.851577,"i_lat":-6.263214,"line":2,"time":2,"is_transit":false,"distance":2380},{"i_long":106.85449,"station_name":"Duren Kalibata","transit":false,"time":2,"line":0,"distance":824,"station_id":"DRN","i_lat":-6.255332,"is_transit":false},{"time":3,"station_id":"CW","i_lat":-6.242512,"station_name":"Cawang","distance":1546,"line":0,"is_transit":false,"transit":false,"i_long":106.856607},{"line":2,"i_long":106.857948,"transit":false,"station_id":"TEB","station_name":"Tebet","i_lat":-6.226659,"is_transit":false,"distance":1230,"time":2},{"is_transit":true,"line":0,"station_name":"Manggarai","i_lat":-6.209883,"time":4,"transit":true,"distance":2610,"station_id":"MRI","i_long":106.84912},{"station_name":"Matraman","transit":false,"time":2,"distance":1275,"station_id":"MTR","is_transit":false,"i_lat":-6.212485,"i_long":106.858896,"line":1},{"time":8,"is_transit":true,"i_long":106.86807400000001,"station_name":"Jatinegara","i_lat":-6.215091,"transit":true,"distance":1377,"station_id":"JNG","line":0},{"time":2,"i_lat":-6.209188,"transit":false,"station_name":"Pondok Jati","line":11,"station_id":"POK","is_transit":false,"distance":1236,"i_long":106.861737},{"i_long":106.855437,"line":11,"time":2,"distance":1829,"is_transit":false,"station_name":"Kramat","i_lat":-6.193792,"station_id":"KMT","transit":false},{"distance":973,"i_lat":-6.185975,"line":11,"station_id":"GST","i_long":106.850107,"station_name":"Gang Sentiong","transit":false,"is_transit":false,"time":1},{"line":11,"i_lat":-6.174784,"i_long":106.84368,"distance":1567,"transit":false,"station_name":"Pasar Senen","station_id":"PSE","is_transit":false,"time":8},{"i_lat":-6.161728,"time":4,"transit":false,"station_id":"KMO","i_long":106.839204,"is_transit":false,"distance":1436,"line":11,"station_name":"Kemayoran"},{"i_lat":-6.14505,"transit":false,"line":11,"station_id":"RJW","distance":1901,"station_name":"Rajawali","time":5,"is_transit":false,"i_long":106.836569},{"station_id":"KPB","time":3,"station_name":"Kampung Bandan","is_transit":true,"line":0,"distance":1444,"i_long":106.826365,"transit":true,"i_lat":-6.132549},{"i_lat":-6.144674,"is_transit":false,"time":9,"distance":4102,"transit":false,"station_id":"AK","i_long":106.79867,"line":0,"station_name":"Angke"}]]}