{"data":[[{"distance":0,"i_lat":-6.530544,"is_transit":false,"station_name":"Cilebut","transit":false,"time":0,"i_long":106.800016,"line":2,"station_id":"CLT"},{"station_name":"Bojonggede","time":5,"i_lat":-6.493243,"i_long":106.792719,"distance":4331,"station_id":"BJD","transit":false,"line":2,"is_transit":false},{"station_id":"CTA","distance":5197,"station_name":"Citayam","time":5,"i_lat":-6.448811,"i_long":106.800298,"is_transit":false,"line":2,"transit":false},{"station_id":"DP","transit":false,"i_lat":-6.405256,"time":6,"line":2,"distance":5084,"is_transit":false,"i_long":106.816926,"station_name":"Depok"},{"distance":1584,"time":3,"i_lat":-6.391065,"is_transit":false,"line":2,"station_name":"Depokbaru","i_long":106.819451,"station_id":"DPB","transit":false},{"station_name":"Pondok Cina","i_lat":-6.369073,"distance":2727,"is_transit":false,"station_id":"POC","line":2,"transit":false,"time":4,"i_long":106.831114},{"station_id":"UI","transit":false,"i_lat":-6.360749,"time":2,"is_transit":false,"station_name":"Univ. Indonesia","i_long":106.831474,"line":2,"distance":1109},{"distance":2264,"i_long":106.834175,"transit":false,"time":3,"is_transit":false,"line":2,"i_lat":-6.339291,"station_id":"UP","station_name":"Univ. Pancasila"},{"line":2,"is_transit":false,"transit":false,"time":2,"i_long":106.832616,"i_lat":-6.330363,"station_name":"Lenteng Agung","distance":1029,"station_id":"LNA"},{"is_transit":false,"time":3,"transit":false,"line":2,"station_id":"TNT","distance":2671,"station_name":"Tanjung Barat","i_lat":-6.3080680000000005,"i_long":106.838896},{"station_name":"Pasar Minggu","i_lat":-6.2842400000000005,"is_transit":false,"time":4,"i_long":106.843999,"transit":false,"distance":2820,"line":2,"station_id":"PSM"},{"line":2,"station_id":"PSMB","time":2,"is_transit":false,"i_long":106.851577,"distance":2380,"transit":false,"station_name":"Pasar Minggu Baru","i_lat":-6.263214},{"transit":false,"distance":824,"time":2,"station_id":"DRN","i_lat":-6.255332,"is_transit":false,"i_long":106.85449,"station_name":"Duren Kalibata","line":2},{"i_lat":-6.242512,"station_name":"Cawang","i_long":106.856607,"line":2,"is_transit":false,"distance":1546,"time":3,"transit":false,"station_id":"CW"},{"i_long":106.857948,"transit":false,"i_lat":-6.226659,"line":2,"station_id":"TEB","is_transit":false,"distance":1230,"station_name":"Tebet","time":2},{"is_transit":true,"transit":true,"time":4,"station_name":"Manggarai","i_long":106.84912,"station_id":"MRI","line":2,"i_lat":-6.209883,"distance":2610},{"station_name":"Sudirman","distance":3186,"is_transit":false,"transit":false,"station_id":"SUD","time":4,"i_lat":-6.202263,"i_long":106.822649,"line":1},{"i_long":106.819881,"line":1,"is_transit":false,"station_name":"Sudirman Baru","distance":280,"station_id":"SUDB","i_lat":-6.201433,"transit":false,"time":1},{"distance":471,"time":1,"is_transit":false,"station_id":"KAT","transit":false,"station_name":"Karet","i_lat":-6.20132,"i_long":106.816351,"line":1},{"station_id":"THB","distance":2029,"time":5,"transit":false,"i_lat":-6.185545,"station_name":"Tanah Abang","line":1,"is_transit":false,"i_long":106.811091},{"line":1,"station_id":"DU","station_name":"Duri","is_transit":true,"transit":true,"distance":3632,"time":8,"i_lat":-6.155215,"i_long":106.800832},{"i_long":106.788277,"line":5,"is_transit":false,"station_name":"Grogol","transit":false,"time":3,"station_id":"GGL","i_lat":-6.162021,"distance":1700},{"station_name":"Pesing","distance":2036,"time":2,"i_lat":-6.161433,"transit":false,"is_transit":false,"i_long":106.771379,"line":5,"station_id":"PSG"},{"distance":1614,"i_long":106.756522,"transit":false,"station_id":"TKO","time":2,"i_lat":-6.1587309999999995,"line":5,"station_name":"Taman Kota","is_transit":false},{"station_id":"BOI","station_name":"Bojongindah","time":2,"i_long":106.737035,"distance":2334,"transit":false,"i_lat":-6.159876,"line":5,"is_transit":false},{"transit":false,"line":5,"station_name":"Rawa Buaya","is_transit":false,"time":4,"station_id":"RW","distance":1152,"i_long":106.723064,"i_lat":-6.162758},{"i_long":106.701612,"station_id":"KDS","i_lat":-6.166068,"distance":2504,"line":5,"transit":false,"is_transit":false,"station_name":"Kalideres","time":3},{"station_name":"Poris","transit":false,"station_id":"PI","time":3,"line":5,"i_lat":-6.169933,"distance":2548,"i_long":106.679458,"is_transit":false},{"distance":1834,"is_transit":false,"transit":false,"i_lat":-6.171811,"i_long":106.665036,"line":5,"station_name":"Batuceper","station_id":"BPR","time":3},{"transit":false,"station_name":"Tanah Tinggi","station_id":"TTI","i_lat":-6.17331,"is_transit":false,"i_long":106.64657,"line":5,"distance":2028,"time":3}],[{"transit":false,"distance":0,"is_transit":false,"i_lat":-6.530544,"i_long":106.800016,"station_id":"CLT","station_name":"Cilebut","time":0,"line":2},{"distance":4331,"station_id":"BJD","time":5,"station_name":"Bojonggede","is_transit":false,"i_lat":-6.493243,"i_long":106.792719,"line":2,"transit":false},{"i_lat":-6.448811,"i_long":106.800298,"station_name":"Citayam","line":2,"transit":false,"station_id":"CTA","is_transit":false,"time":5,"distance":5197},{"station_id":"DP","i_lat":-6.405256,"station_name":"Depok","i_long":106.816926,"time":6,"is_transit":false,"line":2,"distance":5084,"transit":false},{"is_transit":false,"station_id":"DPB","i_long":106.819451,"line":2,"distance":1584,"i_lat":-6.391065,"transit":false,"time":3,"station_name":"Depokbaru"},{"time":4,"distance":2727,"i_long":106.831114,"station_name":"Pondok Cina","transit":false,"i_lat":-6.369073,"is_transit":false,"station_id":"POC","line":2},{"i_lat":-6.360749,"line":2,"transit":false,"distance":1109,"is_transit":false,"station_name":"Univ. Indonesia","i_long":106.831474,"time":2,"station_id":"UI"},{"station_name":"Univ. Pancasila","i_long":106.834175,"i_lat":-6.339291,"is_transit":false,"transit":false,"distance":2264,"time":3,"station_id":"UP","line":2},{"station_id":"LNA","distance":1029,"is_transit":false,"time":2,"i_lat":-6.330363,"transit":false,"station_name":"Lenteng Agung","line":2,"i_long":106.832616},{"is_transit":false,"station_id":"TNT","station_name":"Tanjung Barat","time":3,"line":2,"i_lat":-6.3080680000000005,"transit":false,"distance":2671,"i_long":106.838896},{"station_name":"Pasar Minggu","station_id":"PSM","i_lat":-6.2842400000000005,"line":2,"i_long":106.843999,"is_transit":false,"transit":false,"distance":2820,"time":4},{"is_transit":false,"station_name":"Pasar Minggu Baru","transit":false,"i_long":106.851577,"line":2,"distance":2380,"station_id":"PSMB","time":2,"i_lat":-6.263214},{"is_transit":false,"station_name":"Duren Kalibata","distance":824,"line":2,"station_id":"DRN","time":2,"i_long":106.85449,"i_lat":-6.255332,"transit":false},{"line":2,"transit":false,"time":3,"distance":1546,"station_name":"Cawang","i_lat":-6.242512,"station_id":"CW","i_long":106.856607,"is_transit":false},{"is_transit":false,"station_name":"Tebet","distance":1230,"time":2,"line":2,"i_lat":-6.226659,"i_long":106.857948,"transit":false,"station_id":"TEB"},{"distance":2610,"transit":false,"time":4,"line":2,"i_long":106.84912,"i_lat":-6.209883,"station_id":"MRI","is_transit":false,"station_name":"Manggarai"},{"station_name":"Cikini","time":4,"line":2,"transit":false,"i_lat":-6.198556,"i_long":106.840169,"is_transit":false,"station_id":"CKI","distance":1590},{"station_id":"GDD","station_name":"Gondangdia","distance":1750,"time":3,"is_transit":false,"transit":false,"i_lat":-6.186295,"line":2,"i_long":106.832183},{"i_lat":-6.166716,"is_transit":false,"line":2,"distance":2015,"station_name":"Juanda","time":4,"i_long":106.828284,"transit":false,"station_id":"JUA"},{"time":2,"is_transit":false,"station_name":"Sawah Besar","distance":1149,"line":2,"station_id":"SW","i_lat":-6.160725,"transit":false,"i_long":106.827103},{"station_name":"Manggabesar","distance":906,"station_id":"MGB","i_long":106.82482,"time":2,"line":2,"transit":false,"is_transit":false,"i_lat":-6.149769},{"transit":false,"station_name":"Jayakarta","line":2,"i_lat":-6.141205,"distance":1080,"is_transit":false,"i_long":106.820901,"station_id":"JAY","time":2},{"distance":1264,"station_name":"Jakarta Kota","time":4,"station_id":"JAKK","i_lat":-6.137569,"is_transit":true,"transit":true,"i_long":106.812439,"line":2},{"station_id":"KPB","station_name":"Kampung Bandan","line":4,"is_transit":true,"distance":1364,"i_lat":-6.132549,"i_long":106.826365,"time":3,"transit":true},{"is_transit":false,"transit":false,"i_lat":-6.144674,"i_long":106.79867,"time":9,"station_id":"AK","line":1,"station_name":"Angke","distance":4102},{"line":1,"i_lat":-6.155215,"transit":true,"distance":1230,"is_transit":true,"station_name":"Duri","time":4,"i_long":106.800832,"station_id":"DU"},{"station_id":"GGL","station_name":"Grogol","is_transit":false,"i_lat":-6.162021,"line":5,"distance":1700,"transit":false,"time":3,"i_long":106.788277},{"i_long":106.771379,"i_lat":-6.161433,"station_name":"Pesing","time":2,"distance":2036,"transit":false,"station_id":"PSG","line":5,"is_transit":false},{"transit":false,"is_transit":false,"time":2,"distance":1614,"station_id":"TKO","i_lat":-6.1587309999999995,"line":5,"station_name":"Taman Kota","i_long":106.756522},{"station_name":"Bojongindah","distance":2334,"line":5,"station_id":"BOI","transit":false,"is_transit":false,"time":2,"i_long":106.737035,"i_lat":-6.159876},{"line":5,"is_transit":false,"distance":1152,"station_id":"RW","station_name":"Rawa Buaya","time":4,"i_long":106.723064,"i_lat":-6.162758,"transit":false},{"distance":2504,"station_id":"KDS","transit":false,"station_name":"Kalideres","line":5,"i_lat":-6.166068,"is_transit":false,"time":3,"i_long":106.701612},{"station_name":"Poris","is_transit":false,"i_lat":-6.169933,"distance":2548,"line":5,"transit":false,"i_long":106.679458,"station_id":"PI","time":3},{"station_id":"BPR","line":5,"i_long":106.665036,"transit":false,"station_name":"Batuceper","distance":1834,"time":3,"is_transit":false,"i_lat":-6.171811},{"i_long":106.64657,"time":3,"transit":false,"distance":2028,"i_lat":-6.17331,"is_transit":false,"line":5,"station_id":"TTI","station_name":"Tanah Tinggi"}],[{"is_transit":false,"station_name":"Cilebut","station_id":"CLT","line":2,"distance":0,"i_long":106.800016,"transit":false,"time":0,"i_lat":-6.530544},{"line":2,"i_lat":-6.493243,"is_transit":false,"distance":4331,"transit":false,"i_long":106.792719,"station_name":"Bojonggede","time":5,"station_id":"BJD"},{"transit":false,"i_lat":-6.448811,"station_id":"CTA","distance":5197,"station_name":"Citayam","is_transit":false,"i_long":106.800298,"time":5,"line":2},{"line":2,"i_long":106.816926,"time":6,"station_id":"DP","transit":false,"i_lat":-6.405256,"is_transit":false,"distance":5084,"station_name":"Depok"},{"time":3,"transit":false,"i_lat":-6.391065,"i_long":106.819451,"distance":1584,"is_transit":false,"station_id":"DPB","line":2,"station_name":"Depokbaru"},{"station_name":"Pondok Cina","line":2,"distance":2727,"time":4,"i_long":106.831114,"i_lat":-6.369073,"is_transit":false,"transit":false,"station_id":"POC"},{"is_transit":false,"station_id":"UI","transit":false,"i_long":106.831474,"distance":1109,"time":2,"station_name":"Univ. Indonesia","i_lat":-6.360749,"line":2},{"distance":2264,"time":3,"i_long":106.834175,"line":2,"is_transit":false,"station_name":"Univ. Pancasila","i_lat":-6.339291,"transit":false,"station_id":"UP"},{"time":2,"i_long":106.832616,"is_transit":false,"distance":1029,"transit":false,"i_lat":-6.330363,"line":2,"station_name":"Lenteng Agung","station_id":"LNA"},{"transit":false,"station_id":"TNT","is_transit":false,"i_lat":-6.3080680000000005,"time":3,"i_long":106.838896,"distance":2671,"station_name":"Tanjung Barat","line":2},{"is_transit":false,"station_id":"PSM","line":2,"distance":2820,"i_long":106.843999,"transit":false,"station_name":"Pasar Minggu","i_lat":-6.2842400000000005,"time":4},{"transit":false,"line":2,"i_lat":-6.263214,"station_name":"Pasar Minggu Baru","time":2,"is_transit":false,"i_long":106.851577,"distance":2380,"station_id":"PSMB"},{"line":2,"transit":false,"time":2,"distance":824,"station_id":"DRN","i_lat":-6.255332,"i_long":106.85449,"is_transit":false,"station_name":"Duren Kalibata"},{"distance":1546,"station_name":"Cawang","line":2,"time":3,"station_id":"CW","i_long":106.856607,"transit":false,"is_transit":false,"i_lat":-6.242512},{"line":2,"distance":1230,"station_id":"TEB","transit":false,"station_name":"Tebet","i_long":106.857948,"i_lat":-6.226659,"is_transit":false,"time":2},{"is_transit":true,"station_name":"Manggarai","time":4,"transit":true,"distance":2610,"line":2,"i_lat":-6.209883,"station_id":"MRI","i_long":106.84912},{"station_name":"Matraman","i_long":106.858896,"transit":false,"station_id":"MTR","is_transit":false,"distance":1275,"i_lat":-6.212485,"time":2,"line":1},{"line":1,"i_lat":-6.215091,"time":8,"distance":1377,"station_id":"JNG","i_long":106.86807400000001,"station_name":"Jatinegara","is_transit":true,"transit":true},{"station_name":"Pondok Jati","i_long":106.861737,"station_id":"POK","transit":false,"i_lat":-6.209188,"is_transit":false,"time":2,"line":11,"distance":1236},{"distance":1829,"transit":false,"station_id":"KMT","i_lat":-6.193792,"time":2,"is_transit":false,"station_name":"Kramat","i_long":106.855437,"line":11},{"is_transit":false,"i_lat":-6.185975,"time":1,"distance":973,"station_id":"GST","station_name":"Gang Sentiong","i_long":106.850107,"transit":false,"line":11},{"line":11,"time":8,"transit":false,"station_name":"Pasar Senen","i_lat":-6.174784,"is_transit":false,"i_long":106.84368,"distance":1567,"station_id":"PSE"},{"station_id":"KMO","station_name":"Kemayoran","distance":1436,"is_transit":false,"transit":false,"line":11,"i_long":106.839204,"time":4,"i_lat":-6.161728},{"station_id":"RJW","is_transit":false,"transit":false,"station_name":"Rajawali","line":11,"distance":1901,"i_long":106.836569,"i_lat":-6.14505,"time":5},{"time":3,"is_transit":true,"station_id":"KPB","distance":1444,"station_name":"Kampung Bandan","transit":true,"i_lat":-6.132549,"i_long":106.826365,"line":4},{"station_id":"AK","i_long":106.79867,"is_transit":false,"line":1,"distance":4102,"i_lat":-6.144674,"time":9,"station_name":"Angke","transit":false},{"station_name":"Duri","i_long":106.800832,"distance":1230,"time":4,"is_transit":true,"station_id":"DU","i_lat":-6.155215,"transit":true,"line":1},{"time":3,"station_id":"GGL","transit":false,"i_lat":-6.162021,"i_long":106.788277,"distance":1700,"line":5,"station_name":"Grogol","is_transit":false},{"i_lat":-6.161433,"transit":false,"line":5,"distance":2036,"station_name":"Pesing","i_long":106.771379,"is_transit":false,"time":2,"station_id":"PSG"},{"line":5,"is_transit":false,"station_name":"Taman Kota","time":2,"transit":false,"i_lat":-6.1587309999999995,"distance":1614,"station_id":"TKO","i_long":106.756522},{"time":2,"distance":2334,"station_id":"BOI","line":5,"transit":false,"i_long":106.737035,"station_name":"Bojongindah","i_lat":-6.159876,"is_transit":false},{"station_name":"Rawa Buaya","is_transit":false,"transit":false,"station_id":"RW","time":4,"i_long":106.723064,"i_lat":-6.162758,"distance":1152,"line":5},{"station_name":"Kalideres","station_id":"KDS","i_lat":-6.166068,"i_long":106.701612,"distance":2504,"transit":false,"line":5,"is_transit":false,"time":3},{"time":3,"i_lat":-6.169933,"line":5,"i_long":106.679458,"distance":2548,"station_name":"Poris","is_transit":false,"transit":false,"station_id":"PI"},{"distance":1834,"transit":false,"station_id":"BPR","is_transit":false,"i_long":106.665036,"line":5,"station_name":"Batuceper","i_lat":-6.171811,"time":3},{"is_transit":false,"i_long":106.64657,"station_name":"Tanah Tinggi","transit":false,"line":5,"distance":2028,"time":3,"station_id":"TTI","i_lat":-6.17331}]]}