{"data":[[{"time":0,"distance":0,"i_lat":-6.530544,"station_name":"Cilebut","is_transit":false,"station_id":"CLT","transit":false,"line":2,"i_long":106.800016},{"i_lat":-6.493243,"time":5,"transit":false,"distance":4331,"i_long":106.792719,"line":2,"is_transit":false,"station_name":"Bojonggede","station_id":"BJD"},{"i_lat":-6.448811,"i_long":106.800298,"station_name":"Citayam","time":5,"line":2,"distance":5197,"is_transit":false,"station_id":"CTA","transit":false},{"i_long":106.816926,"line":2,"is_transit":false,"time":6,"station_id":"DP","transit":false,"i_lat":-6.405256,"station_name":"Depok","distance":5084},{"station_name":"Depokbaru","station_id":"DPB","time":3,"i_lat":-6.391065,"distance":1584,"is_transit":false,"transit":false,"line":2,"i_long":106.819451},{"transit":false,"i_lat":-6.369073,"station_id":"POC","line":2,"station_name":"Pondok Cina","distance":2727,"time":4,"i_long":106.831114,"is_transit":false},{"i_lat":-6.360749,"i_long":106.831474,"line":2,"distance":1109,"transit":false,"is_transit":false,"station_id":"UI","time":2,"station_name":"Univ. Indonesia"},{"distance":2264,"transit":false,"is_transit":false,"i_long":106.834175,"i_lat":-6.339291,"station_name":"Univ. Pancasila","time":3,"station_id":"UP","line":2},{"distance":1029,"station_name":"Lenteng Agung","i_long":106.832616,"station_id":"LNA","line":2,"transit":false,"time":2,"i_lat":-6.330363,"is_transit":false},{"station_name":"Tanjung Barat","is_transit":false,"line":2,"time":3,"i_long":106.838896,"i_lat":-6.3080680000000005,"transit":false,"distance":2671,"station_id":"TNT"},{"is_transit":false,"i_lat":-6.2842400000000005,"line":2,"i_long":106.843999,"station_name":"Pasar Minggu","time":4,"transit":false,"distance":2820,"station_id":"PSM"},{"distance":2380,"line":2,"transit":false,"is_transit":false,"i_lat":-6.263214,"station_name":"Pasar Minggu Baru","station_id":"PSMB","i_long":106.851577,"time":2},{"station_id":"DRN","line":2,"station_name":"Duren Kalibata","time":2,"i_lat":-6.255332,"is_transit":false,"distance":824,"i_long":106.85449,"transit":false}]]}