{"data":[[{"transit":false,"distance":0,"is_transit":false,"time":0,"station_name":"Cilebut","station_id":"CLT","i_lat":-6.530544,"i_long":106.800016,"line":2},{"station_id":"BJD","i_long":106.792719,"transit":false,"time":5,"is_transit":false,"distance":4331,"i_lat":-6.493243,"line":2,"station_name":"Bojonggede"},{"is_transit":false,"i_lat":-6.448811,"time":5,"station_id":"CTA","i_long":106.800298,"line":2,"transit":false,"station_name":"Citayam","distance":5197},{"is_transit":false,"time":6,"i_lat":-6.405256,"i_long":106.816926,"station_name":"Depok","distance":5084,"station_id":"DP","line":2,"transit":false},{"time":3,"station_name":"Depokbaru","station_id":"DPB","distance":1584,"i_long":106.819451,"line":2,"is_transit":false,"i_lat":-6.391065,"transit":false},{"i_long":106.831114,"station_id":"POC","distance":2727,"transit":false,"line":2,"i_lat":-6.369073,"time":4,"station_name":"Pondok Cina","is_transit":false},{"station_id":"UI","transit":false,"i_long":106.831474,"station_name":"Univ. Indonesia","time":2,"distance":1109,"line":2,"i_lat":-6.360749,"is_transit":false},{"station_name":"Univ. Pancasila","line":2,"is_transit":false,"station_id":"UP","i_long":106.834175,"transit":false,"i_lat":-6.339291,"time":3,"distance":2264},{"station_name":"Lenteng Agung","station_id":"LNA","is_transit":false,"line":2,"transit":false,"i_long":106.832616,"time":2,"i_lat":-6.330363,"distance":1029},{"transit":false,"station_id":"TNT","time":3,"station_name":"Tanjung Barat","is_transit":false,"i_lat":-6.3080680000000005,"i_long":106.838896,"distance":2671,"line":2},{"time":4,"station_id":"PSM","i_long":106.843999,"is_transit":false,"line":2,"station_name":"Pasar Minggu","distance":2820,"i_lat":-6.2842400000000005,"transit":false},{"line":2,"station_name":"Pasar Minggu Baru","i_long":106.851577,"station_id":"PSMB","is_transit":false,"i_lat":-6.263214,"time":2,"transit":false,"distance":2380},{"time":2,"station_id":"DRN","i_lat":-6.255332,"station_name":"Duren Kalibata","line":2,"i_long":106.85449,"transit":false,"distance":824,"is_transit":false},{"is_transit":false,"time":3,"station_name":"Cawang","distance":1546,"i_lat":-6.242512,"station_id":"CW","i_long":106.856607,"transit":false,"line":2},{"transit":false,"station_name":"Tebet","distance":1230,"time":2,"station_id":"TEB","is_transit":false,"i_lat":-6.226659,"i_long":106.857948,"line":2},{"is_transit":true,"station_name":"Manggarai","transit":true,"time":4,"distance":2610,"i_lat":-6.209883,"i_long":106.84912,"station_id":"MRI","line":2},{"station_name":"Matraman","transit":false,"station_id":"MTR","is_transit":false,"time":2,"distance":1275,"i_long":106.858896,"line":1,"i_lat":-6.212485},{"i_lat":-6.215091,"line":1,"is_transit":false,"transit":false,"i_long":106.86807400000001,"station_id":"JNG","time":8,"station_name":"Jatinegara","distance":1377},{"transit":false,"line":1,"i_long":106.899548,"i_lat":-6.2135,"is_transit":false,"time":3,"distance":3395,"station_name":"Klender","station_id":"KLD"},{"station_id":"BUA","i_lat":-6.215568,"i_long":106.922662,"time":2,"distance":3100,"transit":false,"station_name":"Buaran","line":1,"is_transit":false},{"transit":false,"station_id":"KLDB","time":1,"distance":1305,"i_lat":-6.217455,"i_long":106.939679,"station_name":"Klenderbaru","is_transit":false,"line":1},{"is_transit":false,"station_id":"CUK","time":8,"transit":false,"station_name":"Cakung","line":1,"distance":1385,"i_lat":-6.219053,"i_long":106.951283},{"i_long":106.977657,"distance":3097,"is_transit":false,"i_lat":-6.224515,"station_name":"Kranji","transit":false,"station_id":"KRI","line":1,"time":3}],[{"distance":0,"station_id":"CLT","time":0,"line":2,"i_lat":-6.530544,"is_transit":false,"station_name":"Cilebut","i_long":106.800016,"transit":false},{"i_long":106.792719,"is_transit":false,"line":2,"distance":4331,"time":5,"station_name":"Bojonggede","station_id":"BJD","transit":false,"i_lat":-6.493243},{"line":2,"i_long":106.800298,"station_id":"CTA","is_transit":false,"time":5,"transit":false,"i_lat":-6.448811,"station_name":"Citayam","distance":5197},{"time":6,"is_transit":false,"distance":5084,"i_lat":-6.405256,"i_long":106.816926,"transit":false,"station_name":"Depok","station_id":"DP","line":2},{"time":3,"line":2,"is_transit":false,"distance":1584,"i_lat":-6.391065,"transit":false,"station_id":"DPB","i_long":106.819451,"station_name":"Depokbaru"},{"transit":false,"i_long":106.831114,"line":2,"distance":2727,"station_id":"POC","i_lat":-6.369073,"is_transit":false,"time":4,"station_name":"Pondok Cina"},{"station_id":"UI","station_name":"Univ. Indonesia","time":2,"is_transit":false,"line":2,"i_long":106.831474,"transit":false,"distance":1109,"i_lat":-6.360749},{"station_id":"UP","line":2,"transit":false,"i_lat":-6.339291,"i_long":106.834175,"is_transit":false,"time":3,"station_name":"Univ. Pancasila","distance":2264},{"i_long":106.832616,"is_transit":false,"time":2,"i_lat":-6.330363,"line":2,"transit":false,"distance":1029,"station_id":"LNA","station_name":"Lenteng Agung"},{"transit":false,"station_id":"TNT","line":2,"is_transit":false,"distance":2671,"station_name":"Tanjung Barat","i_lat":-6.3080680000000005,"time":3,"i_long":106.838896},{"distance":2820,"i_lat":-6.2842400000000005,"station_name":"Pasar Minggu","i_long":106.843999,"transit":false,"is_transit":false,"station_id":"PSM","line":2,"time":4},{"transit":false,"i_lat":-6.263214,"distance":2380,"is_transit":false,"time":2,"station_name":"Pasar Minggu Baru","station_id":"PSMB","i_long":106.851577,"line":2},{"is_transit":false,"i_long":106.85449,"line":2,"station_name":"Duren Kalibata","station_id":"DRN","i_lat":-6.255332,"transit":false,"distance":824,"time":2},{"line":2,"time":3,"station_name":"Cawang","distance":1546,"station_id":"CW","i_long":106.856607,"i_lat":-6.242512,"is_transit":false,"transit":false},{"transit":false,"station_id":"TEB","i_long":106.857948,"distance":1230,"line":2,"is_transit":false,"i_lat":-6.226659,"time":2,"station_name":"Tebet"},{"is_transit":true,"station_name":"Manggarai","i_long":106.84912,"i_lat":-6.209883,"station_id":"MRI","time":4,"line":2,"transit":true,"distance":2610},{"station_id":"SUD","time":4,"station_name":"Sudirman","i_lat":-6.202263,"i_long":106.822649,"distance":3186,"transit":false,"is_transit":false,"line":1},{"transit":false,"i_long":106.819881,"station_id":"SUDB","i_lat":-6.201433,"line":1,"is_transit":false,"distance":280,"station_name":"Sudirman Baru","time":1},{"time":1,"station_name":"Karet","transit":false,"station_id":"KAT","line":1,"is_transit":false,"i_long":106.816351,"distance":471,"i_lat":-6.20132},{"station_id":"THB","i_long":106.811091,"is_transit":false,"time":5,"transit":false,"i_lat":-6.185545,"line":1,"station_name":"Tanah Abang","distance":2029},{"time":8,"transit":false,"station_name":"Duri","distance":3632,"i_lat":-6.155215,"line":1,"is_transit":false,"station_id":"DU","i_long":106.800832},{"distance":1230,"station_id":"AK","station_name":"Angke","line":1,"is_transit":false,"time":4,"i_lat":-6.144674,"transit":false,"i_long":106.79867},{"time":9,"station_name":"Kampung Bandan","distance":4102,"is_transit":true,"station_id":"KPB","i_lat":-6.132549,"i_long":106.826365,"line":4,"transit":true},{"time":3,"i_long":106.836569,"distance":1444,"transit":false,"i_lat":-6.14505,"is_transit":false,"line":11,"station_name":"Rajawali","station_id":"RJW"},{"time":5,"transit":false,"i_long":106.839204,"line":11,"i_lat":-6.161728,"is_transit":false,"distance":1901,"station_name":"Kemayoran","station_id":"KMO"},{"is_transit":false,"transit":false,"station_name":"Pasar Senen","line":11,"station_id":"PSE","distance":1436,"i_long":106.84368,"time":4,"i_lat":-6.174784},{"time":8,"is_transit":false,"i_long":106.850107,"station_name":"Gang Sentiong","distance":1567,"station_id":"GST","i_lat":-6.185975,"line":11,"transit":false},{"i_long":106.855437,"is_transit":false,"line":11,"transit":false,"time":1,"i_lat":-6.193792,"station_name":"Kramat","distance":973,"station_id":"KMT"},{"station_id":"POK","line":11,"i_long":106.861737,"i_lat":-6.209188,"transit":false,"is_transit":false,"time":2,"station_name":"Pondok Jati","distance":1829},{"transit":true,"distance":1236,"i_lat":-6.215091,"is_transit":true,"time":9,"i_long":106.86807400000001,"station_id":"JNG","station_name":"Jatinegara","line":1},{"distance":3395,"time":3,"transit":false,"i_lat":-6.2135,"line":1,"station_name":"Klender","is_transit":false,"station_id":"KLD","i_long":106.899548},{"i_long":106.922662,"time":2,"i_lat":-6.215568,"station_id":"BUA","distance":3100,"is_transit":false,"transit":false,"station_name":"Buaran","line":1},{"i_lat":-6.217455,"transit":false,"line":1,"distance":1305,"is_transit":false,"station_name":"Klenderbaru","i_long":106.939679,"time":1,"station_id":"KLDB"},{"line":1,"station_id":"CUK","transit":false,"i_lat":-6.219053,"distance":1385,"is_transit":false,"time":8,"station_name":"Cakung","i_long":106.951283},{"transit":false,"distance":3097,"station_id":"KRI","i_long":106.977657,"line":1,"i_lat":-6.224515,"is_transit":false,"time":3,"station_name":"Kranji"}],[{"is_transit":false,"transit":false,"i_lat":-6.530544,"station_name":"Cilebut","i_long":106.800016,"time":0,"distance":0,"line":2,"station_id":"CLT"},{"i_long":106.792719,"time":5,"line":2,"i_lat":-6.493243,"is_transit":false,"distance":4331,"station_id":"BJD","transit":false,"station_name":"Bojonggede"},{"transit":false,"station_id":"CTA","i_long":106.800298,"is_transit":false,"i_lat":-6.448811,"distance":5197,"station_name":"Citayam","time":5,"line":2},{"time":6,"transit":false,"distance":5084,"i_long":106.816926,"station_id":"DP","i_lat":-6.405256,"line":2,"station_name":"Depok","is_transit":false},{"is_transit":false,"distance":1584,"line":2,"station_id":"DPB","time":3,"i_lat":-6.391065,"station_name":"Depokbaru","i_long":106.819451,"transit":false},{"i_long":106.831114,"station_name":"Pondok Cina","line":2,"station_id":"POC","transit":false,"time":4,"distance":2727,"is_transit":false,"i_lat":-6.369073},{"distance":1109,"i_long":106.831474,"time":2,"station_id":"UI","i_lat":-6.360749,"line":2,"is_transit":false,"transit":false,"station_name":"Univ. Indonesia"},{"distance":2264,"i_lat":-6.339291,"i_long":106.834175,"line":2,"time":3,"station_name":"Univ. Pancasila","transit":false,"is_transit":false,"station_id":"UP"},{"distance":1029,"is_transit":false,"station_id":"LNA","i_lat":-6.330363,"line":2,"i_long":106.832616,"transit":false,"time":2,"station_name":"Lenteng Agung"},{"is_transit":false,"transit":false,"station_id":"TNT","distance":2671,"i_lat":-6.3080680000000005,"i_long":106.838896,"time":3,"line":2,"station_name":"Tanjung Barat"},{"distance":2820,"i_lat":-6.2842400000000005,"i_long":106.843999,"station_id":"PSM","line":2,"is_transit":false,"transit":false,"station_name":"Pasar Minggu","time":4},{"is_transit":false,"time":2,"distance":2380,"i_long":106.851577,"transit":false,"station_name":"Pasar Minggu Baru","i_lat":-6.263214,"line":2,"station_id":"PSMB"},{"transit":false,"station_id":"DRN","station_name":"Duren Kalibata","distance":824,"i_lat":-6.255332,"i_long":106.85449,"time":2,"line":2,"is_transit":false},{"i_lat":-6.242512,"time":3,"station_name":"Cawang","i_long":106.856607,"line":2,"is_transit":false,"distance":1546,"transit":false,"station_id":"CW"},{"distance":1230,"i_lat":-6.226659,"i_long":106.857948,"station_id":"TEB","time":2,"line":2,"transit":false,"is_transit":false,"station_name":"Tebet"},{"i_lat":-6.209883,"i_long":106.84912,"transit":false,"time":4,"distance":2610,"is_transit":false,"line":2,"station_id":"MRI","station_name":"Manggarai"},{"station_name":"Cikini","i_long":106.840169,"time":4,"is_transit":false,"station_id":"CKI","transit":false,"distance":1590,"i_lat":-6.198556,"line":2},{"is_transit":false,"i_lat":-6.186295,"transit":false,"station_name":"Gondangdia","time":3,"station_id":"GDD","distance":1750,"i_long":106.832183,"line":2},{"is_transit":false,"time":4,"station_name":"Juanda","transit":false,"distance":2015,"line":2,"i_lat":-6.166716,"station_id":"JUA","i_long":106.828284},{"i_long":106.827103,"line":2,"station_id":"SW","distance":1149,"is_transit":false,"i_lat":-6.160725,"transit":false,"time":2,"station_name":"Sawah Besar"},{"station_name":"Manggabesar","line":2,"transit":false,"time":2,"distance":906,"is_transit":false,"i_lat":-6.149769,"i_long":106.82482,"station_id":"MGB"},{"station_id":"JAY","is_transit":false,"time":2,"station_name":"Jayakarta","i_lat":-6.141205,"line":2,"transit":false,"distance":1080,"i_long":106.820901},{"line":2,"time":4,"distance":1264,"station_id":"JAKK","i_long":106.812439,"station_name":"Jakarta Kota","transit":true,"i_lat":-6.137569,"is_transit":true},{"transit":true,"distance":1364,"i_lat":-6.132549,"line":4,"time":3,"station_name":"Kampung Bandan","i_long":106.826365,"is_transit":true,"station_id":"KPB"},{"transit":false,"is_transit":false,"i_lat":-6.14505,"line":11,"station_id":"RJW","time":3,"distance":1444,"station_name":"Rajawali","i_long":106.836569},{"i_lat":-6.161728,"distance":1901,"i_long":106.839204,"time":5,"is_transit":false,"line":11,"station_name":"Kemayoran","transit":false,"station_id":"KMO"},{"line":11,"i_lat":-6.174784,"station_id":"PSE","transit":false,"distance":1436,"station_name":"Pasar Senen","time":4,"i_long":106.84368,"is_transit":false},{"line":11,"i_lat":-6.185975,"is_transit":false,"time":8,"station_id":"GST","i_long":106.850107,"distance":1567,"station_name":"Gang Sentiong","transit":false},{"distance":973,"i_lat":-6.193792,"station_id":"KMT","is_transit":false,"time":1,"station_name":"Kramat","i_long":106.855437,"line":11,"transit":false},{"time":2,"i_long":106.861737,"station_name":"Pondok Jati","distance":1829,"i_lat":-6.209188,"is_transit":false,"transit":false,"line":11,"station_id":"POK"},{"station_name":"Jatinegara","is_transit":true,"i_long":106.86807400000001,"time":9,"i_lat":-6.215091,"line":1,"transit":true,"station_id":"JNG","distance":1236},{"time":3,"i_long":106.899548,"distance":3395,"station_id":"KLD","transit":false,"line":1,"station_name":"Klender","is_transit":false,"i_lat":-6.2135},{"distance":3100,"i_lat":-6.215568,"line":1,"station_name":"Buaran","time":2,"transit":false,"i_long":106.922662,"station_id":"BUA","is_transit":false},{"is_transit":false,"time":1,"station_name":"Klenderbaru","line":1,"transit":false,"distance":1305,"i_long":106.939679,"station_id":"KLDB","i_lat":-6.217455},{"distance":1385,"station_name":"Cakung","is_transit":false,"i_long":106.951283,"i_lat":-6.219053,"time":8,"transit":false,"line":1,"station_id":"CUK"},{"i_lat":-6.224515,"station_id":"KRI","line":1,"i_long":106.977657,"station_name":"Kranji","distance":3097,"time":3,"transit":false,"is_transit":false}]]}