{"data":[[{"line":0,"station_name":"Cilebut","time":0,"station_id":"CLT","i_long":106.800016,"is_transit":false,"i_lat":-6.530544,"transit":false,"distance":0},{"line":0,"i_long":106.792719,"transit":false,"station_name":"Bojonggede","time":5,"station_id":"BJD","is_transit":false,"distance":4331,"i_lat":-6.493243},{"line":1,"station_name":"Citayam","transit":false,"i_long":106.800298,"station_id":"CTA","distance":5197,"time":5,"is_transit":true,"i_lat":-6.448811},{"time":6,"is_transit":false,"distance":5084,"transit":false,"i_lat":-6.405256,"station_name":"Depok","i_long":106.816926,"line":0,"station_id":"DP"},{"i_lat":-6.391065,"time":3,"distance":1584,"line":0,"station_name":"Depokbaru","transit":false,"i_long":106.819451,"station_id":"DPB","is_transit":false},{"transit":false,"is_transit":false,"i_long":106.831114,"line":2,"i_lat":-6.369073,"station_id":"POC","time":4,"distance":2727,"station_name":"Pondok Cina"},{"distance":1109,"is_transit":false,"station_name":"Univ. Indonesia","line":2,"i_lat":-6.360749,"transit":false,"i_long":106.831474,"station_id":"UI","time":2},{"distance":2264,"station_id":"UP","time":3,"station_name":"Univ. Pancasila","transit":false,"i_long":106.834175,"line":2,"is_transit":false,"i_lat":-6.339291},{"i_lat":-6.330363,"is_transit":false,"station_id":"LNA","time":2,"station_name":"Lenteng Agung","line":2,"transit":false,"distance":1029,"i_long":106.832616},{"time":3,"i_long":106.838896,"line":2,"i_lat":-6.3080680000000005,"is_transit":false,"distance":2671,"station_name":"Tanjung Barat","transit":false,"station_id":"TNT"},{"i_lat":-6.2842400000000005,"transit":false,"distance":2820,"line":2,"station_name":"Pasar Minggu","i_long":106.843999,"station_id":"PSM","is_transit":false,"time":4}]]}