{"data":[[{"station_id":"CLT","station_name":"Cilebut","is_transit":false,"i_lat":-6.530544,"time":0,"line":2,"distance":0,"transit":false,"i_long":106.800016},{"transit":false,"distance":4331,"i_lat":-6.493243,"station_id":"BJD","station_name":"Bojonggede","is_transit":false,"time":5,"i_long":106.792719,"line":2},{"i_lat":-6.448811,"line":2,"distance":5197,"i_long":106.800298,"transit":false,"station_id":"CTA","is_transit":false,"station_name":"Citayam","time":5},{"i_long":106.816926,"i_lat":-6.405256,"line":2,"is_transit":false,"time":6,"station_name":"Depok","station_id":"DP","distance":5084,"transit":false},{"station_id":"DPB","station_name":"Depokbaru","i_long":106.819451,"is_transit":false,"time":3,"i_lat":-6.391065,"line":2,"transit":false,"distance":1584},{"station_id":"POC","transit":false,"time":4,"i_lat":-6.369073,"is_transit":false,"station_name":"Pondok Cina","line":2,"distance":2727,"i_long":106.831114},{"station_name":"Univ. Indonesia","line":2,"time":2,"i_lat":-6.360749,"station_id":"UI","distance":1109,"transit":false,"is_transit":false,"i_long":106.831474},{"station_name":"Univ. Pancasila","time":3,"line":2,"distance":2264,"i_lat":-6.339291,"i_long":106.834175,"station_id":"UP","transit":false,"is_transit":false},{"line":2,"station_id":"LNA","station_name":"Lenteng Agung","distance":1029,"i_lat":-6.330363,"transit":false,"time":2,"is_transit":false,"i_long":106.832616},{"station_id":"TNT","time":3,"i_long":106.838896,"station_name":"Tanjung Barat","is_transit":false,"transit":false,"i_lat":-6.3080680000000005,"distance":2671,"line":2},{"is_transit":false,"i_long":106.843999,"distance":2820,"station_name":"Pasar Minggu","line":2,"transit":false,"time":4,"station_id":"PSM","i_lat":-6.2842400000000005},{"is_transit":false,"distance":2380,"i_long":106.851577,"i_lat":-6.263214,"time":2,"station_id":"PSMB","station_name":"Pasar Minggu Baru","transit":false,"line":2},{"line":2,"station_name":"Duren Kalibata","transit":false,"is_transit":false,"time":2,"i_lat":-6.255332,"i_long":106.85449,"station_id":"DRN","distance":824},{"station_name":"Cawang","is_transit":false,"transit":false,"distance":1546,"station_id":"CW","i_lat":-6.242512,"time":3,"i_long":106.856607,"line":2},{"station_name":"Tebet","i_long":106.857948,"i_lat":-6.226659,"transit":false,"distance":1230,"station_id":"TEB","time":2,"line":2,"is_transit":false},{"line":2,"transit":true,"station_id":"MRI","is_transit":true,"i_lat":-6.209883,"station_name":"Manggarai","time":4,"distance":2610,"i_long":106.84912},{"transit":false,"station_name":"Sudirman","i_lat":-6.202263,"i_long":106.822649,"time":4,"station_id":"SUD","distance":3186,"line":1,"is_transit":false},{"distance":280,"i_long":106.819881,"transit":false,"line":1,"station_name":"Sudirman Baru","time":1,"station_id":"SUDB","is_transit":false,"i_lat":-6.201433},{"transit":false,"station_name":"Karet","is_transit":false,"distance":471,"i_lat":-6.20132,"line":1,"station_id":"KAT","i_long":106.816351,"time":1},{"time":5,"i_lat":-6.185545,"i_long":106.811091,"station_name":"Tanah Abang","station_id":"THB","distance":2029,"is_transit":true,"transit":true,"line":1},{"transit":false,"i_lat":-6.207404,"distance":3191,"line":6,"station_name":"Palmerah","station_id":"PLM","is_transit":false,"time":6,"i_long":106.79689},{"transit":false,"station_name":"Kebayoran","station_id":"KBY","i_lat":-6.237242,"is_transit":false,"time":7,"i_long":106.780334,"distance":3737,"line":6},{"line":6,"i_long":106.74273,"i_lat":-6.276362,"is_transit":false,"transit":false,"distance":6218,"time":8,"station_name":"Pondokranji","station_id":"PDJ"},{"transit":false,"i_long":106.728916,"station_id":"JMU","is_transit":false,"station_name":"Jurangmangu","i_lat":-6.288927,"time":3,"distance":2179,"line":6},{"transit":false,"station_name":"Sudimara","i_lat":-6.296963,"time":4,"i_long":106.712277,"is_transit":false,"station_id":"SDM","distance":1994,"line":6}],[{"transit":false,"time":0,"station_name":"Cilebut","i_lat":-6.530544,"station_id":"CLT","i_long":106.800016,"line":2,"distance":0,"is_transit":false},{"i_long":106.792719,"station_id":"BJD","station_name":"Bojonggede","distance":4331,"line":2,"transit":false,"i_lat":-6.493243,"is_transit":false,"time":5},{"station_name":"Citayam","is_transit":false,"time":5,"i_long":106.800298,"transit":false,"line":2,"distance":5197,"station_id":"CTA","i_lat":-6.448811},{"station_name":"Depok","is_transit":false,"i_long":106.816926,"line":2,"time":6,"transit":false,"distance":5084,"i_lat":-6.405256,"station_id":"DP"},{"station_name":"Depokbaru","i_lat":-6.391065,"i_long":106.819451,"station_id":"DPB","is_transit":false,"time":3,"distance":1584,"line":2,"transit":false},{"transit":false,"time":4,"distance":2727,"station_id":"POC","i_long":106.831114,"station_name":"Pondok Cina","line":2,"i_lat":-6.369073,"is_transit":false},{"transit":false,"is_transit":false,"line":2,"i_lat":-6.360749,"distance":1109,"station_id":"UI","time":2,"i_long":106.831474,"station_name":"Univ. Indonesia"},{"distance":2264,"i_long":106.834175,"station_name":"Univ. Pancasila","time":3,"transit":false,"station_id":"UP","i_lat":-6.339291,"line":2,"is_transit":false},{"is_transit":false,"station_id":"LNA","time":2,"line":2,"i_long":106.832616,"station_name":"Lenteng Agung","distance":1029,"transit":false,"i_lat":-6.330363},{"i_lat":-6.3080680000000005,"station_name":"Tanjung Barat","i_long":106.838896,"line":2,"transit":false,"is_transit":false,"time":3,"distance":2671,"station_id":"TNT"},{"i_lat":-6.2842400000000005,"station_id":"PSM","line":2,"distance":2820,"i_long":106.843999,"transit":false,"station_name":"Pasar Minggu","is_transit":false,"time":4},{"i_lat":-6.263214,"line":2,"is_transit":false,"i_long":106.851577,"transit":false,"station_name":"Pasar Minggu Baru","station_id":"PSMB","time":2,"distance":2380},{"station_name":"Duren Kalibata","station_id":"DRN","time":2,"is_transit":false,"i_long":106.85449,"line":2,"transit":false,"distance":824,"i_lat":-6.255332},{"distance":1546,"station_name":"Cawang","i_lat":-6.242512,"line":2,"transit":false,"is_transit":false,"station_id":"CW","i_long":106.856607,"time":3},{"transit":false,"time":2,"distance":1230,"line":2,"i_lat":-6.226659,"i_long":106.857948,"station_id":"TEB","station_name":"Tebet","is_transit":false},{"station_name":"Manggarai","i_lat":-6.209883,"time":4,"transit":false,"station_id":"MRI","is_transit":false,"i_long":106.84912,"line":2,"distance":2610},{"station_name":"Cikini","time":4,"i_long":106.840169,"i_lat":-6.198556,"line":2,"transit":false,"distance":1590,"is_transit":false,"station_id":"CKI"},{"station_name":"Gondangdia","distance":1750,"transit":false,"time":3,"i_lat":-6.186295,"i_long":106.832183,"is_transit":false,"line":2,"station_id":"GDD"},{"distance":2015,"i_lat":-6.166716,"i_long":106.828284,"station_id":"JUA","transit":false,"station_name":"Juanda","line":2,"is_transit":false,"time":4},{"is_transit":false,"station_id":"SW","i_lat":-6.160725,"transit":false,"distance":1149,"time":2,"line":2,"station_name":"Sawah Besar","i_long":106.827103},{"station_id":"MGB","is_transit":false,"distance":906,"line":2,"transit":false,"time":2,"i_long":106.82482,"station_name":"Manggabesar","i_lat":-6.149769},{"time":2,"line":2,"is_transit":false,"station_id":"JAY","i_lat":-6.141205,"distance":1080,"i_long":106.820901,"station_name":"Jayakarta","transit":false},{"station_name":"Jakarta Kota","time":4,"distance":1264,"i_long":106.812439,"line":2,"transit":true,"station_id":"JAKK","is_transit":true,"i_lat":-6.137569},{"is_transit":true,"distance":1364,"station_name":"Kampung Bandan","transit":true,"station_id":"KPB","i_long":106.826365,"line":4,"i_lat":-6.132549,"time":3},{"is_transit":false,"line":1,"station_id":"AK","time":9,"distance":4102,"i_lat":-6.144674,"i_long":106.79867,"station_name":"Angke","transit":false},{"time":4,"transit":false,"distance":1230,"is_transit":false,"i_long":106.800832,"station_name":"Duri","i_lat":-6.155215,"station_id":"DU","line":1},{"station_name":"Tanah Abang","transit":true,"distance":3632,"i_long":106.811091,"i_lat":-6.185545,"is_transit":true,"station_id":"THB","time":8,"line":1},{"distance":3191,"i_lat":-6.207404,"i_long":106.79689,"station_id":"PLM","line":6,"transit":false,"station_name":"Palmerah","is_transit":false,"time":6},{"station_name":"Kebayoran","is_transit":false,"distance":3737,"i_lat":-6.237242,"i_long":106.780334,"line":6,"transit":false,"station_id":"KBY","time":7},{"is_transit":false,"station_name":"Pondokranji","transit":false,"i_lat":-6.276362,"i_long":106.74273,"station_id":"PDJ","line":6,"time":8,"distance":6218},{"line":6,"transit":false,"distance":2179,"station_name":"Jurangmangu","time":3,"i_lat":-6.288927,"i_long":106.728916,"is_transit":false,"station_id":"JMU"},{"transit":false,"station_name":"Sudimara","distance":1994,"line":6,"time":4,"i_long":106.712277,"station_id":"SDM","is_transit":false,"i_lat":-6.296963}],[{"distance":0,"i_lat":-6.530544,"station_id":"CLT","is_transit":false,"station_name":"Cilebut","line":2,"time":0,"i_long":106.800016,"transit":false},{"distance":4331,"time":5,"station_id":"BJD","transit":false,"i_long":106.792719,"station_name":"Bojonggede","is_transit":false,"i_lat":-6.493243,"line":2},{"i_long":106.800298,"line":2,"station_name":"Citayam","station_id":"CTA","time":5,"transit":false,"is_transit":false,"i_lat":-6.448811,"distance":5197},{"i_lat":-6.405256,"transit":false,"distance":5084,"i_long":106.816926,"is_transit":false,"station_name":"Depok","station_id":"DP","time":6,"line":2},{"i_long":106.819451,"is_transit":false,"line":2,"station_id":"DPB","station_name":"Depokbaru","time":3,"distance":1584,"i_lat":-6.391065,"transit":false},{"i_lat":-6.369073,"station_name":"Pondok Cina","transit":false,"station_id":"POC","is_transit":false,"i_long":106.831114,"time":4,"line":2,"distance":2727},{"time":2,"transit":false,"i_lat":-6.360749,"i_long":106.831474,"line":2,"station_id":"UI","distance":1109,"station_name":"Univ. Indonesia","is_transit":false},{"transit":false,"i_long":106.834175,"time":3,"is_transit":false,"distance":2264,"station_id":"UP","i_lat":-6.339291,"line":2,"station_name":"Univ. Pancasila"},{"station_id":"LNA","line":2,"transit":false,"station_name":"Lenteng Agung","is_transit":false,"time":2,"distance":1029,"i_lat":-6.330363,"i_long":106.832616},{"distance":2671,"transit":false,"station_id":"TNT","is_transit":false,"station_name":"Tanjung Barat","i_lat":-6.3080680000000005,"i_long":106.838896,"line":2,"time":3},{"is_transit":false,"distance":2820,"station_id":"PSM","line":2,"i_lat":-6.2842400000000005,"station_name":"Pasar Minggu","transit":false,"time":4,"i_long":106.843999},{"station_id":"PSMB","line":2,"i_long":106.851577,"time":2,"is_transit":false,"i_lat":-6.263214,"station_name":"Pasar Minggu Baru","distance":2380,"transit":false},{"distance":824,"time":2,"transit":false,"i_lat":-6.255332,"i_long":106.85449,"station_id":"DRN","station_name":"Duren Kalibata","line":2,"is_transit":false},{"distance":1546,"station_id":"CW","i_lat":-6.242512,"time":3,"transit":false,"is_transit":false,"line":2,"station_name":"Cawang","i_long":106.856607},{"line":2,"station_id":"TEB","i_long":106.857948,"i_lat":-6.226659,"is_transit":false,"station_name":"Tebet","distance":1230,"transit":false,"time":2},{"distance":2610,"transit":true,"time":4,"i_lat":-6.209883,"line":2,"station_id":"MRI","is_transit":true,"i_long":106.84912,"station_name":"Manggarai"},{"station_id":"MTR","is_transit":false,"time":2,"line":1,"i_lat":-6.212485,"i_long":106.858896,"transit":false,"distance":1275,"station_name":"Matraman"},{"time":8,"distance":1377,"station_id":"JNG","i_lat":-6.215091,"i_long":106.86807400000001,"is_transit":true,"line":1,"transit":true,"station_name":"Jatinegara"},{"line":11,"station_id":"POK","i_long":106.861737,"distance":1236,"i_lat":-6.209188,"transit":false,"time":2,"station_name":"Pondok Jati","is_transit":false},{"line":11,"station_id":"KMT","i_long":106.855437,"i_lat":-6.193792,"distance":1829,"is_transit":false,"time":2,"transit":false,"station_name":"Kramat"},{"station_id":"GST","i_lat":-6.185975,"transit":false,"i_long":106.850107,"line":11,"station_name":"Gang Sentiong","time":1,"distance":973,"is_transit":false},{"station_name":"Pasar Senen","is_transit":false,"i_long":106.84368,"i_lat":-6.174784,"line":11,"distance":1567,"transit":false,"station_id":"PSE","time":8},{"transit":false,"station_id":"KMO","line":11,"i_long":106.839204,"is_transit":false,"station_name":"Kemayoran","distance":1436,"i_lat":-6.161728,"time":4},{"station_name":"Rajawali","station_id":"RJW","distance":1901,"time":5,"i_lat":-6.14505,"is_transit":false,"i_long":106.836569,"transit":false,"line":11},{"station_name":"Kampung Bandan","i_long":106.826365,"time":3,"line":4,"is_transit":true,"distance":1444,"i_lat":-6.132549,"transit":true,"station_id":"KPB"},{"distance":4102,"i_lat":-6.144674,"station_name":"Angke","is_transit":false,"i_long":106.79867,"line":1,"transit":false,"station_id":"AK","time":9},{"is_transit":false,"transit":false,"station_id":"DU","distance":1230,"i_long":106.800832,"line":1,"station_name":"Duri","i_lat":-6.155215,"time":4},{"distance":3632,"transit":true,"line":1,"is_transit":true,"station_name":"Tanah Abang","station_id":"THB","i_lat":-6.185545,"i_long":106.811091,"time":8},{"line":6,"is_transit":false,"station_name":"Palmerah","station_id":"PLM","distance":3191,"transit":false,"i_long":106.79689,"time":6,"i_lat":-6.207404},{"i_long":106.780334,"station_name":"Kebayoran","station_id":"KBY","i_lat":-6.237242,"transit":false,"is_transit":false,"distance":3737,"time":7,"line":6},{"time":8,"transit":false,"station_id":"PDJ","line":6,"distance":6218,"i_lat":-6.276362,"is_transit":false,"station_name":"Pondokranji","i_long":106.74273},{"transit":false,"station_id":"JMU","time":3,"distance":2179,"i_lat":-6.288927,"i_long":106.728916,"line":6,"is_transit":false,"station_name":"Jurangmangu"},{"distance":1994,"station_id":"SDM","line":6,"transit":false,"is_transit":false,"time":4,"i_long":106.712277,"i_lat":-6.296963,"station_name":"Sudimara"}]]}