{"data":[[{"station_name":"Cilebut","is_transit":false,"time":0,"transit":false,"station_id":"CLT","distance":0,"i_long":106.800016,"i_lat":-6.530544,"line":2},{"i_lat":-6.493243,"transit":false,"i_long":106.792719,"station_name":"Bojonggede","is_transit":false,"time":5,"distance":4331,"station_id":"BJD","line":2},{"is_transit":false,"distance":5197,"transit":false,"station_name":"Citayam","time":5,"i_long":106.800298,"line":2,"i_lat":-6.448811,"station_id":"CTA"},{"i_lat":-6.405256,"station_id":"DP","is_transit":false,"time":6,"line":2,"station_name":"Depok","i_long":106.816926,"transit":false,"distance":5084},{"line":2,"time":3,"i_long":106.819451,"distance":1584,"i_lat":-6.391065,"station_id":"DPB","is_transit":false,"transit":false,"station_name":"Depokbaru"},{"station_id":"POC","i_long":106.831114,"transit":false,"is_transit":false,"station_name":"Pondok Cina","time":4,"distance":2727,"i_lat":-6.369073,"line":2},{"station_id":"UI","time":2,"i_lat":-6.360749,"transit":false,"station_name":"Univ. Indonesia","is_transit":false,"distance":1109,"i_long":106.831474,"line":2},{"station_name":"Univ. Pancasila","transit":false,"station_id":"UP","is_transit":false,"i_long":106.834175,"line":2,"distance":2264,"time":3,"i_lat":-6.339291},{"i_long":106.832616,"i_lat":-6.330363,"line":2,"station_id":"LNA","is_transit":false,"transit":false,"station_name":"Lenteng Agung","time":2,"distance":1029},{"transit":false,"i_long":106.838896,"station_id":"TNT","distance":2671,"i_lat":-6.3080680000000005,"line":2,"is_transit":false,"station_name":"Tanjung Barat","time":3},{"line":2,"distance":2820,"time":4,"station_name":"Pasar Minggu","transit":false,"is_transit":false,"i_lat":-6.2842400000000005,"i_long":106.843999,"station_id":"PSM"},{"is_transit":false,"station_id":"PSMB","distance":2380,"i_long":106.851577,"time":2,"i_lat":-6.263214,"station_name":"Pasar Minggu Baru","line":2,"transit":false},{"distance":824,"transit":false,"station_name":"Duren Kalibata","i_long":106.85449,"is_transit":false,"station_id":"DRN","line":2,"i_lat":-6.255332,"time":2}]]}