{"data":[[{"station_name":"Cilebut","distance":0,"is_transit":false,"station_id":"CLT","time":0,"transit":false,"i_lat":-6.530544,"i_long":106.800016,"line":0},{"distance":4331,"transit":false,"i_long":106.792719,"line":0,"station_name":"Bojonggede","time":5,"i_lat":-6.493243,"is_transit":false,"station_id":"BJD"},{"is_transit":true,"i_lat":-6.448811,"station_id":"CTA","time":5,"distance":5197,"station_name":"Citayam","i_long":106.800298,"line":1,"transit":false},{"i_lat":-6.405256,"line":0,"is_transit":false,"distance":5084,"transit":false,"station_name":"Depok","i_long":106.816926,"station_id":"DP","time":6},{"line":0,"time":3,"is_transit":false,"i_long":106.819451,"station_id":"DPB","transit":false,"i_lat":-6.391065,"station_name":"Depokbaru","distance":1584},{"distance":2727,"station_name":"Pondok Cina","is_transit":false,"i_lat":-6.369073,"i_long":106.831114,"line":2,"time":4,"transit":false,"station_id":"POC"},{"i_lat":-6.360749,"transit":false,"i_long":106.831474,"line":2,"is_transit":false,"station_id":"UI","station_name":"Univ. Indonesia","time":2,"distance":1109},{"transit":false,"i_lat":-6.339291,"station_id":"UP","i_long":106.834175,"line":2,"distance":2264,"is_transit":false,"time":3,"station_name":"Univ. Pancasila"},{"time":2,"i_long":106.832616,"station_id":"LNA","is_transit":false,"station_name":"Lenteng Agung","distance":1029,"transit":false,"i_lat":-6.330363,"line":2},{"station_id":"TNT","transit":false,"i_lat":-6.3080680000000005,"time":3,"station_name":"Tanjung Barat","distance":2671,"is_transit":false,"i_long":106.838896,"line":2},{"station_name":"Pasar Minggu","transit":false,"station_id":"PSM","distance":2820,"i_lat":-6.2842400000000005,"is_transit":false,"time":4,"i_long":106.843999,"line":2},{"station_id":"PSMB","i_lat":-6.263214,"station_name":"Pasar Minggu Baru","i_long":106.851577,"distance":2380,"transit":false,"is_transit":false,"line":2,"time":2},{"line":0,"is_transit":false,"station_name":"Duren Kalibata","time":2,"transit":false,"i_lat":-6.255332,"i_long":106.85449,"station_id":"DRN","distance":824},{"i_lat":-6.242512,"i_long":106.856607,"time":3,"distance":1546,"station_id":"CW","is_transit":false,"station_name":"Cawang","transit":false,"line":0},{"line":2,"station_id":"TEB","station_name":"Tebet","time":2,"transit":false,"distance":1230,"is_transit":false,"i_lat":-6.226659,"i_long":106.857948},{"time":4,"i_lat":-6.209883,"distance":2610,"transit":true,"is_transit":true,"station_name":"Manggarai","i_long":106.84912,"station_id":"MRI","line":0},{"distance":3186,"i_lat":-6.202263,"line":1,"time":4,"station_id":"SUD","transit":false,"station_name":"Sudirman","is_transit":false,"i_long":106.822649},{"time":1,"station_id":"SUDB","station_name":"Sudirman Baru","transit":false,"i_lat":-6.201433,"distance":280,"line":1,"is_transit":false,"i_long":106.819881},{"transit":false,"i_lat":-6.20132,"station_id":"KAT","distance":471,"station_name":"Karet","time":1,"is_transit":false,"line":1,"i_long":106.816351},{"is_transit":true,"i_long":106.811091,"transit":true,"line":1,"station_name":"Tanah Abang","station_id":"THB","time":5,"distance":2029,"i_lat":-6.185545},{"distance":3191,"time":6,"i_lat":-6.207404,"transit":false,"station_id":"PLM","line":6,"i_long":106.79689,"is_transit":false,"station_name":"Palmerah"},{"station_id":"KBY","station_name":"Kebayoran","i_lat":-6.237242,"i_long":106.780334,"transit":false,"distance":3737,"is_transit":false,"time":7,"line":6},{"is_transit":false,"line":6,"time":8,"i_long":106.74273,"i_lat":-6.276362,"distance":6218,"station_name":"Pondokranji","transit":false,"station_id":"PDJ"},{"transit":false,"distance":2179,"time":3,"is_transit":false,"station_name":"Jurangmangu","i_lat":-6.288927,"station_id":"JMU","line":6,"i_long":106.728916},{"transit":false,"line":6,"station_id":"SDM","is_transit":false,"distance":1994,"i_lat":-6.296963,"station_name":"Sudimara","i_long":106.712277,"time":4}],[{"i_long":106.800016,"is_transit":false,"station_id":"CLT","time":0,"distance":0,"transit":false,"i_lat":-6.530544,"line":0,"station_name":"Cilebut"},{"station_id":"BJD","is_transit":false,"transit":false,"distance":4331,"line":0,"station_name":"Bojonggede","time":5,"i_long":106.792719,"i_lat":-6.493243},{"station_id":"CTA","i_lat":-6.448811,"i_long":106.800298,"time":5,"line":1,"is_transit":true,"transit":false,"station_name":"Citayam","distance":5197},{"station_name":"Depok","i_lat":-6.405256,"i_long":106.816926,"station_id":"DP","transit":false,"is_transit":false,"distance":5084,"time":6,"line":0},{"i_lat":-6.391065,"station_id":"DPB","time":3,"distance":1584,"is_transit":false,"station_name":"Depokbaru","transit":false,"i_long":106.819451,"line":0},{"time":4,"transit":false,"i_long":106.831114,"i_lat":-6.369073,"station_name":"Pondok Cina","line":2,"is_transit":false,"station_id":"POC","distance":2727},{"station_name":"Univ. Indonesia","i_long":106.831474,"is_transit":false,"distance":1109,"transit":false,"line":2,"i_lat":-6.360749,"station_id":"UI","time":2},{"i_long":106.834175,"time":3,"station_id":"UP","is_transit":false,"transit":false,"i_lat":-6.339291,"line":2,"station_name":"Univ. Pancasila","distance":2264},{"station_id":"LNA","transit":false,"distance":1029,"is_transit":false,"i_lat":-6.330363,"station_name":"Lenteng Agung","i_long":106.832616,"line":2,"time":2},{"is_transit":false,"time":3,"transit":false,"i_lat":-6.3080680000000005,"line":2,"i_long":106.838896,"station_id":"TNT","station_name":"Tanjung Barat","distance":2671},{"station_id":"PSM","time":4,"i_long":106.843999,"is_transit":false,"station_name":"Pasar Minggu","transit":false,"i_lat":-6.2842400000000005,"line":2,"distance":2820},{"station_id":"PSMB","station_name":"Pasar Minggu Baru","time":2,"i_lat":-6.263214,"is_transit":false,"i_long":106.851577,"distance":2380,"line":2,"transit":false},{"is_transit":false,"station_name":"Duren Kalibata","line":0,"distance":824,"time":2,"transit":false,"i_long":106.85449,"i_lat":-6.255332,"station_id":"DRN"},{"transit":false,"i_lat":-6.242512,"station_name":"Cawang","time":3,"line":0,"is_transit":false,"distance":1546,"station_id":"CW","i_long":106.856607},{"is_transit":false,"station_id":"TEB","transit":false,"i_long":106.857948,"distance":1230,"line":2,"time":2,"i_lat":-6.226659,"station_name":"Tebet"},{"i_lat":-6.209883,"i_long":106.84912,"transit":true,"is_transit":true,"station_id":"MRI","time":4,"station_name":"Manggarai","distance":2610,"line":0},{"time":4,"line":0,"station_id":"CKI","station_name":"Cikini","i_long":106.840169,"i_lat":-6.198556,"transit":false,"distance":1590,"is_transit":false},{"line":2,"distance":1750,"i_long":106.832183,"is_transit":false,"station_id":"GDD","transit":false,"time":3,"i_lat":-6.186295,"station_name":"Gondangdia"},{"station_id":"JUA","station_name":"Juanda","line":2,"i_lat":-6.166716,"is_transit":false,"i_long":106.828284,"time":4,"transit":false,"distance":2015},{"i_long":106.827103,"i_lat":-6.160725,"line":2,"is_transit":false,"transit":false,"station_name":"Sawah Besar","time":2,"station_id":"SW","distance":1149},{"station_name":"Manggabesar","transit":false,"i_lat":-6.149769,"is_transit":false,"i_long":106.82482,"station_id":"MGB","distance":906,"line":2,"time":2},{"station_id":"JAY","transit":false,"time":2,"station_name":"Jayakarta","i_lat":-6.141205,"i_long":106.820901,"line":7,"distance":1080,"is_transit":false},{"distance":1264,"i_long":106.812439,"time":4,"i_lat":-6.137569,"line":0,"is_transit":true,"station_id":"JAKK","transit":true,"station_name":"Jakarta Kota"},{"i_lat":-6.132549,"transit":false,"line":0,"time":3,"station_id":"KPB","distance":1364,"station_name":"Kampung Bandan","i_long":106.826365,"is_transit":true},{"time":9,"station_name":"Angke","line":0,"i_lat":-6.144674,"is_transit":false,"transit":false,"station_id":"AK","distance":4102,"i_long":106.79867},{"i_long":106.800832,"is_transit":true,"line":1,"transit":true,"station_id":"DU","station_name":"Duri","distance":1230,"i_lat":-6.155215,"time":4},{"station_id":"THB","i_lat":-6.185545,"station_name":"Tanah Abang","i_long":106.811091,"transit":true,"time":8,"distance":3632,"line":1,"is_transit":true},{"i_long":106.79689,"line":6,"station_name":"Palmerah","distance":3191,"station_id":"PLM","time":6,"transit":false,"is_transit":false,"i_lat":-6.207404},{"station_id":"KBY","is_transit":false,"station_name":"Kebayoran","i_lat":-6.237242,"time":7,"transit":false,"line":6,"distance":3737,"i_long":106.780334},{"is_transit":false,"distance":6218,"station_id":"PDJ","transit":false,"i_lat":-6.276362,"i_long":106.74273,"line":6,"station_name":"Pondokranji","time":8},{"station_name":"Jurangmangu","distance":2179,"is_transit":false,"time":3,"transit":false,"i_lat":-6.288927,"line":6,"i_long":106.728916,"station_id":"JMU"},{"transit":false,"is_transit":false,"i_long":106.712277,"station_name":"Sudimara","station_id":"SDM","time":4,"distance":1994,"i_lat":-6.296963,"line":6}],[{"is_transit":false,"i_long":106.800016,"station_name":"Cilebut","line":0,"transit":false,"station_id":"CLT","time":0,"distance":0,"i_lat":-6.530544},{"i_long":106.792719,"time":5,"line":0,"is_transit":false,"station_name":"Bojonggede","station_id":"BJD","distance":4331,"transit":false,"i_lat":-6.493243},{"station_id":"CTA","station_name":"Citayam","i_lat":-6.448811,"is_transit":true,"time":5,"distance":5197,"transit":false,"i_long":106.800298,"line":1},{"station_name":"Depok","i_lat":-6.405256,"time":6,"transit":false,"station_id":"DP","distance":5084,"i_long":106.816926,"line":0,"is_transit":false},{"transit":false,"is_transit":false,"time":3,"station_id":"DPB","station_name":"Depokbaru","line":0,"i_lat":-6.391065,"distance":1584,"i_long":106.819451},{"i_lat":-6.369073,"is_transit":false,"i_long":106.831114,"line":2,"station_name":"Pondok Cina","distance":2727,"time":4,"station_id":"POC","transit":false},{"station_id":"UI","distance":1109,"is_transit":false,"station_name":"Univ. Indonesia","transit":false,"time":2,"i_long":106.831474,"line":2,"i_lat":-6.360749},{"station_name":"Univ. Pancasila","station_id":"UP","distance":2264,"transit":false,"i_long":106.834175,"is_transit":false,"time":3,"i_lat":-6.339291,"line":2},{"station_id":"LNA","time":2,"i_long":106.832616,"distance":1029,"line":2,"station_name":"Lenteng Agung","is_transit":false,"transit":false,"i_lat":-6.330363},{"i_long":106.838896,"transit":false,"time":3,"station_id":"TNT","line":2,"distance":2671,"i_lat":-6.3080680000000005,"is_transit":false,"station_name":"Tanjung Barat"},{"station_id":"PSM","is_transit":false,"time":4,"i_long":106.843999,"station_name":"Pasar Minggu","transit":false,"i_lat":-6.2842400000000005,"distance":2820,"line":2},{"is_transit":false,"distance":2380,"transit":false,"line":2,"time":2,"station_id":"PSMB","i_long":106.851577,"station_name":"Pasar Minggu Baru","i_lat":-6.263214},{"i_lat":-6.255332,"distance":824,"line":0,"i_long":106.85449,"transit":false,"station_id":"DRN","is_transit":false,"time":2,"station_name":"Duren Kalibata"},{"i_long":106.856607,"station_id":"CW","line":0,"is_transit":false,"transit":false,"time":3,"i_lat":-6.242512,"station_name":"Cawang","distance":1546},{"distance":1230,"is_transit":false,"i_long":106.857948,"station_name":"Tebet","line":2,"i_lat":-6.226659,"transit":false,"station_id":"TEB","time":2},{"station_name":"Manggarai","line":0,"is_transit":true,"station_id":"MRI","transit":true,"i_long":106.84912,"distance":2610,"i_lat":-6.209883,"time":4},{"transit":false,"distance":1275,"i_lat":-6.212485,"i_long":106.858896,"is_transit":false,"time":2,"line":1,"station_id":"MTR","station_name":"Matraman"},{"i_long":106.86807400000001,"distance":1377,"station_name":"Jatinegara","is_transit":true,"time":8,"transit":true,"i_lat":-6.215091,"line":0,"station_id":"JNG"},{"time":2,"station_id":"POK","distance":1236,"is_transit":false,"station_name":"Pondok Jati","line":11,"transit":false,"i_lat":-6.209188,"i_long":106.861737},{"i_long":106.855437,"line":11,"distance":1829,"i_lat":-6.193792,"station_id":"KMT","is_transit":false,"time":2,"transit":false,"station_name":"Kramat"},{"i_lat":-6.185975,"time":1,"i_long":106.850107,"transit":false,"line":11,"distance":973,"is_transit":false,"station_name":"Gang Sentiong","station_id":"GST"},{"i_lat":-6.174784,"distance":1567,"time":8,"line":11,"is_transit":false,"station_name":"Pasar Senen","transit":false,"i_long":106.84368,"station_id":"PSE"},{"station_id":"KMO","distance":1436,"i_lat":-6.161728,"transit":false,"is_transit":false,"line":11,"station_name":"Kemayoran","time":4,"i_long":106.839204},{"is_transit":false,"station_name":"Rajawali","distance":1901,"station_id":"RJW","i_lat":-6.14505,"line":11,"transit":false,"time":5,"i_long":106.836569},{"station_id":"KPB","station_name":"Kampung Bandan","distance":1444,"transit":true,"i_long":106.826365,"is_transit":true,"line":0,"i_lat":-6.132549,"time":3},{"station_name":"Angke","station_id":"AK","distance":4102,"is_transit":false,"transit":false,"i_lat":-6.144674,"line":0,"time":9,"i_long":106.79867},{"station_id":"DU","station_name":"Duri","transit":true,"i_long":106.800832,"is_transit":true,"i_lat":-6.155215,"line":1,"time":4,"distance":1230},{"i_lat":-6.185545,"is_transit":true,"station_id":"THB","time":8,"distance":3632,"i_long":106.811091,"station_name":"Tanah Abang","transit":true,"line":1},{"station_id":"PLM","transit":false,"line":6,"distance":3191,"is_transit":false,"station_name":"Palmerah","i_lat":-6.207404,"time":6,"i_long":106.79689},{"station_name":"Kebayoran","distance":3737,"transit":false,"i_long":106.780334,"is_transit":false,"station_id":"KBY","line":6,"time":7,"i_lat":-6.237242},{"station_id":"PDJ","time":8,"i_lat":-6.276362,"station_name":"Pondokranji","is_transit":false,"i_long":106.74273,"line":6,"transit":false,"distance":6218},{"is_transit":false,"station_id":"JMU","time":3,"distance":2179,"station_name":"Jurangmangu","i_lat":-6.288927,"i_long":106.728916,"line":6,"transit":false},{"station_id":"SDM","station_name":"Sudimara","i_lat":-6.296963,"is_transit":false,"i_long":106.712277,"distance":1994,"transit":false,"time":4,"line":6}]]}