{"data":[[{"time":0,"distance":0,"transit":false,"is_transit":false,"i_lat":-6.530544,"i_long":106.800016,"line":2,"station_id":"CLT","station_name":"Cilebut"},{"i_long":106.792719,"is_transit":false,"time":5,"station_name":"Bojonggede","i_lat":-6.493243,"station_id":"BJD","transit":false,"line":2,"distance":4331},{"transit":false,"i_lat":-6.448811,"station_name":"Citayam","line":2,"i_long":106.800298,"is_transit":false,"time":5,"distance":5197,"station_id":"CTA"},{"transit":false,"station_id":"DP","station_name":"Depok","distance":5084,"i_long":106.816926,"i_lat":-6.405256,"time":6,"is_transit":false,"line":2},{"i_lat":-6.391065,"i_long":106.819451,"transit":false,"distance":1584,"station_name":"Depokbaru","is_transit":false,"line":2,"time":3,"station_id":"DPB"},{"station_name":"Pondok Cina","i_long":106.831114,"time":4,"transit":false,"is_transit":false,"distance":2727,"line":2,"station_id":"POC","i_lat":-6.369073},{"transit":false,"i_long":106.831474,"line":2,"time":2,"station_name":"Univ. Indonesia","is_transit":false,"i_lat":-6.360749,"distance":1109,"station_id":"UI"},{"time":3,"station_id":"UP","distance":2264,"station_name":"Univ. Pancasila","transit":false,"is_transit":false,"i_lat":-6.339291,"line":2,"i_long":106.834175},{"line":2,"is_transit":false,"time":2,"station_name":"Lenteng Agung","station_id":"LNA","i_lat":-6.330363,"i_long":106.832616,"transit":false,"distance":1029},{"distance":2671,"time":3,"line":2,"transit":false,"is_transit":false,"station_name":"Tanjung Barat","i_lat":-6.3080680000000005,"station_id":"TNT","i_long":106.838896}]]}