{"data":[[{"line":2,"transit":false,"is_transit":false,"station_name":"Cilebut","time":0,"i_lat":-6.530544,"i_long":106.800016,"station_id":"CLT","distance":0},{"line":2,"time":5,"transit":false,"station_name":"Bojonggede","is_transit":false,"i_lat":-6.493243,"station_id":"BJD","i_long":106.792719,"distance":4331},{"i_lat":-6.448811,"line":2,"distance":5197,"transit":false,"is_transit":false,"time":5,"station_name":"Citayam","i_long":106.800298,"station_id":"CTA"},{"station_name":"Depok","distance":5084,"is_transit":false,"i_lat":-6.405256,"time":6,"line":2,"transit":false,"station_id":"DP","i_long":106.816926},{"time":3,"i_lat":-6.391065,"station_name":"Depokbaru","station_id":"DPB","transit":false,"is_transit":false,"distance":1584,"i_long":106.819451,"line":2},{"time":4,"i_lat":-6.369073,"transit":false,"is_transit":false,"i_long":106.831114,"station_name":"Pondok Cina","distance":2727,"line":2,"station_id":"POC"},{"i_long":106.831474,"i_lat":-6.360749,"transit":false,"line":2,"is_transit":false,"distance":1109,"station_name":"Univ. Indonesia","station_id":"UI","time":2},{"is_transit":false,"station_id":"UP","i_long":106.834175,"distance":2264,"line":2,"i_lat":-6.339291,"station_name":"Univ. Pancasila","transit":false,"time":3},{"time":2,"distance":1029,"i_long":106.832616,"transit":false,"station_name":"Lenteng Agung","is_transit":false,"line":2,"i_lat":-6.330363,"station_id":"LNA"},{"line":2,"time":3,"transit":false,"distance":2671,"station_id":"TNT","i_lat":-6.3080680000000005,"i_long":106.838896,"is_transit":false,"station_name":"Tanjung Barat"},{"i_long":106.843999,"line":2,"distance":2820,"is_transit":false,"i_lat":-6.2842400000000005,"station_name":"Pasar Minggu","time":4,"transit":false,"station_id":"PSM"},{"line":2,"i_long":106.851577,"i_lat":-6.263214,"transit":false,"distance":2380,"is_transit":false,"station_id":"PSMB","station_name":"Pasar Minggu Baru","time":2},{"time":2,"distance":824,"station_name":"Duren Kalibata","station_id":"DRN","i_long":106.85449,"transit":false,"i_lat":-6.255332,"line":2,"is_transit":false},{"station_id":"CW","transit":false,"is_transit":false,"time":3,"line":2,"station_name":"Cawang","i_lat":-6.242512,"distance":1546,"i_long":106.856607},{"distance":1230,"time":2,"i_lat":-6.226659,"i_long":106.857948,"is_transit":false,"line":2,"transit":false,"station_name":"Tebet","station_id":"TEB"},{"time":4,"i_long":106.84912,"transit":true,"station_name":"Manggarai","distance":2610,"i_lat":-6.209883,"station_id":"MRI","line":2,"is_transit":true},{"is_transit":false,"i_long":106.822649,"transit":false,"time":4,"station_id":"SUD","line":1,"station_name":"Sudirman","i_lat":-6.202263,"distance":3186},{"distance":280,"station_id":"SUDB","i_lat":-6.201433,"transit":false,"station_name":"Sudirman Baru","is_transit":false,"line":1,"time":1,"i_long":106.819881},{"line":1,"time":1,"distance":471,"is_transit":false,"i_lat":-6.20132,"i_long":106.816351,"station_id":"KAT","station_name":"Karet","transit":false},{"i_lat":-6.185545,"line":1,"time":5,"station_id":"THB","i_long":106.811091,"distance":2029,"transit":true,"is_transit":true,"station_name":"Tanah Abang"},{"time":6,"station_id":"PLM","line":6,"distance":3191,"i_lat":-6.207404,"transit":false,"station_name":"Palmerah","i_long":106.79689,"is_transit":false},{"is_transit":false,"time":7,"station_name":"Kebayoran","distance":3737,"line":6,"i_long":106.780334,"transit":false,"station_id":"KBY","i_lat":-6.237242},{"is_transit":false,"station_name":"Pondokranji","i_lat":-6.276362,"i_long":106.74273,"transit":false,"time":8,"distance":6218,"station_id":"PDJ","line":6},{"transit":false,"line":6,"time":3,"station_id":"JMU","station_name":"Jurangmangu","is_transit":false,"i_lat":-6.288927,"distance":2179,"i_long":106.728916},{"line":6,"transit":false,"station_id":"SDM","is_transit":false,"distance":1994,"i_lat":-6.296963,"time":4,"i_long":106.712277,"station_name":"Sudimara"},{"transit":false,"station_id":"RU","i_lat":-6.314823,"station_name":"Rawa Buntu","is_transit":false,"line":6,"distance":4566,"time":6,"i_long":106.675475},{"i_lat":-6.319871,"line":6,"transit":false,"station_name":"Serpong","is_transit":false,"station_id":"SRP","distance":2413,"i_long":106.66566,"time":4},{"i_long":106.640411,"time":4,"i_lat":-6.32484,"station_id":"CSK","line":3,"transit":false,"station_name":"Cisauk","is_transit":false,"distance":1784},{"i_lat":-6.329547,"transit":false,"station_id":"CC","is_transit":false,"time":4,"distance":2519,"line":3,"station_name":"Cicayur","i_long":106.617853},{"line":6,"station_name":"Parung Panjang","i_long":106.568863,"time":8,"station_id":"PRP","distance":5968,"transit":false,"i_lat":-6.3441410000000005,"is_transit":false},{"transit":false,"is_transit":false,"time":9,"station_name":"Cilejit","line":3,"i_long":106.508482,"i_lat":-6.354349,"station_id":"CJT","distance":7025},{"line":0,"transit":false,"station_name":"Daru","distance":2675,"station_id":"DAR","i_lat":-6.338021,"is_transit":false,"time":6,"i_long":106.491338},{"line":6,"transit":false,"station_id":"TEJ","is_transit":false,"i_lat":-6.327251,"time":5,"station_name":"Tenjo","i_long":106.460812,"distance":3902}],[{"i_long":106.800016,"station_name":"Cilebut","line":2,"station_id":"CLT","time":0,"distance":0,"is_transit":false,"transit":false,"i_lat":-6.530544},{"time":5,"is_transit":false,"station_name":"Bojonggede","i_lat":-6.493243,"line":2,"transit":false,"i_long":106.792719,"station_id":"BJD","distance":4331},{"station_name":"Citayam","station_id":"CTA","line":2,"i_lat":-6.448811,"i_long":106.800298,"transit":false,"time":5,"distance":5197,"is_transit":false},{"station_name":"Depok","distance":5084,"station_id":"DP","time":6,"i_lat":-6.405256,"transit":false,"i_long":106.816926,"is_transit":false,"line":2},{"i_long":106.819451,"station_name":"Depokbaru","is_transit":false,"distance":1584,"transit":false,"i_lat":-6.391065,"time":3,"line":2,"station_id":"DPB"},{"distance":2727,"station_id":"POC","i_lat":-6.369073,"station_name":"Pondok Cina","i_long":106.831114,"transit":false,"is_transit":false,"line":2,"time":4},{"is_transit":false,"transit":false,"time":2,"i_long":106.831474,"station_id":"UI","i_lat":-6.360749,"station_name":"Univ. Indonesia","distance":1109,"line":2},{"line":2,"station_id":"UP","i_long":106.834175,"time":3,"i_lat":-6.339291,"transit":false,"station_name":"Univ. Pancasila","distance":2264,"is_transit":false},{"time":2,"station_id":"LNA","distance":1029,"i_lat":-6.330363,"station_name":"Lenteng Agung","transit":false,"is_transit":false,"i_long":106.832616,"line":2},{"line":2,"i_lat":-6.3080680000000005,"transit":false,"is_transit":false,"i_long":106.838896,"time":3,"distance":2671,"station_name":"Tanjung Barat","station_id":"TNT"},{"i_lat":-6.2842400000000005,"line":2,"station_id":"PSM","distance":2820,"station_name":"Pasar Minggu","is_transit":false,"transit":false,"i_long":106.843999,"time":4},{"distance":2380,"line":2,"station_id":"PSMB","time":2,"is_transit":false,"station_name":"Pasar Minggu Baru","i_lat":-6.263214,"i_long":106.851577,"transit":false},{"station_name":"Duren Kalibata","is_transit":false,"transit":false,"station_id":"DRN","time":2,"distance":824,"i_lat":-6.255332,"line":2,"i_long":106.85449},{"line":2,"transit":false,"i_long":106.856607,"time":3,"is_transit":false,"station_id":"CW","distance":1546,"i_lat":-6.242512,"station_name":"Cawang"},{"i_long":106.857948,"transit":false,"is_transit":false,"i_lat":-6.226659,"time":2,"distance":1230,"station_name":"Tebet","station_id":"TEB","line":2},{"line":2,"station_id":"MRI","transit":false,"i_lat":-6.209883,"time":4,"distance":2610,"station_name":"Manggarai","is_transit":false,"i_long":106.84912},{"station_id":"CKI","i_long":106.840169,"transit":false,"is_transit":false,"i_lat":-6.198556,"station_name":"Cikini","line":2,"time":4,"distance":1590},{"line":2,"distance":1750,"station_name":"Gondangdia","station_id":"GDD","i_long":106.832183,"i_lat":-6.186295,"is_transit":false,"transit":false,"time":3},{"time":4,"distance":2015,"i_long":106.828284,"transit":false,"i_lat":-6.166716,"station_name":"Juanda","is_transit":false,"line":2,"station_id":"JUA"},{"is_transit":false,"line":2,"station_name":"Sawah Besar","time":2,"distance":1149,"station_id":"SW","i_lat":-6.160725,"i_long":106.827103,"transit":false},{"distance":906,"i_long":106.82482,"station_id":"MGB","time":2,"transit":false,"is_transit":false,"station_name":"Manggabesar","line":2,"i_lat":-6.149769},{"i_lat":-6.141205,"is_transit":false,"time":2,"i_long":106.820901,"station_name":"Jayakarta","station_id":"JAY","line":2,"distance":1080,"transit":false},{"transit":true,"is_transit":true,"i_lat":-6.137569,"i_long":106.812439,"line":2,"station_name":"Jakarta Kota","station_id":"JAKK","distance":1264,"time":4},{"i_long":106.826365,"distance":1364,"time":3,"line":4,"station_name":"Kampung Bandan","station_id":"KPB","is_transit":true,"i_lat":-6.132549,"transit":true},{"is_transit":false,"i_long":106.79867,"station_name":"Angke","time":9,"transit":false,"distance":4102,"i_lat":-6.144674,"line":1,"station_id":"AK"},{"line":1,"station_id":"DU","i_long":106.800832,"time":4,"transit":false,"is_transit":false,"station_name":"Duri","i_lat":-6.155215,"distance":1230},{"is_transit":true,"distance":3632,"i_lat":-6.185545,"time":8,"i_long":106.811091,"line":1,"station_name":"Tanah Abang","transit":true,"station_id":"THB"},{"station_name":"Palmerah","station_id":"PLM","line":6,"distance":3191,"is_transit":false,"i_lat":-6.207404,"transit":false,"i_long":106.79689,"time":6},{"station_name":"Kebayoran","distance":3737,"i_long":106.780334,"is_transit":false,"line":6,"station_id":"KBY","transit":false,"time":7,"i_lat":-6.237242},{"station_id":"PDJ","is_transit":false,"time":8,"line":6,"i_lat":-6.276362,"transit":false,"distance":6218,"i_long":106.74273,"station_name":"Pondokranji"},{"line":6,"is_transit":false,"transit":false,"i_long":106.728916,"station_id":"JMU","station_name":"Jurangmangu","time":3,"i_lat":-6.288927,"distance":2179},{"i_long":106.712277,"station_name":"Sudimara","distance":1994,"i_lat":-6.296963,"transit":false,"line":6,"is_transit":false,"time":4,"station_id":"SDM"},{"is_transit":false,"transit":false,"time":6,"station_id":"RU","distance":4566,"i_lat":-6.314823,"station_name":"Rawa Buntu","i_long":106.675475,"line":6},{"station_name":"Serpong","is_transit":false,"distance":2413,"transit":false,"i_lat":-6.319871,"i_long":106.66566,"line":6,"time":4,"station_id":"SRP"},{"line":3,"transit":false,"is_transit":false,"i_lat":-6.32484,"station_name":"Cisauk","station_id":"CSK","time":4,"distance":1784,"i_long":106.640411},{"is_transit":false,"time":4,"station_id":"CC","distance":2519,"line":3,"i_lat":-6.329547,"transit":false,"station_name":"Cicayur","i_long":106.617853},{"i_lat":-6.3441410000000005,"transit":false,"time":8,"station_id":"PRP","distance":5968,"station_name":"Parung Panjang","line":6,"i_long":106.568863,"is_transit":false},{"i_long":106.508482,"line":3,"distance":7025,"station_name":"Cilejit","station_id":"CJT","transit":false,"is_transit":false,"time":9,"i_lat":-6.354349},{"transit":false,"station_id":"DAR","is_transit":false,"distance":2675,"i_lat":-6.338021,"line":0,"station_name":"Daru","time":6,"i_long":106.491338},{"transit":false,"distance":3902,"station_id":"TEJ","i_lat":-6.327251,"i_long":106.460812,"line":6,"station_name":"Tenjo","is_transit":false,"time":5}],[{"station_name":"Cilebut","transit":false,"time":0,"i_lat":-6.530544,"line":2,"i_long":106.800016,"is_transit":false,"station_id":"CLT","distance":0},{"time":5,"line":2,"station_name":"Bojonggede","i_long":106.792719,"station_id":"BJD","i_lat":-6.493243,"distance":4331,"transit":false,"is_transit":false},{"line":2,"is_transit":false,"distance":5197,"transit":false,"station_name":"Citayam","time":5,"i_lat":-6.448811,"i_long":106.800298,"station_id":"CTA"},{"distance":5084,"i_lat":-6.405256,"line":2,"station_name":"Depok","transit":false,"is_transit":false,"station_id":"DP","i_long":106.816926,"time":6},{"distance":1584,"station_id":"DPB","line":2,"time":3,"station_name":"Depokbaru","i_lat":-6.391065,"is_transit":false,"i_long":106.819451,"transit":false},{"i_long":106.831114,"is_transit":false,"distance":2727,"station_id":"POC","line":2,"time":4,"station_name":"Pondok Cina","transit":false,"i_lat":-6.369073},{"i_long":106.831474,"i_lat":-6.360749,"line":2,"is_transit":false,"station_name":"Univ. Indonesia","distance":1109,"transit":false,"station_id":"UI","time":2},{"transit":false,"i_lat":-6.339291,"is_transit":false,"time":3,"distance":2264,"i_long":106.834175,"station_name":"Univ. Pancasila","station_id":"UP","line":2},{"i_long":106.832616,"transit":false,"station_name":"Lenteng Agung","station_id":"LNA","time":2,"i_lat":-6.330363,"is_transit":false,"line":2,"distance":1029},{"time":3,"station_id":"TNT","distance":2671,"line":2,"is_transit":false,"transit":false,"i_lat":-6.3080680000000005,"i_long":106.838896,"station_name":"Tanjung Barat"},{"line":2,"time":4,"i_lat":-6.2842400000000005,"i_long":106.843999,"station_name":"Pasar Minggu","is_transit":false,"distance":2820,"station_id":"PSM","transit":false},{"time":2,"transit":false,"station_name":"Pasar Minggu Baru","distance":2380,"i_long":106.851577,"station_id":"PSMB","i_lat":-6.263214,"is_transit":false,"line":2},{"station_name":"Duren Kalibata","i_long":106.85449,"transit":false,"distance":824,"i_lat":-6.255332,"line":2,"is_transit":false,"station_id":"DRN","time":2},{"transit":false,"line":2,"station_name":"Cawang","i_long":106.856607,"is_transit":false,"i_lat":-6.242512,"distance":1546,"time":3,"station_id":"CW"},{"time":2,"distance":1230,"i_lat":-6.226659,"is_transit":false,"transit":false,"i_long":106.857948,"line":2,"station_name":"Tebet","station_id":"TEB"},{"station_id":"MRI","time":4,"i_lat":-6.209883,"is_transit":true,"transit":true,"distance":2610,"station_name":"Manggarai","line":2,"i_long":106.84912},{"station_name":"Matraman","is_transit":false,"i_lat":-6.212485,"station_id":"MTR","i_long":106.858896,"transit":false,"time":2,"distance":1275,"line":1},{"line":1,"distance":1377,"transit":true,"station_name":"Jatinegara","is_transit":true,"time":8,"i_long":106.86807400000001,"station_id":"JNG","i_lat":-6.215091},{"station_id":"POK","is_transit":false,"transit":false,"time":2,"i_long":106.861737,"station_name":"Pondok Jati","line":11,"distance":1236,"i_lat":-6.209188},{"station_id":"KMT","distance":1829,"i_long":106.855437,"transit":false,"time":2,"i_lat":-6.193792,"is_transit":false,"station_name":"Kramat","line":11},{"station_name":"Gang Sentiong","transit":false,"is_transit":false,"time":1,"distance":973,"i_lat":-6.185975,"station_id":"GST","i_long":106.850107,"line":11},{"station_name":"Pasar Senen","transit":false,"i_lat":-6.174784,"distance":1567,"line":11,"station_id":"PSE","i_long":106.84368,"time":8,"is_transit":false},{"i_long":106.839204,"time":4,"i_lat":-6.161728,"transit":false,"line":11,"is_transit":false,"station_name":"Kemayoran","station_id":"KMO","distance":1436},{"station_name":"Rajawali","distance":1901,"i_long":106.836569,"station_id":"RJW","time":5,"i_lat":-6.14505,"line":11,"transit":false,"is_transit":false},{"station_name":"Kampung Bandan","transit":true,"time":3,"distance":1444,"i_lat":-6.132549,"i_long":106.826365,"is_transit":true,"line":4,"station_id":"KPB"},{"station_id":"AK","time":9,"i_lat":-6.144674,"is_transit":false,"line":1,"i_long":106.79867,"transit":false,"station_name":"Angke","distance":4102},{"is_transit":false,"station_id":"DU","i_long":106.800832,"station_name":"Duri","transit":false,"time":4,"distance":1230,"i_lat":-6.155215,"line":1},{"i_lat":-6.185545,"i_long":106.811091,"station_id":"THB","distance":3632,"time":8,"line":1,"transit":true,"station_name":"Tanah Abang","is_transit":true},{"transit":false,"station_name":"Palmerah","line":6,"station_id":"PLM","i_long":106.79689,"time":6,"i_lat":-6.207404,"is_transit":false,"distance":3191},{"time":7,"i_lat":-6.237242,"station_id":"KBY","line":6,"distance":3737,"i_long":106.780334,"station_name":"Kebayoran","transit":false,"is_transit":false},{"station_name":"Pondokranji","i_lat":-6.276362,"line":6,"is_transit":false,"time":8,"station_id":"PDJ","transit":false,"i_long":106.74273,"distance":6218},{"time":3,"transit":false,"line":6,"station_id":"JMU","station_name":"Jurangmangu","i_long":106.728916,"is_transit":false,"distance":2179,"i_lat":-6.288927},{"time":4,"line":6,"i_lat":-6.296963,"transit":false,"distance":1994,"i_long":106.712277,"station_id":"SDM","station_name":"Sudimara","is_transit":false},{"is_transit":false,"i_lat":-6.314823,"i_long":106.675475,"line":6,"station_name":"Rawa Buntu","transit":false,"station_id":"RU","time":6,"distance":4566},{"i_lat":-6.319871,"i_long":106.66566,"time":4,"station_name":"Serpong","line":6,"transit":false,"station_id":"SRP","distance":2413,"is_transit":false},{"distance":1784,"station_name":"Cisauk","time":4,"line":3,"i_long":106.640411,"transit":false,"station_id":"CSK","i_lat":-6.32484,"is_transit":false},{"transit":false,"station_name":"Cicayur","is_transit":false,"time":4,"distance":2519,"i_lat":-6.329547,"station_id":"CC","i_long":106.617853,"line":3},{"station_id":"PRP","station_name":"Parung Panjang","is_transit":false,"i_long":106.568863,"line":6,"distance":5968,"i_lat":-6.3441410000000005,"transit":false,"time":8},{"time":9,"station_name":"Cilejit","station_id":"CJT","transit":false,"is_transit":false,"distance":7025,"i_long":106.508482,"line":3,"i_lat":-6.354349},{"line":0,"i_lat":-6.338021,"i_long":106.491338,"time":6,"transit":false,"station_id":"DAR","is_transit":false,"station_name":"Daru","distance":2675},{"station_id":"TEJ","is_transit":false,"i_long":106.460812,"transit":false,"line":6,"station_name":"Tenjo","distance":3902,"i_lat":-6.327251,"time":5}]]}