{"data":[[{"station_id":"CLT","transit":false,"distance":0,"i_long":106.800016,"line":2,"i_lat":-6.530544,"station_name":"Cilebut","time":0,"is_transit":false},{"distance":4331,"station_name":"Bojonggede","is_transit":false,"i_lat":-6.493243,"line":2,"station_id":"BJD","transit":false,"i_long":106.792719,"time":5},{"distance":5197,"transit":false,"time":5,"i_long":106.800298,"is_transit":false,"i_lat":-6.448811,"line":2,"station_name":"Citayam","station_id":"CTA"},{"station_name":"Depok","i_lat":-6.405256,"distance":5084,"is_transit":false,"transit":false,"i_long":106.816926,"line":2,"station_id":"DP","time":6},{"i_lat":-6.391065,"time":3,"distance":1584,"line":2,"station_id":"DPB","station_name":"Depokbaru","transit":false,"is_transit":false,"i_long":106.819451},{"distance":2727,"station_name":"Pondok Cina","line":2,"station_id":"POC","i_lat":-6.369073,"i_long":106.831114,"is_transit":false,"transit":false,"time":4},{"station_id":"UI","i_long":106.831474,"station_name":"Univ. Indonesia","transit":false,"line":2,"time":2,"distance":1109,"i_lat":-6.360749,"is_transit":false},{"line":2,"i_lat":-6.339291,"distance":2264,"transit":false,"time":3,"is_transit":false,"station_name":"Univ. Pancasila","station_id":"UP","i_long":106.834175},{"is_transit":false,"i_long":106.832616,"distance":1029,"i_lat":-6.330363,"station_id":"LNA","line":2,"time":2,"transit":false,"station_name":"Lenteng Agung"},{"distance":2671,"i_lat":-6.3080680000000005,"time":3,"station_id":"TNT","i_long":106.838896,"is_transit":false,"line":2,"transit":false,"station_name":"Tanjung Barat"}]]}