{"data":[[{"i_lat":-6.530544,"line":0,"distance":0,"station_id":"CLT","is_transit":false,"time":0,"transit":false,"i_long":106.800016,"station_name":"Cilebut"},{"time":5,"transit":false,"line":0,"i_long":106.792719,"is_transit":false,"distance":4331,"i_lat":-6.493243,"station_id":"BJD","station_name":"Bojonggede"},{"time":5,"station_name":"Citayam","station_id":"CTA","is_transit":true,"distance":5197,"i_long":106.800298,"transit":false,"i_lat":-6.448811,"line":1},{"distance":5084,"i_lat":-6.405256,"is_transit":false,"i_long":106.816926,"station_name":"Depok","line":0,"time":6,"transit":false,"station_id":"DP"},{"i_long":106.819451,"station_id":"DPB","transit":false,"line":0,"i_lat":-6.391065,"station_name":"Depokbaru","time":3,"distance":1584,"is_transit":false},{"i_lat":-6.369073,"station_id":"POC","time":4,"station_name":"Pondok Cina","i_long":106.831114,"distance":2727,"line":2,"is_transit":false,"transit":false},{"station_name":"Univ. Indonesia","time":2,"distance":1109,"is_transit":false,"i_lat":-6.360749,"station_id":"UI","transit":false,"line":2,"i_long":106.831474},{"i_long":106.834175,"is_transit":false,"time":3,"transit":false,"line":2,"station_name":"Univ. Pancasila","i_lat":-6.339291,"distance":2264,"station_id":"UP"},{"transit":false,"i_lat":-6.330363,"i_long":106.832616,"line":2,"distance":1029,"is_transit":false,"station_name":"Lenteng Agung","time":2,"station_id":"LNA"},{"transit":false,"line":2,"i_lat":-6.3080680000000005,"station_name":"Tanjung Barat","i_long":106.838896,"distance":2671,"is_transit":false,"station_id":"TNT","time":3},{"station_name":"Pasar Minggu","time":4,"i_lat":-6.2842400000000005,"line":2,"station_id":"PSM","is_transit":false,"i_long":106.843999,"transit":false,"distance":2820},{"is_transit":false,"station_name":"Pasar Minggu Baru","i_long":106.851577,"i_lat":-6.263214,"transit":false,"distance":2380,"station_id":"PSMB","time":2,"line":2},{"i_lat":-6.255332,"is_transit":false,"transit":false,"station_id":"DRN","i_long":106.85449,"line":0,"station_name":"Duren Kalibata","distance":824,"time":2},{"is_transit":false,"i_long":106.856607,"station_id":"CW","time":3,"line":0,"i_lat":-6.242512,"station_name":"Cawang","transit":false,"distance":1546},{"station_id":"TEB","distance":1230,"station_name":"Tebet","i_lat":-6.226659,"transit":false,"i_long":106.857948,"line":2,"is_transit":false,"time":2},{"station_id":"MRI","distance":2610,"i_lat":-6.209883,"line":0,"i_long":106.84912,"station_name":"Manggarai","time":4,"transit":true,"is_transit":true},{"time":4,"distance":1590,"station_name":"Cikini","i_long":106.840169,"line":0,"transit":false,"station_id":"CKI","i_lat":-6.198556,"is_transit":false}],[{"station_id":"CLT","time":0,"station_name":"Cilebut","i_lat":-6.530544,"line":0,"is_transit":false,"distance":0,"i_long":106.800016,"transit":false},{"station_name":"Bojonggede","station_id":"BJD","transit":false,"i_lat":-6.493243,"line":0,"time":5,"i_long":106.792719,"is_transit":false,"distance":4331},{"station_id":"CTA","line":1,"time":5,"is_transit":true,"distance":5197,"i_long":106.800298,"station_name":"Citayam","transit":false,"i_lat":-6.448811},{"station_name":"Depok","i_long":106.816926,"is_transit":false,"line":0,"i_lat":-6.405256,"transit":false,"station_id":"DP","time":6,"distance":5084},{"station_id":"DPB","distance":1584,"transit":false,"i_lat":-6.391065,"i_long":106.819451,"is_transit":false,"line":0,"time":3,"station_name":"Depokbaru"},{"is_transit":false,"i_long":106.831114,"time":4,"i_lat":-6.369073,"transit":false,"line":2,"station_name":"Pondok Cina","station_id":"POC","distance":2727},{"station_name":"Univ. Indonesia","i_long":106.831474,"station_id":"UI","line":2,"i_lat":-6.360749,"is_transit":false,"time":2,"distance":1109,"transit":false},{"is_transit":false,"transit":false,"i_lat":-6.339291,"distance":2264,"i_long":106.834175,"line":2,"station_name":"Univ. Pancasila","time":3,"station_id":"UP"},{"distance":1029,"is_transit":false,"station_name":"Lenteng Agung","transit":false,"i_long":106.832616,"line":2,"station_id":"LNA","i_lat":-6.330363,"time":2},{"is_transit":false,"transit":false,"line":2,"time":3,"station_id":"TNT","i_lat":-6.3080680000000005,"i_long":106.838896,"station_name":"Tanjung Barat","distance":2671},{"station_name":"Pasar Minggu","i_long":106.843999,"distance":2820,"time":4,"i_lat":-6.2842400000000005,"is_transit":false,"line":2,"transit":false,"station_id":"PSM"},{"station_id":"PSMB","transit":false,"time":2,"station_name":"Pasar Minggu Baru","i_lat":-6.263214,"i_long":106.851577,"is_transit":false,"line":2,"distance":2380},{"i_long":106.85449,"time":2,"station_id":"DRN","is_transit":false,"distance":824,"transit":false,"station_name":"Duren Kalibata","i_lat":-6.255332,"line":0},{"is_transit":false,"transit":false,"i_lat":-6.242512,"line":0,"time":3,"distance":1546,"station_name":"Cawang","station_id":"CW","i_long":106.856607},{"is_transit":false,"i_lat":-6.226659,"line":2,"distance":1230,"i_long":106.857948,"station_id":"TEB","transit":false,"time":2,"station_name":"Tebet"},{"line":0,"time":4,"station_id":"MRI","transit":true,"i_lat":-6.209883,"i_long":106.84912,"distance":2610,"station_name":"Manggarai","is_transit":true},{"transit":false,"distance":3186,"station_name":"Sudirman","line":1,"i_lat":-6.202263,"station_id":"SUD","i_long":106.822649,"time":4,"is_transit":false},{"station_name":"Sudirman Baru","line":1,"i_long":106.819881,"time":1,"distance":280,"i_lat":-6.201433,"transit":false,"is_transit":false,"station_id":"SUDB"},{"i_lat":-6.20132,"i_long":106.816351,"time":1,"line":1,"station_id":"KAT","transit":false,"is_transit":false,"distance":471,"station_name":"Karet"},{"distance":2029,"is_transit":true,"transit":false,"time":5,"station_id":"THB","line":1,"station_name":"Tanah Abang","i_lat":-6.185545,"i_long":106.811091},{"is_transit":true,"distance":3632,"i_long":106.800832,"time":8,"transit":true,"station_id":"DU","station_name":"Duri","i_lat":-6.155215,"line":1},{"transit":false,"line":0,"is_transit":false,"time":4,"distance":1230,"station_name":"Angke","station_id":"AK","i_long":106.79867,"i_lat":-6.144674},{"station_id":"KPB","station_name":"Kampung Bandan","i_lat":-6.132549,"distance":4102,"i_long":106.826365,"time":9,"is_transit":true,"line":0,"transit":false},{"distance":1364,"i_lat":-6.137569,"transit":true,"is_transit":true,"i_long":106.812439,"time":3,"line":0,"station_name":"Jakarta Kota","station_id":"JAKK"},{"is_transit":false,"i_lat":-6.141205,"i_long":106.820901,"line":7,"station_name":"Jayakarta","station_id":"JAY","time":4,"distance":1264,"transit":false},{"time":2,"distance":1080,"line":2,"station_name":"Manggabesar","transit":false,"i_long":106.82482,"station_id":"MGB","is_transit":false,"i_lat":-6.149769},{"line":2,"is_transit":false,"station_id":"SW","distance":906,"station_name":"Sawah Besar","i_lat":-6.160725,"transit":false,"time":2,"i_long":106.827103},{"station_id":"JUA","line":2,"station_name":"Juanda","i_long":106.828284,"transit":false,"i_lat":-6.166716,"is_transit":false,"time":2,"distance":1149},{"line":2,"i_lat":-6.186295,"station_name":"Gondangdia","distance":2015,"station_id":"GDD","i_long":106.832183,"time":4,"is_transit":false,"transit":false},{"line":0,"time":3,"is_transit":false,"transit":false,"i_lat":-6.198556,"distance":1750,"station_id":"CKI","station_name":"Cikini","i_long":106.840169}],[{"i_lat":-6.530544,"distance":0,"transit":false,"i_long":106.800016,"station_id":"CLT","line":0,"station_name":"Cilebut","time":0,"is_transit":false},{"time":5,"i_lat":-6.493243,"line":0,"transit":false,"i_long":106.792719,"distance":4331,"is_transit":false,"station_name":"Bojonggede","station_id":"BJD"},{"time":5,"station_name":"Citayam","i_long":106.800298,"transit":false,"line":1,"i_lat":-6.448811,"is_transit":true,"station_id":"CTA","distance":5197},{"i_long":106.816926,"station_name":"Depok","distance":5084,"transit":false,"time":6,"station_id":"DP","line":0,"is_transit":false,"i_lat":-6.405256},{"i_lat":-6.391065,"station_id":"DPB","is_transit":false,"i_long":106.819451,"time":3,"station_name":"Depokbaru","transit":false,"line":0,"distance":1584},{"transit":false,"is_transit":false,"line":2,"distance":2727,"i_long":106.831114,"station_name":"Pondok Cina","i_lat":-6.369073,"time":4,"station_id":"POC"},{"distance":1109,"is_transit":false,"i_lat":-6.360749,"station_id":"UI","station_name":"Univ. Indonesia","time":2,"line":2,"transit":false,"i_long":106.831474},{"station_id":"UP","transit":false,"line":2,"i_long":106.834175,"is_transit":false,"time":3,"distance":2264,"i_lat":-6.339291,"station_name":"Univ. Pancasila"},{"time":2,"transit":false,"station_name":"Lenteng Agung","i_long":106.832616,"station_id":"LNA","distance":1029,"i_lat":-6.330363,"line":2,"is_transit":false},{"station_id":"TNT","is_transit":false,"time":3,"transit":false,"i_long":106.838896,"distance":2671,"line":2,"station_name":"Tanjung Barat","i_lat":-6.3080680000000005},{"station_name":"Pasar Minggu","i_lat":-6.2842400000000005,"distance":2820,"line":2,"transit":false,"time":4,"is_transit":false,"station_id":"PSM","i_long":106.843999},{"line":2,"i_lat":-6.263214,"is_transit":false,"distance":2380,"i_long":106.851577,"station_id":"PSMB","transit":false,"station_name":"Pasar Minggu Baru","time":2},{"i_lat":-6.255332,"line":0,"distance":824,"station_id":"DRN","i_long":106.85449,"transit":false,"station_name":"Duren Kalibata","is_transit":false,"time":2},{"is_transit":false,"transit":false,"i_lat":-6.242512,"i_long":106.856607,"time":3,"station_name":"Cawang","station_id":"CW","line":0,"distance":1546},{"distance":1230,"is_transit":false,"line":2,"station_name":"Tebet","time":2,"i_lat":-6.226659,"i_long":106.857948,"station_id":"TEB","transit":false},{"line":0,"i_long":106.84912,"station_id":"MRI","is_transit":true,"transit":true,"i_lat":-6.209883,"time":4,"station_name":"Manggarai","distance":2610},{"i_long":106.858896,"station_id":"MTR","i_lat":-6.212485,"distance":1275,"time":2,"is_transit":false,"transit":false,"line":1,"station_name":"Matraman"},{"i_long":106.86807400000001,"transit":true,"time":8,"i_lat":-6.215091,"station_name":"Jatinegara","station_id":"JNG","distance":1377,"line":0,"is_transit":true},{"time":2,"transit":false,"station_name":"Pondok Jati","i_long":106.861737,"line":11,"i_lat":-6.209188,"is_transit":false,"distance":1236,"station_id":"POK"},{"is_transit":false,"station_id":"KMT","station_name":"Kramat","line":11,"time":2,"distance":1829,"transit":false,"i_lat":-6.193792,"i_long":106.855437},{"station_id":"GST","station_name":"Gang Sentiong","i_lat":-6.185975,"transit":false,"i_long":106.850107,"is_transit":false,"distance":973,"line":11,"time":1},{"is_transit":false,"distance":1567,"station_name":"Pasar Senen","transit":false,"i_lat":-6.174784,"i_long":106.84368,"station_id":"PSE","time":8,"line":11},{"i_lat":-6.161728,"station_id":"KMO","is_transit":false,"time":4,"transit":false,"station_name":"Kemayoran","distance":1436,"i_long":106.839204,"line":11},{"distance":1901,"time":5,"i_lat":-6.14505,"line":11,"station_id":"RJW","station_name":"Rajawali","transit":false,"is_transit":false,"i_long":106.836569},{"is_transit":true,"station_id":"KPB","i_long":106.826365,"time":3,"transit":true,"line":0,"distance":1444,"station_name":"Kampung Bandan","i_lat":-6.132549},{"i_long":106.812439,"i_lat":-6.137569,"is_transit":true,"line":0,"station_name":"Jakarta Kota","distance":1364,"time":3,"station_id":"JAKK","transit":true},{"is_transit":false,"station_name":"Jayakarta","distance":1264,"i_lat":-6.141205,"i_long":106.820901,"line":7,"transit":false,"station_id":"JAY","time":4},{"transit":false,"station_name":"Manggabesar","distance":1080,"i_lat":-6.149769,"is_transit":false,"line":2,"time":2,"i_long":106.82482,"station_id":"MGB"},{"distance":906,"is_transit":false,"station_name":"Sawah Besar","transit":false,"station_id":"SW","i_lat":-6.160725,"time":2,"i_long":106.827103,"line":2},{"i_lat":-6.166716,"time":2,"station_id":"JUA","line":2,"transit":false,"station_name":"Juanda","i_long":106.828284,"distance":1149,"is_transit":false},{"station_id":"GDD","station_name":"Gondangdia","line":2,"i_lat":-6.186295,"i_long":106.832183,"is_transit":false,"time":4,"distance":2015,"transit":false},{"station_id":"CKI","transit":false,"i_lat":-6.198556,"line":0,"time":3,"is_transit":false,"i_long":106.840169,"distance":1750,"station_name":"Cikini"}]]}