{"data":[[{"i_long":106.800016,"is_transit":false,"station_id":"CLT","i_lat":-6.530544,"line":0,"distance":0,"time":0,"station_name":"Cilebut","transit":false},{"line":0,"i_lat":-6.493243,"station_name":"Bojonggede","time":5,"station_id":"BJD","distance":4331,"transit":false,"i_long":106.792719,"is_transit":false},{"station_id":"CTA","is_transit":true,"time":5,"station_name":"Citayam","transit":false,"i_lat":-6.448811,"i_long":106.800298,"distance":5197,"line":1},{"station_id":"DP","distance":5084,"is_transit":false,"i_long":106.816926,"station_name":"Depok","line":0,"transit":false,"i_lat":-6.405256,"time":6},{"transit":false,"line":0,"station_id":"DPB","i_lat":-6.391065,"is_transit":false,"i_long":106.819451,"time":3,"distance":1584,"station_name":"Depokbaru"},{"distance":2727,"i_lat":-6.369073,"i_long":106.831114,"time":4,"transit":false,"station_id":"POC","is_transit":false,"line":2,"station_name":"Pondok Cina"},{"i_long":106.831474,"is_transit":false,"i_lat":-6.360749,"distance":1109,"transit":false,"line":2,"station_id":"UI","time":2,"station_name":"Univ. Indonesia"},{"is_transit":false,"distance":2264,"i_long":106.834175,"line":2,"station_id":"UP","time":3,"station_name":"Univ. Pancasila","transit":false,"i_lat":-6.339291},{"i_long":106.832616,"time":2,"station_name":"Lenteng Agung","is_transit":false,"distance":1029,"transit":false,"i_lat":-6.330363,"line":2,"station_id":"LNA"},{"i_long":106.838896,"station_id":"TNT","station_name":"Tanjung Barat","line":2,"distance":2671,"transit":false,"is_transit":false,"time":3,"i_lat":-6.3080680000000005},{"i_lat":-6.2842400000000005,"i_long":106.843999,"distance":2820,"transit":false,"station_id":"PSM","line":2,"time":4,"is_transit":false,"station_name":"Pasar Minggu"},{"transit":false,"station_id":"PSMB","line":2,"time":2,"i_lat":-6.263214,"i_long":106.851577,"is_transit":false,"distance":2380,"station_name":"Pasar Minggu Baru"},{"is_transit":false,"station_name":"Duren Kalibata","i_long":106.85449,"transit":false,"station_id":"DRN","time":2,"i_lat":-6.255332,"distance":824,"line":0},{"station_name":"Cawang","is_transit":false,"distance":1546,"transit":false,"i_long":106.856607,"time":3,"line":0,"i_lat":-6.242512,"station_id":"CW"},{"time":2,"i_long":106.857948,"line":2,"i_lat":-6.226659,"transit":false,"is_transit":false,"station_id":"TEB","distance":1230,"station_name":"Tebet"},{"station_name":"Manggarai","station_id":"MRI","is_transit":true,"time":4,"transit":true,"distance":2610,"i_lat":-6.209883,"i_long":106.84912,"line":0},{"is_transit":false,"distance":3186,"station_id":"SUD","i_long":106.822649,"i_lat":-6.202263,"time":4,"line":1,"station_name":"Sudirman","transit":false},{"i_long":106.819881,"line":1,"station_name":"Sudirman Baru","station_id":"SUDB","distance":280,"i_lat":-6.201433,"time":1,"transit":false,"is_transit":false},{"station_id":"KAT","station_name":"Karet","line":1,"distance":471,"time":1,"is_transit":false,"transit":false,"i_lat":-6.20132,"i_long":106.816351},{"i_long":106.811091,"time":5,"station_id":"THB","line":1,"is_transit":true,"distance":2029,"station_name":"Tanah Abang","transit":true,"i_lat":-6.185545},{"is_transit":false,"i_lat":-6.207404,"distance":3191,"time":6,"i_long":106.79689,"line":6,"transit":false,"station_name":"Palmerah","station_id":"PLM"},{"distance":3737,"i_lat":-6.237242,"line":6,"time":7,"transit":false,"station_id":"KBY","is_transit":false,"station_name":"Kebayoran","i_long":106.780334},{"i_lat":-6.276362,"station_id":"PDJ","station_name":"Pondokranji","is_transit":false,"i_long":106.74273,"line":6,"distance":6218,"time":8,"transit":false},{"distance":2179,"i_long":106.728916,"station_id":"JMU","transit":false,"time":3,"station_name":"Jurangmangu","is_transit":false,"i_lat":-6.288927,"line":6},{"is_transit":false,"distance":1994,"transit":false,"i_lat":-6.296963,"time":4,"i_long":106.712277,"station_name":"Sudimara","station_id":"SDM","line":6},{"distance":4566,"is_transit":false,"time":6,"station_name":"Rawa Buntu","line":6,"station_id":"RU","transit":false,"i_lat":-6.314823,"i_long":106.675475},{"i_long":106.66566,"line":6,"time":4,"distance":2413,"i_lat":-6.319871,"station_id":"SRP","transit":false,"station_name":"Serpong","is_transit":false},{"station_id":"CSK","station_name":"Cisauk","i_lat":-6.32484,"i_long":106.640411,"is_transit":false,"distance":1784,"time":4,"line":0,"transit":false},{"i_lat":-6.329547,"station_id":"CC","is_transit":false,"time":4,"transit":false,"i_long":106.617853,"line":0,"station_name":"Cicayur","distance":2519},{"i_long":106.568863,"time":8,"is_transit":false,"i_lat":-6.3441410000000005,"station_id":"PRP","station_name":"Parung Panjang","transit":false,"distance":5968,"line":6},{"station_id":"CJT","distance":7025,"i_lat":-6.354349,"is_transit":false,"transit":false,"line":0,"station_name":"Cilejit","time":9,"i_long":106.508482}],[{"i_lat":-6.530544,"i_long":106.800016,"line":0,"station_name":"Cilebut","station_id":"CLT","time":0,"transit":false,"is_transit":false,"distance":0},{"distance":4331,"station_id":"BJD","line":0,"time":5,"station_name":"Bojonggede","transit":false,"i_long":106.792719,"is_transit":false,"i_lat":-6.493243},{"station_id":"CTA","is_transit":true,"time":5,"distance":5197,"i_long":106.800298,"line":1,"i_lat":-6.448811,"transit":false,"station_name":"Citayam"},{"line":0,"station_id":"DP","distance":5084,"i_lat":-6.405256,"is_transit":false,"station_name":"Depok","transit":false,"time":6,"i_long":106.816926},{"i_lat":-6.391065,"time":3,"station_name":"Depokbaru","i_long":106.819451,"line":0,"station_id":"DPB","distance":1584,"transit":false,"is_transit":false},{"distance":2727,"transit":false,"i_long":106.831114,"time":4,"is_transit":false,"i_lat":-6.369073,"station_name":"Pondok Cina","line":2,"station_id":"POC"},{"time":2,"station_id":"UI","transit":false,"distance":1109,"line":2,"station_name":"Univ. Indonesia","is_transit":false,"i_lat":-6.360749,"i_long":106.831474},{"i_lat":-6.339291,"line":2,"i_long":106.834175,"station_id":"UP","transit":false,"distance":2264,"time":3,"station_name":"Univ. Pancasila","is_transit":false},{"station_id":"LNA","is_transit":false,"transit":false,"i_lat":-6.330363,"i_long":106.832616,"station_name":"Lenteng Agung","line":2,"time":2,"distance":1029},{"station_name":"Tanjung Barat","i_lat":-6.3080680000000005,"distance":2671,"i_long":106.838896,"time":3,"transit":false,"station_id":"TNT","is_transit":false,"line":2},{"line":2,"is_transit":false,"station_id":"PSM","time":4,"transit":false,"station_name":"Pasar Minggu","i_lat":-6.2842400000000005,"distance":2820,"i_long":106.843999},{"station_name":"Pasar Minggu Baru","is_transit":false,"i_lat":-6.263214,"station_id":"PSMB","distance":2380,"transit":false,"line":2,"i_long":106.851577,"time":2},{"distance":824,"i_long":106.85449,"line":0,"station_id":"DRN","is_transit":false,"time":2,"station_name":"Duren Kalibata","transit":false,"i_lat":-6.255332},{"i_long":106.856607,"i_lat":-6.242512,"time":3,"station_id":"CW","distance":1546,"line":0,"transit":false,"station_name":"Cawang","is_transit":false},{"station_id":"TEB","is_transit":false,"station_name":"Tebet","transit":false,"time":2,"i_long":106.857948,"i_lat":-6.226659,"distance":1230,"line":2},{"station_id":"MRI","time":4,"distance":2610,"i_long":106.84912,"transit":true,"station_name":"Manggarai","i_lat":-6.209883,"line":0,"is_transit":true},{"distance":1590,"is_transit":false,"station_name":"Cikini","transit":false,"i_long":106.840169,"line":0,"time":4,"i_lat":-6.198556,"station_id":"CKI"},{"time":3,"distance":1750,"is_transit":false,"station_name":"Gondangdia","i_lat":-6.186295,"station_id":"GDD","line":2,"transit":false,"i_long":106.832183},{"is_transit":false,"time":4,"station_name":"Juanda","i_long":106.828284,"line":2,"station_id":"JUA","distance":2015,"i_lat":-6.166716,"transit":false},{"transit":false,"is_transit":false,"distance":1149,"i_long":106.827103,"station_name":"Sawah Besar","i_lat":-6.160725,"station_id":"SW","time":2,"line":2},{"i_lat":-6.149769,"distance":906,"station_id":"MGB","is_transit":false,"i_long":106.82482,"line":2,"time":2,"transit":false,"station_name":"Manggabesar"},{"is_transit":false,"transit":false,"station_id":"JAY","i_lat":-6.141205,"station_name":"Jayakarta","i_long":106.820901,"time":2,"distance":1080,"line":7},{"line":0,"time":4,"station_name":"Jakarta Kota","is_transit":true,"i_lat":-6.137569,"distance":1264,"i_long":106.812439,"station_id":"JAKK","transit":true},{"station_name":"Kampung Bandan","distance":1364,"i_lat":-6.132549,"station_id":"KPB","is_transit":true,"time":3,"i_long":106.826365,"line":0,"transit":false},{"is_transit":false,"line":0,"station_id":"AK","transit":false,"i_lat":-6.144674,"distance":4102,"station_name":"Angke","time":9,"i_long":106.79867},{"station_id":"DU","distance":1230,"line":1,"station_name":"Duri","transit":true,"i_long":106.800832,"is_transit":true,"time":4,"i_lat":-6.155215},{"time":8,"i_long":106.811091,"distance":3632,"station_id":"THB","is_transit":true,"i_lat":-6.185545,"line":1,"transit":true,"station_name":"Tanah Abang"},{"line":6,"is_transit":false,"time":6,"i_long":106.79689,"station_name":"Palmerah","station_id":"PLM","i_lat":-6.207404,"distance":3191,"transit":false},{"station_name":"Kebayoran","station_id":"KBY","i_long":106.780334,"line":6,"distance":3737,"time":7,"is_transit":false,"i_lat":-6.237242,"transit":false},{"i_long":106.74273,"i_lat":-6.276362,"time":8,"transit":false,"distance":6218,"line":6,"is_transit":false,"station_name":"Pondokranji","station_id":"PDJ"},{"time":3,"line":6,"distance":2179,"i_lat":-6.288927,"is_transit":false,"station_name":"Jurangmangu","transit":false,"i_long":106.728916,"station_id":"JMU"},{"station_id":"SDM","time":4,"distance":1994,"is_transit":false,"station_name":"Sudimara","transit":false,"i_long":106.712277,"line":6,"i_lat":-6.296963},{"i_lat":-6.314823,"i_long":106.675475,"line":6,"station_id":"RU","distance":4566,"time":6,"is_transit":false,"station_name":"Rawa Buntu","transit":false},{"i_lat":-6.319871,"distance":2413,"transit":false,"station_id":"SRP","line":6,"is_transit":false,"time":4,"station_name":"Serpong","i_long":106.66566},{"distance":1784,"time":4,"line":0,"is_transit":false,"transit":false,"i_lat":-6.32484,"i_long":106.640411,"station_name":"Cisauk","station_id":"CSK"},{"i_lat":-6.329547,"station_id":"CC","is_transit":false,"distance":2519,"transit":false,"line":0,"time":4,"station_name":"Cicayur","i_long":106.617853},{"time":8,"distance":5968,"transit":false,"station_name":"Parung Panjang","station_id":"PRP","is_transit":false,"i_lat":-6.3441410000000005,"i_long":106.568863,"line":6},{"is_transit":false,"time":9,"distance":7025,"i_lat":-6.354349,"transit":false,"station_name":"Cilejit","line":0,"station_id":"CJT","i_long":106.508482}],[{"time":0,"is_transit":false,"line":0,"i_lat":-6.530544,"station_id":"CLT","station_name":"Cilebut","i_long":106.800016,"distance":0,"transit":false},{"transit":false,"time":5,"station_id":"BJD","i_lat":-6.493243,"distance":4331,"station_name":"Bojonggede","line":0,"is_transit":false,"i_long":106.792719},{"line":1,"time":5,"transit":false,"i_long":106.800298,"distance":5197,"is_transit":true,"station_name":"Citayam","i_lat":-6.448811,"station_id":"CTA"},{"transit":false,"i_long":106.816926,"i_lat":-6.405256,"is_transit":false,"station_id":"DP","time":6,"line":0,"station_name":"Depok","distance":5084},{"is_transit":false,"distance":1584,"i_lat":-6.391065,"time":3,"station_id":"DPB","station_name":"Depokbaru","line":0,"transit":false,"i_long":106.819451},{"station_id":"POC","distance":2727,"is_transit":false,"transit":false,"i_lat":-6.369073,"station_name":"Pondok Cina","i_long":106.831114,"line":2,"time":4},{"station_name":"Univ. Indonesia","distance":1109,"i_long":106.831474,"station_id":"UI","transit":false,"i_lat":-6.360749,"line":2,"time":2,"is_transit":false},{"i_lat":-6.339291,"line":2,"station_name":"Univ. Pancasila","transit":false,"i_long":106.834175,"distance":2264,"station_id":"UP","is_transit":false,"time":3},{"distance":1029,"station_id":"LNA","is_transit":false,"i_lat":-6.330363,"i_long":106.832616,"station_name":"Lenteng Agung","line":2,"transit":false,"time":2},{"line":2,"is_transit":false,"time":3,"station_name":"Tanjung Barat","station_id":"TNT","i_long":106.838896,"transit":false,"distance":2671,"i_lat":-6.3080680000000005},{"line":2,"station_id":"PSM","distance":2820,"i_long":106.843999,"is_transit":false,"transit":false,"time":4,"station_name":"Pasar Minggu","i_lat":-6.2842400000000005},{"distance":2380,"time":2,"i_long":106.851577,"transit":false,"i_lat":-6.263214,"line":2,"station_id":"PSMB","is_transit":false,"station_name":"Pasar Minggu Baru"},{"distance":824,"i_lat":-6.255332,"station_id":"DRN","i_long":106.85449,"is_transit":false,"transit":false,"line":0,"time":2,"station_name":"Duren Kalibata"},{"is_transit":false,"distance":1546,"line":0,"station_id":"CW","station_name":"Cawang","transit":false,"i_lat":-6.242512,"i_long":106.856607,"time":3},{"i_lat":-6.226659,"transit":false,"time":2,"distance":1230,"line":2,"i_long":106.857948,"is_transit":false,"station_name":"Tebet","station_id":"TEB"},{"is_transit":true,"i_lat":-6.209883,"transit":true,"line":0,"station_id":"MRI","time":4,"distance":2610,"i_long":106.84912,"station_name":"Manggarai"},{"is_transit":false,"station_id":"MTR","transit":false,"i_long":106.858896,"time":2,"line":1,"i_lat":-6.212485,"distance":1275,"station_name":"Matraman"},{"station_name":"Jatinegara","station_id":"JNG","line":0,"time":8,"i_long":106.86807400000001,"transit":true,"distance":1377,"is_transit":true,"i_lat":-6.215091},{"station_name":"Pondok Jati","line":11,"station_id":"POK","time":2,"distance":1236,"i_long":106.861737,"transit":false,"is_transit":false,"i_lat":-6.209188},{"is_transit":false,"i_long":106.855437,"station_id":"KMT","station_name":"Kramat","time":2,"distance":1829,"i_lat":-6.193792,"line":11,"transit":false},{"i_lat":-6.185975,"i_long":106.850107,"transit":false,"station_id":"GST","distance":973,"line":11,"station_name":"Gang Sentiong","time":1,"is_transit":false},{"time":8,"is_transit":false,"transit":false,"i_long":106.84368,"i_lat":-6.174784,"station_name":"Pasar Senen","station_id":"PSE","line":11,"distance":1567},{"station_name":"Kemayoran","line":11,"is_transit":false,"distance":1436,"station_id":"KMO","transit":false,"i_long":106.839204,"time":4,"i_lat":-6.161728},{"i_lat":-6.14505,"time":5,"line":11,"station_id":"RJW","i_long":106.836569,"distance":1901,"station_name":"Rajawali","is_transit":false,"transit":false},{"is_transit":true,"i_lat":-6.132549,"time":3,"i_long":106.826365,"line":0,"distance":1444,"station_name":"Kampung Bandan","station_id":"KPB","transit":true},{"i_long":106.79867,"line":0,"station_name":"Angke","i_lat":-6.144674,"transit":false,"station_id":"AK","time":9,"is_transit":false,"distance":4102},{"transit":true,"i_lat":-6.155215,"is_transit":true,"station_id":"DU","station_name":"Duri","time":4,"line":1,"distance":1230,"i_long":106.800832},{"transit":true,"line":1,"station_name":"Tanah Abang","i_lat":-6.185545,"time":8,"i_long":106.811091,"station_id":"THB","is_transit":true,"distance":3632},{"line":6,"station_id":"PLM","time":6,"is_transit":false,"transit":false,"i_lat":-6.207404,"distance":3191,"station_name":"Palmerah","i_long":106.79689},{"i_lat":-6.237242,"station_name":"Kebayoran","is_transit":false,"station_id":"KBY","i_long":106.780334,"time":7,"line":6,"distance":3737,"transit":false},{"i_long":106.74273,"i_lat":-6.276362,"transit":false,"station_id":"PDJ","line":6,"distance":6218,"is_transit":false,"time":8,"station_name":"Pondokranji"},{"transit":false,"station_name":"Jurangmangu","time":3,"i_lat":-6.288927,"i_long":106.728916,"line":6,"station_id":"JMU","distance":2179,"is_transit":false},{"station_name":"Sudimara","i_lat":-6.296963,"transit":false,"line":6,"station_id":"SDM","time":4,"is_transit":false,"distance":1994,"i_long":106.712277},{"time":6,"line":6,"i_long":106.675475,"station_name":"Rawa Buntu","is_transit":false,"transit":false,"i_lat":-6.314823,"station_id":"RU","distance":4566},{"is_transit":false,"line":6,"station_id":"SRP","time":4,"distance":2413,"transit":false,"station_name":"Serpong","i_lat":-6.319871,"i_long":106.66566},{"station_name":"Cisauk","is_transit":false,"line":0,"i_lat":-6.32484,"station_id":"CSK","time":4,"i_long":106.640411,"transit":false,"distance":1784},{"i_lat":-6.329547,"transit":false,"is_transit":false,"i_long":106.617853,"time":4,"distance":2519,"line":0,"station_id":"CC","station_name":"Cicayur"},{"time":8,"distance":5968,"line":6,"i_long":106.568863,"is_transit":false,"station_id":"PRP","i_lat":-6.3441410000000005,"transit":false,"station_name":"Parung Panjang"},{"transit":false,"i_long":106.508482,"is_transit":false,"distance":7025,"i_lat":-6.354349,"line":0,"time":9,"station_id":"CJT","station_name":"Cilejit"}]]}