{"data":[[{"time":0,"transit":false,"i_long":106.800016,"is_transit":false,"station_name":"Cilebut","station_id":"CLT","distance":0,"i_lat":-6.530544,"line":0},{"distance":4331,"station_name":"Bojonggede","i_lat":-6.493243,"line":0,"transit":false,"is_transit":false,"i_long":106.792719,"station_id":"BJD","time":5},{"is_transit":true,"transit":false,"i_lat":-6.448811,"i_long":106.800298,"distance":5197,"station_id":"CTA","station_name":"Citayam","line":1,"time":5},{"i_lat":-6.405256,"transit":false,"i_long":106.816926,"time":6,"is_transit":false,"distance":5084,"station_name":"Depok","line":0,"station_id":"DP"},{"line":0,"is_transit":false,"station_name":"Depokbaru","transit":false,"distance":1584,"i_long":106.819451,"time":3,"i_lat":-6.391065,"station_id":"DPB"},{"time":4,"transit":false,"i_long":106.831114,"i_lat":-6.369073,"station_name":"Pondok Cina","is_transit":false,"line":2,"distance":2727,"station_id":"POC"},{"transit":false,"station_name":"Univ. Indonesia","i_lat":-6.360749,"i_long":106.831474,"time":2,"line":2,"station_id":"UI","is_transit":false,"distance":1109},{"station_id":"UP","i_lat":-6.339291,"line":2,"time":3,"distance":2264,"is_transit":false,"transit":false,"station_name":"Univ. Pancasila","i_long":106.834175},{"i_lat":-6.330363,"transit":false,"distance":1029,"is_transit":false,"station_name":"Lenteng Agung","line":2,"time":2,"i_long":106.832616,"station_id":"LNA"},{"is_transit":false,"i_lat":-6.3080680000000005,"line":2,"distance":2671,"i_long":106.838896,"station_id":"TNT","transit":false,"station_name":"Tanjung Barat","time":3}]]}