{"data":[[{"transit":false,"station_id":"CLT","distance":0,"i_lat":-6.530544,"i_long":106.800016,"line":0,"is_transit":false,"station_name":"Cilebut","time":0},{"time":5,"i_long":106.792719,"station_name":"Bojonggede","station_id":"BJD","is_transit":false,"i_lat":-6.493243,"transit":false,"distance":4331,"line":0},{"transit":false,"time":5,"distance":5197,"i_long":106.800298,"station_id":"CTA","is_transit":true,"station_name":"Citayam","i_lat":-6.448811,"line":1},{"is_transit":false,"i_lat":-6.405256,"line":0,"distance":5084,"station_name":"Depok","transit":false,"time":6,"station_id":"DP","i_long":106.816926},{"time":3,"line":0,"station_name":"Depokbaru","i_lat":-6.391065,"i_long":106.819451,"station_id":"DPB","distance":1584,"transit":false,"is_transit":false},{"line":2,"transit":false,"is_transit":false,"i_lat":-6.369073,"i_long":106.831114,"time":4,"station_id":"POC","distance":2727,"station_name":"Pondok Cina"},{"i_long":106.831474,"station_name":"Univ. Indonesia","transit":false,"time":2,"distance":1109,"station_id":"UI","is_transit":false,"i_lat":-6.360749,"line":2},{"is_transit":false,"station_id":"UP","station_name":"Univ. Pancasila","distance":2264,"line":2,"transit":false,"i_long":106.834175,"time":3,"i_lat":-6.339291},{"is_transit":false,"i_long":106.832616,"transit":false,"station_id":"LNA","i_lat":-6.330363,"time":2,"station_name":"Lenteng Agung","distance":1029,"line":2},{"is_transit":false,"i_lat":-6.3080680000000005,"i_long":106.838896,"line":2,"transit":false,"time":3,"station_id":"TNT","station_name":"Tanjung Barat","distance":2671},{"is_transit":false,"station_id":"PSM","station_name":"Pasar Minggu","time":4,"i_long":106.843999,"line":2,"i_lat":-6.2842400000000005,"transit":false,"distance":2820},{"transit":false,"i_long":106.851577,"line":2,"distance":2380,"time":2,"station_id":"PSMB","i_lat":-6.263214,"is_transit":false,"station_name":"Pasar Minggu Baru"},{"i_long":106.85449,"station_name":"Duren Kalibata","line":0,"time":2,"is_transit":false,"station_id":"DRN","transit":false,"distance":824,"i_lat":-6.255332},{"is_transit":false,"station_name":"Cawang","distance":1546,"line":0,"transit":false,"i_long":106.856607,"i_lat":-6.242512,"time":3,"station_id":"CW"},{"station_id":"TEB","i_long":106.857948,"transit":false,"distance":1230,"is_transit":false,"time":2,"station_name":"Tebet","i_lat":-6.226659,"line":2},{"distance":2610,"is_transit":true,"station_id":"MRI","station_name":"Manggarai","transit":true,"i_lat":-6.209883,"line":0,"i_long":106.84912,"time":4},{"is_transit":false,"time":4,"line":1,"distance":3186,"i_lat":-6.202263,"i_long":106.822649,"station_name":"Sudirman","transit":false,"station_id":"SUD"},{"is_transit":false,"station_id":"SUDB","station_name":"Sudirman Baru","i_long":106.819881,"i_lat":-6.201433,"transit":false,"line":1,"time":1,"distance":280},{"is_transit":false,"transit":false,"distance":471,"i_long":106.816351,"station_id":"KAT","line":1,"station_name":"Karet","time":1,"i_lat":-6.20132},{"distance":2029,"station_id":"THB","is_transit":true,"i_lat":-6.185545,"station_name":"Tanah Abang","transit":true,"time":5,"i_long":106.811091,"line":1},{"line":6,"time":6,"i_lat":-6.207404,"transit":false,"distance":3191,"station_name":"Palmerah","i_long":106.79689,"station_id":"PLM","is_transit":false},{"time":7,"transit":false,"i_lat":-6.237242,"distance":3737,"i_long":106.780334,"station_name":"Kebayoran","line":6,"is_transit":false,"station_id":"KBY"},{"is_transit":false,"time":8,"i_lat":-6.276362,"transit":false,"distance":6218,"line":6,"station_id":"PDJ","i_long":106.74273,"station_name":"Pondokranji"},{"station_id":"JMU","time":3,"i_lat":-6.288927,"station_name":"Jurangmangu","is_transit":false,"distance":2179,"i_long":106.728916,"transit":false,"line":6},{"transit":false,"i_lat":-6.296963,"station_id":"SDM","is_transit":false,"time":4,"station_name":"Sudimara","distance":1994,"line":6,"i_long":106.712277},{"transit":false,"distance":4566,"line":6,"time":6,"station_name":"Rawa Buntu","i_lat":-6.314823,"i_long":106.675475,"station_id":"RU","is_transit":false},{"transit":false,"i_long":106.66566,"line":6,"station_name":"Serpong","i_lat":-6.319871,"distance":2413,"time":4,"is_transit":false,"station_id":"SRP"},{"station_id":"CSK","is_transit":false,"line":0,"time":4,"transit":false,"i_long":106.640411,"distance":1784,"station_name":"Cisauk","i_lat":-6.32484}],[{"i_lat":-6.530544,"transit":false,"distance":0,"station_name":"Cilebut","i_long":106.800016,"time":0,"station_id":"CLT","line":0,"is_transit":false},{"station_id":"BJD","transit":false,"station_name":"Bojonggede","line":0,"is_transit":false,"distance":4331,"i_lat":-6.493243,"i_long":106.792719,"time":5},{"line":1,"transit":false,"distance":5197,"is_transit":true,"station_id":"CTA","station_name":"Citayam","i_long":106.800298,"time":5,"i_lat":-6.448811},{"line":0,"station_id":"DP","i_lat":-6.405256,"time":6,"distance":5084,"is_transit":false,"transit":false,"station_name":"Depok","i_long":106.816926},{"i_long":106.819451,"station_id":"DPB","is_transit":false,"i_lat":-6.391065,"distance":1584,"line":0,"transit":false,"time":3,"station_name":"Depokbaru"},{"i_lat":-6.369073,"i_long":106.831114,"line":2,"is_transit":false,"station_name":"Pondok Cina","transit":false,"station_id":"POC","time":4,"distance":2727},{"i_lat":-6.360749,"transit":false,"i_long":106.831474,"distance":1109,"time":2,"station_id":"UI","station_name":"Univ. Indonesia","is_transit":false,"line":2},{"station_name":"Univ. Pancasila","station_id":"UP","distance":2264,"i_lat":-6.339291,"transit":false,"i_long":106.834175,"is_transit":false,"time":3,"line":2},{"time":2,"i_lat":-6.330363,"station_id":"LNA","distance":1029,"transit":false,"station_name":"Lenteng Agung","i_long":106.832616,"is_transit":false,"line":2},{"transit":false,"time":3,"distance":2671,"station_name":"Tanjung Barat","i_lat":-6.3080680000000005,"line":2,"station_id":"TNT","is_transit":false,"i_long":106.838896},{"line":2,"station_id":"PSM","distance":2820,"i_long":106.843999,"transit":false,"station_name":"Pasar Minggu","i_lat":-6.2842400000000005,"time":4,"is_transit":false},{"distance":2380,"i_lat":-6.263214,"time":2,"transit":false,"station_id":"PSMB","is_transit":false,"station_name":"Pasar Minggu Baru","line":2,"i_long":106.851577},{"transit":false,"i_lat":-6.255332,"i_long":106.85449,"is_transit":false,"station_id":"DRN","time":2,"distance":824,"station_name":"Duren Kalibata","line":0},{"time":3,"line":0,"station_name":"Cawang","i_long":106.856607,"i_lat":-6.242512,"distance":1546,"station_id":"CW","is_transit":false,"transit":false},{"time":2,"i_lat":-6.226659,"is_transit":false,"i_long":106.857948,"station_id":"TEB","station_name":"Tebet","distance":1230,"line":2,"transit":false},{"time":4,"station_name":"Manggarai","is_transit":true,"distance":2610,"transit":true,"station_id":"MRI","line":0,"i_long":106.84912,"i_lat":-6.209883},{"i_long":106.840169,"distance":1590,"station_name":"Cikini","transit":false,"station_id":"CKI","is_transit":false,"time":4,"i_lat":-6.198556,"line":0},{"transit":false,"distance":1750,"time":3,"station_id":"GDD","i_lat":-6.186295,"line":2,"station_name":"Gondangdia","i_long":106.832183,"is_transit":false},{"time":4,"is_transit":false,"i_lat":-6.166716,"station_id":"JUA","line":2,"distance":2015,"transit":false,"station_name":"Juanda","i_long":106.828284},{"i_long":106.827103,"station_name":"Sawah Besar","i_lat":-6.160725,"station_id":"SW","line":2,"transit":false,"time":2,"distance":1149,"is_transit":false},{"station_id":"MGB","station_name":"Manggabesar","i_long":106.82482,"i_lat":-6.149769,"distance":906,"transit":false,"time":2,"is_transit":false,"line":2},{"i_lat":-6.141205,"transit":false,"i_long":106.820901,"is_transit":false,"line":7,"station_id":"JAY","station_name":"Jayakarta","time":2,"distance":1080},{"distance":1264,"i_long":106.812439,"station_name":"Jakarta Kota","transit":true,"is_transit":true,"time":4,"i_lat":-6.137569,"line":0,"station_id":"JAKK"},{"is_transit":true,"distance":1364,"station_name":"Kampung Bandan","i_lat":-6.132549,"i_long":106.826365,"line":0,"transit":false,"station_id":"KPB","time":3},{"station_name":"Angke","i_long":106.79867,"station_id":"AK","is_transit":false,"line":0,"transit":false,"distance":4102,"i_lat":-6.144674,"time":9},{"station_id":"DU","i_long":106.800832,"line":1,"transit":true,"station_name":"Duri","time":4,"distance":1230,"is_transit":true,"i_lat":-6.155215},{"station_name":"Tanah Abang","is_transit":true,"i_long":106.811091,"distance":3632,"i_lat":-6.185545,"station_id":"THB","transit":true,"line":1,"time":8},{"i_lat":-6.207404,"time":6,"line":6,"station_name":"Palmerah","station_id":"PLM","transit":false,"is_transit":false,"distance":3191,"i_long":106.79689},{"station_name":"Kebayoran","station_id":"KBY","transit":false,"distance":3737,"time":7,"is_transit":false,"i_lat":-6.237242,"i_long":106.780334,"line":6},{"station_name":"Pondokranji","i_lat":-6.276362,"station_id":"PDJ","time":8,"distance":6218,"i_long":106.74273,"transit":false,"line":6,"is_transit":false},{"station_name":"Jurangmangu","i_long":106.728916,"station_id":"JMU","line":6,"is_transit":false,"distance":2179,"i_lat":-6.288927,"transit":false,"time":3},{"time":4,"distance":1994,"station_id":"SDM","station_name":"Sudimara","i_lat":-6.296963,"is_transit":false,"line":6,"transit":false,"i_long":106.712277},{"station_id":"RU","transit":false,"line":6,"i_long":106.675475,"is_transit":false,"time":6,"station_name":"Rawa Buntu","distance":4566,"i_lat":-6.314823},{"i_long":106.66566,"transit":false,"station_name":"Serpong","line":6,"time":4,"distance":2413,"station_id":"SRP","is_transit":false,"i_lat":-6.319871},{"time":4,"is_transit":false,"station_id":"CSK","station_name":"Cisauk","transit":false,"i_lat":-6.32484,"line":0,"distance":1784,"i_long":106.640411}],[{"station_id":"CLT","distance":0,"time":0,"line":0,"station_name":"Cilebut","i_lat":-6.530544,"is_transit":false,"transit":false,"i_long":106.800016},{"distance":4331,"station_id":"BJD","line":0,"station_name":"Bojonggede","transit":false,"time":5,"i_long":106.792719,"is_transit":false,"i_lat":-6.493243},{"distance":5197,"station_id":"CTA","time":5,"is_transit":true,"i_long":106.800298,"station_name":"Citayam","i_lat":-6.448811,"line":1,"transit":false},{"i_lat":-6.405256,"distance":5084,"i_long":106.816926,"station_name":"Depok","station_id":"DP","line":0,"transit":false,"is_transit":false,"time":6},{"i_long":106.819451,"i_lat":-6.391065,"transit":false,"distance":1584,"station_id":"DPB","is_transit":false,"station_name":"Depokbaru","line":0,"time":3},{"is_transit":false,"line":2,"station_name":"Pondok Cina","distance":2727,"time":4,"i_long":106.831114,"station_id":"POC","i_lat":-6.369073,"transit":false},{"i_lat":-6.360749,"line":2,"station_id":"UI","i_long":106.831474,"time":2,"distance":1109,"transit":false,"is_transit":false,"station_name":"Univ. Indonesia"},{"i_lat":-6.339291,"time":3,"transit":false,"station_id":"UP","i_long":106.834175,"line":2,"station_name":"Univ. Pancasila","is_transit":false,"distance":2264},{"station_name":"Lenteng Agung","distance":1029,"i_lat":-6.330363,"i_long":106.832616,"time":2,"is_transit":false,"line":2,"transit":false,"station_id":"LNA"},{"time":3,"line":2,"distance":2671,"i_long":106.838896,"is_transit":false,"station_name":"Tanjung Barat","station_id":"TNT","transit":false,"i_lat":-6.3080680000000005},{"i_long":106.843999,"is_transit":false,"station_name":"Pasar Minggu","transit":false,"time":4,"distance":2820,"station_id":"PSM","i_lat":-6.2842400000000005,"line":2},{"distance":2380,"time":2,"station_id":"PSMB","transit":false,"station_name":"Pasar Minggu Baru","i_long":106.851577,"is_transit":false,"i_lat":-6.263214,"line":2},{"station_id":"DRN","is_transit":false,"distance":824,"station_name":"Duren Kalibata","line":0,"time":2,"i_lat":-6.255332,"i_long":106.85449,"transit":false},{"station_id":"CW","i_long":106.856607,"is_transit":false,"time":3,"distance":1546,"line":0,"station_name":"Cawang","i_lat":-6.242512,"transit":false},{"i_long":106.857948,"station_name":"Tebet","station_id":"TEB","line":2,"time":2,"i_lat":-6.226659,"transit":false,"distance":1230,"is_transit":false},{"line":0,"transit":true,"i_long":106.84912,"station_name":"Manggarai","time":4,"is_transit":true,"station_id":"MRI","distance":2610,"i_lat":-6.209883},{"i_lat":-6.212485,"is_transit":false,"station_name":"Matraman","time":2,"distance":1275,"station_id":"MTR","line":1,"transit":false,"i_long":106.858896},{"line":0,"time":8,"is_transit":true,"transit":true,"station_name":"Jatinegara","distance":1377,"i_lat":-6.215091,"i_long":106.86807400000001,"station_id":"JNG"},{"line":11,"distance":1236,"is_transit":false,"transit":false,"station_name":"Pondok Jati","i_long":106.861737,"i_lat":-6.209188,"station_id":"POK","time":2},{"line":11,"is_transit":false,"transit":false,"station_name":"Kramat","i_lat":-6.193792,"i_long":106.855437,"distance":1829,"station_id":"KMT","time":2},{"transit":false,"is_transit":false,"i_lat":-6.185975,"distance":973,"time":1,"station_id":"GST","station_name":"Gang Sentiong","line":11,"i_long":106.850107},{"transit":false,"station_name":"Pasar Senen","distance":1567,"i_long":106.84368,"station_id":"PSE","line":11,"is_transit":false,"time":8,"i_lat":-6.174784},{"time":4,"station_name":"Kemayoran","line":11,"transit":false,"i_long":106.839204,"station_id":"KMO","distance":1436,"is_transit":false,"i_lat":-6.161728},{"time":5,"station_name":"Rajawali","transit":false,"i_long":106.836569,"station_id":"RJW","distance":1901,"is_transit":false,"i_lat":-6.14505,"line":11},{"i_lat":-6.132549,"station_name":"Kampung Bandan","is_transit":true,"transit":true,"i_long":106.826365,"line":0,"distance":1444,"time":3,"station_id":"KPB"},{"station_id":"AK","i_long":106.79867,"is_transit":false,"station_name":"Angke","transit":false,"time":9,"distance":4102,"i_lat":-6.144674,"line":0},{"station_name":"Duri","i_long":106.800832,"distance":1230,"transit":true,"station_id":"DU","line":1,"i_lat":-6.155215,"is_transit":true,"time":4},{"station_name":"Tanah Abang","line":1,"is_transit":true,"time":8,"transit":true,"i_lat":-6.185545,"distance":3632,"i_long":106.811091,"station_id":"THB"},{"transit":false,"distance":3191,"i_long":106.79689,"station_id":"PLM","station_name":"Palmerah","i_lat":-6.207404,"line":6,"is_transit":false,"time":6},{"time":7,"transit":false,"distance":3737,"is_transit":false,"i_lat":-6.237242,"station_name":"Kebayoran","line":6,"i_long":106.780334,"station_id":"KBY"},{"time":8,"i_long":106.74273,"distance":6218,"line":6,"is_transit":false,"station_id":"PDJ","station_name":"Pondokranji","transit":false,"i_lat":-6.276362},{"station_id":"JMU","is_transit":false,"transit":false,"time":3,"distance":2179,"i_long":106.728916,"line":6,"i_lat":-6.288927,"station_name":"Jurangmangu"},{"transit":false,"i_long":106.712277,"i_lat":-6.296963,"line":6,"distance":1994,"is_transit":false,"station_name":"Sudimara","time":4,"station_id":"SDM"},{"i_long":106.675475,"station_name":"Rawa Buntu","line":6,"distance":4566,"station_id":"RU","time":6,"transit":false,"is_transit":false,"i_lat":-6.314823},{"station_id":"SRP","i_lat":-6.319871,"station_name":"Serpong","transit":false,"time":4,"distance":2413,"line":6,"is_transit":false,"i_long":106.66566},{"is_transit":false,"transit":false,"i_lat":-6.32484,"distance":1784,"i_long":106.640411,"station_id":"CSK","time":4,"station_name":"Cisauk","line":0}]]}