{"data":[[{"transit":false,"time":0,"line":2,"station_name":"Cilebut","i_lat":-6.530544,"i_long":106.800016,"is_transit":false,"distance":0,"station_id":"CLT"},{"transit":false,"line":2,"distance":4331,"i_long":106.792719,"station_id":"BJD","station_name":"Bojonggede","is_transit":false,"i_lat":-6.493243,"time":5},{"transit":false,"i_lat":-6.448811,"station_name":"Citayam","is_transit":false,"station_id":"CTA","distance":5197,"line":2,"time":5,"i_long":106.800298},{"line":2,"transit":false,"station_name":"Depok","i_long":106.816926,"station_id":"DP","i_lat":-6.405256,"distance":5084,"time":6,"is_transit":false},{"is_transit":false,"time":3,"i_long":106.819451,"station_name":"Depokbaru","i_lat":-6.391065,"line":2,"station_id":"DPB","distance":1584,"transit":false},{"is_transit":false,"distance":2727,"transit":false,"i_lat":-6.369073,"time":4,"station_name":"Pondok Cina","station_id":"POC","i_long":106.831114,"line":2},{"time":2,"transit":false,"distance":1109,"station_name":"Univ. Indonesia","i_lat":-6.360749,"station_id":"UI","line":2,"is_transit":false,"i_long":106.831474},{"time":3,"distance":2264,"transit":false,"station_id":"UP","i_lat":-6.339291,"i_long":106.834175,"line":2,"is_transit":false,"station_name":"Univ. Pancasila"},{"distance":1029,"station_id":"LNA","is_transit":false,"time":2,"station_name":"Lenteng Agung","i_long":106.832616,"line":2,"transit":false,"i_lat":-6.330363},{"distance":2671,"i_lat":-6.3080680000000005,"is_transit":false,"station_id":"TNT","time":3,"station_name":"Tanjung Barat","transit":false,"line":2,"i_long":106.838896},{"station_name":"Pasar Minggu","line":2,"is_transit":false,"transit":false,"distance":2820,"i_long":106.843999,"i_lat":-6.2842400000000005,"time":4,"station_id":"PSM"},{"is_transit":false,"station_id":"PSMB","i_long":106.851577,"distance":2380,"line":2,"transit":false,"time":2,"station_name":"Pasar Minggu Baru","i_lat":-6.263214},{"i_long":106.85449,"time":2,"i_lat":-6.255332,"line":2,"transit":false,"station_name":"Duren Kalibata","station_id":"DRN","distance":824,"is_transit":false},{"time":3,"station_id":"CW","i_lat":-6.242512,"is_transit":false,"i_long":106.856607,"transit":false,"line":2,"station_name":"Cawang","distance":1546},{"i_lat":-6.226659,"transit":false,"distance":1230,"is_transit":false,"i_long":106.857948,"station_name":"Tebet","station_id":"TEB","time":2,"line":2},{"is_transit":true,"distance":2610,"transit":true,"station_id":"MRI","i_lat":-6.209883,"i_long":106.84912,"line":2,"station_name":"Manggarai","time":4},{"i_lat":-6.202263,"distance":3186,"transit":false,"time":4,"is_transit":false,"station_name":"Sudirman","i_long":106.822649,"line":1,"station_id":"SUD"},{"i_long":106.819881,"station_id":"SUDB","station_name":"Sudirman Baru","time":1,"i_lat":-6.201433,"distance":280,"line":1,"transit":false,"is_transit":false},{"transit":false,"distance":471,"is_transit":false,"i_long":106.816351,"time":1,"station_name":"Karet","i_lat":-6.20132,"station_id":"KAT","line":1},{"station_id":"THB","distance":2029,"station_name":"Tanah Abang","transit":true,"i_long":106.811091,"is_transit":true,"line":1,"i_lat":-6.185545,"time":5},{"transit":false,"distance":3191,"line":6,"i_long":106.79689,"time":6,"station_name":"Palmerah","station_id":"PLM","is_transit":false,"i_lat":-6.207404},{"station_id":"KBY","i_long":106.780334,"distance":3737,"line":6,"transit":false,"time":7,"is_transit":false,"station_name":"Kebayoran","i_lat":-6.237242}],[{"distance":0,"transit":false,"station_name":"Cilebut","i_long":106.800016,"is_transit":false,"i_lat":-6.530544,"station_id":"CLT","time":0,"line":2},{"line":2,"station_id":"BJD","station_name":"Bojonggede","time":5,"i_lat":-6.493243,"i_long":106.792719,"distance":4331,"transit":false,"is_transit":false},{"transit":false,"i_lat":-6.448811,"station_id":"CTA","distance":5197,"time":5,"station_name":"Citayam","i_long":106.800298,"line":2,"is_transit":false},{"line":2,"is_transit":false,"time":6,"distance":5084,"station_name":"Depok","i_lat":-6.405256,"station_id":"DP","i_long":106.816926,"transit":false},{"station_id":"DPB","i_long":106.819451,"transit":false,"station_name":"Depokbaru","time":3,"i_lat":-6.391065,"line":2,"distance":1584,"is_transit":false},{"station_name":"Pondok Cina","i_long":106.831114,"i_lat":-6.369073,"time":4,"station_id":"POC","is_transit":false,"line":2,"distance":2727,"transit":false},{"transit":false,"time":2,"station_name":"Univ. Indonesia","is_transit":false,"distance":1109,"station_id":"UI","i_lat":-6.360749,"line":2,"i_long":106.831474},{"distance":2264,"transit":false,"station_id":"UP","time":3,"i_lat":-6.339291,"i_long":106.834175,"station_name":"Univ. Pancasila","line":2,"is_transit":false},{"time":2,"distance":1029,"transit":false,"station_name":"Lenteng Agung","is_transit":false,"i_long":106.832616,"i_lat":-6.330363,"line":2,"station_id":"LNA"},{"time":3,"i_lat":-6.3080680000000005,"distance":2671,"station_id":"TNT","station_name":"Tanjung Barat","line":2,"transit":false,"is_transit":false,"i_long":106.838896},{"i_long":106.843999,"station_id":"PSM","line":2,"station_name":"Pasar Minggu","time":4,"transit":false,"distance":2820,"is_transit":false,"i_lat":-6.2842400000000005},{"transit":false,"station_id":"PSMB","station_name":"Pasar Minggu Baru","distance":2380,"time":2,"i_lat":-6.263214,"i_long":106.851577,"is_transit":false,"line":2},{"i_lat":-6.255332,"station_name":"Duren Kalibata","station_id":"DRN","distance":824,"is_transit":false,"transit":false,"time":2,"i_long":106.85449,"line":2},{"i_lat":-6.242512,"station_name":"Cawang","time":3,"is_transit":false,"distance":1546,"i_long":106.856607,"transit":false,"station_id":"CW","line":2},{"i_lat":-6.226659,"station_name":"Tebet","i_long":106.857948,"time":2,"transit":false,"distance":1230,"station_id":"TEB","is_transit":false,"line":2},{"time":4,"line":2,"i_lat":-6.209883,"i_long":106.84912,"distance":2610,"transit":false,"station_id":"MRI","is_transit":false,"station_name":"Manggarai"},{"time":4,"distance":1590,"transit":false,"is_transit":false,"station_name":"Cikini","i_lat":-6.198556,"line":2,"station_id":"CKI","i_long":106.840169},{"i_lat":-6.186295,"transit":false,"time":3,"station_id":"GDD","distance":1750,"is_transit":false,"i_long":106.832183,"line":2,"station_name":"Gondangdia"},{"time":4,"station_name":"Juanda","i_long":106.828284,"distance":2015,"station_id":"JUA","is_transit":false,"line":2,"i_lat":-6.166716,"transit":false},{"time":2,"transit":false,"i_long":106.827103,"line":2,"station_id":"SW","distance":1149,"is_transit":false,"station_name":"Sawah Besar","i_lat":-6.160725},{"transit":false,"i_long":106.82482,"station_name":"Manggabesar","i_lat":-6.149769,"distance":906,"time":2,"is_transit":false,"line":2,"station_id":"MGB"},{"line":2,"i_lat":-6.141205,"is_transit":false,"station_id":"JAY","time":2,"distance":1080,"transit":false,"station_name":"Jayakarta","i_long":106.820901},{"distance":1264,"station_id":"JAKK","line":2,"station_name":"Jakarta Kota","time":4,"i_long":106.812439,"i_lat":-6.137569,"transit":true,"is_transit":true},{"station_id":"KPB","station_name":"Kampung Bandan","is_transit":true,"time":3,"i_lat":-6.132549,"line":4,"i_long":106.826365,"distance":1364,"transit":true},{"distance":4102,"transit":false,"time":9,"i_long":106.79867,"line":1,"is_transit":false,"station_name":"Angke","station_id":"AK","i_lat":-6.144674},{"station_id":"DU","is_transit":false,"time":4,"station_name":"Duri","i_lat":-6.155215,"transit":false,"line":1,"i_long":106.800832,"distance":1230},{"i_long":106.811091,"distance":3632,"is_transit":true,"transit":true,"station_id":"THB","time":8,"line":1,"station_name":"Tanah Abang","i_lat":-6.185545},{"distance":3191,"i_lat":-6.207404,"station_id":"PLM","transit":false,"is_transit":false,"time":6,"station_name":"Palmerah","i_long":106.79689,"line":6},{"i_lat":-6.237242,"distance":3737,"station_name":"Kebayoran","transit":false,"is_transit":false,"time":7,"station_id":"KBY","i_long":106.780334,"line":6}],[{"transit":false,"station_name":"Cilebut","line":2,"i_lat":-6.530544,"distance":0,"station_id":"CLT","i_long":106.800016,"time":0,"is_transit":false},{"station_name":"Bojonggede","station_id":"BJD","transit":false,"is_transit":false,"distance":4331,"i_lat":-6.493243,"i_long":106.792719,"line":2,"time":5},{"distance":5197,"time":5,"i_long":106.800298,"is_transit":false,"transit":false,"station_id":"CTA","station_name":"Citayam","i_lat":-6.448811,"line":2},{"distance":5084,"transit":false,"line":2,"time":6,"station_id":"DP","i_lat":-6.405256,"is_transit":false,"i_long":106.816926,"station_name":"Depok"},{"i_lat":-6.391065,"distance":1584,"station_name":"Depokbaru","time":3,"station_id":"DPB","transit":false,"is_transit":false,"line":2,"i_long":106.819451},{"i_lat":-6.369073,"distance":2727,"line":2,"station_name":"Pondok Cina","time":4,"transit":false,"station_id":"POC","is_transit":false,"i_long":106.831114},{"station_name":"Univ. Indonesia","line":2,"transit":false,"station_id":"UI","time":2,"is_transit":false,"i_lat":-6.360749,"i_long":106.831474,"distance":1109},{"station_id":"UP","station_name":"Univ. Pancasila","is_transit":false,"distance":2264,"transit":false,"time":3,"i_lat":-6.339291,"i_long":106.834175,"line":2},{"time":2,"i_long":106.832616,"station_name":"Lenteng Agung","i_lat":-6.330363,"line":2,"distance":1029,"is_transit":false,"station_id":"LNA","transit":false},{"transit":false,"is_transit":false,"station_id":"TNT","time":3,"distance":2671,"i_lat":-6.3080680000000005,"i_long":106.838896,"line":2,"station_name":"Tanjung Barat"},{"distance":2820,"line":2,"is_transit":false,"time":4,"station_id":"PSM","transit":false,"station_name":"Pasar Minggu","i_lat":-6.2842400000000005,"i_long":106.843999},{"time":2,"i_long":106.851577,"is_transit":false,"station_id":"PSMB","line":2,"station_name":"Pasar Minggu Baru","distance":2380,"transit":false,"i_lat":-6.263214},{"transit":false,"i_lat":-6.255332,"station_name":"Duren Kalibata","line":2,"distance":824,"i_long":106.85449,"is_transit":false,"station_id":"DRN","time":2},{"line":2,"time":3,"station_id":"CW","is_transit":false,"i_long":106.856607,"transit":false,"distance":1546,"station_name":"Cawang","i_lat":-6.242512},{"distance":1230,"transit":false,"line":2,"station_id":"TEB","i_lat":-6.226659,"time":2,"station_name":"Tebet","is_transit":false,"i_long":106.857948},{"i_long":106.84912,"transit":true,"time":4,"station_id":"MRI","is_transit":true,"station_name":"Manggarai","line":2,"distance":2610,"i_lat":-6.209883},{"transit":false,"distance":1275,"line":1,"station_name":"Matraman","i_long":106.858896,"time":2,"is_transit":false,"station_id":"MTR","i_lat":-6.212485},{"line":1,"distance":1377,"is_transit":true,"i_long":106.86807400000001,"transit":true,"station_name":"Jatinegara","station_id":"JNG","i_lat":-6.215091,"time":8},{"i_long":106.861737,"line":11,"station_name":"Pondok Jati","is_transit":false,"station_id":"POK","distance":1236,"time":2,"i_lat":-6.209188,"transit":false},{"i_long":106.855437,"line":11,"transit":false,"time":2,"distance":1829,"station_id":"KMT","station_name":"Kramat","i_lat":-6.193792,"is_transit":false},{"i_lat":-6.185975,"time":1,"station_id":"GST","station_name":"Gang Sentiong","is_transit":false,"distance":973,"transit":false,"i_long":106.850107,"line":11},{"i_lat":-6.174784,"i_long":106.84368,"station_name":"Pasar Senen","is_transit":false,"station_id":"PSE","distance":1567,"transit":false,"line":11,"time":8},{"i_lat":-6.161728,"i_long":106.839204,"distance":1436,"transit":false,"station_id":"KMO","line":11,"station_name":"Kemayoran","is_transit":false,"time":4},{"i_long":106.836569,"line":11,"time":5,"station_id":"RJW","distance":1901,"station_name":"Rajawali","is_transit":false,"transit":false,"i_lat":-6.14505},{"line":4,"station_id":"KPB","is_transit":true,"distance":1444,"time":3,"transit":true,"i_lat":-6.132549,"i_long":106.826365,"station_name":"Kampung Bandan"},{"i_lat":-6.144674,"i_long":106.79867,"transit":false,"distance":4102,"line":1,"time":9,"is_transit":false,"station_name":"Angke","station_id":"AK"},{"time":4,"i_lat":-6.155215,"station_id":"DU","distance":1230,"transit":false,"is_transit":false,"line":1,"station_name":"Duri","i_long":106.800832},{"i_long":106.811091,"time":8,"distance":3632,"i_lat":-6.185545,"is_transit":true,"transit":true,"station_id":"THB","station_name":"Tanah Abang","line":1},{"is_transit":false,"station_name":"Palmerah","i_long":106.79689,"line":6,"distance":3191,"time":6,"station_id":"PLM","i_lat":-6.207404,"transit":false},{"station_name":"Kebayoran","is_transit":false,"i_lat":-6.237242,"distance":3737,"station_id":"KBY","transit":false,"i_long":106.780334,"time":7,"line":6}]]}