{"data":[[{"is_transit":false,"transit":false,"station_name":"Cilebut","i_lat":-6.530544,"line":2,"time":0,"distance":0,"i_long":106.800016,"station_id":"CLT"},{"i_lat":-6.493243,"distance":4331,"station_id":"BJD","station_name":"Bojonggede","i_long":106.792719,"is_transit":false,"transit":false,"line":2,"time":5},{"station_id":"CTA","is_transit":false,"i_long":106.800298,"time":5,"distance":5197,"station_name":"Citayam","transit":false,"i_lat":-6.448811,"line":2},{"station_id":"DP","is_transit":false,"station_name":"Depok","time":6,"transit":false,"i_lat":-6.405256,"line":2,"distance":5084,"i_long":106.816926},{"distance":1584,"station_id":"DPB","transit":false,"i_lat":-6.391065,"station_name":"Depokbaru","line":2,"i_long":106.819451,"time":3,"is_transit":false},{"is_transit":false,"station_name":"Pondok Cina","transit":false,"station_id":"POC","i_lat":-6.369073,"distance":2727,"i_long":106.831114,"time":4,"line":2},{"time":2,"station_name":"Univ. Indonesia","line":2,"is_transit":false,"transit":false,"station_id":"UI","i_lat":-6.360749,"i_long":106.831474,"distance":1109},{"i_long":106.834175,"station_id":"UP","i_lat":-6.339291,"time":3,"transit":false,"station_name":"Univ. Pancasila","line":2,"is_transit":false,"distance":2264},{"distance":1029,"station_name":"Lenteng Agung","line":2,"i_lat":-6.330363,"i_long":106.832616,"station_id":"LNA","transit":false,"is_transit":false,"time":2},{"distance":2671,"station_id":"TNT","i_lat":-6.3080680000000005,"is_transit":false,"i_long":106.838896,"station_name":"Tanjung Barat","transit":false,"line":2,"time":3},{"time":4,"distance":2820,"is_transit":false,"i_lat":-6.2842400000000005,"transit":false,"line":2,"i_long":106.843999,"station_name":"Pasar Minggu","station_id":"PSM"},{"station_name":"Pasar Minggu Baru","transit":false,"line":2,"station_id":"PSMB","is_transit":false,"i_long":106.851577,"time":2,"i_lat":-6.263214,"distance":2380},{"line":2,"i_long":106.85449,"time":2,"is_transit":false,"i_lat":-6.255332,"distance":824,"transit":false,"station_name":"Duren Kalibata","station_id":"DRN"},{"transit":false,"station_id":"CW","i_lat":-6.242512,"distance":1546,"station_name":"Cawang","time":3,"is_transit":false,"line":2,"i_long":106.856607},{"transit":false,"time":2,"line":2,"i_long":106.857948,"station_name":"Tebet","station_id":"TEB","is_transit":false,"i_lat":-6.226659,"distance":1230},{"i_lat":-6.209883,"station_id":"MRI","time":4,"line":2,"is_transit":false,"distance":2610,"transit":false,"i_long":106.84912,"station_name":"Manggarai"},{"station_id":"CKI","time":4,"distance":1590,"station_name":"Cikini","i_long":106.840169,"transit":false,"line":2,"i_lat":-6.198556,"is_transit":false}],[{"time":0,"line":2,"station_name":"Cilebut","is_transit":false,"transit":false,"distance":0,"i_lat":-6.530544,"station_id":"CLT","i_long":106.800016},{"i_long":106.792719,"is_transit":false,"station_id":"BJD","time":5,"line":2,"station_name":"Bojonggede","transit":false,"i_lat":-6.493243,"distance":4331},{"line":2,"transit":false,"station_id":"CTA","i_long":106.800298,"i_lat":-6.448811,"is_transit":false,"distance":5197,"time":5,"station_name":"Citayam"},{"i_lat":-6.405256,"distance":5084,"station_name":"Depok","i_long":106.816926,"transit":false,"is_transit":false,"line":2,"station_id":"DP","time":6},{"transit":false,"time":3,"station_name":"Depokbaru","distance":1584,"is_transit":false,"i_long":106.819451,"station_id":"DPB","i_lat":-6.391065,"line":2},{"i_long":106.831114,"time":4,"transit":false,"is_transit":false,"i_lat":-6.369073,"station_id":"POC","distance":2727,"station_name":"Pondok Cina","line":2},{"i_long":106.831474,"distance":1109,"transit":false,"is_transit":false,"time":2,"station_id":"UI","station_name":"Univ. Indonesia","i_lat":-6.360749,"line":2},{"i_lat":-6.339291,"is_transit":false,"i_long":106.834175,"station_id":"UP","time":3,"station_name":"Univ. Pancasila","distance":2264,"line":2,"transit":false},{"line":2,"time":2,"i_lat":-6.330363,"distance":1029,"transit":false,"station_name":"Lenteng Agung","i_long":106.832616,"is_transit":false,"station_id":"LNA"},{"distance":2671,"line":2,"time":3,"i_lat":-6.3080680000000005,"is_transit":false,"transit":false,"station_name":"Tanjung Barat","i_long":106.838896,"station_id":"TNT"},{"station_name":"Pasar Minggu","i_long":106.843999,"distance":2820,"line":2,"transit":false,"time":4,"i_lat":-6.2842400000000005,"is_transit":false,"station_id":"PSM"},{"time":2,"transit":false,"i_lat":-6.263214,"station_id":"PSMB","distance":2380,"station_name":"Pasar Minggu Baru","i_long":106.851577,"line":2,"is_transit":false},{"transit":false,"station_name":"Duren Kalibata","i_lat":-6.255332,"time":2,"i_long":106.85449,"line":2,"distance":824,"station_id":"DRN","is_transit":false},{"is_transit":false,"line":2,"time":3,"i_lat":-6.242512,"i_long":106.856607,"distance":1546,"station_id":"CW","station_name":"Cawang","transit":false},{"distance":1230,"i_lat":-6.226659,"i_long":106.857948,"transit":false,"station_name":"Tebet","line":2,"station_id":"TEB","time":2,"is_transit":false},{"distance":2610,"i_lat":-6.209883,"time":4,"transit":true,"is_transit":true,"i_long":106.84912,"line":2,"station_id":"MRI","station_name":"Manggarai"},{"line":1,"time":4,"i_long":106.822649,"distance":3186,"transit":false,"station_id":"SUD","station_name":"Sudirman","is_transit":false,"i_lat":-6.202263},{"line":1,"transit":false,"is_transit":false,"distance":280,"station_id":"SUDB","time":1,"station_name":"Sudirman Baru","i_long":106.819881,"i_lat":-6.201433},{"transit":false,"distance":471,"is_transit":false,"line":1,"i_long":106.816351,"station_name":"Karet","time":1,"i_lat":-6.20132,"station_id":"KAT"},{"is_transit":false,"line":1,"station_name":"Tanah Abang","i_lat":-6.185545,"i_long":106.811091,"distance":2029,"station_id":"THB","transit":false,"time":5},{"station_id":"DU","i_long":106.800832,"time":8,"station_name":"Duri","is_transit":false,"line":1,"transit":false,"distance":3632,"i_lat":-6.155215},{"station_id":"AK","time":4,"line":1,"transit":false,"is_transit":false,"i_long":106.79867,"distance":1230,"i_lat":-6.144674,"station_name":"Angke"},{"station_name":"Kampung Bandan","i_lat":-6.132549,"distance":4102,"time":9,"is_transit":true,"station_id":"KPB","transit":true,"line":4,"i_long":106.826365},{"is_transit":true,"i_long":106.812439,"station_id":"JAKK","i_lat":-6.137569,"time":3,"line":2,"distance":1364,"transit":true,"station_name":"Jakarta Kota"},{"station_name":"Jayakarta","is_transit":false,"i_lat":-6.141205,"line":2,"station_id":"JAY","distance":1264,"time":4,"i_long":106.820901,"transit":false},{"transit":false,"time":2,"station_name":"Manggabesar","line":2,"station_id":"MGB","i_long":106.82482,"i_lat":-6.149769,"is_transit":false,"distance":1080},{"is_transit":false,"distance":906,"i_lat":-6.160725,"line":2,"transit":false,"station_id":"SW","time":2,"station_name":"Sawah Besar","i_long":106.827103},{"station_name":"Juanda","time":2,"i_long":106.828284,"distance":1149,"line":2,"transit":false,"station_id":"JUA","is_transit":false,"i_lat":-6.166716},{"line":2,"i_lat":-6.186295,"station_name":"Gondangdia","is_transit":false,"distance":2015,"station_id":"GDD","transit":false,"i_long":106.832183,"time":4},{"transit":false,"distance":1750,"i_long":106.840169,"is_transit":false,"i_lat":-6.198556,"time":3,"station_name":"Cikini","line":2,"station_id":"CKI"}],[{"distance":0,"i_lat":-6.530544,"i_long":106.800016,"station_id":"CLT","time":0,"is_transit":false,"line":2,"transit":false,"station_name":"Cilebut"},{"time":5,"is_transit":false,"distance":4331,"station_id":"BJD","i_lat":-6.493243,"transit":false,"station_name":"Bojonggede","i_long":106.792719,"line":2},{"station_name":"Citayam","is_transit":false,"i_lat":-6.448811,"i_long":106.800298,"line":2,"transit":false,"station_id":"CTA","distance":5197,"time":5},{"is_transit":false,"time":6,"i_lat":-6.405256,"i_long":106.816926,"line":2,"station_id":"DP","transit":false,"station_name":"Depok","distance":5084},{"distance":1584,"station_id":"DPB","i_lat":-6.391065,"transit":false,"line":2,"station_name":"Depokbaru","is_transit":false,"i_long":106.819451,"time":3},{"line":2,"time":4,"is_transit":false,"distance":2727,"station_name":"Pondok Cina","station_id":"POC","i_lat":-6.369073,"i_long":106.831114,"transit":false},{"station_name":"Univ. Indonesia","i_long":106.831474,"time":2,"station_id":"UI","transit":false,"distance":1109,"i_lat":-6.360749,"is_transit":false,"line":2},{"station_id":"UP","i_long":106.834175,"line":2,"station_name":"Univ. Pancasila","is_transit":false,"time":3,"distance":2264,"transit":false,"i_lat":-6.339291},{"line":2,"transit":false,"i_lat":-6.330363,"i_long":106.832616,"is_transit":false,"station_name":"Lenteng Agung","station_id":"LNA","time":2,"distance":1029},{"line":2,"transit":false,"is_transit":false,"i_long":106.838896,"time":3,"station_id":"TNT","station_name":"Tanjung Barat","distance":2671,"i_lat":-6.3080680000000005},{"transit":false,"station_id":"PSM","distance":2820,"is_transit":false,"i_long":106.843999,"time":4,"i_lat":-6.2842400000000005,"station_name":"Pasar Minggu","line":2},{"is_transit":false,"i_lat":-6.263214,"transit":false,"time":2,"station_name":"Pasar Minggu Baru","i_long":106.851577,"station_id":"PSMB","line":2,"distance":2380},{"station_id":"DRN","line":2,"transit":false,"distance":824,"station_name":"Duren Kalibata","is_transit":false,"i_lat":-6.255332,"i_long":106.85449,"time":2},{"line":2,"distance":1546,"station_name":"Cawang","i_long":106.856607,"time":3,"transit":false,"station_id":"CW","is_transit":false,"i_lat":-6.242512},{"transit":false,"distance":1230,"time":2,"line":2,"station_id":"TEB","is_transit":false,"i_lat":-6.226659,"i_long":106.857948,"station_name":"Tebet"},{"transit":true,"line":2,"i_long":106.84912,"station_id":"MRI","is_transit":true,"distance":2610,"time":4,"station_name":"Manggarai","i_lat":-6.209883},{"is_transit":false,"line":1,"time":2,"transit":false,"station_name":"Matraman","station_id":"MTR","i_lat":-6.212485,"distance":1275,"i_long":106.858896},{"station_name":"Jatinegara","i_long":106.86807400000001,"distance":1377,"transit":true,"is_transit":true,"line":1,"i_lat":-6.215091,"station_id":"JNG","time":8},{"is_transit":false,"line":11,"time":2,"station_name":"Pondok Jati","distance":1236,"i_lat":-6.209188,"i_long":106.861737,"station_id":"POK","transit":false},{"station_name":"Kramat","time":2,"station_id":"KMT","line":11,"i_lat":-6.193792,"transit":false,"distance":1829,"i_long":106.855437,"is_transit":false},{"line":11,"i_long":106.850107,"time":1,"is_transit":false,"station_id":"GST","i_lat":-6.185975,"station_name":"Gang Sentiong","distance":973,"transit":false},{"i_lat":-6.174784,"transit":false,"time":8,"station_name":"Pasar Senen","i_long":106.84368,"line":11,"distance":1567,"station_id":"PSE","is_transit":false},{"station_id":"KMO","i_lat":-6.161728,"transit":false,"station_name":"Kemayoran","i_long":106.839204,"distance":1436,"time":4,"is_transit":false,"line":11},{"time":5,"line":11,"station_name":"Rajawali","station_id":"RJW","i_long":106.836569,"distance":1901,"is_transit":false,"i_lat":-6.14505,"transit":false},{"is_transit":true,"time":3,"station_id":"KPB","station_name":"Kampung Bandan","i_long":106.826365,"distance":1444,"i_lat":-6.132549,"line":4,"transit":true},{"time":3,"i_long":106.812439,"station_name":"Jakarta Kota","i_lat":-6.137569,"transit":true,"station_id":"JAKK","is_transit":true,"line":2,"distance":1364},{"i_long":106.820901,"station_id":"JAY","is_transit":false,"transit":false,"distance":1264,"line":2,"i_lat":-6.141205,"station_name":"Jayakarta","time":4},{"i_long":106.82482,"i_lat":-6.149769,"is_transit":false,"station_id":"MGB","time":2,"station_name":"Manggabesar","distance":1080,"line":2,"transit":false},{"station_name":"Sawah Besar","i_lat":-6.160725,"i_long":106.827103,"distance":906,"is_transit":false,"time":2,"station_id":"SW","transit":false,"line":2},{"station_name":"Juanda","station_id":"JUA","i_lat":-6.166716,"i_long":106.828284,"time":2,"distance":1149,"is_transit":false,"line":2,"transit":false},{"is_transit":false,"station_name":"Gondangdia","distance":2015,"station_id":"GDD","i_long":106.832183,"time":4,"line":2,"transit":false,"i_lat":-6.186295},{"transit":false,"i_long":106.840169,"station_id":"CKI","i_lat":-6.198556,"distance":1750,"is_transit":false,"time":3,"station_name":"Cikini","line":2}]]}