{"data":[[{"is_transit":false,"i_lat":-6.530544,"station_name":"Cilebut","transit":false,"distance":0,"time":0,"i_long":106.800016,"line":2,"station_id":"CLT"},{"station_name":"Bojonggede","transit":false,"is_transit":false,"station_id":"BJD","distance":4331,"time":5,"i_lat":-6.493243,"i_long":106.792719,"line":2},{"transit":false,"station_name":"Citayam","distance":5197,"is_transit":false,"time":5,"i_long":106.800298,"i_lat":-6.448811,"station_id":"CTA","line":2},{"i_lat":-6.405256,"distance":5084,"line":2,"i_long":106.816926,"is_transit":false,"station_id":"DP","station_name":"Depok","time":6,"transit":false},{"distance":1584,"station_name":"Depokbaru","time":3,"i_lat":-6.391065,"station_id":"DPB","i_long":106.819451,"transit":false,"is_transit":false,"line":2},{"is_transit":false,"station_id":"POC","line":2,"i_lat":-6.369073,"station_name":"Pondok Cina","distance":2727,"transit":false,"i_long":106.831114,"time":4},{"station_id":"UI","i_lat":-6.360749,"i_long":106.831474,"time":2,"distance":1109,"is_transit":false,"line":2,"station_name":"Univ. Indonesia","transit":false},{"transit":false,"line":2,"time":3,"distance":2264,"is_transit":false,"station_id":"UP","i_lat":-6.339291,"i_long":106.834175,"station_name":"Univ. Pancasila"},{"is_transit":false,"i_lat":-6.330363,"station_name":"Lenteng Agung","station_id":"LNA","distance":1029,"time":2,"i_long":106.832616,"transit":false,"line":2},{"distance":2671,"transit":false,"line":2,"station_name":"Tanjung Barat","is_transit":false,"i_lat":-6.3080680000000005,"time":3,"station_id":"TNT","i_long":106.838896}]]}