{"data":[[{"station_id":"CLT","station_name":"Cilebut","is_transit":false,"distance":0,"i_lat":-6.530544,"i_long":106.800016,"time":0,"transit":false,"line":2},{"transit":false,"i_lat":-6.493243,"time":5,"station_id":"BJD","is_transit":false,"i_long":106.792719,"station_name":"Bojonggede","distance":4331,"line":2},{"time":5,"station_id":"CTA","i_lat":-6.448811,"is_transit":false,"transit":false,"station_name":"Citayam","distance":5197,"i_long":106.800298,"line":2},{"is_transit":false,"i_lat":-6.405256,"station_id":"DP","distance":5084,"i_long":106.816926,"time":6,"line":2,"station_name":"Depok","transit":false},{"time":3,"line":2,"i_lat":-6.391065,"station_id":"DPB","is_transit":false,"station_name":"Depokbaru","i_long":106.819451,"transit":false,"distance":1584},{"i_lat":-6.369073,"distance":2727,"i_long":106.831114,"line":2,"is_transit":false,"transit":false,"station_name":"Pondok Cina","station_id":"POC","time":4},{"transit":false,"line":2,"is_transit":false,"station_name":"Univ. Indonesia","time":2,"station_id":"UI","distance":1109,"i_lat":-6.360749,"i_long":106.831474},{"line":2,"transit":false,"i_long":106.834175,"station_id":"UP","station_name":"Univ. Pancasila","time":3,"is_transit":false,"distance":2264,"i_lat":-6.339291},{"station_id":"LNA","time":2,"station_name":"Lenteng Agung","distance":1029,"is_transit":false,"transit":false,"line":2,"i_lat":-6.330363,"i_long":106.832616},{"station_id":"TNT","transit":false,"i_long":106.838896,"line":2,"is_transit":false,"time":3,"i_lat":-6.3080680000000005,"station_name":"Tanjung Barat","distance":2671},{"line":2,"station_name":"Pasar Minggu","i_lat":-6.2842400000000005,"i_long":106.843999,"transit":false,"is_transit":false,"station_id":"PSM","time":4,"distance":2820},{"line":2,"station_id":"PSMB","i_lat":-6.263214,"time":2,"is_transit":false,"i_long":106.851577,"station_name":"Pasar Minggu Baru","transit":false,"distance":2380},{"transit":false,"time":2,"station_name":"Duren Kalibata","line":2,"i_long":106.85449,"distance":824,"is_transit":false,"station_id":"DRN","i_lat":-6.255332},{"station_name":"Cawang","time":3,"distance":1546,"i_lat":-6.242512,"i_long":106.856607,"line":2,"is_transit":false,"transit":false,"station_id":"CW"},{"time":2,"station_name":"Tebet","station_id":"TEB","i_lat":-6.226659,"is_transit":false,"transit":false,"distance":1230,"i_long":106.857948,"line":2},{"i_lat":-6.209883,"station_name":"Manggarai","is_transit":false,"distance":2610,"time":4,"i_long":106.84912,"line":2,"transit":false,"station_id":"MRI"},{"station_name":"Cikini","time":4,"distance":1590,"i_long":106.840169,"line":2,"station_id":"CKI","i_lat":-6.198556,"transit":false,"is_transit":false}],[{"transit":false,"line":2,"station_name":"Cilebut","is_transit":false,"station_id":"CLT","i_lat":-6.530544,"distance":0,"i_long":106.800016,"time":0},{"i_lat":-6.493243,"is_transit":false,"transit":false,"time":5,"station_name":"Bojonggede","i_long":106.792719,"distance":4331,"line":2,"station_id":"BJD"},{"distance":5197,"i_long":106.800298,"transit":false,"is_transit":false,"i_lat":-6.448811,"station_id":"CTA","time":5,"station_name":"Citayam","line":2},{"station_id":"DP","distance":5084,"i_lat":-6.405256,"transit":false,"is_transit":false,"line":2,"time":6,"i_long":106.816926,"station_name":"Depok"},{"i_lat":-6.391065,"i_long":106.819451,"distance":1584,"transit":false,"station_name":"Depokbaru","is_transit":false,"line":2,"station_id":"DPB","time":3},{"station_name":"Pondok Cina","is_transit":false,"distance":2727,"time":4,"station_id":"POC","line":2,"i_long":106.831114,"i_lat":-6.369073,"transit":false},{"distance":1109,"line":2,"transit":false,"time":2,"station_name":"Univ. Indonesia","i_long":106.831474,"i_lat":-6.360749,"station_id":"UI","is_transit":false},{"line":2,"transit":false,"time":3,"station_name":"Univ. Pancasila","is_transit":false,"distance":2264,"station_id":"UP","i_lat":-6.339291,"i_long":106.834175},{"station_name":"Lenteng Agung","distance":1029,"is_transit":false,"transit":false,"time":2,"i_lat":-6.330363,"line":2,"i_long":106.832616,"station_id":"LNA"},{"i_lat":-6.3080680000000005,"station_id":"TNT","station_name":"Tanjung Barat","distance":2671,"time":3,"transit":false,"i_long":106.838896,"is_transit":false,"line":2},{"is_transit":false,"distance":2820,"i_lat":-6.2842400000000005,"i_long":106.843999,"station_id":"PSM","transit":false,"line":2,"station_name":"Pasar Minggu","time":4},{"distance":2380,"is_transit":false,"station_name":"Pasar Minggu Baru","transit":false,"time":2,"i_lat":-6.263214,"i_long":106.851577,"line":2,"station_id":"PSMB"},{"i_long":106.85449,"transit":false,"station_name":"Duren Kalibata","station_id":"DRN","i_lat":-6.255332,"line":2,"is_transit":false,"distance":824,"time":2},{"station_id":"CW","line":2,"i_lat":-6.242512,"station_name":"Cawang","time":3,"distance":1546,"is_transit":false,"transit":false,"i_long":106.856607},{"distance":1230,"station_name":"Tebet","is_transit":false,"transit":false,"station_id":"TEB","i_long":106.857948,"line":2,"time":2,"i_lat":-6.226659},{"line":2,"time":4,"distance":2610,"station_name":"Manggarai","is_transit":true,"i_long":106.84912,"i_lat":-6.209883,"station_id":"MRI","transit":true},{"line":1,"distance":3186,"station_name":"Sudirman","i_long":106.822649,"time":4,"transit":false,"station_id":"SUD","is_transit":false,"i_lat":-6.202263},{"is_transit":false,"distance":280,"i_lat":-6.201433,"transit":false,"time":1,"i_long":106.819881,"line":1,"station_name":"Sudirman Baru","station_id":"SUDB"},{"i_long":106.816351,"station_name":"Karet","i_lat":-6.20132,"station_id":"KAT","is_transit":false,"line":1,"transit":false,"distance":471,"time":1},{"i_lat":-6.185545,"is_transit":false,"time":5,"distance":2029,"i_long":106.811091,"transit":false,"line":1,"station_name":"Tanah Abang","station_id":"THB"},{"distance":3632,"time":8,"i_lat":-6.155215,"station_id":"DU","station_name":"Duri","i_long":106.800832,"transit":false,"is_transit":false,"line":1},{"transit":false,"is_transit":false,"time":4,"i_lat":-6.144674,"station_name":"Angke","station_id":"AK","i_long":106.79867,"line":1,"distance":1230},{"station_name":"Kampung Bandan","transit":true,"i_lat":-6.132549,"line":4,"station_id":"KPB","i_long":106.826365,"time":9,"distance":4102,"is_transit":true},{"is_transit":true,"i_lat":-6.137569,"station_name":"Jakarta Kota","i_long":106.812439,"distance":1364,"line":2,"transit":true,"station_id":"JAKK","time":3},{"station_id":"JAY","i_lat":-6.141205,"station_name":"Jayakarta","i_long":106.820901,"line":2,"distance":1264,"transit":false,"is_transit":false,"time":4},{"station_name":"Manggabesar","distance":1080,"time":2,"i_long":106.82482,"is_transit":false,"station_id":"MGB","transit":false,"i_lat":-6.149769,"line":2},{"distance":906,"transit":false,"is_transit":false,"station_name":"Sawah Besar","i_long":106.827103,"station_id":"SW","i_lat":-6.160725,"time":2,"line":2},{"station_id":"JUA","distance":1149,"i_lat":-6.166716,"line":2,"station_name":"Juanda","i_long":106.828284,"transit":false,"time":2,"is_transit":false},{"station_id":"GDD","station_name":"Gondangdia","distance":2015,"transit":false,"i_long":106.832183,"line":2,"i_lat":-6.186295,"time":4,"is_transit":false},{"time":3,"line":2,"transit":false,"is_transit":false,"distance":1750,"i_lat":-6.198556,"station_name":"Cikini","i_long":106.840169,"station_id":"CKI"}],[{"transit":false,"is_transit":false,"station_id":"CLT","distance":0,"i_long":106.800016,"station_name":"Cilebut","time":0,"i_lat":-6.530544,"line":2},{"is_transit":false,"distance":4331,"station_id":"BJD","time":5,"i_long":106.792719,"station_name":"Bojonggede","i_lat":-6.493243,"line":2,"transit":false},{"time":5,"station_id":"CTA","station_name":"Citayam","is_transit":false,"distance":5197,"i_lat":-6.448811,"transit":false,"line":2,"i_long":106.800298},{"distance":5084,"transit":false,"i_long":106.816926,"time":6,"station_name":"Depok","i_lat":-6.405256,"line":2,"is_transit":false,"station_id":"DP"},{"line":2,"is_transit":false,"time":3,"distance":1584,"i_lat":-6.391065,"station_name":"Depokbaru","transit":false,"station_id":"DPB","i_long":106.819451},{"is_transit":false,"station_name":"Pondok Cina","time":4,"station_id":"POC","i_lat":-6.369073,"distance":2727,"transit":false,"i_long":106.831114,"line":2},{"i_long":106.831474,"i_lat":-6.360749,"station_id":"UI","is_transit":false,"distance":1109,"transit":false,"line":2,"station_name":"Univ. Indonesia","time":2},{"transit":false,"i_long":106.834175,"distance":2264,"line":2,"time":3,"station_id":"UP","i_lat":-6.339291,"station_name":"Univ. Pancasila","is_transit":false},{"is_transit":false,"line":2,"i_long":106.832616,"station_name":"Lenteng Agung","transit":false,"i_lat":-6.330363,"time":2,"distance":1029,"station_id":"LNA"},{"station_id":"TNT","line":2,"distance":2671,"is_transit":false,"i_long":106.838896,"i_lat":-6.3080680000000005,"transit":false,"station_name":"Tanjung Barat","time":3},{"i_lat":-6.2842400000000005,"station_name":"Pasar Minggu","is_transit":false,"station_id":"PSM","i_long":106.843999,"transit":false,"line":2,"distance":2820,"time":4},{"time":2,"i_long":106.851577,"distance":2380,"transit":false,"i_lat":-6.263214,"station_name":"Pasar Minggu Baru","is_transit":false,"line":2,"station_id":"PSMB"},{"line":2,"transit":false,"distance":824,"station_id":"DRN","i_long":106.85449,"is_transit":false,"station_name":"Duren Kalibata","time":2,"i_lat":-6.255332},{"transit":false,"i_long":106.856607,"distance":1546,"line":2,"time":3,"is_transit":false,"station_name":"Cawang","i_lat":-6.242512,"station_id":"CW"},{"station_name":"Tebet","i_long":106.857948,"distance":1230,"is_transit":false,"time":2,"station_id":"TEB","transit":false,"i_lat":-6.226659,"line":2},{"line":2,"transit":true,"is_transit":true,"time":4,"station_name":"Manggarai","station_id":"MRI","distance":2610,"i_long":106.84912,"i_lat":-6.209883},{"is_transit":false,"station_name":"Matraman","time":2,"i_lat":-6.212485,"station_id":"MTR","distance":1275,"transit":false,"line":1,"i_long":106.858896},{"is_transit":true,"time":8,"i_lat":-6.215091,"station_name":"Jatinegara","line":1,"station_id":"JNG","transit":true,"distance":1377,"i_long":106.86807400000001},{"is_transit":false,"station_id":"POK","i_long":106.861737,"line":11,"time":2,"distance":1236,"transit":false,"station_name":"Pondok Jati","i_lat":-6.209188},{"is_transit":false,"time":2,"distance":1829,"station_name":"Kramat","i_long":106.855437,"station_id":"KMT","i_lat":-6.193792,"transit":false,"line":11},{"line":11,"station_id":"GST","i_long":106.850107,"transit":false,"station_name":"Gang Sentiong","time":1,"i_lat":-6.185975,"is_transit":false,"distance":973},{"station_id":"PSE","i_long":106.84368,"station_name":"Pasar Senen","distance":1567,"line":11,"time":8,"is_transit":false,"transit":false,"i_lat":-6.174784},{"station_id":"KMO","station_name":"Kemayoran","i_long":106.839204,"i_lat":-6.161728,"transit":false,"is_transit":false,"time":4,"distance":1436,"line":11},{"time":5,"i_long":106.836569,"station_id":"RJW","transit":false,"line":11,"i_lat":-6.14505,"station_name":"Rajawali","is_transit":false,"distance":1901},{"distance":1444,"station_id":"KPB","line":4,"i_long":106.826365,"is_transit":true,"time":3,"transit":true,"station_name":"Kampung Bandan","i_lat":-6.132549},{"i_long":106.812439,"station_id":"JAKK","line":2,"transit":true,"distance":1364,"is_transit":true,"station_name":"Jakarta Kota","i_lat":-6.137569,"time":3},{"station_name":"Jayakarta","i_lat":-6.141205,"is_transit":false,"station_id":"JAY","distance":1264,"transit":false,"line":2,"i_long":106.820901,"time":4},{"time":2,"distance":1080,"transit":false,"line":2,"station_name":"Manggabesar","i_lat":-6.149769,"i_long":106.82482,"station_id":"MGB","is_transit":false},{"station_name":"Sawah Besar","line":2,"transit":false,"time":2,"i_lat":-6.160725,"station_id":"SW","is_transit":false,"i_long":106.827103,"distance":906},{"station_name":"Juanda","is_transit":false,"transit":false,"station_id":"JUA","i_lat":-6.166716,"time":2,"line":2,"i_long":106.828284,"distance":1149},{"distance":2015,"transit":false,"station_name":"Gondangdia","station_id":"GDD","is_transit":false,"i_lat":-6.186295,"i_long":106.832183,"time":4,"line":2},{"transit":false,"i_lat":-6.198556,"line":2,"is_transit":false,"i_long":106.840169,"time":3,"station_name":"Cikini","distance":1750,"station_id":"CKI"}]]}