{"data":[[{"distance":0,"transit":false,"is_transit":false,"i_lat":-6.530544,"station_id":"CLT","line":2,"time":0,"station_name":"Cilebut","i_long":106.800016},{"station_id":"BJD","is_transit":false,"distance":4331,"i_lat":-6.493243,"transit":false,"station_name":"Bojonggede","time":5,"i_long":106.792719,"line":2},{"transit":false,"station_id":"CTA","is_transit":false,"distance":5197,"line":2,"i_lat":-6.448811,"i_long":106.800298,"time":5,"station_name":"Citayam"},{"station_id":"DP","i_long":106.816926,"distance":5084,"transit":false,"is_transit":false,"i_lat":-6.405256,"station_name":"Depok","time":6,"line":2},{"distance":1584,"transit":false,"i_lat":-6.391065,"is_transit":false,"i_long":106.819451,"time":3,"station_name":"Depokbaru","line":2,"station_id":"DPB"},{"i_lat":-6.369073,"line":2,"time":4,"i_long":106.831114,"transit":false,"is_transit":false,"station_id":"POC","station_name":"Pondok Cina","distance":2727},{"time":2,"i_long":106.831474,"is_transit":false,"distance":1109,"station_name":"Univ. Indonesia","station_id":"UI","i_lat":-6.360749,"line":2,"transit":false},{"station_name":"Univ. Pancasila","distance":2264,"time":3,"station_id":"UP","is_transit":false,"i_long":106.834175,"line":2,"i_lat":-6.339291,"transit":false},{"i_long":106.832616,"station_name":"Lenteng Agung","time":2,"i_lat":-6.330363,"distance":1029,"line":2,"transit":false,"station_id":"LNA","is_transit":false},{"i_long":106.838896,"transit":false,"station_name":"Tanjung Barat","time":3,"station_id":"TNT","distance":2671,"i_lat":-6.3080680000000005,"is_transit":false,"line":2},{"distance":2820,"line":2,"i_lat":-6.2842400000000005,"i_long":106.843999,"station_name":"Pasar Minggu","transit":false,"is_transit":false,"station_id":"PSM","time":4},{"station_name":"Pasar Minggu Baru","station_id":"PSMB","is_transit":false,"distance":2380,"i_long":106.851577,"line":2,"time":2,"transit":false,"i_lat":-6.263214},{"is_transit":false,"time":2,"transit":false,"station_id":"DRN","line":2,"station_name":"Duren Kalibata","distance":824,"i_lat":-6.255332,"i_long":106.85449},{"station_id":"CW","is_transit":false,"i_lat":-6.242512,"time":3,"i_long":106.856607,"line":2,"distance":1546,"transit":false,"station_name":"Cawang"},{"is_transit":false,"station_name":"Tebet","i_long":106.857948,"station_id":"TEB","transit":false,"i_lat":-6.226659,"line":2,"distance":1230,"time":2},{"station_name":"Manggarai","i_lat":-6.209883,"i_long":106.84912,"is_transit":true,"station_id":"MRI","line":2,"time":4,"distance":2610,"transit":true},{"distance":1275,"is_transit":false,"transit":false,"line":1,"station_id":"MTR","time":2,"i_long":106.858896,"station_name":"Matraman","i_lat":-6.212485},{"time":8,"station_name":"Jatinegara","is_transit":true,"distance":1377,"i_lat":-6.215091,"station_id":"JNG","i_long":106.86807400000001,"transit":true,"line":1},{"is_transit":false,"distance":1236,"time":2,"station_name":"Pondok Jati","station_id":"POK","transit":false,"i_lat":-6.209188,"i_long":106.861737,"line":11},{"transit":false,"time":2,"i_long":106.855437,"is_transit":false,"station_name":"Kramat","line":11,"distance":1829,"i_lat":-6.193792,"station_id":"KMT"},{"is_transit":false,"i_long":106.850107,"time":1,"line":11,"distance":973,"transit":false,"i_lat":-6.185975,"station_id":"GST","station_name":"Gang Sentiong"},{"time":8,"i_lat":-6.174784,"station_name":"Pasar Senen","station_id":"PSE","distance":1567,"transit":false,"is_transit":false,"line":11,"i_long":106.84368},{"is_transit":false,"i_lat":-6.161728,"i_long":106.839204,"line":11,"distance":1436,"station_id":"KMO","time":4,"transit":false,"station_name":"Kemayoran"},{"time":5,"i_lat":-6.14505,"i_long":106.836569,"distance":1901,"station_name":"Rajawali","line":11,"transit":false,"is_transit":false,"station_id":"RJW"}],[{"transit":false,"i_long":106.800016,"line":2,"station_name":"Cilebut","is_transit":false,"i_lat":-6.530544,"time":0,"distance":0,"station_id":"CLT"},{"station_id":"BJD","time":5,"transit":false,"station_name":"Bojonggede","i_lat":-6.493243,"is_transit":false,"line":2,"i_long":106.792719,"distance":4331},{"station_id":"CTA","i_lat":-6.448811,"i_long":106.800298,"line":2,"is_transit":false,"transit":false,"distance":5197,"time":5,"station_name":"Citayam"},{"i_lat":-6.405256,"is_transit":false,"distance":5084,"i_long":106.816926,"transit":false,"line":2,"station_id":"DP","station_name":"Depok","time":6},{"distance":1584,"line":2,"i_lat":-6.391065,"station_name":"Depokbaru","i_long":106.819451,"station_id":"DPB","is_transit":false,"transit":false,"time":3},{"station_id":"POC","i_lat":-6.369073,"station_name":"Pondok Cina","is_transit":false,"transit":false,"distance":2727,"i_long":106.831114,"line":2,"time":4},{"line":2,"time":2,"distance":1109,"i_lat":-6.360749,"is_transit":false,"i_long":106.831474,"station_id":"UI","transit":false,"station_name":"Univ. Indonesia"},{"transit":false,"i_lat":-6.339291,"i_long":106.834175,"station_id":"UP","line":2,"distance":2264,"time":3,"station_name":"Univ. Pancasila","is_transit":false},{"i_long":106.832616,"transit":false,"station_id":"LNA","is_transit":false,"i_lat":-6.330363,"station_name":"Lenteng Agung","line":2,"distance":1029,"time":2},{"transit":false,"distance":2671,"i_long":106.838896,"station_name":"Tanjung Barat","is_transit":false,"station_id":"TNT","time":3,"i_lat":-6.3080680000000005,"line":2},{"distance":2820,"station_id":"PSM","line":2,"transit":false,"time":4,"i_long":106.843999,"is_transit":false,"station_name":"Pasar Minggu","i_lat":-6.2842400000000005},{"distance":2380,"transit":false,"i_long":106.851577,"line":2,"time":2,"is_transit":false,"i_lat":-6.263214,"station_name":"Pasar Minggu Baru","station_id":"PSMB"},{"i_long":106.85449,"transit":false,"station_id":"DRN","distance":824,"i_lat":-6.255332,"line":2,"is_transit":false,"station_name":"Duren Kalibata","time":2},{"is_transit":false,"i_lat":-6.242512,"time":3,"i_long":106.856607,"line":2,"distance":1546,"transit":false,"station_name":"Cawang","station_id":"CW"},{"station_id":"TEB","i_long":106.857948,"is_transit":false,"i_lat":-6.226659,"time":2,"station_name":"Tebet","distance":1230,"line":2,"transit":false},{"station_name":"Manggarai","line":2,"is_transit":true,"i_lat":-6.209883,"station_id":"MRI","i_long":106.84912,"distance":2610,"time":4,"transit":true},{"transit":false,"i_lat":-6.202263,"is_transit":false,"line":1,"distance":3186,"i_long":106.822649,"station_id":"SUD","station_name":"Sudirman","time":4},{"is_transit":false,"station_id":"SUDB","station_name":"Sudirman Baru","i_long":106.819881,"distance":280,"transit":false,"time":1,"i_lat":-6.201433,"line":1},{"i_lat":-6.20132,"line":1,"i_long":106.816351,"station_name":"Karet","station_id":"KAT","distance":471,"transit":false,"is_transit":false,"time":1},{"is_transit":false,"time":5,"i_lat":-6.185545,"distance":2029,"line":1,"i_long":106.811091,"transit":false,"station_id":"THB","station_name":"Tanah Abang"},{"time":8,"station_id":"DU","distance":3632,"station_name":"Duri","i_long":106.800832,"transit":false,"i_lat":-6.155215,"is_transit":false,"line":1},{"line":1,"distance":1230,"time":4,"i_long":106.79867,"is_transit":false,"transit":false,"i_lat":-6.144674,"station_id":"AK","station_name":"Angke"},{"is_transit":true,"i_long":106.826365,"line":4,"distance":4102,"station_id":"KPB","time":9,"transit":true,"i_lat":-6.132549,"station_name":"Kampung Bandan"},{"line":11,"i_long":106.836569,"distance":1444,"station_id":"RJW","transit":false,"station_name":"Rajawali","i_lat":-6.14505,"is_transit":false,"time":3}],[{"time":0,"station_id":"CLT","distance":0,"i_lat":-6.530544,"station_name":"Cilebut","i_long":106.800016,"transit":false,"line":2,"is_transit":false},{"line":2,"station_id":"BJD","station_name":"Bojonggede","i_long":106.792719,"time":5,"distance":4331,"transit":false,"i_lat":-6.493243,"is_transit":false},{"i_long":106.800298,"distance":5197,"line":2,"station_name":"Citayam","is_transit":false,"time":5,"transit":false,"station_id":"CTA","i_lat":-6.448811},{"time":6,"is_transit":false,"line":2,"i_long":106.816926,"distance":5084,"station_name":"Depok","transit":false,"i_lat":-6.405256,"station_id":"DP"},{"i_long":106.819451,"line":2,"is_transit":false,"station_name":"Depokbaru","transit":false,"i_lat":-6.391065,"time":3,"distance":1584,"station_id":"DPB"},{"transit":false,"i_long":106.831114,"time":4,"station_name":"Pondok Cina","station_id":"POC","distance":2727,"i_lat":-6.369073,"line":2,"is_transit":false},{"time":2,"i_lat":-6.360749,"distance":1109,"line":2,"station_name":"Univ. Indonesia","i_long":106.831474,"transit":false,"station_id":"UI","is_transit":false},{"station_name":"Univ. Pancasila","distance":2264,"i_lat":-6.339291,"is_transit":false,"line":2,"transit":false,"i_long":106.834175,"station_id":"UP","time":3},{"distance":1029,"is_transit":false,"station_id":"LNA","i_long":106.832616,"station_name":"Lenteng Agung","time":2,"transit":false,"i_lat":-6.330363,"line":2},{"distance":2671,"is_transit":false,"station_name":"Tanjung Barat","station_id":"TNT","i_lat":-6.3080680000000005,"transit":false,"time":3,"i_long":106.838896,"line":2},{"i_long":106.843999,"line":2,"station_name":"Pasar Minggu","station_id":"PSM","is_transit":false,"i_lat":-6.2842400000000005,"transit":false,"time":4,"distance":2820},{"station_name":"Pasar Minggu Baru","i_lat":-6.263214,"line":2,"distance":2380,"station_id":"PSMB","transit":false,"is_transit":false,"i_long":106.851577,"time":2},{"station_name":"Duren Kalibata","is_transit":false,"time":2,"distance":824,"i_lat":-6.255332,"i_long":106.85449,"line":2,"transit":false,"station_id":"DRN"},{"distance":1546,"station_id":"CW","station_name":"Cawang","is_transit":false,"line":2,"i_lat":-6.242512,"transit":false,"time":3,"i_long":106.856607},{"i_lat":-6.226659,"transit":false,"is_transit":false,"distance":1230,"station_name":"Tebet","time":2,"station_id":"TEB","i_long":106.857948,"line":2},{"station_name":"Manggarai","i_lat":-6.209883,"line":2,"time":4,"transit":false,"is_transit":false,"i_long":106.84912,"distance":2610,"station_id":"MRI"},{"i_lat":-6.198556,"i_long":106.840169,"line":2,"is_transit":false,"transit":false,"station_name":"Cikini","station_id":"CKI","time":4,"distance":1590},{"distance":1750,"i_long":106.832183,"line":2,"station_name":"Gondangdia","time":3,"i_lat":-6.186295,"transit":false,"station_id":"GDD","is_transit":false},{"distance":2015,"transit":false,"is_transit":false,"i_long":106.828284,"time":4,"station_id":"JUA","line":2,"station_name":"Juanda","i_lat":-6.166716},{"is_transit":false,"time":2,"i_long":106.827103,"distance":1149,"transit":false,"station_id":"SW","i_lat":-6.160725,"station_name":"Sawah Besar","line":2},{"station_id":"MGB","is_transit":false,"time":2,"line":2,"transit":false,"distance":906,"station_name":"Manggabesar","i_lat":-6.149769,"i_long":106.82482},{"time":2,"distance":1080,"station_id":"JAY","i_lat":-6.141205,"is_transit":false,"line":2,"station_name":"Jayakarta","i_long":106.820901,"transit":false},{"i_long":106.812439,"line":2,"station_id":"JAKK","transit":true,"station_name":"Jakarta Kota","is_transit":true,"time":4,"i_lat":-6.137569,"distance":1264},{"distance":1364,"station_name":"Kampung Bandan","transit":true,"station_id":"KPB","is_transit":true,"i_lat":-6.132549,"i_long":106.826365,"line":4,"time":3},{"time":3,"is_transit":false,"distance":1444,"i_long":106.836569,"transit":false,"station_name":"Rajawali","line":11,"station_id":"RJW","i_lat":-6.14505}]]}