{"data":[[{"distance":0,"i_lat":-6.530544,"time":0,"is_transit":false,"transit":false,"i_long":106.800016,"line":2,"station_id":"CLT","station_name":"Cilebut"},{"line":2,"time":5,"i_long":106.792719,"distance":4331,"transit":false,"station_id":"BJD","station_name":"Bojonggede","is_transit":false,"i_lat":-6.493243},{"i_long":106.800298,"station_id":"CTA","time":5,"station_name":"Citayam","is_transit":false,"i_lat":-6.448811,"line":2,"distance":5197,"transit":false},{"i_lat":-6.405256,"station_name":"Depok","i_long":106.816926,"line":2,"distance":5084,"station_id":"DP","transit":false,"time":6,"is_transit":false},{"station_id":"DPB","is_transit":false,"transit":false,"i_long":106.819451,"station_name":"Depokbaru","distance":1584,"line":2,"i_lat":-6.391065,"time":3},{"station_id":"POC","transit":false,"i_long":106.831114,"is_transit":false,"station_name":"Pondok Cina","i_lat":-6.369073,"line":2,"time":4,"distance":2727},{"station_name":"Univ. Indonesia","is_transit":false,"transit":false,"i_lat":-6.360749,"i_long":106.831474,"line":2,"time":2,"station_id":"UI","distance":1109},{"transit":false,"i_lat":-6.339291,"is_transit":false,"i_long":106.834175,"time":3,"line":2,"distance":2264,"station_id":"UP","station_name":"Univ. Pancasila"},{"i_lat":-6.330363,"distance":1029,"transit":false,"station_id":"LNA","is_transit":false,"i_long":106.832616,"station_name":"Lenteng Agung","time":2,"line":2},{"transit":false,"i_long":106.838896,"time":3,"i_lat":-6.3080680000000005,"distance":2671,"station_id":"TNT","line":2,"is_transit":false,"station_name":"Tanjung Barat"},{"station_name":"Pasar Minggu","line":2,"i_lat":-6.2842400000000005,"i_long":106.843999,"transit":false,"time":4,"is_transit":false,"station_id":"PSM","distance":2820},{"station_id":"PSMB","transit":false,"i_long":106.851577,"line":2,"time":2,"station_name":"Pasar Minggu Baru","i_lat":-6.263214,"is_transit":false,"distance":2380},{"station_name":"Duren Kalibata","i_long":106.85449,"time":2,"station_id":"DRN","i_lat":-6.255332,"is_transit":false,"transit":false,"distance":824,"line":2},{"i_long":106.856607,"is_transit":false,"time":3,"i_lat":-6.242512,"distance":1546,"station_name":"Cawang","transit":false,"line":2,"station_id":"CW"},{"i_lat":-6.226659,"distance":1230,"station_name":"Tebet","is_transit":false,"line":2,"i_long":106.857948,"transit":false,"station_id":"TEB","time":2},{"time":4,"station_name":"Manggarai","is_transit":true,"i_long":106.84912,"station_id":"MRI","i_lat":-6.209883,"transit":true,"distance":2610,"line":2},{"is_transit":false,"station_name":"Sudirman","i_lat":-6.202263,"transit":false,"line":1,"time":4,"station_id":"SUD","distance":3186,"i_long":106.822649},{"i_lat":-6.201433,"line":1,"i_long":106.819881,"station_name":"Sudirman Baru","transit":false,"time":1,"station_id":"SUDB","is_transit":false,"distance":280},{"time":1,"transit":false,"i_lat":-6.20132,"station_id":"KAT","i_long":106.816351,"distance":471,"station_name":"Karet","line":1,"is_transit":false},{"time":5,"station_id":"THB","i_lat":-6.185545,"line":1,"is_transit":true,"i_long":106.811091,"transit":true,"distance":2029,"station_name":"Tanah Abang"},{"line":6,"i_lat":-6.207404,"station_id":"PLM","time":6,"station_name":"Palmerah","i_long":106.79689,"is_transit":false,"transit":false,"distance":3191},{"is_transit":false,"i_lat":-6.237242,"transit":false,"time":7,"line":6,"station_name":"Kebayoran","i_long":106.780334,"distance":3737,"station_id":"KBY"}],[{"station_id":"CLT","transit":false,"i_lat":-6.530544,"time":0,"station_name":"Cilebut","i_long":106.800016,"line":2,"distance":0,"is_transit":false},{"station_name":"Bojonggede","station_id":"BJD","time":5,"i_long":106.792719,"transit":false,"is_transit":false,"distance":4331,"i_lat":-6.493243,"line":2},{"is_transit":false,"line":2,"i_long":106.800298,"distance":5197,"transit":false,"station_name":"Citayam","i_lat":-6.448811,"station_id":"CTA","time":5},{"station_name":"Depok","station_id":"DP","is_transit":false,"i_lat":-6.405256,"distance":5084,"i_long":106.816926,"time":6,"line":2,"transit":false},{"i_lat":-6.391065,"line":2,"station_name":"Depokbaru","distance":1584,"station_id":"DPB","time":3,"is_transit":false,"i_long":106.819451,"transit":false},{"distance":2727,"time":4,"is_transit":false,"line":2,"transit":false,"station_id":"POC","i_long":106.831114,"station_name":"Pondok Cina","i_lat":-6.369073},{"station_name":"Univ. Indonesia","i_long":106.831474,"line":2,"transit":false,"time":2,"i_lat":-6.360749,"is_transit":false,"distance":1109,"station_id":"UI"},{"i_long":106.834175,"transit":false,"distance":2264,"station_name":"Univ. Pancasila","station_id":"UP","line":2,"is_transit":false,"time":3,"i_lat":-6.339291},{"line":2,"is_transit":false,"transit":false,"i_long":106.832616,"distance":1029,"station_name":"Lenteng Agung","i_lat":-6.330363,"station_id":"LNA","time":2},{"station_name":"Tanjung Barat","distance":2671,"transit":false,"i_lat":-6.3080680000000005,"i_long":106.838896,"is_transit":false,"time":3,"line":2,"station_id":"TNT"},{"station_id":"PSM","i_long":106.843999,"is_transit":false,"i_lat":-6.2842400000000005,"time":4,"distance":2820,"line":2,"station_name":"Pasar Minggu","transit":false},{"i_long":106.851577,"line":2,"transit":false,"station_id":"PSMB","is_transit":false,"station_name":"Pasar Minggu Baru","distance":2380,"time":2,"i_lat":-6.263214},{"is_transit":false,"line":2,"time":2,"transit":false,"i_long":106.85449,"i_lat":-6.255332,"station_id":"DRN","distance":824,"station_name":"Duren Kalibata"},{"distance":1546,"i_lat":-6.242512,"i_long":106.856607,"station_id":"CW","time":3,"line":2,"is_transit":false,"station_name":"Cawang","transit":false},{"i_lat":-6.226659,"i_long":106.857948,"line":2,"station_id":"TEB","time":2,"distance":1230,"is_transit":false,"station_name":"Tebet","transit":false},{"station_name":"Manggarai","i_long":106.84912,"station_id":"MRI","i_lat":-6.209883,"time":4,"distance":2610,"is_transit":false,"line":2,"transit":false},{"is_transit":false,"transit":false,"station_name":"Cikini","i_long":106.840169,"i_lat":-6.198556,"time":4,"distance":1590,"line":2,"station_id":"CKI"},{"is_transit":false,"line":2,"transit":false,"station_id":"GDD","time":3,"station_name":"Gondangdia","i_lat":-6.186295,"distance":1750,"i_long":106.832183},{"line":2,"station_name":"Juanda","is_transit":false,"transit":false,"distance":2015,"station_id":"JUA","time":4,"i_long":106.828284,"i_lat":-6.166716},{"transit":false,"is_transit":false,"station_name":"Sawah Besar","time":2,"station_id":"SW","i_long":106.827103,"i_lat":-6.160725,"line":2,"distance":1149},{"is_transit":false,"transit":false,"station_id":"MGB","i_lat":-6.149769,"station_name":"Manggabesar","line":2,"time":2,"i_long":106.82482,"distance":906},{"i_lat":-6.141205,"distance":1080,"station_id":"JAY","is_transit":false,"station_name":"Jayakarta","transit":false,"time":2,"line":2,"i_long":106.820901},{"line":2,"i_long":106.812439,"is_transit":true,"transit":true,"station_id":"JAKK","distance":1264,"station_name":"Jakarta Kota","time":4,"i_lat":-6.137569},{"distance":1364,"transit":true,"station_id":"KPB","i_long":106.826365,"is_transit":true,"i_lat":-6.132549,"line":4,"time":3,"station_name":"Kampung Bandan"},{"time":9,"transit":false,"station_name":"Angke","is_transit":false,"line":1,"i_long":106.79867,"i_lat":-6.144674,"station_id":"AK","distance":4102},{"time":4,"station_name":"Duri","transit":false,"station_id":"DU","is_transit":false,"i_lat":-6.155215,"i_long":106.800832,"line":1,"distance":1230},{"station_name":"Tanah Abang","transit":true,"i_long":106.811091,"time":8,"station_id":"THB","distance":3632,"line":1,"is_transit":true,"i_lat":-6.185545},{"i_lat":-6.207404,"time":6,"is_transit":false,"station_id":"PLM","transit":false,"distance":3191,"i_long":106.79689,"station_name":"Palmerah","line":6},{"is_transit":false,"i_lat":-6.237242,"i_long":106.780334,"time":7,"station_id":"KBY","station_name":"Kebayoran","line":6,"transit":false,"distance":3737}],[{"transit":false,"time":0,"station_id":"CLT","is_transit":false,"i_long":106.800016,"line":2,"distance":0,"station_name":"Cilebut","i_lat":-6.530544},{"station_id":"BJD","transit":false,"distance":4331,"station_name":"Bojonggede","i_long":106.792719,"line":2,"i_lat":-6.493243,"time":5,"is_transit":false},{"distance":5197,"station_id":"CTA","i_lat":-6.448811,"i_long":106.800298,"station_name":"Citayam","line":2,"transit":false,"time":5,"is_transit":false},{"distance":5084,"transit":false,"is_transit":false,"station_id":"DP","i_long":106.816926,"i_lat":-6.405256,"time":6,"line":2,"station_name":"Depok"},{"time":3,"line":2,"transit":false,"distance":1584,"station_name":"Depokbaru","i_lat":-6.391065,"is_transit":false,"i_long":106.819451,"station_id":"DPB"},{"is_transit":false,"station_name":"Pondok Cina","line":2,"distance":2727,"station_id":"POC","i_lat":-6.369073,"i_long":106.831114,"time":4,"transit":false},{"distance":1109,"transit":false,"station_id":"UI","i_long":106.831474,"time":2,"i_lat":-6.360749,"station_name":"Univ. Indonesia","is_transit":false,"line":2},{"station_id":"UP","time":3,"i_long":106.834175,"distance":2264,"station_name":"Univ. Pancasila","is_transit":false,"i_lat":-6.339291,"transit":false,"line":2},{"station_id":"LNA","time":2,"i_lat":-6.330363,"distance":1029,"i_long":106.832616,"line":2,"transit":false,"station_name":"Lenteng Agung","is_transit":false},{"station_id":"TNT","time":3,"station_name":"Tanjung Barat","i_lat":-6.3080680000000005,"line":2,"is_transit":false,"transit":false,"i_long":106.838896,"distance":2671},{"distance":2820,"station_name":"Pasar Minggu","i_long":106.843999,"transit":false,"time":4,"is_transit":false,"station_id":"PSM","i_lat":-6.2842400000000005,"line":2},{"distance":2380,"time":2,"line":2,"is_transit":false,"i_long":106.851577,"i_lat":-6.263214,"station_id":"PSMB","transit":false,"station_name":"Pasar Minggu Baru"},{"station_name":"Duren Kalibata","distance":824,"is_transit":false,"station_id":"DRN","transit":false,"time":2,"line":2,"i_lat":-6.255332,"i_long":106.85449},{"is_transit":false,"i_long":106.856607,"i_lat":-6.242512,"station_name":"Cawang","line":2,"time":3,"station_id":"CW","distance":1546,"transit":false},{"i_long":106.857948,"i_lat":-6.226659,"time":2,"distance":1230,"station_name":"Tebet","is_transit":false,"line":2,"transit":false,"station_id":"TEB"},{"time":4,"is_transit":true,"line":2,"i_long":106.84912,"transit":true,"distance":2610,"station_name":"Manggarai","i_lat":-6.209883,"station_id":"MRI"},{"station_name":"Matraman","line":1,"transit":false,"i_lat":-6.212485,"time":2,"i_long":106.858896,"is_transit":false,"station_id":"MTR","distance":1275},{"distance":1377,"transit":true,"station_name":"Jatinegara","i_lat":-6.215091,"station_id":"JNG","is_transit":true,"i_long":106.86807400000001,"time":8,"line":1},{"time":2,"station_name":"Pondok Jati","is_transit":false,"line":11,"distance":1236,"i_lat":-6.209188,"i_long":106.861737,"station_id":"POK","transit":false},{"transit":false,"time":2,"station_name":"Kramat","distance":1829,"line":11,"station_id":"KMT","i_long":106.855437,"is_transit":false,"i_lat":-6.193792},{"is_transit":false,"i_lat":-6.185975,"station_id":"GST","time":1,"transit":false,"i_long":106.850107,"station_name":"Gang Sentiong","distance":973,"line":11},{"station_name":"Pasar Senen","is_transit":false,"distance":1567,"i_lat":-6.174784,"i_long":106.84368,"line":11,"transit":false,"station_id":"PSE","time":8},{"station_name":"Kemayoran","station_id":"KMO","distance":1436,"time":4,"i_long":106.839204,"line":11,"i_lat":-6.161728,"transit":false,"is_transit":false},{"station_id":"RJW","time":5,"distance":1901,"line":11,"i_lat":-6.14505,"transit":false,"station_name":"Rajawali","i_long":106.836569,"is_transit":false},{"i_lat":-6.132549,"station_id":"KPB","station_name":"Kampung Bandan","transit":true,"line":4,"distance":1444,"time":3,"is_transit":true,"i_long":106.826365},{"i_lat":-6.144674,"distance":4102,"line":1,"i_long":106.79867,"time":9,"station_name":"Angke","transit":false,"is_transit":false,"station_id":"AK"},{"distance":1230,"time":4,"transit":false,"i_lat":-6.155215,"is_transit":false,"station_id":"DU","station_name":"Duri","line":1,"i_long":106.800832},{"i_long":106.811091,"station_name":"Tanah Abang","distance":3632,"i_lat":-6.185545,"is_transit":true,"line":1,"time":8,"transit":true,"station_id":"THB"},{"i_long":106.79689,"line":6,"station_name":"Palmerah","distance":3191,"transit":false,"time":6,"is_transit":false,"station_id":"PLM","i_lat":-6.207404},{"station_id":"KBY","distance":3737,"transit":false,"time":7,"i_long":106.780334,"station_name":"Kebayoran","line":6,"is_transit":false,"i_lat":-6.237242}]]}