{"data":[[{"i_long":106.800016,"distance":0,"line":2,"time":0,"is_transit":false,"transit":false,"station_name":"Cilebut","i_lat":-6.530544,"station_id":"CLT"},{"distance":4331,"i_lat":-6.493243,"station_name":"Bojonggede","i_long":106.792719,"station_id":"BJD","is_transit":false,"time":5,"line":2,"transit":false},{"i_lat":-6.448811,"i_long":106.800298,"is_transit":false,"distance":5197,"transit":false,"station_id":"CTA","time":5,"station_name":"Citayam","line":2},{"i_lat":-6.405256,"station_name":"Depok","transit":false,"i_long":106.816926,"is_transit":false,"station_id":"DP","distance":5084,"line":2,"time":6},{"station_name":"Depokbaru","is_transit":false,"time":3,"i_lat":-6.391065,"i_long":106.819451,"line":2,"station_id":"DPB","distance":1584,"transit":false},{"i_lat":-6.369073,"is_transit":false,"distance":2727,"transit":false,"line":2,"station_id":"POC","station_name":"Pondok Cina","time":4,"i_long":106.831114},{"transit":false,"i_lat":-6.360749,"station_id":"UI","distance":1109,"station_name":"Univ. Indonesia","line":2,"is_transit":false,"i_long":106.831474,"time":2},{"i_long":106.834175,"is_transit":false,"time":3,"transit":false,"station_name":"Univ. Pancasila","station_id":"UP","i_lat":-6.339291,"line":2,"distance":2264},{"i_lat":-6.330363,"station_id":"LNA","transit":false,"time":2,"line":2,"distance":1029,"i_long":106.832616,"is_transit":false,"station_name":"Lenteng Agung"},{"station_name":"Tanjung Barat","time":3,"station_id":"TNT","i_lat":-6.3080680000000005,"line":2,"transit":false,"distance":2671,"i_long":106.838896,"is_transit":false},{"i_long":106.843999,"station_name":"Pasar Minggu","is_transit":false,"station_id":"PSM","distance":2820,"time":4,"i_lat":-6.2842400000000005,"transit":false,"line":2}]]}