{"data":[[{"station_name":"Cilebut","station_id":"CLT","i_long":106.800016,"is_transit":false,"distance":0,"i_lat":-6.530544,"time":0,"transit":false,"line":2},{"transit":false,"is_transit":false,"time":5,"distance":4331,"i_lat":-6.493243,"line":2,"i_long":106.792719,"station_name":"Bojonggede","station_id":"BJD"},{"line":2,"is_transit":false,"station_id":"CTA","i_lat":-6.448811,"time":5,"distance":5197,"transit":false,"station_name":"Citayam","i_long":106.800298},{"station_id":"DP","is_transit":false,"station_name":"Depok","i_long":106.816926,"distance":5084,"i_lat":-6.405256,"line":2,"time":6,"transit":false},{"transit":false,"distance":1584,"i_lat":-6.391065,"line":2,"station_id":"DPB","station_name":"Depokbaru","time":3,"i_long":106.819451,"is_transit":false},{"distance":2727,"transit":false,"station_id":"POC","is_transit":false,"i_lat":-6.369073,"i_long":106.831114,"line":2,"time":4,"station_name":"Pondok Cina"},{"transit":false,"i_long":106.831474,"is_transit":false,"i_lat":-6.360749,"line":2,"distance":1109,"time":2,"station_name":"Univ. Indonesia","station_id":"UI"},{"line":2,"station_name":"Univ. Pancasila","transit":false,"i_lat":-6.339291,"station_id":"UP","time":3,"i_long":106.834175,"distance":2264,"is_transit":false},{"station_id":"LNA","transit":false,"distance":1029,"i_long":106.832616,"is_transit":false,"time":2,"station_name":"Lenteng Agung","i_lat":-6.330363,"line":2},{"station_id":"TNT","is_transit":false,"line":2,"transit":false,"time":3,"i_lat":-6.3080680000000005,"distance":2671,"station_name":"Tanjung Barat","i_long":106.838896},{"i_long":106.843999,"distance":2820,"transit":false,"i_lat":-6.2842400000000005,"is_transit":false,"time":4,"station_name":"Pasar Minggu","line":2,"station_id":"PSM"},{"is_transit":false,"time":2,"i_long":106.851577,"i_lat":-6.263214,"line":2,"transit":false,"distance":2380,"station_name":"Pasar Minggu Baru","station_id":"PSMB"},{"i_long":106.85449,"line":2,"transit":false,"station_id":"DRN","i_lat":-6.255332,"time":2,"is_transit":false,"station_name":"Duren Kalibata","distance":824},{"is_transit":false,"line":2,"station_name":"Cawang","station_id":"CW","distance":1546,"i_lat":-6.242512,"i_long":106.856607,"transit":false,"time":3},{"line":2,"transit":false,"i_lat":-6.226659,"station_id":"TEB","is_transit":false,"station_name":"Tebet","i_long":106.857948,"time":2,"distance":1230},{"transit":true,"station_name":"Manggarai","station_id":"MRI","time":4,"distance":2610,"is_transit":true,"line":2,"i_lat":-6.209883,"i_long":106.84912},{"i_long":106.822649,"station_id":"SUD","distance":3186,"is_transit":false,"i_lat":-6.202263,"station_name":"Sudirman","transit":false,"time":4,"line":1},{"time":1,"line":1,"distance":280,"i_lat":-6.201433,"is_transit":false,"transit":false,"station_id":"SUDB","station_name":"Sudirman Baru","i_long":106.819881},{"station_name":"Karet","i_lat":-6.20132,"line":1,"station_id":"KAT","distance":471,"transit":false,"time":1,"i_long":106.816351,"is_transit":false},{"transit":false,"line":1,"time":5,"station_name":"Tanah Abang","distance":2029,"i_lat":-6.185545,"station_id":"THB","i_long":106.811091,"is_transit":false},{"station_name":"Duri","is_transit":true,"time":8,"line":1,"i_lat":-6.155215,"transit":true,"station_id":"DU","i_long":106.800832,"distance":3632},{"station_id":"GGL","distance":1700,"time":3,"station_name":"Grogol","i_long":106.788277,"is_transit":false,"transit":false,"i_lat":-6.162021,"line":5},{"distance":2036,"transit":false,"station_name":"Pesing","is_transit":false,"i_lat":-6.161433,"station_id":"PSG","line":5,"time":2,"i_long":106.771379},{"time":2,"line":5,"station_name":"Taman Kota","station_id":"TKO","distance":1614,"is_transit":false,"i_lat":-6.1587309999999995,"i_long":106.756522,"transit":false},{"distance":2334,"transit":false,"i_lat":-6.159876,"station_name":"Bojongindah","time":2,"station_id":"BOI","line":5,"is_transit":false,"i_long":106.737035},{"time":4,"i_long":106.723064,"is_transit":false,"station_id":"RW","station_name":"Rawa Buaya","i_lat":-6.162758,"distance":1152,"transit":false,"line":5}],[{"i_long":106.800016,"time":0,"station_name":"Cilebut","transit":false,"i_lat":-6.530544,"line":2,"station_id":"CLT","is_transit":false,"distance":0},{"time":5,"i_lat":-6.493243,"station_id":"BJD","distance":4331,"i_long":106.792719,"line":2,"station_name":"Bojonggede","transit":false,"is_transit":false},{"transit":false,"is_transit":false,"line":2,"station_id":"CTA","distance":5197,"station_name":"Citayam","time":5,"i_lat":-6.448811,"i_long":106.800298},{"i_long":106.816926,"time":6,"line":2,"is_transit":false,"transit":false,"i_lat":-6.405256,"station_name":"Depok","station_id":"DP","distance":5084},{"station_id":"DPB","time":3,"transit":false,"distance":1584,"station_name":"Depokbaru","is_transit":false,"line":2,"i_lat":-6.391065,"i_long":106.819451},{"station_id":"POC","line":2,"i_lat":-6.369073,"station_name":"Pondok Cina","transit":false,"is_transit":false,"time":4,"i_long":106.831114,"distance":2727},{"line":2,"i_long":106.831474,"station_id":"UI","time":2,"station_name":"Univ. Indonesia","i_lat":-6.360749,"is_transit":false,"transit":false,"distance":1109},{"i_lat":-6.339291,"station_name":"Univ. Pancasila","station_id":"UP","distance":2264,"i_long":106.834175,"time":3,"is_transit":false,"transit":false,"line":2},{"i_long":106.832616,"station_name":"Lenteng Agung","station_id":"LNA","time":2,"is_transit":false,"transit":false,"distance":1029,"line":2,"i_lat":-6.330363},{"line":2,"i_long":106.838896,"i_lat":-6.3080680000000005,"transit":false,"distance":2671,"station_name":"Tanjung Barat","station_id":"TNT","is_transit":false,"time":3},{"is_transit":false,"transit":false,"time":4,"i_long":106.843999,"line":2,"station_id":"PSM","i_lat":-6.2842400000000005,"station_name":"Pasar Minggu","distance":2820},{"station_name":"Pasar Minggu Baru","distance":2380,"station_id":"PSMB","time":2,"i_lat":-6.263214,"i_long":106.851577,"line":2,"is_transit":false,"transit":false},{"line":2,"transit":false,"station_id":"DRN","is_transit":false,"distance":824,"time":2,"station_name":"Duren Kalibata","i_lat":-6.255332,"i_long":106.85449},{"i_long":106.856607,"station_name":"Cawang","distance":1546,"i_lat":-6.242512,"line":2,"station_id":"CW","is_transit":false,"transit":false,"time":3},{"i_lat":-6.226659,"station_name":"Tebet","line":2,"station_id":"TEB","transit":false,"is_transit":false,"time":2,"i_long":106.857948,"distance":1230},{"is_transit":false,"station_name":"Manggarai","station_id":"MRI","distance":2610,"i_long":106.84912,"line":2,"transit":false,"time":4,"i_lat":-6.209883},{"i_lat":-6.198556,"is_transit":false,"line":2,"transit":false,"station_name":"Cikini","station_id":"CKI","distance":1590,"i_long":106.840169,"time":4},{"time":3,"station_id":"GDD","is_transit":false,"i_lat":-6.186295,"transit":false,"distance":1750,"line":2,"station_name":"Gondangdia","i_long":106.832183},{"station_name":"Juanda","station_id":"JUA","i_lat":-6.166716,"transit":false,"line":2,"i_long":106.828284,"distance":2015,"is_transit":false,"time":4},{"station_id":"SW","is_transit":false,"time":2,"distance":1149,"station_name":"Sawah Besar","transit":false,"i_lat":-6.160725,"i_long":106.827103,"line":2},{"distance":906,"station_name":"Manggabesar","time":2,"station_id":"MGB","i_lat":-6.149769,"line":2,"transit":false,"is_transit":false,"i_long":106.82482},{"i_lat":-6.141205,"distance":1080,"transit":false,"station_id":"JAY","is_transit":false,"time":2,"i_long":106.820901,"station_name":"Jayakarta","line":2},{"station_id":"JAKK","is_transit":true,"i_lat":-6.137569,"i_long":106.812439,"distance":1264,"line":2,"transit":true,"station_name":"Jakarta Kota","time":4},{"is_transit":true,"i_lat":-6.132549,"line":4,"transit":true,"station_id":"KPB","station_name":"Kampung Bandan","distance":1364,"time":3,"i_long":106.826365},{"line":1,"i_long":106.79867,"transit":false,"station_id":"AK","station_name":"Angke","is_transit":false,"time":9,"distance":4102,"i_lat":-6.144674},{"station_name":"Duri","station_id":"DU","i_long":106.800832,"line":1,"time":4,"is_transit":true,"i_lat":-6.155215,"distance":1230,"transit":true},{"transit":false,"station_id":"GGL","time":3,"i_lat":-6.162021,"is_transit":false,"distance":1700,"i_long":106.788277,"station_name":"Grogol","line":5},{"time":2,"i_lat":-6.161433,"is_transit":false,"i_long":106.771379,"station_name":"Pesing","transit":false,"distance":2036,"station_id":"PSG","line":5},{"line":5,"i_long":106.756522,"station_id":"TKO","transit":false,"i_lat":-6.1587309999999995,"is_transit":false,"time":2,"distance":1614,"station_name":"Taman Kota"},{"station_id":"BOI","transit":false,"is_transit":false,"distance":2334,"i_lat":-6.159876,"i_long":106.737035,"time":2,"station_name":"Bojongindah","line":5},{"i_long":106.723064,"line":5,"transit":false,"station_name":"Rawa Buaya","station_id":"RW","is_transit":false,"time":4,"distance":1152,"i_lat":-6.162758}],[{"is_transit":false,"time":0,"distance":0,"i_lat":-6.530544,"i_long":106.800016,"line":2,"station_id":"CLT","transit":false,"station_name":"Cilebut"},{"transit":false,"i_lat":-6.493243,"i_long":106.792719,"line":2,"station_id":"BJD","distance":4331,"station_name":"Bojonggede","time":5,"is_transit":false},{"station_name":"Citayam","transit":false,"station_id":"CTA","i_long":106.800298,"time":5,"distance":5197,"is_transit":false,"i_lat":-6.448811,"line":2},{"station_name":"Depok","line":2,"transit":false,"station_id":"DP","i_lat":-6.405256,"distance":5084,"time":6,"is_transit":false,"i_long":106.816926},{"line":2,"is_transit":false,"station_id":"DPB","transit":false,"time":3,"i_lat":-6.391065,"station_name":"Depokbaru","i_long":106.819451,"distance":1584},{"station_id":"POC","distance":2727,"transit":false,"i_long":106.831114,"is_transit":false,"station_name":"Pondok Cina","time":4,"i_lat":-6.369073,"line":2},{"is_transit":false,"i_lat":-6.360749,"time":2,"station_name":"Univ. Indonesia","distance":1109,"line":2,"transit":false,"i_long":106.831474,"station_id":"UI"},{"is_transit":false,"distance":2264,"time":3,"i_long":106.834175,"line":2,"station_id":"UP","transit":false,"i_lat":-6.339291,"station_name":"Univ. Pancasila"},{"station_name":"Lenteng Agung","transit":false,"i_lat":-6.330363,"station_id":"LNA","time":2,"line":2,"i_long":106.832616,"is_transit":false,"distance":1029},{"time":3,"station_id":"TNT","distance":2671,"is_transit":false,"transit":false,"line":2,"station_name":"Tanjung Barat","i_long":106.838896,"i_lat":-6.3080680000000005},{"time":4,"station_id":"PSM","transit":false,"is_transit":false,"distance":2820,"i_lat":-6.2842400000000005,"line":2,"i_long":106.843999,"station_name":"Pasar Minggu"},{"line":2,"transit":false,"distance":2380,"station_name":"Pasar Minggu Baru","is_transit":false,"i_long":106.851577,"station_id":"PSMB","time":2,"i_lat":-6.263214},{"station_id":"DRN","is_transit":false,"distance":824,"i_lat":-6.255332,"transit":false,"time":2,"i_long":106.85449,"station_name":"Duren Kalibata","line":2},{"time":3,"station_name":"Cawang","i_lat":-6.242512,"distance":1546,"i_long":106.856607,"transit":false,"is_transit":false,"line":2,"station_id":"CW"},{"transit":false,"is_transit":false,"time":2,"i_long":106.857948,"line":2,"station_id":"TEB","i_lat":-6.226659,"station_name":"Tebet","distance":1230},{"line":2,"station_name":"Manggarai","is_transit":true,"transit":true,"distance":2610,"station_id":"MRI","time":4,"i_lat":-6.209883,"i_long":106.84912},{"i_lat":-6.212485,"i_long":106.858896,"station_id":"MTR","distance":1275,"station_name":"Matraman","is_transit":false,"time":2,"line":1,"transit":false},{"i_lat":-6.215091,"time":8,"i_long":106.86807400000001,"distance":1377,"transit":true,"is_transit":true,"station_name":"Jatinegara","station_id":"JNG","line":1},{"i_lat":-6.209188,"transit":false,"station_name":"Pondok Jati","is_transit":false,"time":2,"i_long":106.861737,"line":11,"distance":1236,"station_id":"POK"},{"distance":1829,"i_lat":-6.193792,"i_long":106.855437,"station_name":"Kramat","is_transit":false,"time":2,"line":11,"station_id":"KMT","transit":false},{"time":1,"i_long":106.850107,"is_transit":false,"station_id":"GST","line":11,"i_lat":-6.185975,"transit":false,"distance":973,"station_name":"Gang Sentiong"},{"transit":false,"i_long":106.84368,"distance":1567,"is_transit":false,"line":11,"station_id":"PSE","station_name":"Pasar Senen","i_lat":-6.174784,"time":8},{"i_long":106.839204,"i_lat":-6.161728,"station_id":"KMO","distance":1436,"time":4,"station_name":"Kemayoran","is_transit":false,"transit":false,"line":11},{"line":11,"transit":false,"station_id":"RJW","distance":1901,"is_transit":false,"station_name":"Rajawali","time":5,"i_long":106.836569,"i_lat":-6.14505},{"i_lat":-6.132549,"station_name":"Kampung Bandan","distance":1444,"i_long":106.826365,"transit":true,"station_id":"KPB","is_transit":true,"time":3,"line":4},{"station_id":"AK","station_name":"Angke","i_lat":-6.144674,"i_long":106.79867,"is_transit":false,"distance":4102,"transit":false,"line":1,"time":9},{"i_long":106.800832,"station_id":"DU","time":4,"station_name":"Duri","distance":1230,"i_lat":-6.155215,"is_transit":true,"line":1,"transit":true},{"station_name":"Grogol","is_transit":false,"transit":false,"i_lat":-6.162021,"i_long":106.788277,"time":3,"line":5,"distance":1700,"station_id":"GGL"},{"time":2,"i_long":106.771379,"distance":2036,"is_transit":false,"i_lat":-6.161433,"transit":false,"line":5,"station_name":"Pesing","station_id":"PSG"},{"line":5,"time":2,"station_id":"TKO","distance":1614,"station_name":"Taman Kota","i_lat":-6.1587309999999995,"i_long":106.756522,"is_transit":false,"transit":false},{"transit":false,"station_name":"Bojongindah","i_lat":-6.159876,"i_long":106.737035,"station_id":"BOI","distance":2334,"is_transit":false,"line":5,"time":2},{"is_transit":false,"i_long":106.723064,"line":5,"transit":false,"time":4,"distance":1152,"i_lat":-6.162758,"station_name":"Rawa Buaya","station_id":"RW"}]]}