{"data":[[{"station_name":"Cilebut","distance":0,"station_id":"CLT","line":0,"i_lat":-6.530544,"transit":false,"is_transit":false,"time":0,"i_long":106.800016},{"distance":4331,"transit":false,"station_name":"Bojonggede","time":5,"i_lat":-6.493243,"i_long":106.792719,"station_id":"BJD","line":0,"is_transit":false},{"station_name":"Citayam","time":5,"station_id":"CTA","line":1,"i_long":106.800298,"transit":false,"is_transit":true,"distance":5197,"i_lat":-6.448811},{"time":6,"is_transit":false,"line":0,"station_name":"Depok","transit":false,"station_id":"DP","i_long":106.816926,"i_lat":-6.405256,"distance":5084},{"time":3,"distance":1584,"i_lat":-6.391065,"transit":false,"station_name":"Depokbaru","i_long":106.819451,"station_id":"DPB","line":0,"is_transit":false},{"time":4,"i_lat":-6.369073,"station_id":"POC","i_long":106.831114,"transit":false,"line":2,"is_transit":false,"station_name":"Pondok Cina","distance":2727},{"is_transit":false,"station_name":"Univ. Indonesia","i_long":106.831474,"distance":1109,"line":2,"transit":false,"station_id":"UI","time":2,"i_lat":-6.360749},{"i_lat":-6.339291,"station_id":"UP","i_long":106.834175,"distance":2264,"station_name":"Univ. Pancasila","time":3,"line":2,"transit":false,"is_transit":false},{"transit":false,"is_transit":false,"i_long":106.832616,"station_name":"Lenteng Agung","time":2,"i_lat":-6.330363,"distance":1029,"station_id":"LNA","line":2},{"station_name":"Tanjung Barat","distance":2671,"is_transit":false,"i_lat":-6.3080680000000005,"station_id":"TNT","time":3,"i_long":106.838896,"transit":false,"line":2},{"i_long":106.843999,"line":2,"distance":2820,"station_name":"Pasar Minggu","transit":false,"i_lat":-6.2842400000000005,"is_transit":false,"station_id":"PSM","time":4},{"distance":2380,"station_id":"PSMB","line":2,"time":2,"i_lat":-6.263214,"i_long":106.851577,"transit":false,"is_transit":false,"station_name":"Pasar Minggu Baru"},{"distance":824,"i_lat":-6.255332,"station_id":"DRN","is_transit":false,"i_long":106.85449,"station_name":"Duren Kalibata","time":2,"line":0,"transit":false},{"is_transit":false,"station_id":"CW","station_name":"Cawang","i_lat":-6.242512,"time":3,"transit":false,"i_long":106.856607,"distance":1546,"line":0},{"transit":false,"time":2,"line":2,"station_name":"Tebet","i_long":106.857948,"station_id":"TEB","is_transit":false,"i_lat":-6.226659,"distance":1230},{"station_id":"MRI","transit":true,"time":4,"i_lat":-6.209883,"i_long":106.84912,"is_transit":true,"station_name":"Manggarai","distance":2610,"line":0},{"i_long":106.822649,"distance":3186,"transit":false,"line":1,"station_name":"Sudirman","i_lat":-6.202263,"time":4,"is_transit":false,"station_id":"SUD"},{"station_name":"Sudirman Baru","distance":280,"time":1,"line":1,"i_lat":-6.201433,"is_transit":false,"station_id":"SUDB","transit":false,"i_long":106.819881},{"i_long":106.816351,"line":1,"time":1,"i_lat":-6.20132,"station_id":"KAT","is_transit":false,"distance":471,"transit":false,"station_name":"Karet"},{"time":5,"station_name":"Tanah Abang","transit":true,"is_transit":true,"distance":2029,"i_lat":-6.185545,"i_long":106.811091,"line":1,"station_id":"THB"},{"distance":3191,"i_long":106.79689,"station_name":"Palmerah","transit":false,"time":6,"i_lat":-6.207404,"line":6,"is_transit":false,"station_id":"PLM"},{"station_name":"Kebayoran","distance":3737,"i_lat":-6.237242,"station_id":"KBY","i_long":106.780334,"is_transit":false,"time":7,"line":6,"transit":false},{"transit":false,"i_long":106.74273,"is_transit":false,"station_name":"Pondokranji","i_lat":-6.276362,"line":6,"station_id":"PDJ","time":8,"distance":6218},{"i_lat":-6.288927,"i_long":106.728916,"station_id":"JMU","line":6,"distance":2179,"time":3,"station_name":"Jurangmangu","is_transit":false,"transit":false},{"station_id":"SDM","is_transit":false,"i_lat":-6.296963,"transit":false,"time":4,"distance":1994,"line":6,"i_long":106.712277,"station_name":"Sudimara"},{"transit":false,"station_name":"Rawa Buntu","station_id":"RU","distance":4566,"line":6,"time":6,"i_lat":-6.314823,"is_transit":false,"i_long":106.675475},{"station_id":"SRP","is_transit":false,"transit":false,"line":6,"time":4,"distance":2413,"station_name":"Serpong","i_long":106.66566,"i_lat":-6.319871},{"station_name":"Cisauk","transit":false,"is_transit":false,"time":4,"distance":1784,"i_lat":-6.32484,"i_long":106.640411,"line":0,"station_id":"CSK"},{"station_name":"Cicayur","transit":false,"time":4,"station_id":"CC","i_lat":-6.329547,"i_long":106.617853,"line":0,"distance":2519,"is_transit":false},{"station_id":"PRP","time":8,"distance":5968,"i_long":106.568863,"line":6,"i_lat":-6.3441410000000005,"is_transit":false,"station_name":"Parung Panjang","transit":false},{"is_transit":false,"transit":false,"station_name":"Cilejit","distance":7025,"station_id":"CJT","i_lat":-6.354349,"i_long":106.508482,"line":0,"time":9},{"i_long":106.491338,"i_lat":-6.338021,"station_id":"DAR","station_name":"Daru","distance":2675,"line":0,"transit":false,"is_transit":false,"time":6},{"station_name":"Tenjo","transit":false,"line":6,"i_lat":-6.327251,"station_id":"TEJ","is_transit":false,"time":5,"i_long":106.460812,"distance":3902}],[{"is_transit":false,"time":0,"distance":0,"station_name":"Cilebut","transit":false,"i_lat":-6.530544,"i_long":106.800016,"station_id":"CLT","line":0},{"station_name":"Bojonggede","distance":4331,"time":5,"line":0,"station_id":"BJD","i_lat":-6.493243,"transit":false,"is_transit":false,"i_long":106.792719},{"station_name":"Citayam","is_transit":true,"distance":5197,"line":1,"i_long":106.800298,"i_lat":-6.448811,"station_id":"CTA","time":5,"transit":false},{"station_name":"Depok","i_long":106.816926,"station_id":"DP","i_lat":-6.405256,"distance":5084,"time":6,"line":0,"is_transit":false,"transit":false},{"i_long":106.819451,"station_name":"Depokbaru","is_transit":false,"transit":false,"i_lat":-6.391065,"line":0,"station_id":"DPB","time":3,"distance":1584},{"i_lat":-6.369073,"station_name":"Pondok Cina","i_long":106.831114,"station_id":"POC","time":4,"transit":false,"line":2,"distance":2727,"is_transit":false},{"i_lat":-6.360749,"station_id":"UI","line":2,"distance":1109,"station_name":"Univ. Indonesia","time":2,"i_long":106.831474,"transit":false,"is_transit":false},{"line":2,"station_name":"Univ. Pancasila","is_transit":false,"time":3,"transit":false,"station_id":"UP","distance":2264,"i_lat":-6.339291,"i_long":106.834175},{"is_transit":false,"i_lat":-6.330363,"station_id":"LNA","station_name":"Lenteng Agung","distance":1029,"line":2,"transit":false,"i_long":106.832616,"time":2},{"time":3,"is_transit":false,"station_id":"TNT","i_lat":-6.3080680000000005,"transit":false,"station_name":"Tanjung Barat","distance":2671,"i_long":106.838896,"line":2},{"station_id":"PSM","i_lat":-6.2842400000000005,"line":2,"i_long":106.843999,"station_name":"Pasar Minggu","distance":2820,"time":4,"transit":false,"is_transit":false},{"distance":2380,"i_lat":-6.263214,"station_id":"PSMB","is_transit":false,"station_name":"Pasar Minggu Baru","time":2,"i_long":106.851577,"line":2,"transit":false},{"time":2,"i_lat":-6.255332,"station_name":"Duren Kalibata","distance":824,"is_transit":false,"line":0,"i_long":106.85449,"station_id":"DRN","transit":false},{"line":0,"time":3,"station_name":"Cawang","distance":1546,"station_id":"CW","transit":false,"is_transit":false,"i_lat":-6.242512,"i_long":106.856607},{"station_name":"Tebet","line":2,"transit":false,"station_id":"TEB","i_long":106.857948,"time":2,"distance":1230,"i_lat":-6.226659,"is_transit":false},{"is_transit":true,"i_lat":-6.209883,"distance":2610,"line":0,"i_long":106.84912,"station_name":"Manggarai","transit":true,"station_id":"MRI","time":4},{"time":4,"line":0,"station_id":"CKI","is_transit":false,"i_lat":-6.198556,"i_long":106.840169,"distance":1590,"station_name":"Cikini","transit":false},{"distance":1750,"station_id":"GDD","line":2,"transit":false,"is_transit":false,"i_long":106.832183,"i_lat":-6.186295,"time":3,"station_name":"Gondangdia"},{"line":2,"station_id":"JUA","time":4,"is_transit":false,"transit":false,"distance":2015,"i_lat":-6.166716,"i_long":106.828284,"station_name":"Juanda"},{"i_long":106.827103,"line":2,"is_transit":false,"distance":1149,"i_lat":-6.160725,"station_name":"Sawah Besar","time":2,"station_id":"SW","transit":false},{"transit":false,"i_long":106.82482,"i_lat":-6.149769,"distance":906,"station_name":"Manggabesar","time":2,"station_id":"MGB","is_transit":false,"line":2},{"is_transit":false,"i_long":106.820901,"transit":false,"line":7,"station_name":"Jayakarta","distance":1080,"time":2,"i_lat":-6.141205,"station_id":"JAY"},{"transit":true,"i_long":106.812439,"time":4,"i_lat":-6.137569,"station_id":"JAKK","is_transit":true,"line":0,"distance":1264,"station_name":"Jakarta Kota"},{"i_lat":-6.132549,"time":3,"i_long":106.826365,"station_name":"Kampung Bandan","line":0,"transit":false,"distance":1364,"is_transit":true,"station_id":"KPB"},{"station_name":"Angke","transit":false,"time":9,"distance":4102,"line":0,"i_lat":-6.144674,"i_long":106.79867,"station_id":"AK","is_transit":false},{"is_transit":true,"distance":1230,"station_id":"DU","transit":true,"i_long":106.800832,"line":1,"time":4,"station_name":"Duri","i_lat":-6.155215},{"station_name":"Tanah Abang","i_lat":-6.185545,"line":1,"station_id":"THB","i_long":106.811091,"is_transit":true,"time":8,"distance":3632,"transit":true},{"distance":3191,"is_transit":false,"i_long":106.79689,"station_name":"Palmerah","time":6,"station_id":"PLM","i_lat":-6.207404,"transit":false,"line":6},{"time":7,"i_long":106.780334,"station_name":"Kebayoran","station_id":"KBY","is_transit":false,"i_lat":-6.237242,"line":6,"transit":false,"distance":3737},{"time":8,"i_lat":-6.276362,"station_name":"Pondokranji","transit":false,"distance":6218,"line":6,"i_long":106.74273,"is_transit":false,"station_id":"PDJ"},{"i_lat":-6.288927,"is_transit":false,"time":3,"station_id":"JMU","station_name":"Jurangmangu","i_long":106.728916,"line":6,"distance":2179,"transit":false},{"i_lat":-6.296963,"line":6,"distance":1994,"station_name":"Sudimara","transit":false,"time":4,"i_long":106.712277,"station_id":"SDM","is_transit":false},{"i_lat":-6.314823,"station_id":"RU","transit":false,"distance":4566,"i_long":106.675475,"is_transit":false,"line":6,"station_name":"Rawa Buntu","time":6},{"line":6,"i_long":106.66566,"time":4,"distance":2413,"station_name":"Serpong","i_lat":-6.319871,"is_transit":false,"station_id":"SRP","transit":false},{"time":4,"line":0,"station_name":"Cisauk","is_transit":false,"distance":1784,"i_lat":-6.32484,"i_long":106.640411,"station_id":"CSK","transit":false},{"i_long":106.617853,"line":0,"station_name":"Cicayur","station_id":"CC","transit":false,"is_transit":false,"i_lat":-6.329547,"time":4,"distance":2519},{"transit":false,"distance":5968,"i_lat":-6.3441410000000005,"line":6,"station_name":"Parung Panjang","time":8,"i_long":106.568863,"station_id":"PRP","is_transit":false},{"line":0,"i_lat":-6.354349,"station_name":"Cilejit","distance":7025,"transit":false,"time":9,"i_long":106.508482,"station_id":"CJT","is_transit":false},{"station_name":"Daru","distance":2675,"line":0,"is_transit":false,"station_id":"DAR","i_lat":-6.338021,"i_long":106.491338,"time":6,"transit":false},{"is_transit":false,"station_id":"TEJ","i_lat":-6.327251,"time":5,"station_name":"Tenjo","i_long":106.460812,"transit":false,"line":6,"distance":3902}],[{"i_long":106.800016,"is_transit":false,"time":0,"transit":false,"line":0,"i_lat":-6.530544,"station_id":"CLT","distance":0,"station_name":"Cilebut"},{"i_long":106.792719,"line":0,"time":5,"transit":false,"is_transit":false,"i_lat":-6.493243,"distance":4331,"station_id":"BJD","station_name":"Bojonggede"},{"station_id":"CTA","distance":5197,"station_name":"Citayam","time":5,"i_lat":-6.448811,"i_long":106.800298,"line":1,"transit":false,"is_transit":true},{"i_lat":-6.405256,"i_long":106.816926,"station_id":"DP","line":0,"time":6,"is_transit":false,"transit":false,"distance":5084,"station_name":"Depok"},{"station_id":"DPB","is_transit":false,"time":3,"station_name":"Depokbaru","line":0,"distance":1584,"transit":false,"i_lat":-6.391065,"i_long":106.819451},{"i_lat":-6.369073,"station_name":"Pondok Cina","i_long":106.831114,"is_transit":false,"distance":2727,"time":4,"station_id":"POC","line":2,"transit":false},{"station_id":"UI","time":2,"line":2,"is_transit":false,"station_name":"Univ. Indonesia","distance":1109,"i_lat":-6.360749,"transit":false,"i_long":106.831474},{"distance":2264,"transit":false,"is_transit":false,"i_long":106.834175,"station_name":"Univ. Pancasila","time":3,"line":2,"i_lat":-6.339291,"station_id":"UP"},{"i_lat":-6.330363,"station_id":"LNA","station_name":"Lenteng Agung","transit":false,"line":2,"distance":1029,"i_long":106.832616,"time":2,"is_transit":false},{"line":2,"station_id":"TNT","i_lat":-6.3080680000000005,"time":3,"is_transit":false,"distance":2671,"i_long":106.838896,"station_name":"Tanjung Barat","transit":false},{"distance":2820,"transit":false,"station_name":"Pasar Minggu","station_id":"PSM","time":4,"i_long":106.843999,"is_transit":false,"i_lat":-6.2842400000000005,"line":2},{"i_long":106.851577,"i_lat":-6.263214,"station_name":"Pasar Minggu Baru","station_id":"PSMB","transit":false,"line":2,"time":2,"distance":2380,"is_transit":false},{"line":0,"transit":false,"station_name":"Duren Kalibata","i_lat":-6.255332,"i_long":106.85449,"time":2,"station_id":"DRN","distance":824,"is_transit":false},{"transit":false,"distance":1546,"station_id":"CW","i_lat":-6.242512,"station_name":"Cawang","i_long":106.856607,"time":3,"line":0,"is_transit":false},{"is_transit":false,"i_long":106.857948,"station_name":"Tebet","transit":false,"distance":1230,"i_lat":-6.226659,"station_id":"TEB","time":2,"line":2},{"station_name":"Manggarai","line":0,"is_transit":true,"station_id":"MRI","i_long":106.84912,"i_lat":-6.209883,"distance":2610,"time":4,"transit":true},{"i_lat":-6.212485,"distance":1275,"time":2,"is_transit":false,"station_id":"MTR","i_long":106.858896,"transit":false,"station_name":"Matraman","line":1},{"station_id":"JNG","line":0,"is_transit":true,"i_long":106.86807400000001,"transit":true,"distance":1377,"time":8,"station_name":"Jatinegara","i_lat":-6.215091},{"station_name":"Pondok Jati","line":11,"i_lat":-6.209188,"distance":1236,"i_long":106.861737,"transit":false,"time":2,"station_id":"POK","is_transit":false},{"station_name":"Kramat","line":11,"transit":false,"is_transit":false,"station_id":"KMT","distance":1829,"i_long":106.855437,"time":2,"i_lat":-6.193792},{"distance":973,"line":11,"time":1,"i_long":106.850107,"is_transit":false,"i_lat":-6.185975,"station_name":"Gang Sentiong","station_id":"GST","transit":false},{"transit":false,"time":8,"station_id":"PSE","station_name":"Pasar Senen","i_lat":-6.174784,"is_transit":false,"distance":1567,"i_long":106.84368,"line":11},{"station_name":"Kemayoran","i_lat":-6.161728,"distance":1436,"transit":false,"i_long":106.839204,"is_transit":false,"station_id":"KMO","time":4,"line":11},{"i_lat":-6.14505,"station_name":"Rajawali","transit":false,"distance":1901,"is_transit":false,"i_long":106.836569,"station_id":"RJW","time":5,"line":11},{"i_lat":-6.132549,"transit":true,"time":3,"is_transit":true,"station_name":"Kampung Bandan","distance":1444,"line":0,"station_id":"KPB","i_long":106.826365},{"station_id":"AK","station_name":"Angke","is_transit":false,"time":9,"i_long":106.79867,"line":0,"distance":4102,"transit":false,"i_lat":-6.144674},{"time":4,"station_id":"DU","i_long":106.800832,"station_name":"Duri","transit":true,"is_transit":true,"distance":1230,"line":1,"i_lat":-6.155215},{"time":8,"i_long":106.811091,"station_id":"THB","line":1,"distance":3632,"station_name":"Tanah Abang","is_transit":true,"i_lat":-6.185545,"transit":true},{"is_transit":false,"station_name":"Palmerah","i_lat":-6.207404,"station_id":"PLM","time":6,"i_long":106.79689,"transit":false,"distance":3191,"line":6},{"station_id":"KBY","station_name":"Kebayoran","transit":false,"is_transit":false,"distance":3737,"time":7,"i_lat":-6.237242,"i_long":106.780334,"line":6},{"i_long":106.74273,"distance":6218,"transit":false,"time":8,"line":6,"station_name":"Pondokranji","station_id":"PDJ","is_transit":false,"i_lat":-6.276362},{"transit":false,"i_lat":-6.288927,"i_long":106.728916,"line":6,"station_id":"JMU","station_name":"Jurangmangu","is_transit":false,"time":3,"distance":2179},{"station_id":"SDM","time":4,"i_long":106.712277,"is_transit":false,"station_name":"Sudimara","distance":1994,"i_lat":-6.296963,"transit":false,"line":6},{"is_transit":false,"line":6,"i_lat":-6.314823,"station_id":"RU","distance":4566,"time":6,"i_long":106.675475,"transit":false,"station_name":"Rawa Buntu"},{"i_lat":-6.319871,"distance":2413,"station_id":"SRP","is_transit":false,"transit":false,"i_long":106.66566,"line":6,"station_name":"Serpong","time":4},{"distance":1784,"is_transit":false,"transit":false,"time":4,"station_name":"Cisauk","i_lat":-6.32484,"line":0,"station_id":"CSK","i_long":106.640411},{"is_transit":false,"station_id":"CC","time":4,"i_long":106.617853,"transit":false,"distance":2519,"i_lat":-6.329547,"line":0,"station_name":"Cicayur"},{"transit":false,"time":8,"i_lat":-6.3441410000000005,"line":6,"i_long":106.568863,"is_transit":false,"distance":5968,"station_name":"Parung Panjang","station_id":"PRP"},{"distance":7025,"station_id":"CJT","station_name":"Cilejit","transit":false,"line":0,"is_transit":false,"time":9,"i_lat":-6.354349,"i_long":106.508482},{"distance":2675,"transit":false,"station_name":"Daru","i_lat":-6.338021,"station_id":"DAR","is_transit":false,"time":6,"i_long":106.491338,"line":0},{"distance":3902,"i_lat":-6.327251,"station_id":"TEJ","i_long":106.460812,"transit":false,"is_transit":false,"time":5,"station_name":"Tenjo","line":6}]]}