{"data":[[{"station_id":"CLT","distance":0,"line":2,"transit":false,"station_name":"Cilebut","i_long":106.800016,"time":0,"i_lat":-6.530544,"is_transit":false},{"i_long":106.792719,"line":2,"i_lat":-6.493243,"is_transit":false,"transit":false,"distance":4331,"station_name":"Bojonggede","time":5,"station_id":"BJD"},{"i_long":106.800298,"distance":5197,"station_id":"CTA","is_transit":false,"i_lat":-6.448811,"line":2,"transit":false,"time":5,"station_name":"Citayam"},{"i_long":106.816926,"transit":false,"distance":5084,"i_lat":-6.405256,"time":6,"is_transit":false,"station_name":"Depok","line":2,"station_id":"DP"},{"time":3,"i_lat":-6.391065,"distance":1584,"transit":false,"station_name":"Depokbaru","line":2,"i_long":106.819451,"is_transit":false,"station_id":"DPB"},{"i_lat":-6.369073,"is_transit":false,"i_long":106.831114,"line":2,"transit":false,"distance":2727,"time":4,"station_id":"POC","station_name":"Pondok Cina"},{"transit":false,"station_name":"Univ. Indonesia","is_transit":false,"i_lat":-6.360749,"station_id":"UI","i_long":106.831474,"time":2,"distance":1109,"line":2},{"station_name":"Univ. Pancasila","is_transit":false,"time":3,"i_lat":-6.339291,"line":2,"transit":false,"i_long":106.834175,"station_id":"UP","distance":2264},{"station_name":"Lenteng Agung","line":2,"station_id":"LNA","time":2,"i_lat":-6.330363,"is_transit":false,"distance":1029,"transit":false,"i_long":106.832616},{"station_name":"Tanjung Barat","transit":false,"time":3,"station_id":"TNT","is_transit":false,"i_lat":-6.3080680000000005,"i_long":106.838896,"line":2,"distance":2671},{"station_name":"Pasar Minggu","station_id":"PSM","i_lat":-6.2842400000000005,"i_long":106.843999,"time":4,"transit":false,"distance":2820,"line":2,"is_transit":false},{"distance":2380,"transit":false,"i_lat":-6.263214,"i_long":106.851577,"line":2,"is_transit":false,"station_id":"PSMB","time":2,"station_name":"Pasar Minggu Baru"},{"distance":824,"i_long":106.85449,"line":2,"station_name":"Duren Kalibata","i_lat":-6.255332,"station_id":"DRN","time":2,"is_transit":false,"transit":false},{"i_long":106.856607,"is_transit":false,"time":3,"station_id":"CW","transit":false,"station_name":"Cawang","i_lat":-6.242512,"line":2,"distance":1546},{"i_lat":-6.226659,"station_name":"Tebet","line":2,"is_transit":false,"time":2,"distance":1230,"transit":false,"i_long":106.857948,"station_id":"TEB"},{"time":4,"transit":true,"line":2,"is_transit":true,"i_lat":-6.209883,"i_long":106.84912,"distance":2610,"station_id":"MRI","station_name":"Manggarai"},{"station_name":"Sudirman","line":1,"transit":false,"i_long":106.822649,"station_id":"SUD","time":4,"distance":3186,"is_transit":false,"i_lat":-6.202263},{"station_name":"Sudirman Baru","distance":280,"i_lat":-6.201433,"transit":false,"line":1,"station_id":"SUDB","is_transit":false,"time":1,"i_long":106.819881},{"line":1,"i_long":106.816351,"is_transit":false,"distance":471,"transit":false,"time":1,"station_id":"KAT","station_name":"Karet","i_lat":-6.20132},{"station_name":"Tanah Abang","line":1,"i_lat":-6.185545,"i_long":106.811091,"station_id":"THB","distance":2029,"is_transit":false,"transit":false,"time":5},{"line":1,"is_transit":true,"station_name":"Duri","time":8,"distance":3632,"transit":true,"i_lat":-6.155215,"i_long":106.800832,"station_id":"DU"},{"distance":1700,"time":3,"station_name":"Grogol","is_transit":false,"station_id":"GRG","transit":false,"i_lat":-6.162021,"i_long":106.788277,"line":5},{"i_long":106.771379,"transit":false,"line":5,"i_lat":-6.161433,"time":2,"station_id":"PSG","distance":2036,"is_transit":false,"station_name":"Pesing"},{"transit":false,"station_name":"Taman Kota","i_long":106.756522,"i_lat":-6.1587309999999995,"time":2,"distance":1614,"line":5,"is_transit":false,"station_id":"TKO"},{"i_long":106.737035,"transit":false,"station_name":"Bojongindah","line":5,"time":2,"distance":2334,"station_id":"BOI","i_lat":-6.159876,"is_transit":false},{"station_id":"RW","distance":1152,"transit":false,"is_transit":false,"i_long":106.723064,"time":4,"line":5,"station_name":"Rawa Buaya","i_lat":-6.162758},{"station_name":"Kalideres","transit":false,"time":3,"line":5,"i_long":106.701612,"is_transit":false,"distance":2504,"i_lat":-6.166068,"station_id":"KDS"},{"transit":false,"i_lat":-6.169933,"station_id":"PI","station_name":"Poris","time":3,"i_long":106.679458,"is_transit":false,"distance":2548,"line":5},{"distance":1834,"i_lat":-6.171811,"i_long":106.665036,"line":5,"transit":false,"time":3,"station_id":"BPR","is_transit":false,"station_name":"Batuceper"},{"station_name":"Tanah Tinggi","transit":false,"station_id":"THI","distance":2028,"i_long":106.64657,"line":5,"i_lat":-6.17331,"is_transit":false,"time":3},{"station_name":"Tangerang","station_id":"TNG","time":3,"is_transit":false,"distance":1547,"line":5,"i_lat":-6.176583,"transit":false,"i_long":106.632761}],[{"station_name":"Cilebut","time":0,"distance":0,"i_lat":-6.530544,"line":2,"is_transit":false,"transit":false,"station_id":"CLT","i_long":106.800016},{"distance":4331,"line":2,"i_long":106.792719,"transit":false,"station_id":"BJD","station_name":"Bojonggede","time":5,"is_transit":false,"i_lat":-6.493243},{"is_transit":false,"distance":5197,"transit":false,"station_name":"Citayam","time":5,"station_id":"CTA","i_lat":-6.448811,"line":2,"i_long":106.800298},{"is_transit":false,"station_id":"DP","distance":5084,"i_long":106.816926,"i_lat":-6.405256,"station_name":"Depok","time":6,"line":2,"transit":false},{"transit":false,"time":3,"i_lat":-6.391065,"i_long":106.819451,"distance":1584,"station_id":"DPB","is_transit":false,"station_name":"Depokbaru","line":2},{"distance":2727,"i_lat":-6.369073,"is_transit":false,"i_long":106.831114,"transit":false,"station_id":"POC","station_name":"Pondok Cina","time":4,"line":2},{"i_long":106.831474,"transit":false,"is_transit":false,"time":2,"station_id":"UI","i_lat":-6.360749,"station_name":"Univ. Indonesia","distance":1109,"line":2},{"line":2,"is_transit":false,"transit":false,"station_name":"Univ. Pancasila","distance":2264,"station_id":"UP","time":3,"i_lat":-6.339291,"i_long":106.834175},{"transit":false,"station_name":"Lenteng Agung","time":2,"distance":1029,"station_id":"LNA","i_long":106.832616,"line":2,"i_lat":-6.330363,"is_transit":false},{"distance":2671,"time":3,"line":2,"transit":false,"station_name":"Tanjung Barat","station_id":"TNT","is_transit":false,"i_long":106.838896,"i_lat":-6.3080680000000005},{"line":2,"i_lat":-6.2842400000000005,"time":4,"transit":false,"i_long":106.843999,"is_transit":false,"station_name":"Pasar Minggu","station_id":"PSM","distance":2820},{"i_lat":-6.263214,"station_name":"Pasar Minggu Baru","i_long":106.851577,"distance":2380,"is_transit":false,"transit":false,"time":2,"station_id":"PSMB","line":2},{"i_lat":-6.255332,"transit":false,"i_long":106.85449,"station_id":"DRN","distance":824,"line":2,"station_name":"Duren Kalibata","time":2,"is_transit":false},{"line":2,"i_lat":-6.242512,"transit":false,"station_name":"Cawang","distance":1546,"i_long":106.856607,"is_transit":false,"time":3,"station_id":"CW"},{"transit":false,"station_id":"TEB","line":2,"time":2,"i_lat":-6.226659,"is_transit":false,"station_name":"Tebet","distance":1230,"i_long":106.857948},{"is_transit":false,"transit":false,"station_name":"Manggarai","distance":2610,"time":4,"station_id":"MRI","i_long":106.84912,"line":2,"i_lat":-6.209883},{"i_long":106.840169,"line":2,"distance":1590,"station_id":"CKI","is_transit":false,"transit":false,"time":4,"station_name":"Cikini","i_lat":-6.198556},{"transit":false,"distance":1750,"station_id":"GDD","time":3,"line":2,"station_name":"Gondangdia","i_long":106.832183,"is_transit":false,"i_lat":-6.186295},{"station_name":"Juanda","i_lat":-6.166716,"i_long":106.828284,"distance":2015,"transit":false,"time":4,"is_transit":false,"station_id":"JUA","line":2},{"i_lat":-6.160725,"distance":1149,"i_long":106.827103,"line":2,"is_transit":false,"transit":false,"time":2,"station_id":"SW","station_name":"Sawah Besar"},{"i_lat":-6.149769,"station_id":"MGB","line":2,"time":2,"is_transit":false,"distance":906,"i_long":106.82482,"transit":false,"station_name":"Manggabesar"},{"station_name":"Jayakarta","line":2,"station_id":"JAY","transit":false,"time":2,"is_transit":false,"i_lat":-6.141205,"distance":1080,"i_long":106.820901},{"time":4,"line":2,"station_name":"Jakarta Kota","station_id":"JAKK","is_transit":true,"transit":true,"distance":1264,"i_lat":-6.137569,"i_long":106.812439},{"distance":1364,"station_name":"Kampung Bandan","transit":true,"time":3,"is_transit":true,"station_id":"KPB","i_lat":-6.132549,"i_long":106.826365,"line":4},{"time":9,"is_transit":false,"i_long":106.79867,"station_id":"AK","distance":4102,"i_lat":-6.144674,"line":1,"transit":false,"station_name":"Angke"},{"i_lat":-6.155215,"station_id":"DU","transit":true,"station_name":"Duri","time":4,"is_transit":true,"distance":1230,"i_long":106.800832,"line":1},{"i_long":106.788277,"distance":1700,"transit":false,"i_lat":-6.162021,"station_name":"Grogol","is_transit":false,"line":5,"time":3,"station_id":"GRG"},{"i_long":106.771379,"distance":2036,"station_id":"PSG","is_transit":false,"time":2,"transit":false,"i_lat":-6.161433,"station_name":"Pesing","line":5},{"i_long":106.756522,"station_id":"TKO","is_transit":false,"time":2,"distance":1614,"transit":false,"line":5,"station_name":"Taman Kota","i_lat":-6.1587309999999995},{"line":5,"i_lat":-6.159876,"transit":false,"station_name":"Bojongindah","time":2,"i_long":106.737035,"station_id":"BOI","is_transit":false,"distance":2334},{"distance":1152,"transit":false,"line":5,"i_lat":-6.162758,"i_long":106.723064,"is_transit":false,"station_name":"Rawa Buaya","station_id":"RW","time":4},{"transit":false,"i_lat":-6.166068,"line":5,"station_id":"KDS","distance":2504,"time":3,"is_transit":false,"i_long":106.701612,"station_name":"Kalideres"},{"i_lat":-6.169933,"distance":2548,"station_name":"Poris","i_long":106.679458,"line":5,"station_id":"PI","is_transit":false,"transit":false,"time":3},{"i_long":106.665036,"line":5,"station_id":"BPR","station_name":"Batuceper","is_transit":false,"time":3,"distance":1834,"transit":false,"i_lat":-6.171811},{"transit":false,"is_transit":false,"i_long":106.64657,"time":3,"i_lat":-6.17331,"line":5,"station_name":"Tanah Tinggi","distance":2028,"station_id":"THI"},{"transit":false,"station_name":"Tangerang","i_long":106.632761,"i_lat":-6.176583,"line":5,"is_transit":false,"time":3,"station_id":"TNG","distance":1547}],[{"transit":false,"time":0,"line":2,"i_long":106.800016,"station_id":"CLT","station_name":"Cilebut","distance":0,"is_transit":false,"i_lat":-6.530544},{"i_lat":-6.493243,"is_transit":false,"line":2,"distance":4331,"time":5,"station_id":"BJD","i_long":106.792719,"transit":false,"station_name":"Bojonggede"},{"station_id":"CTA","is_transit":false,"transit":false,"distance":5197,"station_name":"Citayam","time":5,"i_lat":-6.448811,"i_long":106.800298,"line":2},{"station_id":"DP","i_lat":-6.405256,"i_long":106.816926,"transit":false,"line":2,"station_name":"Depok","is_transit":false,"time":6,"distance":5084},{"is_transit":false,"line":2,"time":3,"transit":false,"i_lat":-6.391065,"station_id":"DPB","station_name":"Depokbaru","distance":1584,"i_long":106.819451},{"is_transit":false,"station_id":"POC","station_name":"Pondok Cina","time":4,"transit":false,"i_long":106.831114,"line":2,"i_lat":-6.369073,"distance":2727},{"distance":1109,"i_lat":-6.360749,"i_long":106.831474,"station_id":"UI","time":2,"transit":false,"line":2,"station_name":"Univ. Indonesia","is_transit":false},{"distance":2264,"is_transit":false,"station_id":"UP","transit":false,"time":3,"i_lat":-6.339291,"line":2,"station_name":"Univ. Pancasila","i_long":106.834175},{"distance":1029,"i_long":106.832616,"is_transit":false,"station_name":"Lenteng Agung","time":2,"transit":false,"i_lat":-6.330363,"line":2,"station_id":"LNA"},{"transit":false,"distance":2671,"line":2,"is_transit":false,"station_name":"Tanjung Barat","station_id":"TNT","time":3,"i_lat":-6.3080680000000005,"i_long":106.838896},{"i_long":106.843999,"station_name":"Pasar Minggu","transit":false,"is_transit":false,"i_lat":-6.2842400000000005,"distance":2820,"line":2,"time":4,"station_id":"PSM"},{"is_transit":false,"i_long":106.851577,"station_name":"Pasar Minggu Baru","line":2,"transit":false,"time":2,"i_lat":-6.263214,"station_id":"PSMB","distance":2380},{"i_lat":-6.255332,"station_id":"DRN","station_name":"Duren Kalibata","i_long":106.85449,"line":2,"transit":false,"distance":824,"is_transit":false,"time":2},{"station_id":"CW","time":3,"is_transit":false,"transit":false,"station_name":"Cawang","distance":1546,"i_lat":-6.242512,"i_long":106.856607,"line":2},{"i_long":106.857948,"line":2,"station_name":"Tebet","station_id":"TEB","is_transit":false,"transit":false,"time":2,"i_lat":-6.226659,"distance":1230},{"time":4,"distance":2610,"i_long":106.84912,"is_transit":true,"transit":true,"station_name":"Manggarai","i_lat":-6.209883,"station_id":"MRI","line":2},{"i_long":106.858896,"line":1,"station_name":"Matraman","station_id":"MTR","transit":false,"i_lat":-6.212485,"time":2,"is_transit":false,"distance":1275},{"station_id":"JNG","line":1,"station_name":"Jatinegara","distance":1377,"i_lat":-6.215091,"is_transit":true,"time":8,"transit":true,"i_long":106.86807400000001},{"i_lat":-6.209188,"transit":false,"time":2,"station_id":"POK","i_long":106.861737,"distance":1236,"is_transit":false,"station_name":"Pondok Jati","line":11},{"transit":false,"station_name":"Kramat","time":2,"i_lat":-6.193792,"line":11,"distance":1829,"i_long":106.855437,"is_transit":false,"station_id":"KMT"},{"is_transit":false,"line":11,"time":1,"transit":false,"i_lat":-6.185975,"station_id":"GST","i_long":106.850107,"station_name":"Gang Sentiong","distance":973},{"time":8,"station_name":"Pasar Senen","i_lat":-6.174784,"transit":false,"line":11,"distance":1567,"is_transit":false,"i_long":106.84368,"station_id":"PSE"},{"distance":1436,"i_long":106.839204,"station_name":"Kemayoran","is_transit":false,"station_id":"KMO","transit":false,"i_lat":-6.161728,"line":11,"time":4},{"line":11,"distance":1901,"is_transit":false,"i_long":106.836569,"transit":false,"station_name":"Rajawali","station_id":"RJW","time":5,"i_lat":-6.14505},{"station_name":"Kampung Bandan","distance":1444,"i_lat":-6.132549,"i_long":106.826365,"line":4,"station_id":"KPB","transit":true,"time":3,"is_transit":true},{"i_long":106.79867,"station_id":"AK","station_name":"Angke","distance":4102,"is_transit":false,"i_lat":-6.144674,"line":1,"transit":false,"time":9},{"i_lat":-6.155215,"time":4,"station_name":"Duri","line":1,"i_long":106.800832,"is_transit":true,"distance":1230,"station_id":"DU","transit":true},{"station_name":"Grogol","time":3,"station_id":"GRG","transit":false,"i_lat":-6.162021,"distance":1700,"is_transit":false,"i_long":106.788277,"line":5},{"transit":false,"is_transit":false,"station_name":"Pesing","distance":2036,"station_id":"PSG","time":2,"i_long":106.771379,"line":5,"i_lat":-6.161433},{"is_transit":false,"transit":false,"station_name":"Taman Kota","line":5,"time":2,"distance":1614,"i_long":106.756522,"station_id":"TKO","i_lat":-6.1587309999999995},{"line":5,"time":2,"i_lat":-6.159876,"station_id":"BOI","distance":2334,"is_transit":false,"i_long":106.737035,"transit":false,"station_name":"Bojongindah"},{"station_id":"RW","is_transit":false,"station_name":"Rawa Buaya","i_lat":-6.162758,"time":4,"line":5,"i_long":106.723064,"transit":false,"distance":1152},{"distance":2504,"i_lat":-6.166068,"transit":false,"station_id":"KDS","time":3,"line":5,"is_transit":false,"i_long":106.701612,"station_name":"Kalideres"},{"station_name":"Poris","line":5,"i_long":106.679458,"transit":false,"distance":2548,"time":3,"station_id":"PI","i_lat":-6.169933,"is_transit":false},{"i_long":106.665036,"is_transit":false,"i_lat":-6.171811,"line":5,"distance":1834,"transit":false,"station_name":"Batuceper","time":3,"station_id":"BPR"},{"station_id":"THI","line":5,"time":3,"station_name":"Tanah Tinggi","i_lat":-6.17331,"is_transit":false,"transit":false,"i_long":106.64657,"distance":2028},{"transit":false,"station_id":"TNG","is_transit":false,"time":3,"i_long":106.632761,"distance":1547,"i_lat":-6.176583,"line":5,"station_name":"Tangerang"}]]}