{"data":[[{"is_transit":false,"station_name":"Cilebut","distance":0,"i_long":106.800016,"time":0,"i_lat":-6.530544,"station_id":"CLT","line":2,"transit":false},{"station_name":"Bojonggede","i_lat":-6.493243,"line":2,"is_transit":false,"station_id":"BJD","time":5,"distance":4331,"transit":false,"i_long":106.792719},{"i_long":106.800298,"i_lat":-6.448811,"line":2,"distance":5197,"time":5,"transit":false,"station_name":"Citayam","is_transit":false,"station_id":"CTA"},{"station_id":"DP","distance":5084,"transit":false,"time":6,"is_transit":false,"station_name":"Depok","i_lat":-6.405256,"i_long":106.816926,"line":2},{"i_lat":-6.391065,"transit":false,"time":3,"station_name":"Depokbaru","i_long":106.819451,"line":2,"distance":1584,"station_id":"DPB","is_transit":false},{"line":2,"station_name":"Pondok Cina","is_transit":false,"i_lat":-6.369073,"time":4,"station_id":"POC","distance":2727,"transit":false,"i_long":106.831114},{"i_long":106.831474,"line":2,"transit":false,"station_id":"UI","station_name":"Univ. Indonesia","i_lat":-6.360749,"is_transit":false,"time":2,"distance":1109},{"i_long":106.834175,"i_lat":-6.339291,"line":2,"station_id":"UP","distance":2264,"is_transit":false,"time":3,"transit":false,"station_name":"Univ. Pancasila"},{"i_long":106.832616,"line":2,"distance":1029,"is_transit":false,"station_id":"LNA","time":2,"station_name":"Lenteng Agung","i_lat":-6.330363,"transit":false},{"transit":false,"station_name":"Tanjung Barat","line":2,"distance":2671,"i_long":106.838896,"time":3,"station_id":"TNT","i_lat":-6.3080680000000005,"is_transit":false},{"station_id":"PSM","i_long":106.843999,"transit":false,"distance":2820,"line":2,"is_transit":false,"i_lat":-6.2842400000000005,"time":4,"station_name":"Pasar Minggu"},{"time":2,"station_id":"PSMB","station_name":"Pasar Minggu Baru","line":2,"is_transit":false,"i_long":106.851577,"transit":false,"distance":2380,"i_lat":-6.263214},{"transit":false,"line":2,"i_lat":-6.255332,"station_name":"Duren Kalibata","distance":824,"i_long":106.85449,"station_id":"DRN","is_transit":false,"time":2},{"distance":1546,"is_transit":false,"station_id":"CW","time":3,"i_long":106.856607,"transit":false,"station_name":"Cawang","i_lat":-6.242512,"line":2},{"time":2,"station_name":"Tebet","transit":false,"is_transit":false,"i_lat":-6.226659,"line":2,"distance":1230,"i_long":106.857948,"station_id":"TEB"},{"station_name":"Manggarai","is_transit":true,"station_id":"MRI","line":2,"i_lat":-6.209883,"distance":2610,"time":4,"transit":true,"i_long":106.84912},{"is_transit":false,"time":2,"line":1,"transit":false,"station_id":"MTR","distance":1275,"i_lat":-6.212485,"i_long":106.858896,"station_name":"Matraman"},{"time":8,"is_transit":true,"i_long":106.86807400000001,"station_name":"Jatinegara","transit":true,"station_id":"JNG","distance":1377,"i_lat":-6.215091,"line":1},{"station_name":"Pondok Jati","i_long":106.861737,"distance":1236,"line":11,"transit":false,"time":2,"i_lat":-6.209188,"is_transit":false,"station_id":"POK"},{"station_id":"KMT","distance":1829,"transit":false,"station_name":"Kramat","i_long":106.855437,"time":2,"i_lat":-6.193792,"line":11,"is_transit":false}],[{"line":2,"distance":0,"is_transit":false,"station_name":"Cilebut","i_lat":-6.530544,"station_id":"CLT","time":0,"transit":false,"i_long":106.800016},{"is_transit":false,"distance":4331,"station_name":"Bojonggede","time":5,"i_long":106.792719,"station_id":"BJD","line":2,"i_lat":-6.493243,"transit":false},{"line":2,"station_id":"CTA","is_transit":false,"station_name":"Citayam","i_lat":-6.448811,"i_long":106.800298,"transit":false,"time":5,"distance":5197},{"time":6,"distance":5084,"is_transit":false,"i_lat":-6.405256,"i_long":106.816926,"line":2,"transit":false,"station_name":"Depok","station_id":"DP"},{"i_lat":-6.391065,"line":2,"i_long":106.819451,"is_transit":false,"time":3,"distance":1584,"station_id":"DPB","station_name":"Depokbaru","transit":false},{"distance":2727,"is_transit":false,"time":4,"i_lat":-6.369073,"station_name":"Pondok Cina","line":2,"station_id":"POC","transit":false,"i_long":106.831114},{"time":2,"station_name":"Univ. Indonesia","line":2,"is_transit":false,"i_lat":-6.360749,"i_long":106.831474,"distance":1109,"station_id":"UI","transit":false},{"station_id":"UP","i_long":106.834175,"time":3,"transit":false,"is_transit":false,"distance":2264,"station_name":"Univ. Pancasila","i_lat":-6.339291,"line":2},{"distance":1029,"transit":false,"i_lat":-6.330363,"station_name":"Lenteng Agung","time":2,"i_long":106.832616,"line":2,"is_transit":false,"station_id":"LNA"},{"time":3,"station_name":"Tanjung Barat","line":2,"distance":2671,"station_id":"TNT","i_lat":-6.3080680000000005,"transit":false,"is_transit":false,"i_long":106.838896},{"line":2,"station_id":"PSM","i_long":106.843999,"is_transit":false,"time":4,"distance":2820,"transit":false,"station_name":"Pasar Minggu","i_lat":-6.2842400000000005},{"is_transit":false,"time":2,"station_id":"PSMB","transit":false,"distance":2380,"station_name":"Pasar Minggu Baru","line":2,"i_lat":-6.263214,"i_long":106.851577},{"station_id":"DRN","station_name":"Duren Kalibata","transit":false,"i_lat":-6.255332,"i_long":106.85449,"time":2,"is_transit":false,"distance":824,"line":2},{"i_lat":-6.242512,"time":3,"station_name":"Cawang","is_transit":false,"station_id":"CW","distance":1546,"i_long":106.856607,"transit":false,"line":2},{"time":2,"line":2,"i_lat":-6.226659,"distance":1230,"station_name":"Tebet","i_long":106.857948,"is_transit":false,"station_id":"TEB","transit":false},{"distance":2610,"i_long":106.84912,"line":2,"is_transit":true,"time":4,"station_id":"MRI","transit":true,"i_lat":-6.209883,"station_name":"Manggarai"},{"i_lat":-6.202263,"i_long":106.822649,"line":1,"time":4,"is_transit":false,"station_id":"SUD","distance":3186,"transit":false,"station_name":"Sudirman"},{"transit":false,"station_id":"SUDB","distance":280,"i_lat":-6.201433,"i_long":106.819881,"time":1,"is_transit":false,"station_name":"Sudirman Baru","line":1},{"station_name":"Karet","i_lat":-6.20132,"is_transit":false,"transit":false,"i_long":106.816351,"distance":471,"station_id":"KAT","time":1,"line":1},{"time":5,"station_name":"Tanah Abang","i_lat":-6.185545,"i_long":106.811091,"is_transit":false,"station_id":"THB","distance":2029,"transit":false,"line":1},{"distance":3632,"time":8,"station_id":"DU","transit":false,"line":1,"station_name":"Duri","is_transit":false,"i_lat":-6.155215,"i_long":106.800832},{"station_name":"Angke","transit":false,"is_transit":false,"i_long":106.79867,"line":1,"distance":1230,"i_lat":-6.144674,"station_id":"AK","time":4},{"line":4,"distance":4102,"is_transit":true,"i_long":106.826365,"station_name":"Kampung Bandan","time":9,"transit":true,"station_id":"KPB","i_lat":-6.132549},{"station_name":"Rajawali","is_transit":false,"distance":1444,"transit":false,"i_long":106.836569,"time":3,"station_id":"RJW","i_lat":-6.14505,"line":11},{"is_transit":false,"station_id":"KMO","line":11,"distance":1901,"i_long":106.839204,"time":5,"transit":false,"station_name":"Kemayoran","i_lat":-6.161728},{"time":4,"distance":1436,"station_name":"Pasar Senen","line":11,"transit":false,"station_id":"PSE","i_lat":-6.174784,"is_transit":false,"i_long":106.84368},{"i_lat":-6.185975,"i_long":106.850107,"line":11,"distance":1567,"transit":false,"is_transit":false,"time":8,"station_name":"Gang Sentiong","station_id":"GST"},{"is_transit":false,"time":1,"i_long":106.855437,"line":11,"distance":973,"i_lat":-6.193792,"station_id":"KMT","transit":false,"station_name":"Kramat"}],[{"i_lat":-6.530544,"is_transit":false,"time":0,"station_id":"CLT","transit":false,"distance":0,"station_name":"Cilebut","line":2,"i_long":106.800016},{"is_transit":false,"distance":4331,"time":5,"station_name":"Bojonggede","line":2,"transit":false,"station_id":"BJD","i_lat":-6.493243,"i_long":106.792719},{"i_lat":-6.448811,"i_long":106.800298,"line":2,"is_transit":false,"station_id":"CTA","distance":5197,"transit":false,"station_name":"Citayam","time":5},{"transit":false,"is_transit":false,"time":6,"i_lat":-6.405256,"station_id":"DP","distance":5084,"line":2,"i_long":106.816926,"station_name":"Depok"},{"i_lat":-6.391065,"time":3,"station_name":"Depokbaru","i_long":106.819451,"distance":1584,"is_transit":false,"line":2,"station_id":"DPB","transit":false},{"transit":false,"i_lat":-6.369073,"distance":2727,"station_name":"Pondok Cina","time":4,"station_id":"POC","line":2,"i_long":106.831114,"is_transit":false},{"time":2,"transit":false,"i_lat":-6.360749,"station_id":"UI","line":2,"is_transit":false,"station_name":"Univ. Indonesia","i_long":106.831474,"distance":1109},{"station_name":"Univ. Pancasila","transit":false,"distance":2264,"time":3,"i_lat":-6.339291,"i_long":106.834175,"line":2,"station_id":"UP","is_transit":false},{"station_id":"LNA","transit":false,"i_long":106.832616,"is_transit":false,"time":2,"station_name":"Lenteng Agung","line":2,"distance":1029,"i_lat":-6.330363},{"is_transit":false,"distance":2671,"i_long":106.838896,"line":2,"station_name":"Tanjung Barat","time":3,"transit":false,"i_lat":-6.3080680000000005,"station_id":"TNT"},{"time":4,"i_long":106.843999,"station_id":"PSM","transit":false,"is_transit":false,"distance":2820,"station_name":"Pasar Minggu","line":2,"i_lat":-6.2842400000000005},{"station_name":"Pasar Minggu Baru","transit":false,"i_long":106.851577,"line":2,"distance":2380,"is_transit":false,"i_lat":-6.263214,"station_id":"PSMB","time":2},{"i_long":106.85449,"is_transit":false,"transit":false,"time":2,"distance":824,"station_name":"Duren Kalibata","line":2,"station_id":"DRN","i_lat":-6.255332},{"station_name":"Cawang","line":2,"transit":false,"time":3,"i_long":106.856607,"station_id":"CW","is_transit":false,"distance":1546,"i_lat":-6.242512},{"is_transit":false,"transit":false,"time":2,"station_id":"TEB","distance":1230,"i_lat":-6.226659,"i_long":106.857948,"line":2,"station_name":"Tebet"},{"is_transit":false,"i_long":106.84912,"line":2,"transit":false,"station_id":"MRI","time":4,"distance":2610,"station_name":"Manggarai","i_lat":-6.209883},{"station_name":"Cikini","station_id":"CKI","i_long":106.840169,"i_lat":-6.198556,"distance":1590,"transit":false,"is_transit":false,"line":2,"time":4},{"i_lat":-6.186295,"i_long":106.832183,"is_transit":false,"line":2,"time":3,"station_id":"GDD","distance":1750,"transit":false,"station_name":"Gondangdia"},{"distance":2015,"is_transit":false,"transit":false,"station_name":"Juanda","line":2,"i_lat":-6.166716,"i_long":106.828284,"time":4,"station_id":"JUA"},{"distance":1149,"i_long":106.827103,"is_transit":false,"station_name":"Sawah Besar","transit":false,"i_lat":-6.160725,"line":2,"time":2,"station_id":"SW"},{"line":2,"time":2,"is_transit":false,"i_lat":-6.149769,"station_id":"MGB","station_name":"Manggabesar","transit":false,"i_long":106.82482,"distance":906},{"station_name":"Jayakarta","i_long":106.820901,"distance":1080,"transit":false,"line":2,"is_transit":false,"i_lat":-6.141205,"station_id":"JAY","time":2},{"line":2,"time":4,"station_id":"JAKK","i_lat":-6.137569,"distance":1264,"i_long":106.812439,"is_transit":true,"transit":true,"station_name":"Jakarta Kota"},{"is_transit":true,"station_name":"Kampung Bandan","i_long":106.826365,"line":4,"transit":true,"distance":1364,"i_lat":-6.132549,"station_id":"KPB","time":3},{"i_lat":-6.14505,"station_name":"Rajawali","time":3,"is_transit":false,"distance":1444,"transit":false,"line":11,"station_id":"RJW","i_long":106.836569},{"is_transit":false,"distance":1901,"station_id":"KMO","station_name":"Kemayoran","i_long":106.839204,"i_lat":-6.161728,"transit":false,"line":11,"time":5},{"station_name":"Pasar Senen","line":11,"transit":false,"station_id":"PSE","i_long":106.84368,"distance":1436,"i_lat":-6.174784,"time":4,"is_transit":false},{"transit":false,"i_long":106.850107,"distance":1567,"is_transit":false,"station_name":"Gang Sentiong","i_lat":-6.185975,"station_id":"GST","line":11,"time":8},{"transit":false,"i_long":106.855437,"station_name":"Kramat","line":11,"station_id":"KMT","i_lat":-6.193792,"time":1,"distance":973,"is_transit":false}]]}