{"data":[[{"station_name":"Cilebut","is_transit":false,"station_id":"CLT","i_lat":-6.530544,"transit":false,"distance":0,"i_long":106.800016,"time":0,"line":0},{"i_long":106.792719,"i_lat":-6.493243,"station_name":"Bojonggede","distance":4331,"station_id":"BJD","time":5,"line":0,"transit":false,"is_transit":false},{"i_lat":-6.448811,"distance":5197,"transit":false,"is_transit":true,"i_long":106.800298,"line":1,"station_name":"Citayam","station_id":"CTA","time":5},{"line":0,"is_transit":false,"distance":5084,"i_long":106.816926,"transit":false,"station_name":"Depok","time":6,"station_id":"DP","i_lat":-6.405256},{"i_long":106.819451,"line":0,"distance":1584,"station_id":"DPB","time":3,"is_transit":false,"i_lat":-6.391065,"station_name":"Depokbaru","transit":false},{"i_lat":-6.369073,"i_long":106.831114,"distance":2727,"time":4,"line":2,"station_name":"Pondok Cina","transit":false,"is_transit":false,"station_id":"POC"},{"distance":1109,"line":2,"station_id":"UI","i_lat":-6.360749,"transit":false,"station_name":"Univ. Indonesia","time":2,"is_transit":false,"i_long":106.831474},{"is_transit":false,"station_id":"UP","i_lat":-6.339291,"distance":2264,"i_long":106.834175,"time":3,"line":2,"transit":false,"station_name":"Univ. Pancasila"},{"station_name":"Lenteng Agung","i_lat":-6.330363,"i_long":106.832616,"is_transit":false,"line":2,"transit":false,"station_id":"LNA","time":2,"distance":1029},{"time":3,"line":2,"transit":false,"is_transit":false,"station_name":"Tanjung Barat","i_long":106.838896,"distance":2671,"station_id":"TNT","i_lat":-6.3080680000000005},{"station_id":"PSM","time":4,"i_lat":-6.2842400000000005,"i_long":106.843999,"line":2,"station_name":"Pasar Minggu","transit":false,"is_transit":false,"distance":2820},{"i_lat":-6.263214,"line":2,"distance":2380,"station_id":"PSMB","station_name":"Pasar Minggu Baru","time":2,"i_long":106.851577,"is_transit":false,"transit":false},{"i_long":106.85449,"distance":824,"line":0,"i_lat":-6.255332,"transit":false,"is_transit":false,"station_id":"DRN","time":2,"station_name":"Duren Kalibata"},{"is_transit":false,"i_long":106.856607,"station_id":"CW","line":0,"distance":1546,"i_lat":-6.242512,"station_name":"Cawang","transit":false,"time":3},{"station_id":"TEB","station_name":"Tebet","is_transit":false,"i_lat":-6.226659,"i_long":106.857948,"transit":false,"line":2,"time":2,"distance":1230},{"time":4,"station_id":"MRI","i_long":106.84912,"line":0,"station_name":"Manggarai","distance":2610,"transit":true,"is_transit":true,"i_lat":-6.209883},{"i_lat":-6.202263,"i_long":106.822649,"line":1,"station_id":"SUD","transit":false,"time":4,"is_transit":false,"distance":3186,"station_name":"Sudirman"},{"i_lat":-6.201433,"distance":280,"is_transit":false,"station_id":"SUDB","i_long":106.819881,"line":1,"station_name":"Sudirman Baru","transit":false,"time":1},{"transit":false,"i_long":106.816351,"line":1,"distance":471,"i_lat":-6.20132,"time":1,"station_name":"Karet","station_id":"KAT","is_transit":false},{"station_id":"THB","time":5,"line":1,"is_transit":true,"distance":2029,"station_name":"Tanah Abang","i_long":106.811091,"i_lat":-6.185545,"transit":false},{"line":1,"i_lat":-6.155215,"station_name":"Duri","i_long":106.800832,"transit":true,"distance":3632,"station_id":"DU","time":8,"is_transit":true},{"i_lat":-6.162021,"is_transit":false,"i_long":106.788277,"distance":1700,"station_id":"GGL","transit":false,"time":3,"station_name":"Grogol","line":5},{"station_name":"Pesing","station_id":"PSG","i_long":106.771379,"transit":false,"time":2,"i_lat":-6.161433,"is_transit":false,"line":5,"distance":2036},{"line":5,"is_transit":false,"transit":false,"station_id":"TKO","time":2,"distance":1614,"i_long":106.756522,"i_lat":-6.1587309999999995,"station_name":"Taman Kota"},{"line":0,"station_name":"Bojongindah","distance":2334,"station_id":"BOI","is_transit":false,"transit":false,"i_lat":-6.159876,"time":2,"i_long":106.737035},{"i_long":106.723064,"line":5,"is_transit":false,"station_id":"RW","time":4,"distance":1152,"transit":false,"station_name":"Rawa Buaya","i_lat":-6.162758},{"line":5,"i_long":106.701612,"station_name":"Kalideres","time":3,"station_id":"KDS","distance":2504,"transit":false,"is_transit":false,"i_lat":-6.166068},{"station_id":"PI","time":3,"i_long":106.679458,"line":5,"i_lat":-6.169933,"distance":2548,"station_name":"Poris","is_transit":false,"transit":false},{"station_name":"Batuceper","i_long":106.665036,"station_id":"BPR","line":0,"i_lat":-6.171811,"transit":false,"distance":1834,"time":3,"is_transit":false},{"time":3,"distance":2028,"i_long":106.64657,"is_transit":false,"station_name":"Tanah Tinggi","line":5,"station_id":"TTI","i_lat":-6.17331,"transit":false},{"time":3,"line":5,"station_id":"TNG","i_lat":-6.176583,"station_name":"Tangerang","i_long":106.632761,"transit":false,"distance":1547,"is_transit":false}],[{"distance":0,"time":0,"line":0,"transit":false,"station_id":"CLT","is_transit":false,"i_long":106.800016,"station_name":"Cilebut","i_lat":-6.530544},{"station_id":"BJD","line":0,"i_lat":-6.493243,"is_transit":false,"i_long":106.792719,"station_name":"Bojonggede","transit":false,"distance":4331,"time":5},{"i_long":106.800298,"distance":5197,"station_id":"CTA","station_name":"Citayam","transit":false,"time":5,"is_transit":true,"i_lat":-6.448811,"line":1},{"station_name":"Depok","transit":false,"is_transit":false,"distance":5084,"line":0,"time":6,"station_id":"DP","i_lat":-6.405256,"i_long":106.816926},{"distance":1584,"is_transit":false,"station_name":"Depokbaru","transit":false,"i_long":106.819451,"station_id":"DPB","line":0,"time":3,"i_lat":-6.391065},{"i_long":106.831114,"transit":false,"time":4,"station_name":"Pondok Cina","station_id":"POC","distance":2727,"is_transit":false,"line":2,"i_lat":-6.369073},{"i_long":106.831474,"transit":false,"is_transit":false,"distance":1109,"station_name":"Univ. Indonesia","time":2,"line":2,"i_lat":-6.360749,"station_id":"UI"},{"time":3,"is_transit":false,"station_id":"UP","i_lat":-6.339291,"station_name":"Univ. Pancasila","line":2,"i_long":106.834175,"transit":false,"distance":2264},{"line":2,"station_id":"LNA","is_transit":false,"transit":false,"station_name":"Lenteng Agung","distance":1029,"i_lat":-6.330363,"i_long":106.832616,"time":2},{"is_transit":false,"distance":2671,"station_id":"TNT","time":3,"transit":false,"i_long":106.838896,"line":2,"station_name":"Tanjung Barat","i_lat":-6.3080680000000005},{"distance":2820,"i_lat":-6.2842400000000005,"time":4,"transit":false,"station_name":"Pasar Minggu","i_long":106.843999,"station_id":"PSM","is_transit":false,"line":2},{"is_transit":false,"station_id":"PSMB","distance":2380,"i_lat":-6.263214,"line":2,"time":2,"station_name":"Pasar Minggu Baru","transit":false,"i_long":106.851577},{"line":0,"time":2,"is_transit":false,"station_name":"Duren Kalibata","station_id":"DRN","i_lat":-6.255332,"i_long":106.85449,"distance":824,"transit":false},{"is_transit":false,"transit":false,"station_name":"Cawang","time":3,"station_id":"CW","i_lat":-6.242512,"i_long":106.856607,"distance":1546,"line":0},{"station_name":"Tebet","i_lat":-6.226659,"is_transit":false,"time":2,"i_long":106.857948,"station_id":"TEB","transit":false,"distance":1230,"line":2},{"time":4,"is_transit":true,"i_long":106.84912,"transit":true,"distance":2610,"station_id":"MRI","station_name":"Manggarai","line":0,"i_lat":-6.209883},{"time":4,"distance":1590,"i_long":106.840169,"line":0,"station_name":"Cikini","transit":false,"i_lat":-6.198556,"is_transit":false,"station_id":"CKI"},{"time":3,"is_transit":false,"distance":1750,"station_id":"GDD","line":2,"transit":false,"i_lat":-6.186295,"station_name":"Gondangdia","i_long":106.832183},{"station_name":"Juanda","i_long":106.828284,"line":2,"is_transit":false,"transit":false,"time":4,"station_id":"JUA","distance":2015,"i_lat":-6.166716},{"time":2,"distance":1149,"station_id":"SW","transit":false,"i_lat":-6.160725,"line":2,"station_name":"Sawah Besar","i_long":106.827103,"is_transit":false},{"time":2,"line":2,"is_transit":false,"i_lat":-6.149769,"transit":false,"i_long":106.82482,"station_id":"MGB","distance":906,"station_name":"Manggabesar"},{"station_name":"Jayakarta","is_transit":false,"distance":1080,"line":7,"transit":false,"station_id":"JAY","i_lat":-6.141205,"i_long":106.820901,"time":2},{"line":0,"station_id":"JAKK","distance":1264,"i_lat":-6.137569,"i_long":106.812439,"time":4,"transit":true,"station_name":"Jakarta Kota","is_transit":true},{"i_lat":-6.132549,"time":3,"line":0,"station_name":"Kampung Bandan","is_transit":true,"station_id":"KPB","i_long":106.826365,"distance":1364,"transit":false},{"is_transit":false,"line":0,"station_name":"Angke","station_id":"AK","transit":false,"distance":4102,"i_long":106.79867,"time":9,"i_lat":-6.144674},{"i_lat":-6.155215,"is_transit":true,"line":1,"distance":1230,"station_id":"DU","i_long":106.800832,"station_name":"Duri","time":4,"transit":true},{"i_long":106.788277,"i_lat":-6.162021,"station_id":"GGL","is_transit":false,"distance":1700,"line":5,"transit":false,"time":3,"station_name":"Grogol"},{"time":2,"transit":false,"line":5,"distance":2036,"i_lat":-6.161433,"station_id":"PSG","station_name":"Pesing","is_transit":false,"i_long":106.771379},{"i_long":106.756522,"distance":1614,"station_id":"TKO","line":5,"station_name":"Taman Kota","is_transit":false,"time":2,"transit":false,"i_lat":-6.1587309999999995},{"time":2,"i_long":106.737035,"distance":2334,"transit":false,"station_name":"Bojongindah","i_lat":-6.159876,"is_transit":false,"station_id":"BOI","line":0},{"is_transit":false,"station_name":"Rawa Buaya","station_id":"RW","line":5,"distance":1152,"i_lat":-6.162758,"i_long":106.723064,"time":4,"transit":false},{"transit":false,"i_lat":-6.166068,"is_transit":false,"line":5,"distance":2504,"station_id":"KDS","time":3,"station_name":"Kalideres","i_long":106.701612},{"i_lat":-6.169933,"i_long":106.679458,"time":3,"is_transit":false,"line":5,"station_name":"Poris","transit":false,"distance":2548,"station_id":"PI"},{"station_id":"BPR","transit":false,"station_name":"Batuceper","distance":1834,"is_transit":false,"i_lat":-6.171811,"line":0,"time":3,"i_long":106.665036},{"transit":false,"time":3,"i_lat":-6.17331,"distance":2028,"station_name":"Tanah Tinggi","is_transit":false,"i_long":106.64657,"line":5,"station_id":"TTI"},{"station_name":"Tangerang","is_transit":false,"i_lat":-6.176583,"i_long":106.632761,"distance":1547,"line":5,"time":3,"station_id":"TNG","transit":false}],[{"i_lat":-6.530544,"distance":0,"i_long":106.800016,"time":0,"is_transit":false,"transit":false,"station_id":"CLT","station_name":"Cilebut","line":0},{"transit":false,"line":0,"distance":4331,"is_transit":false,"station_id":"BJD","time":5,"station_name":"Bojonggede","i_lat":-6.493243,"i_long":106.792719},{"distance":5197,"i_long":106.800298,"transit":false,"time":5,"line":1,"station_name":"Citayam","station_id":"CTA","is_transit":true,"i_lat":-6.448811},{"i_long":106.816926,"transit":false,"station_id":"DP","station_name":"Depok","is_transit":false,"time":6,"distance":5084,"line":0,"i_lat":-6.405256},{"line":0,"station_name":"Depokbaru","is_transit":false,"distance":1584,"station_id":"DPB","transit":false,"i_long":106.819451,"time":3,"i_lat":-6.391065},{"station_id":"POC","transit":false,"i_long":106.831114,"station_name":"Pondok Cina","time":4,"is_transit":false,"i_lat":-6.369073,"line":2,"distance":2727},{"station_name":"Univ. Indonesia","time":2,"i_long":106.831474,"i_lat":-6.360749,"distance":1109,"is_transit":false,"line":2,"transit":false,"station_id":"UI"},{"is_transit":false,"transit":false,"station_id":"UP","i_long":106.834175,"station_name":"Univ. Pancasila","line":2,"distance":2264,"time":3,"i_lat":-6.339291},{"time":2,"station_name":"Lenteng Agung","transit":false,"is_transit":false,"i_lat":-6.330363,"distance":1029,"i_long":106.832616,"station_id":"LNA","line":2},{"is_transit":false,"distance":2671,"station_id":"TNT","i_long":106.838896,"line":2,"station_name":"Tanjung Barat","transit":false,"i_lat":-6.3080680000000005,"time":3},{"station_name":"Pasar Minggu","time":4,"i_long":106.843999,"line":2,"is_transit":false,"station_id":"PSM","i_lat":-6.2842400000000005,"transit":false,"distance":2820},{"station_id":"PSMB","line":2,"distance":2380,"i_long":106.851577,"is_transit":false,"i_lat":-6.263214,"transit":false,"time":2,"station_name":"Pasar Minggu Baru"},{"station_name":"Duren Kalibata","distance":824,"transit":false,"time":2,"i_lat":-6.255332,"station_id":"DRN","is_transit":false,"i_long":106.85449,"line":0},{"station_id":"CW","time":3,"is_transit":false,"i_lat":-6.242512,"distance":1546,"i_long":106.856607,"station_name":"Cawang","transit":false,"line":0},{"station_name":"Tebet","transit":false,"time":2,"line":2,"station_id":"TEB","i_long":106.857948,"is_transit":false,"i_lat":-6.226659,"distance":1230},{"distance":2610,"station_name":"Manggarai","line":0,"is_transit":true,"time":4,"i_long":106.84912,"station_id":"MRI","transit":true,"i_lat":-6.209883},{"is_transit":false,"i_lat":-6.212485,"distance":1275,"transit":false,"line":1,"station_name":"Matraman","time":2,"station_id":"MTR","i_long":106.858896},{"i_lat":-6.215091,"time":8,"station_name":"Jatinegara","station_id":"JNG","transit":true,"is_transit":true,"distance":1377,"i_long":106.86807400000001,"line":0},{"station_name":"Pondok Jati","time":2,"distance":1236,"i_lat":-6.209188,"i_long":106.861737,"transit":false,"line":11,"is_transit":false,"station_id":"POK"},{"line":11,"time":2,"i_lat":-6.193792,"i_long":106.855437,"distance":1829,"station_name":"Kramat","is_transit":false,"transit":false,"station_id":"KMT"},{"is_transit":false,"distance":973,"station_id":"GST","i_long":106.850107,"station_name":"Gang Sentiong","transit":false,"time":1,"i_lat":-6.185975,"line":11},{"line":11,"station_name":"Pasar Senen","i_long":106.84368,"time":8,"i_lat":-6.174784,"station_id":"PSE","distance":1567,"transit":false,"is_transit":false},{"distance":1436,"station_id":"KMO","station_name":"Kemayoran","transit":false,"time":4,"i_lat":-6.161728,"is_transit":false,"i_long":106.839204,"line":11},{"distance":1901,"station_id":"RJW","station_name":"Rajawali","line":11,"time":5,"i_lat":-6.14505,"is_transit":false,"transit":false,"i_long":106.836569},{"station_name":"Kampung Bandan","i_lat":-6.132549,"is_transit":true,"distance":1444,"transit":true,"line":0,"i_long":106.826365,"time":3,"station_id":"KPB"},{"is_transit":false,"transit":false,"line":0,"distance":4102,"station_id":"AK","station_name":"Angke","time":9,"i_lat":-6.144674,"i_long":106.79867},{"station_name":"Duri","i_long":106.800832,"station_id":"DU","transit":true,"is_transit":true,"i_lat":-6.155215,"distance":1230,"line":1,"time":4},{"time":3,"is_transit":false,"line":5,"station_name":"Grogol","station_id":"GGL","distance":1700,"i_lat":-6.162021,"i_long":106.788277,"transit":false},{"station_name":"Pesing","distance":2036,"station_id":"PSG","i_lat":-6.161433,"is_transit":false,"i_long":106.771379,"transit":false,"line":5,"time":2},{"distance":1614,"transit":false,"is_transit":false,"station_name":"Taman Kota","i_long":106.756522,"time":2,"station_id":"TKO","i_lat":-6.1587309999999995,"line":5},{"i_long":106.737035,"i_lat":-6.159876,"time":2,"distance":2334,"transit":false,"is_transit":false,"line":0,"station_name":"Bojongindah","station_id":"BOI"},{"time":4,"i_long":106.723064,"is_transit":false,"line":5,"i_lat":-6.162758,"station_id":"RW","transit":false,"station_name":"Rawa Buaya","distance":1152},{"is_transit":false,"station_id":"KDS","time":3,"i_lat":-6.166068,"line":5,"station_name":"Kalideres","distance":2504,"i_long":106.701612,"transit":false},{"station_id":"PI","i_long":106.679458,"transit":false,"station_name":"Poris","is_transit":false,"line":5,"time":3,"i_lat":-6.169933,"distance":2548},{"distance":1834,"is_transit":false,"time":3,"station_name":"Batuceper","i_lat":-6.171811,"line":0,"transit":false,"station_id":"BPR","i_long":106.665036},{"line":5,"transit":false,"i_long":106.64657,"distance":2028,"i_lat":-6.17331,"station_id":"TTI","is_transit":false,"station_name":"Tanah Tinggi","time":3},{"i_lat":-6.176583,"time":3,"i_long":106.632761,"station_id":"TNG","is_transit":false,"distance":1547,"station_name":"Tangerang","line":5,"transit":false}]]}