{"data":[[{"time":0,"transit":false,"i_lat":-6.530544,"station_name":"Cilebut","i_long":106.800016,"is_transit":false,"station_id":"CLT","distance":0,"line":2},{"station_id":"BJD","station_name":"Bojonggede","transit":false,"distance":4331,"line":2,"is_transit":false,"i_lat":-6.493243,"i_long":106.792719,"time":5},{"time":5,"line":2,"station_id":"CTA","station_name":"Citayam","is_transit":false,"transit":false,"i_long":106.800298,"i_lat":-6.448811,"distance":5197},{"distance":5084,"station_name":"Depok","transit":false,"is_transit":false,"i_long":106.816926,"line":2,"time":6,"station_id":"DP","i_lat":-6.405256},{"distance":1584,"time":3,"station_id":"DPB","station_name":"Depokbaru","i_lat":-6.391065,"is_transit":false,"i_long":106.819451,"line":2,"transit":false},{"station_id":"POC","distance":2727,"time":4,"i_long":106.831114,"transit":false,"i_lat":-6.369073,"is_transit":false,"station_name":"Pondok Cina","line":2},{"is_transit":false,"time":2,"i_lat":-6.360749,"transit":false,"distance":1109,"i_long":106.831474,"station_name":"Univ. Indonesia","line":2,"station_id":"UI"},{"is_transit":false,"time":3,"station_id":"UP","distance":2264,"i_long":106.834175,"i_lat":-6.339291,"line":2,"transit":false,"station_name":"Univ. Pancasila"},{"is_transit":false,"time":2,"i_lat":-6.330363,"station_id":"LNA","i_long":106.832616,"line":2,"distance":1029,"station_name":"Lenteng Agung","transit":false},{"is_transit":false,"time":3,"station_id":"TNT","i_lat":-6.3080680000000005,"transit":false,"distance":2671,"station_name":"Tanjung Barat","line":2,"i_long":106.838896},{"transit":false,"i_long":106.843999,"is_transit":false,"station_name":"Pasar Minggu","time":4,"i_lat":-6.2842400000000005,"distance":2820,"line":2,"station_id":"PSM"},{"line":2,"distance":2380,"time":2,"transit":false,"is_transit":false,"station_name":"Pasar Minggu Baru","i_lat":-6.263214,"station_id":"PSMB","i_long":106.851577},{"station_id":"DRN","distance":824,"i_lat":-6.255332,"line":2,"is_transit":false,"time":2,"station_name":"Duren Kalibata","i_long":106.85449,"transit":false},{"transit":false,"distance":1546,"is_transit":false,"i_long":106.856607,"i_lat":-6.242512,"time":3,"station_name":"Cawang","station_id":"CW","line":2},{"station_id":"TEB","transit":false,"distance":1230,"station_name":"Tebet","line":2,"time":2,"i_lat":-6.226659,"is_transit":false,"i_long":106.857948},{"station_name":"Manggarai","transit":true,"is_transit":true,"distance":2610,"line":2,"i_lat":-6.209883,"station_id":"MRI","time":4,"i_long":106.84912},{"i_lat":-6.202263,"is_transit":false,"station_name":"Sudirman","transit":false,"i_long":106.822649,"line":1,"distance":3186,"station_id":"SUD","time":4},{"station_id":"SUDB","transit":false,"i_long":106.819881,"time":1,"station_name":"Sudirman Baru","distance":280,"i_lat":-6.201433,"is_transit":false,"line":1},{"i_lat":-6.20132,"line":1,"i_long":106.816351,"transit":false,"is_transit":false,"distance":471,"time":1,"station_name":"Karet","station_id":"KAT"},{"station_name":"Tanah Abang","i_lat":-6.185545,"time":5,"station_id":"THB","distance":2029,"line":1,"is_transit":true,"transit":true,"i_long":106.811091},{"transit":false,"station_name":"Palmerah","time":6,"station_id":"PLM","distance":3191,"i_long":106.79689,"is_transit":false,"i_lat":-6.207404,"line":6},{"station_name":"Kebayoran","is_transit":false,"transit":false,"line":6,"station_id":"KBY","i_lat":-6.237242,"time":7,"distance":3737,"i_long":106.780334},{"transit":false,"time":8,"i_long":106.74273,"station_id":"PDJ","station_name":"Pondokranji","distance":6218,"is_transit":false,"i_lat":-6.276362,"line":6},{"i_lat":-6.288927,"transit":false,"i_long":106.728916,"is_transit":false,"station_id":"JMU","line":6,"distance":2179,"station_name":"Jurangmangu","time":3},{"i_long":106.712277,"is_transit":false,"time":4,"distance":1994,"line":6,"station_name":"Sudimara","transit":false,"i_lat":-6.296963,"station_id":"SDM"},{"line":6,"distance":4566,"transit":false,"is_transit":false,"time":6,"i_long":106.675475,"i_lat":-6.314823,"station_id":"RU","station_name":"Rawa Buntu"},{"distance":2413,"transit":false,"time":4,"is_transit":false,"i_long":106.66566,"station_id":"SRP","i_lat":-6.319871,"line":6,"station_name":"Serpong"},{"station_id":"CSK","station_name":"Cisauk","is_transit":false,"i_lat":-6.32484,"distance":1784,"i_long":106.640411,"line":3,"transit":false,"time":4},{"transit":false,"station_id":"CC","distance":2519,"time":4,"i_lat":-6.329547,"is_transit":false,"i_long":106.617853,"line":3,"station_name":"Cicayur"},{"i_lat":-6.3441410000000005,"line":6,"i_long":106.568863,"time":8,"transit":false,"station_id":"PRP","is_transit":false,"distance":5968,"station_name":"Parung Panjang"},{"is_transit":false,"station_id":"CJT","transit":false,"station_name":"Cilejit","i_lat":-6.354349,"time":9,"i_long":106.508482,"line":3,"distance":7025}],[{"distance":0,"i_lat":-6.530544,"line":2,"station_id":"CLT","transit":false,"is_transit":false,"time":0,"i_long":106.800016,"station_name":"Cilebut"},{"line":2,"transit":false,"i_long":106.792719,"is_transit":false,"i_lat":-6.493243,"station_name":"Bojonggede","station_id":"BJD","time":5,"distance":4331},{"is_transit":false,"station_name":"Citayam","distance":5197,"i_long":106.800298,"time":5,"i_lat":-6.448811,"station_id":"CTA","line":2,"transit":false},{"station_name":"Depok","i_lat":-6.405256,"line":2,"is_transit":false,"station_id":"DP","time":6,"transit":false,"distance":5084,"i_long":106.816926},{"i_long":106.819451,"i_lat":-6.391065,"line":2,"distance":1584,"time":3,"transit":false,"station_name":"Depokbaru","is_transit":false,"station_id":"DPB"},{"station_id":"POC","distance":2727,"transit":false,"time":4,"is_transit":false,"station_name":"Pondok Cina","i_lat":-6.369073,"i_long":106.831114,"line":2},{"i_lat":-6.360749,"transit":false,"time":2,"station_name":"Univ. Indonesia","i_long":106.831474,"line":2,"distance":1109,"station_id":"UI","is_transit":false},{"line":2,"station_name":"Univ. Pancasila","is_transit":false,"i_lat":-6.339291,"time":3,"station_id":"UP","transit":false,"distance":2264,"i_long":106.834175},{"i_long":106.832616,"line":2,"transit":false,"station_id":"LNA","station_name":"Lenteng Agung","i_lat":-6.330363,"is_transit":false,"distance":1029,"time":2},{"i_long":106.838896,"i_lat":-6.3080680000000005,"line":2,"station_id":"TNT","transit":false,"is_transit":false,"distance":2671,"time":3,"station_name":"Tanjung Barat"},{"i_long":106.843999,"line":2,"distance":2820,"station_id":"PSM","is_transit":false,"time":4,"station_name":"Pasar Minggu","i_lat":-6.2842400000000005,"transit":false},{"transit":false,"station_name":"Pasar Minggu Baru","line":2,"distance":2380,"i_long":106.851577,"time":2,"station_id":"PSMB","i_lat":-6.263214,"is_transit":false},{"station_id":"DRN","i_long":106.85449,"transit":false,"distance":824,"line":2,"is_transit":false,"i_lat":-6.255332,"time":2,"station_name":"Duren Kalibata"},{"station_id":"CW","time":3,"station_name":"Cawang","line":2,"is_transit":false,"i_long":106.856607,"transit":false,"distance":1546,"i_lat":-6.242512},{"transit":false,"line":2,"i_lat":-6.226659,"station_name":"Tebet","distance":1230,"i_long":106.857948,"station_id":"TEB","is_transit":false,"time":2},{"distance":2610,"is_transit":false,"station_id":"MRI","time":4,"i_long":106.84912,"transit":false,"station_name":"Manggarai","i_lat":-6.209883,"line":2},{"time":4,"station_name":"Cikini","transit":false,"is_transit":false,"i_lat":-6.198556,"line":2,"distance":1590,"i_long":106.840169,"station_id":"CKI"},{"station_name":"Gondangdia","i_long":106.832183,"is_transit":false,"i_lat":-6.186295,"distance":1750,"station_id":"GDD","line":2,"time":3,"transit":false},{"station_name":"Juanda","is_transit":false,"station_id":"JUA","distance":2015,"i_lat":-6.166716,"i_long":106.828284,"time":4,"line":2,"transit":false},{"time":2,"is_transit":false,"i_long":106.827103,"station_name":"Sawah Besar","transit":false,"station_id":"SW","distance":1149,"i_lat":-6.160725,"line":2},{"station_name":"Manggabesar","i_long":106.82482,"distance":906,"line":2,"transit":false,"time":2,"i_lat":-6.149769,"is_transit":false,"station_id":"MGB"},{"is_transit":false,"distance":1080,"transit":false,"station_name":"Jayakarta","i_long":106.820901,"time":2,"i_lat":-6.141205,"line":2,"station_id":"JAY"},{"line":2,"distance":1264,"is_transit":true,"station_name":"Jakarta Kota","i_lat":-6.137569,"station_id":"JAKK","time":4,"transit":true,"i_long":106.812439},{"is_transit":true,"distance":1364,"station_name":"Kampung Bandan","time":3,"i_long":106.826365,"station_id":"KPB","line":4,"i_lat":-6.132549,"transit":true},{"line":1,"station_id":"AK","is_transit":false,"station_name":"Angke","i_lat":-6.144674,"i_long":106.79867,"transit":false,"time":9,"distance":4102},{"time":4,"distance":1230,"is_transit":false,"i_lat":-6.155215,"i_long":106.800832,"line":1,"transit":false,"station_name":"Duri","station_id":"DU"},{"i_lat":-6.185545,"line":1,"i_long":106.811091,"is_transit":true,"time":8,"distance":3632,"station_id":"THB","station_name":"Tanah Abang","transit":true},{"distance":3191,"is_transit":false,"time":6,"i_lat":-6.207404,"station_name":"Palmerah","line":6,"station_id":"PLM","transit":false,"i_long":106.79689},{"time":7,"station_name":"Kebayoran","line":6,"is_transit":false,"i_lat":-6.237242,"i_long":106.780334,"distance":3737,"station_id":"KBY","transit":false},{"station_id":"PDJ","i_long":106.74273,"time":8,"transit":false,"is_transit":false,"distance":6218,"station_name":"Pondokranji","i_lat":-6.276362,"line":6},{"transit":false,"distance":2179,"i_lat":-6.288927,"station_name":"Jurangmangu","time":3,"i_long":106.728916,"line":6,"station_id":"JMU","is_transit":false},{"time":4,"station_name":"Sudimara","line":6,"distance":1994,"station_id":"SDM","i_lat":-6.296963,"transit":false,"is_transit":false,"i_long":106.712277},{"line":6,"station_id":"RU","i_long":106.675475,"transit":false,"is_transit":false,"distance":4566,"time":6,"station_name":"Rawa Buntu","i_lat":-6.314823},{"line":6,"is_transit":false,"time":4,"transit":false,"i_long":106.66566,"distance":2413,"station_name":"Serpong","station_id":"SRP","i_lat":-6.319871},{"i_lat":-6.32484,"station_name":"Cisauk","station_id":"CSK","line":3,"i_long":106.640411,"transit":false,"is_transit":false,"distance":1784,"time":4},{"time":4,"transit":false,"i_long":106.617853,"line":3,"distance":2519,"station_id":"CC","is_transit":false,"station_name":"Cicayur","i_lat":-6.329547},{"line":6,"transit":false,"station_name":"Parung Panjang","distance":5968,"time":8,"is_transit":false,"station_id":"PRP","i_lat":-6.3441410000000005,"i_long":106.568863},{"line":3,"transit":false,"distance":7025,"station_id":"CJT","station_name":"Cilejit","is_transit":false,"time":9,"i_lat":-6.354349,"i_long":106.508482}],[{"transit":false,"distance":0,"is_transit":false,"time":0,"station_name":"Cilebut","i_lat":-6.530544,"i_long":106.800016,"station_id":"CLT","line":2},{"is_transit":false,"i_long":106.792719,"station_id":"BJD","i_lat":-6.493243,"station_name":"Bojonggede","line":2,"transit":false,"distance":4331,"time":5},{"i_lat":-6.448811,"station_id":"CTA","transit":false,"station_name":"Citayam","distance":5197,"line":2,"is_transit":false,"time":5,"i_long":106.800298},{"station_name":"Depok","line":2,"transit":false,"station_id":"DP","distance":5084,"time":6,"is_transit":false,"i_lat":-6.405256,"i_long":106.816926},{"time":3,"i_lat":-6.391065,"line":2,"is_transit":false,"distance":1584,"station_id":"DPB","transit":false,"station_name":"Depokbaru","i_long":106.819451},{"distance":2727,"station_id":"POC","is_transit":false,"line":2,"time":4,"station_name":"Pondok Cina","i_long":106.831114,"transit":false,"i_lat":-6.369073},{"i_lat":-6.360749,"time":2,"i_long":106.831474,"distance":1109,"line":2,"station_id":"UI","station_name":"Univ. Indonesia","transit":false,"is_transit":false},{"i_long":106.834175,"line":2,"transit":false,"distance":2264,"time":3,"is_transit":false,"i_lat":-6.339291,"station_name":"Univ. Pancasila","station_id":"UP"},{"station_id":"LNA","is_transit":false,"i_lat":-6.330363,"line":2,"distance":1029,"station_name":"Lenteng Agung","i_long":106.832616,"time":2,"transit":false},{"distance":2671,"line":2,"transit":false,"is_transit":false,"i_lat":-6.3080680000000005,"i_long":106.838896,"time":3,"station_id":"TNT","station_name":"Tanjung Barat"},{"station_id":"PSM","i_lat":-6.2842400000000005,"line":2,"time":4,"transit":false,"distance":2820,"station_name":"Pasar Minggu","is_transit":false,"i_long":106.843999},{"station_id":"PSMB","is_transit":false,"station_name":"Pasar Minggu Baru","i_lat":-6.263214,"i_long":106.851577,"line":2,"transit":false,"time":2,"distance":2380},{"transit":false,"line":2,"station_id":"DRN","is_transit":false,"time":2,"distance":824,"i_long":106.85449,"i_lat":-6.255332,"station_name":"Duren Kalibata"},{"station_id":"CW","time":3,"i_lat":-6.242512,"line":2,"distance":1546,"station_name":"Cawang","i_long":106.856607,"transit":false,"is_transit":false},{"is_transit":false,"i_lat":-6.226659,"i_long":106.857948,"station_name":"Tebet","line":2,"distance":1230,"time":2,"transit":false,"station_id":"TEB"},{"line":2,"station_name":"Manggarai","station_id":"MRI","i_lat":-6.209883,"i_long":106.84912,"transit":true,"is_transit":true,"time":4,"distance":2610},{"line":1,"i_lat":-6.212485,"is_transit":false,"distance":1275,"time":2,"station_name":"Matraman","i_long":106.858896,"transit":false,"station_id":"MTR"},{"i_long":106.86807400000001,"line":1,"i_lat":-6.215091,"is_transit":true,"transit":true,"time":8,"distance":1377,"station_name":"Jatinegara","station_id":"JNG"},{"is_transit":false,"transit":false,"station_id":"POK","time":2,"distance":1236,"station_name":"Pondok Jati","i_lat":-6.209188,"line":11,"i_long":106.861737},{"transit":false,"line":11,"distance":1829,"is_transit":false,"i_long":106.855437,"station_id":"KMT","i_lat":-6.193792,"time":2,"station_name":"Kramat"},{"station_id":"GST","i_lat":-6.185975,"transit":false,"is_transit":false,"distance":973,"time":1,"i_long":106.850107,"line":11,"station_name":"Gang Sentiong"},{"station_id":"PSE","line":11,"is_transit":false,"distance":1567,"transit":false,"time":8,"i_lat":-6.174784,"station_name":"Pasar Senen","i_long":106.84368},{"transit":false,"distance":1436,"station_id":"KMO","station_name":"Kemayoran","is_transit":false,"time":4,"i_long":106.839204,"line":11,"i_lat":-6.161728},{"line":11,"station_id":"RJW","transit":false,"i_long":106.836569,"is_transit":false,"time":5,"distance":1901,"i_lat":-6.14505,"station_name":"Rajawali"},{"station_id":"KPB","distance":1444,"time":3,"transit":true,"station_name":"Kampung Bandan","i_lat":-6.132549,"line":4,"i_long":106.826365,"is_transit":true},{"station_id":"AK","i_lat":-6.144674,"line":1,"is_transit":false,"station_name":"Angke","time":9,"i_long":106.79867,"transit":false,"distance":4102},{"time":4,"line":1,"transit":false,"station_name":"Duri","station_id":"DU","is_transit":false,"i_lat":-6.155215,"distance":1230,"i_long":106.800832},{"i_lat":-6.185545,"transit":true,"station_id":"THB","is_transit":true,"i_long":106.811091,"station_name":"Tanah Abang","distance":3632,"time":8,"line":1},{"is_transit":false,"station_name":"Palmerah","time":6,"i_long":106.79689,"distance":3191,"line":6,"i_lat":-6.207404,"transit":false,"station_id":"PLM"},{"i_lat":-6.237242,"station_name":"Kebayoran","time":7,"is_transit":false,"station_id":"KBY","i_long":106.780334,"line":6,"distance":3737,"transit":false},{"is_transit":false,"time":8,"line":6,"station_name":"Pondokranji","station_id":"PDJ","transit":false,"distance":6218,"i_lat":-6.276362,"i_long":106.74273},{"station_name":"Jurangmangu","i_lat":-6.288927,"line":6,"i_long":106.728916,"distance":2179,"station_id":"JMU","transit":false,"is_transit":false,"time":3},{"time":4,"station_id":"SDM","transit":false,"line":6,"distance":1994,"i_long":106.712277,"station_name":"Sudimara","is_transit":false,"i_lat":-6.296963},{"distance":4566,"station_id":"RU","time":6,"station_name":"Rawa Buntu","is_transit":false,"i_lat":-6.314823,"i_long":106.675475,"line":6,"transit":false},{"i_lat":-6.319871,"i_long":106.66566,"station_name":"Serpong","line":6,"station_id":"SRP","transit":false,"is_transit":false,"time":4,"distance":2413},{"station_id":"CSK","i_lat":-6.32484,"station_name":"Cisauk","i_long":106.640411,"time":4,"is_transit":false,"line":3,"transit":false,"distance":1784},{"is_transit":false,"station_id":"CC","i_long":106.617853,"line":3,"distance":2519,"i_lat":-6.329547,"transit":false,"time":4,"station_name":"Cicayur"},{"time":8,"distance":5968,"i_long":106.568863,"station_name":"Parung Panjang","transit":false,"i_lat":-6.3441410000000005,"station_id":"PRP","is_transit":false,"line":6},{"i_lat":-6.354349,"line":3,"transit":false,"distance":7025,"is_transit":false,"station_name":"Cilejit","i_long":106.508482,"time":9,"station_id":"CJT"}]]}