{"data":[[{"transit":false,"time":0,"i_lat":-6.530544,"station_name":"Cilebut","distance":0,"line":2,"station_id":"CLT","i_long":106.800016,"is_transit":false},{"station_name":"Bojonggede","time":5,"i_lat":-6.493243,"line":2,"transit":false,"i_long":106.792719,"is_transit":false,"station_id":"BJD","distance":4331},{"is_transit":false,"time":5,"i_long":106.800298,"line":2,"station_id":"CTA","station_name":"Citayam","i_lat":-6.448811,"distance":5197,"transit":false},{"station_id":"DP","is_transit":false,"station_name":"Depok","time":6,"line":2,"distance":5084,"i_lat":-6.405256,"transit":false,"i_long":106.816926},{"i_lat":-6.391065,"i_long":106.819451,"is_transit":false,"time":3,"line":2,"station_name":"Depokbaru","transit":false,"distance":1584,"station_id":"DPB"},{"distance":2727,"i_long":106.831114,"i_lat":-6.369073,"station_id":"POC","station_name":"Pondok Cina","line":2,"is_transit":false,"time":4,"transit":false},{"distance":1109,"i_long":106.831474,"station_name":"Univ. Indonesia","time":2,"is_transit":false,"transit":false,"station_id":"UI","i_lat":-6.360749,"line":2},{"i_long":106.834175,"transit":false,"i_lat":-6.339291,"station_name":"Univ. Pancasila","station_id":"UP","line":2,"is_transit":false,"time":3,"distance":2264},{"distance":1029,"i_lat":-6.330363,"i_long":106.832616,"line":2,"is_transit":false,"station_id":"LNA","station_name":"Lenteng Agung","transit":false,"time":2},{"station_id":"TNT","transit":false,"station_name":"Tanjung Barat","i_long":106.838896,"line":2,"distance":2671,"is_transit":false,"i_lat":-6.3080680000000005,"time":3},{"distance":2820,"transit":false,"is_transit":false,"i_long":106.843999,"station_name":"Pasar Minggu","line":2,"station_id":"PSM","time":4,"i_lat":-6.2842400000000005},{"time":2,"station_name":"Pasar Minggu Baru","i_long":106.851577,"distance":2380,"i_lat":-6.263214,"station_id":"PSMB","line":2,"is_transit":false,"transit":false},{"line":2,"i_lat":-6.255332,"distance":824,"station_name":"Duren Kalibata","is_transit":false,"time":2,"transit":false,"station_id":"DRN","i_long":106.85449},{"transit":false,"distance":1546,"station_name":"Cawang","i_long":106.856607,"time":3,"i_lat":-6.242512,"is_transit":false,"station_id":"CW","line":2},{"time":2,"is_transit":false,"station_id":"TEB","i_long":106.857948,"distance":1230,"transit":false,"i_lat":-6.226659,"line":2,"station_name":"Tebet"},{"distance":2610,"i_long":106.84912,"line":2,"transit":true,"time":4,"station_name":"Manggarai","i_lat":-6.209883,"station_id":"MRI","is_transit":true},{"station_id":"SUD","i_lat":-6.202263,"time":4,"transit":false,"i_long":106.822649,"is_transit":false,"line":1,"distance":3186,"station_name":"Sudirman"},{"station_id":"SUDB","i_lat":-6.201433,"line":1,"transit":false,"distance":280,"time":1,"station_name":"Sudirman Baru","is_transit":false,"i_long":106.819881},{"distance":471,"i_lat":-6.20132,"i_long":106.816351,"transit":false,"time":1,"station_id":"KAT","station_name":"Karet","is_transit":false,"line":1},{"i_lat":-6.185545,"transit":true,"time":5,"is_transit":true,"i_long":106.811091,"line":1,"station_id":"THB","distance":2029,"station_name":"Tanah Abang"},{"distance":3191,"time":6,"i_lat":-6.207404,"is_transit":false,"line":6,"i_long":106.79689,"transit":false,"station_name":"Palmerah","station_id":"PLM"},{"is_transit":false,"i_lat":-6.237242,"i_long":106.780334,"time":7,"station_id":"KBY","line":6,"station_name":"Kebayoran","distance":3737,"transit":false},{"time":8,"is_transit":false,"i_long":106.74273,"line":6,"station_id":"PDJ","distance":6218,"station_name":"Pondokranji","i_lat":-6.276362,"transit":false},{"distance":2179,"is_transit":false,"i_lat":-6.288927,"line":6,"i_long":106.728916,"station_name":"Jurangmangu","transit":false,"time":3,"station_id":"JMU"},{"distance":1994,"transit":false,"i_lat":-6.296963,"station_id":"SDM","i_long":106.712277,"is_transit":false,"line":6,"time":4,"station_name":"Sudimara"}],[{"line":2,"distance":0,"station_name":"Cilebut","is_transit":false,"time":0,"transit":false,"i_lat":-6.530544,"i_long":106.800016,"station_id":"CLT"},{"is_transit":false,"distance":4331,"line":2,"time":5,"i_long":106.792719,"transit":false,"station_name":"Bojonggede","i_lat":-6.493243,"station_id":"BJD"},{"time":5,"i_long":106.800298,"transit":false,"is_transit":false,"i_lat":-6.448811,"distance":5197,"line":2,"station_name":"Citayam","station_id":"CTA"},{"distance":5084,"transit":false,"i_lat":-6.405256,"station_name":"Depok","is_transit":false,"line":2,"i_long":106.816926,"time":6,"station_id":"DP"},{"line":2,"distance":1584,"transit":false,"station_id":"DPB","i_long":106.819451,"time":3,"station_name":"Depokbaru","is_transit":false,"i_lat":-6.391065},{"station_name":"Pondok Cina","is_transit":false,"line":2,"transit":false,"time":4,"i_lat":-6.369073,"station_id":"POC","i_long":106.831114,"distance":2727},{"i_long":106.831474,"is_transit":false,"station_name":"Univ. Indonesia","transit":false,"i_lat":-6.360749,"line":2,"time":2,"station_id":"UI","distance":1109},{"time":3,"line":2,"station_name":"Univ. Pancasila","station_id":"UP","transit":false,"i_long":106.834175,"distance":2264,"i_lat":-6.339291,"is_transit":false},{"distance":1029,"i_lat":-6.330363,"is_transit":false,"transit":false,"i_long":106.832616,"line":2,"station_name":"Lenteng Agung","time":2,"station_id":"LNA"},{"line":2,"is_transit":false,"time":3,"station_name":"Tanjung Barat","station_id":"TNT","i_lat":-6.3080680000000005,"transit":false,"distance":2671,"i_long":106.838896},{"station_name":"Pasar Minggu","distance":2820,"station_id":"PSM","i_lat":-6.2842400000000005,"i_long":106.843999,"line":2,"is_transit":false,"transit":false,"time":4},{"station_name":"Pasar Minggu Baru","is_transit":false,"transit":false,"i_long":106.851577,"line":2,"i_lat":-6.263214,"station_id":"PSMB","distance":2380,"time":2},{"i_lat":-6.255332,"is_transit":false,"i_long":106.85449,"line":2,"station_name":"Duren Kalibata","time":2,"distance":824,"transit":false,"station_id":"DRN"},{"station_name":"Cawang","distance":1546,"i_long":106.856607,"is_transit":false,"i_lat":-6.242512,"station_id":"CW","transit":false,"line":2,"time":3},{"station_id":"TEB","time":2,"line":2,"transit":false,"i_lat":-6.226659,"i_long":106.857948,"is_transit":false,"distance":1230,"station_name":"Tebet"},{"time":4,"station_name":"Manggarai","station_id":"MRI","transit":false,"i_long":106.84912,"is_transit":false,"distance":2610,"line":2,"i_lat":-6.209883},{"station_id":"CKI","is_transit":false,"line":2,"i_long":106.840169,"distance":1590,"time":4,"i_lat":-6.198556,"station_name":"Cikini","transit":false},{"time":3,"transit":false,"i_lat":-6.186295,"station_id":"GDD","station_name":"Gondangdia","is_transit":false,"i_long":106.832183,"line":2,"distance":1750},{"i_long":106.828284,"i_lat":-6.166716,"station_name":"Juanda","line":2,"distance":2015,"is_transit":false,"transit":false,"time":4,"station_id":"JUA"},{"is_transit":false,"i_lat":-6.160725,"transit":false,"time":2,"line":2,"distance":1149,"station_id":"SW","station_name":"Sawah Besar","i_long":106.827103},{"distance":906,"station_id":"MGB","station_name":"Manggabesar","i_long":106.82482,"transit":false,"i_lat":-6.149769,"line":2,"time":2,"is_transit":false},{"i_long":106.820901,"station_name":"Jayakarta","line":2,"transit":false,"time":2,"distance":1080,"is_transit":false,"station_id":"JAY","i_lat":-6.141205},{"i_long":106.812439,"transit":true,"is_transit":true,"time":4,"line":2,"station_name":"Jakarta Kota","station_id":"JAKK","distance":1264,"i_lat":-6.137569},{"i_lat":-6.132549,"station_name":"Kampung Bandan","transit":true,"station_id":"KPB","line":4,"time":3,"i_long":106.826365,"is_transit":true,"distance":1364},{"station_id":"AK","transit":false,"distance":4102,"time":9,"i_long":106.79867,"line":1,"station_name":"Angke","i_lat":-6.144674,"is_transit":false},{"is_transit":false,"distance":1230,"i_lat":-6.155215,"i_long":106.800832,"transit":false,"station_name":"Duri","time":4,"station_id":"DU","line":1},{"is_transit":true,"station_name":"Tanah Abang","station_id":"THB","i_long":106.811091,"time":8,"transit":true,"distance":3632,"i_lat":-6.185545,"line":1},{"i_long":106.79689,"station_name":"Palmerah","transit":false,"i_lat":-6.207404,"is_transit":false,"line":6,"distance":3191,"station_id":"PLM","time":6},{"is_transit":false,"i_long":106.780334,"line":6,"station_id":"KBY","station_name":"Kebayoran","time":7,"distance":3737,"i_lat":-6.237242,"transit":false},{"distance":6218,"station_id":"PDJ","station_name":"Pondokranji","is_transit":false,"line":6,"time":8,"transit":false,"i_long":106.74273,"i_lat":-6.276362},{"i_long":106.728916,"station_id":"JMU","distance":2179,"station_name":"Jurangmangu","i_lat":-6.288927,"time":3,"line":6,"transit":false,"is_transit":false},{"distance":1994,"time":4,"transit":false,"i_lat":-6.296963,"line":6,"station_id":"SDM","is_transit":false,"i_long":106.712277,"station_name":"Sudimara"}],[{"time":0,"distance":0,"station_name":"Cilebut","is_transit":false,"line":2,"station_id":"CLT","i_lat":-6.530544,"i_long":106.800016,"transit":false},{"is_transit":false,"transit":false,"i_lat":-6.493243,"i_long":106.792719,"distance":4331,"station_name":"Bojonggede","station_id":"BJD","time":5,"line":2},{"transit":false,"distance":5197,"is_transit":false,"i_long":106.800298,"station_name":"Citayam","station_id":"CTA","i_lat":-6.448811,"time":5,"line":2},{"station_name":"Depok","is_transit":false,"i_long":106.816926,"time":6,"line":2,"station_id":"DP","distance":5084,"i_lat":-6.405256,"transit":false},{"station_id":"DPB","i_long":106.819451,"distance":1584,"transit":false,"line":2,"i_lat":-6.391065,"time":3,"station_name":"Depokbaru","is_transit":false},{"i_long":106.831114,"is_transit":false,"i_lat":-6.369073,"transit":false,"line":2,"station_name":"Pondok Cina","distance":2727,"time":4,"station_id":"POC"},{"i_long":106.831474,"time":2,"transit":false,"distance":1109,"line":2,"station_id":"UI","i_lat":-6.360749,"station_name":"Univ. Indonesia","is_transit":false},{"transit":false,"line":2,"station_id":"UP","time":3,"station_name":"Univ. Pancasila","i_lat":-6.339291,"i_long":106.834175,"distance":2264,"is_transit":false},{"transit":false,"is_transit":false,"line":2,"station_name":"Lenteng Agung","time":2,"distance":1029,"station_id":"LNA","i_long":106.832616,"i_lat":-6.330363},{"station_id":"TNT","i_long":106.838896,"line":2,"is_transit":false,"i_lat":-6.3080680000000005,"station_name":"Tanjung Barat","distance":2671,"time":3,"transit":false},{"transit":false,"distance":2820,"time":4,"is_transit":false,"i_lat":-6.2842400000000005,"station_name":"Pasar Minggu","line":2,"station_id":"PSM","i_long":106.843999},{"transit":false,"station_id":"PSMB","i_lat":-6.263214,"distance":2380,"line":2,"time":2,"station_name":"Pasar Minggu Baru","is_transit":false,"i_long":106.851577},{"i_long":106.85449,"station_name":"Duren Kalibata","i_lat":-6.255332,"line":2,"transit":false,"station_id":"DRN","distance":824,"is_transit":false,"time":2},{"transit":false,"station_id":"CW","i_long":106.856607,"station_name":"Cawang","distance":1546,"line":2,"time":3,"is_transit":false,"i_lat":-6.242512},{"line":2,"time":2,"distance":1230,"transit":false,"station_name":"Tebet","is_transit":false,"i_lat":-6.226659,"i_long":106.857948,"station_id":"TEB"},{"distance":2610,"station_name":"Manggarai","line":2,"time":4,"is_transit":true,"transit":true,"station_id":"MRI","i_long":106.84912,"i_lat":-6.209883},{"is_transit":false,"distance":1275,"i_lat":-6.212485,"transit":false,"station_name":"Matraman","i_long":106.858896,"time":2,"line":1,"station_id":"MTR"},{"i_long":106.86807400000001,"transit":true,"distance":1377,"station_id":"JNG","time":8,"station_name":"Jatinegara","line":1,"i_lat":-6.215091,"is_transit":true},{"transit":false,"is_transit":false,"station_name":"Pondok Jati","distance":1236,"time":2,"station_id":"POK","i_long":106.861737,"i_lat":-6.209188,"line":11},{"station_name":"Kramat","i_lat":-6.193792,"line":11,"i_long":106.855437,"time":2,"distance":1829,"is_transit":false,"transit":false,"station_id":"KMT"},{"distance":973,"station_name":"Gang Sentiong","transit":false,"i_long":106.850107,"i_lat":-6.185975,"station_id":"GST","time":1,"line":11,"is_transit":false},{"line":11,"i_lat":-6.174784,"transit":false,"station_name":"Pasar Senen","time":8,"is_transit":false,"i_long":106.84368,"station_id":"PSE","distance":1567},{"i_lat":-6.161728,"time":4,"i_long":106.839204,"transit":false,"distance":1436,"station_name":"Kemayoran","station_id":"KMO","is_transit":false,"line":11},{"i_lat":-6.14505,"transit":false,"is_transit":false,"station_name":"Rajawali","i_long":106.836569,"line":11,"station_id":"RJW","distance":1901,"time":5},{"i_long":106.826365,"station_id":"KPB","line":4,"is_transit":true,"time":3,"distance":1444,"transit":true,"station_name":"Kampung Bandan","i_lat":-6.132549},{"station_id":"AK","line":1,"i_lat":-6.144674,"station_name":"Angke","i_long":106.79867,"distance":4102,"transit":false,"time":9,"is_transit":false},{"i_long":106.800832,"station_name":"Duri","line":1,"i_lat":-6.155215,"time":4,"transit":false,"station_id":"DU","is_transit":false,"distance":1230},{"station_id":"THB","station_name":"Tanah Abang","i_long":106.811091,"distance":3632,"i_lat":-6.185545,"time":8,"line":1,"transit":true,"is_transit":true},{"distance":3191,"time":6,"transit":false,"station_id":"PLM","i_long":106.79689,"is_transit":false,"line":6,"station_name":"Palmerah","i_lat":-6.207404},{"time":7,"station_name":"Kebayoran","is_transit":false,"i_lat":-6.237242,"i_long":106.780334,"distance":3737,"transit":false,"line":6,"station_id":"KBY"},{"i_lat":-6.276362,"transit":false,"station_name":"Pondokranji","i_long":106.74273,"station_id":"PDJ","line":6,"time":8,"distance":6218,"is_transit":false},{"distance":2179,"i_long":106.728916,"is_transit":false,"station_name":"Jurangmangu","time":3,"line":6,"i_lat":-6.288927,"station_id":"JMU","transit":false},{"i_long":106.712277,"transit":false,"is_transit":false,"i_lat":-6.296963,"station_name":"Sudimara","distance":1994,"line":6,"station_id":"SDM","time":4}]]}