{"data":[[{"i_long":106.800016,"transit":false,"is_transit":false,"time":0,"i_lat":-6.530544,"station_id":"CLT","distance":0,"line":2,"station_name":"Cilebut"},{"i_long":106.792719,"station_id":"BJD","line":2,"distance":4331,"i_lat":-6.493243,"time":5,"is_transit":false,"transit":false,"station_name":"Bojonggede"},{"station_id":"CTA","distance":5197,"i_lat":-6.448811,"station_name":"Citayam","is_transit":false,"time":5,"line":2,"i_long":106.800298,"transit":false},{"transit":false,"distance":5084,"i_lat":-6.405256,"station_name":"Depok","time":6,"i_long":106.816926,"line":2,"station_id":"DP","is_transit":false},{"distance":1584,"line":2,"station_name":"Depokbaru","transit":false,"is_transit":false,"station_id":"DPB","i_long":106.819451,"i_lat":-6.391065,"time":3},{"station_id":"POC","i_long":106.831114,"is_transit":false,"distance":2727,"line":2,"i_lat":-6.369073,"transit":false,"station_name":"Pondok Cina","time":4},{"transit":false,"station_name":"Univ. Indonesia","distance":1109,"i_lat":-6.360749,"i_long":106.831474,"line":2,"station_id":"UI","time":2,"is_transit":false},{"i_lat":-6.339291,"distance":2264,"transit":false,"time":3,"line":2,"is_transit":false,"station_name":"Univ. Pancasila","station_id":"UP","i_long":106.834175},{"station_id":"LNA","line":2,"transit":false,"station_name":"Lenteng Agung","distance":1029,"time":2,"i_lat":-6.330363,"i_long":106.832616,"is_transit":false},{"i_lat":-6.3080680000000005,"station_name":"Tanjung Barat","time":3,"i_long":106.838896,"line":2,"is_transit":false,"transit":false,"station_id":"TNT","distance":2671},{"i_long":106.843999,"time":4,"line":2,"station_name":"Pasar Minggu","station_id":"PSM","distance":2820,"transit":false,"is_transit":false,"i_lat":-6.2842400000000005},{"distance":2380,"transit":false,"i_long":106.851577,"is_transit":false,"line":2,"station_name":"Pasar Minggu Baru","time":2,"i_lat":-6.263214,"station_id":"PSMB"},{"station_name":"Duren Kalibata","station_id":"DRN","i_lat":-6.255332,"distance":824,"line":2,"time":2,"is_transit":false,"transit":false,"i_long":106.85449},{"line":2,"is_transit":false,"station_id":"CW","i_lat":-6.242512,"station_name":"Cawang","time":3,"transit":false,"distance":1546,"i_long":106.856607},{"station_id":"TEB","i_long":106.857948,"transit":false,"is_transit":false,"time":2,"distance":1230,"i_lat":-6.226659,"station_name":"Tebet","line":2},{"station_id":"MRI","i_long":106.84912,"line":2,"transit":true,"is_transit":true,"time":4,"distance":2610,"i_lat":-6.209883,"station_name":"Manggarai"},{"station_name":"Sudirman","transit":false,"time":4,"is_transit":false,"distance":3186,"station_id":"SUD","i_lat":-6.202263,"line":1,"i_long":106.822649},{"distance":280,"line":1,"is_transit":false,"transit":false,"time":1,"station_id":"SUDB","station_name":"Sudirman Baru","i_long":106.819881,"i_lat":-6.201433},{"station_id":"KAT","station_name":"Karet","is_transit":false,"distance":471,"transit":false,"i_lat":-6.20132,"i_long":106.816351,"line":1,"time":1},{"station_name":"Tanah Abang","i_long":106.811091,"distance":2029,"transit":true,"station_id":"THB","i_lat":-6.185545,"line":1,"time":5,"is_transit":true},{"station_id":"PLM","distance":3191,"station_name":"Palmerah","is_transit":false,"time":6,"i_lat":-6.207404,"line":6,"i_long":106.79689,"transit":false},{"i_lat":-6.237242,"distance":3737,"i_long":106.780334,"is_transit":false,"time":7,"transit":false,"station_id":"KBY","station_name":"Kebayoran","line":6}],[{"distance":0,"station_id":"CLT","time":0,"i_lat":-6.530544,"is_transit":false,"line":2,"i_long":106.800016,"station_name":"Cilebut","transit":false},{"station_id":"BJD","line":2,"transit":false,"i_long":106.792719,"station_name":"Bojonggede","distance":4331,"time":5,"i_lat":-6.493243,"is_transit":false},{"transit":false,"station_id":"CTA","i_long":106.800298,"line":2,"distance":5197,"station_name":"Citayam","i_lat":-6.448811,"is_transit":false,"time":5},{"i_lat":-6.405256,"station_id":"DP","transit":false,"station_name":"Depok","i_long":106.816926,"line":2,"is_transit":false,"time":6,"distance":5084},{"distance":1584,"station_id":"DPB","time":3,"transit":false,"i_lat":-6.391065,"line":2,"is_transit":false,"i_long":106.819451,"station_name":"Depokbaru"},{"transit":false,"is_transit":false,"time":4,"line":2,"distance":2727,"station_name":"Pondok Cina","i_long":106.831114,"i_lat":-6.369073,"station_id":"POC"},{"station_id":"UI","transit":false,"is_transit":false,"line":2,"i_lat":-6.360749,"time":2,"i_long":106.831474,"station_name":"Univ. Indonesia","distance":1109},{"distance":2264,"time":3,"i_lat":-6.339291,"line":2,"i_long":106.834175,"station_name":"Univ. Pancasila","station_id":"UP","transit":false,"is_transit":false},{"transit":false,"station_name":"Lenteng Agung","i_long":106.832616,"distance":1029,"line":2,"time":2,"i_lat":-6.330363,"station_id":"LNA","is_transit":false},{"transit":false,"line":2,"station_name":"Tanjung Barat","distance":2671,"station_id":"TNT","i_long":106.838896,"is_transit":false,"time":3,"i_lat":-6.3080680000000005},{"distance":2820,"time":4,"transit":false,"i_lat":-6.2842400000000005,"station_name":"Pasar Minggu","station_id":"PSM","is_transit":false,"i_long":106.843999,"line":2},{"i_long":106.851577,"station_name":"Pasar Minggu Baru","i_lat":-6.263214,"line":2,"distance":2380,"station_id":"PSMB","transit":false,"is_transit":false,"time":2},{"i_long":106.85449,"station_id":"DRN","is_transit":false,"time":2,"distance":824,"line":2,"station_name":"Duren Kalibata","transit":false,"i_lat":-6.255332},{"i_long":106.856607,"time":3,"station_id":"CW","distance":1546,"transit":false,"line":2,"i_lat":-6.242512,"is_transit":false,"station_name":"Cawang"},{"line":2,"transit":false,"i_lat":-6.226659,"station_id":"TEB","distance":1230,"station_name":"Tebet","i_long":106.857948,"time":2,"is_transit":false},{"distance":2610,"line":2,"i_long":106.84912,"i_lat":-6.209883,"time":4,"station_name":"Manggarai","station_id":"MRI","is_transit":false,"transit":false},{"i_lat":-6.198556,"is_transit":false,"i_long":106.840169,"line":2,"station_id":"CKI","station_name":"Cikini","time":4,"transit":false,"distance":1590},{"station_id":"GDD","is_transit":false,"station_name":"Gondangdia","i_long":106.832183,"distance":1750,"i_lat":-6.186295,"line":2,"time":3,"transit":false},{"transit":false,"distance":2015,"i_lat":-6.166716,"line":2,"station_id":"JUA","station_name":"Juanda","time":4,"i_long":106.828284,"is_transit":false},{"distance":1149,"transit":false,"station_id":"SW","is_transit":false,"i_lat":-6.160725,"i_long":106.827103,"line":2,"time":2,"station_name":"Sawah Besar"},{"transit":false,"i_long":106.82482,"is_transit":false,"i_lat":-6.149769,"line":2,"distance":906,"time":2,"station_name":"Manggabesar","station_id":"MGB"},{"line":2,"station_name":"Jayakarta","transit":false,"i_lat":-6.141205,"station_id":"JAY","time":2,"i_long":106.820901,"distance":1080,"is_transit":false},{"station_id":"JAKK","transit":true,"distance":1264,"i_long":106.812439,"is_transit":true,"time":4,"station_name":"Jakarta Kota","i_lat":-6.137569,"line":2},{"station_id":"KPB","is_transit":true,"line":4,"transit":true,"time":3,"i_lat":-6.132549,"distance":1364,"station_name":"Kampung Bandan","i_long":106.826365},{"i_long":106.79867,"distance":4102,"transit":false,"i_lat":-6.144674,"is_transit":false,"time":9,"station_name":"Angke","line":1,"station_id":"AK"},{"is_transit":false,"time":4,"i_long":106.800832,"i_lat":-6.155215,"line":1,"transit":false,"distance":1230,"station_name":"Duri","station_id":"DU"},{"i_long":106.811091,"line":1,"transit":true,"station_id":"THB","i_lat":-6.185545,"time":8,"is_transit":true,"station_name":"Tanah Abang","distance":3632},{"is_transit":false,"line":6,"station_name":"Palmerah","station_id":"PLM","distance":3191,"i_lat":-6.207404,"i_long":106.79689,"transit":false,"time":6},{"line":6,"transit":false,"i_lat":-6.237242,"station_id":"KBY","is_transit":false,"station_name":"Kebayoran","i_long":106.780334,"time":7,"distance":3737}],[{"transit":false,"station_name":"Cilebut","station_id":"CLT","time":0,"distance":0,"is_transit":false,"line":2,"i_lat":-6.530544,"i_long":106.800016},{"i_long":106.792719,"station_id":"BJD","distance":4331,"is_transit":false,"i_lat":-6.493243,"station_name":"Bojonggede","transit":false,"time":5,"line":2},{"i_long":106.800298,"line":2,"station_name":"Citayam","distance":5197,"is_transit":false,"time":5,"i_lat":-6.448811,"station_id":"CTA","transit":false},{"time":6,"distance":5084,"i_long":106.816926,"i_lat":-6.405256,"station_name":"Depok","line":2,"transit":false,"is_transit":false,"station_id":"DP"},{"line":2,"time":3,"station_id":"DPB","i_lat":-6.391065,"station_name":"Depokbaru","is_transit":false,"distance":1584,"i_long":106.819451,"transit":false},{"distance":2727,"i_long":106.831114,"line":2,"station_id":"POC","i_lat":-6.369073,"transit":false,"station_name":"Pondok Cina","is_transit":false,"time":4},{"time":2,"distance":1109,"is_transit":false,"i_long":106.831474,"station_name":"Univ. Indonesia","line":2,"transit":false,"station_id":"UI","i_lat":-6.360749},{"i_long":106.834175,"station_name":"Univ. Pancasila","distance":2264,"i_lat":-6.339291,"is_transit":false,"line":2,"station_id":"UP","transit":false,"time":3},{"i_lat":-6.330363,"is_transit":false,"time":2,"i_long":106.832616,"distance":1029,"line":2,"transit":false,"station_id":"LNA","station_name":"Lenteng Agung"},{"line":2,"is_transit":false,"time":3,"distance":2671,"i_lat":-6.3080680000000005,"i_long":106.838896,"station_name":"Tanjung Barat","transit":false,"station_id":"TNT"},{"line":2,"station_name":"Pasar Minggu","transit":false,"is_transit":false,"distance":2820,"time":4,"i_lat":-6.2842400000000005,"i_long":106.843999,"station_id":"PSM"},{"distance":2380,"i_lat":-6.263214,"transit":false,"time":2,"line":2,"is_transit":false,"station_id":"PSMB","i_long":106.851577,"station_name":"Pasar Minggu Baru"},{"i_lat":-6.255332,"station_name":"Duren Kalibata","time":2,"transit":false,"is_transit":false,"station_id":"DRN","distance":824,"i_long":106.85449,"line":2},{"time":3,"i_lat":-6.242512,"line":2,"is_transit":false,"distance":1546,"station_name":"Cawang","i_long":106.856607,"station_id":"CW","transit":false},{"time":2,"i_lat":-6.226659,"transit":false,"is_transit":false,"distance":1230,"station_id":"TEB","line":2,"i_long":106.857948,"station_name":"Tebet"},{"line":2,"is_transit":true,"i_long":106.84912,"station_id":"MRI","transit":true,"station_name":"Manggarai","time":4,"i_lat":-6.209883,"distance":2610},{"station_id":"MTR","i_lat":-6.212485,"i_long":106.858896,"time":2,"transit":false,"line":1,"is_transit":false,"distance":1275,"station_name":"Matraman"},{"line":1,"i_long":106.86807400000001,"station_id":"JNG","time":8,"station_name":"Jatinegara","i_lat":-6.215091,"is_transit":true,"transit":true,"distance":1377},{"i_lat":-6.209188,"station_name":"Pondok Jati","station_id":"POK","distance":1236,"i_long":106.861737,"time":2,"is_transit":false,"transit":false,"line":11},{"i_long":106.855437,"station_name":"Kramat","station_id":"KMT","time":2,"is_transit":false,"transit":false,"distance":1829,"line":11,"i_lat":-6.193792},{"line":11,"i_long":106.850107,"i_lat":-6.185975,"transit":false,"distance":973,"station_name":"Gang Sentiong","station_id":"GST","is_transit":false,"time":1},{"is_transit":false,"transit":false,"time":8,"i_long":106.84368,"line":11,"station_id":"PSE","i_lat":-6.174784,"station_name":"Pasar Senen","distance":1567},{"station_name":"Kemayoran","distance":1436,"station_id":"KMO","time":4,"i_lat":-6.161728,"i_long":106.839204,"line":11,"is_transit":false,"transit":false},{"line":11,"transit":false,"station_id":"RJW","is_transit":false,"distance":1901,"time":5,"station_name":"Rajawali","i_lat":-6.14505,"i_long":106.836569},{"i_long":106.826365,"station_name":"Kampung Bandan","distance":1444,"i_lat":-6.132549,"line":4,"station_id":"KPB","is_transit":true,"transit":true,"time":3},{"i_lat":-6.144674,"station_name":"Angke","line":1,"station_id":"AK","transit":false,"is_transit":false,"time":9,"i_long":106.79867,"distance":4102},{"is_transit":false,"station_name":"Duri","station_id":"DU","distance":1230,"i_long":106.800832,"line":1,"transit":false,"time":4,"i_lat":-6.155215},{"i_lat":-6.185545,"is_transit":true,"line":1,"transit":true,"station_name":"Tanah Abang","station_id":"THB","distance":3632,"i_long":106.811091,"time":8},{"station_id":"PLM","is_transit":false,"station_name":"Palmerah","transit":false,"time":6,"line":6,"i_lat":-6.207404,"distance":3191,"i_long":106.79689},{"station_id":"KBY","transit":false,"line":6,"time":7,"i_lat":-6.237242,"is_transit":false,"i_long":106.780334,"station_name":"Kebayoran","distance":3737}]]}