{"data":[[{"transit":false,"time":0,"line":2,"i_lat":-6.530544,"i_long":106.800016,"station_name":"Cilebut","station_id":"CLT","is_transit":false,"distance":0},{"transit":false,"is_transit":false,"distance":4331,"station_id":"BJD","line":2,"station_name":"Bojonggede","time":5,"i_lat":-6.493243,"i_long":106.792719},{"time":5,"i_lat":-6.448811,"is_transit":false,"line":2,"transit":false,"station_name":"Citayam","distance":5197,"station_id":"CTA","i_long":106.800298},{"transit":false,"is_transit":false,"time":6,"station_id":"DP","distance":5084,"i_long":106.816926,"line":2,"station_name":"Depok","i_lat":-6.405256},{"station_name":"Depokbaru","distance":1584,"is_transit":false,"i_lat":-6.391065,"time":3,"line":2,"station_id":"DPB","transit":false,"i_long":106.819451},{"station_name":"Pondok Cina","station_id":"POC","transit":false,"distance":2727,"i_lat":-6.369073,"time":4,"is_transit":false,"line":2,"i_long":106.831114},{"distance":1109,"time":2,"i_long":106.831474,"is_transit":false,"line":2,"station_id":"UI","i_lat":-6.360749,"transit":false,"station_name":"Univ. Indonesia"},{"i_lat":-6.339291,"line":2,"transit":false,"i_long":106.834175,"station_name":"Univ. Pancasila","is_transit":false,"station_id":"UP","distance":2264,"time":3},{"line":2,"is_transit":false,"i_lat":-6.330363,"distance":1029,"station_id":"LNA","time":2,"transit":false,"i_long":106.832616,"station_name":"Lenteng Agung"},{"transit":false,"line":2,"i_long":106.838896,"time":3,"distance":2671,"station_id":"TNT","station_name":"Tanjung Barat","is_transit":false,"i_lat":-6.3080680000000005},{"line":2,"distance":2820,"i_long":106.843999,"station_name":"Pasar Minggu","is_transit":false,"time":4,"transit":false,"station_id":"PSM","i_lat":-6.2842400000000005},{"is_transit":false,"station_id":"PSMB","i_long":106.851577,"station_name":"Pasar Minggu Baru","time":2,"distance":2380,"line":2,"transit":false,"i_lat":-6.263214},{"is_transit":false,"station_name":"Duren Kalibata","i_long":106.85449,"time":2,"transit":false,"distance":824,"i_lat":-6.255332,"station_id":"DRN","line":2},{"i_lat":-6.242512,"station_name":"Cawang","station_id":"CW","time":3,"is_transit":false,"transit":false,"i_long":106.856607,"distance":1546,"line":2},{"i_long":106.857948,"is_transit":false,"station_id":"TEB","distance":1230,"line":2,"station_name":"Tebet","transit":false,"time":2,"i_lat":-6.226659},{"station_id":"MRI","i_long":106.84912,"line":2,"distance":2610,"transit":true,"is_transit":true,"station_name":"Manggarai","time":4,"i_lat":-6.209883},{"i_lat":-6.202263,"station_name":"Sudirman","is_transit":false,"time":4,"distance":3186,"line":1,"station_id":"SUD","i_long":106.822649,"transit":false},{"i_lat":-6.201433,"distance":280,"time":1,"station_name":"Sudirman Baru","transit":false,"line":1,"station_id":"SUDB","is_transit":false,"i_long":106.819881},{"distance":471,"is_transit":false,"line":1,"transit":false,"time":1,"station_id":"KAT","i_lat":-6.20132,"station_name":"Karet","i_long":106.816351},{"station_name":"Tanah Abang","is_transit":false,"distance":2029,"time":5,"i_lat":-6.185545,"i_long":106.811091,"line":1,"station_id":"THB","transit":false},{"i_long":106.800832,"line":1,"time":8,"transit":true,"station_name":"Duri","station_id":"DU","is_transit":true,"i_lat":-6.155215,"distance":3632},{"is_transit":false,"time":3,"i_lat":-6.162021,"station_name":"Grogol","station_id":"GGL","distance":1700,"line":5,"i_long":106.788277,"transit":false},{"line":5,"distance":2036,"station_id":"PSG","time":2,"i_lat":-6.161433,"transit":false,"is_transit":false,"i_long":106.771379,"station_name":"Pesing"},{"i_lat":-6.1587309999999995,"time":2,"station_name":"Taman Kota","transit":false,"i_long":106.756522,"line":5,"station_id":"TKO","is_transit":false,"distance":1614},{"station_name":"Bojongindah","is_transit":false,"time":2,"transit":false,"i_lat":-6.159876,"i_long":106.737035,"station_id":"BOI","line":5,"distance":2334},{"station_name":"Rawa Buaya","is_transit":false,"time":4,"station_id":"RW","transit":false,"i_lat":-6.162758,"i_long":106.723064,"line":5,"distance":1152},{"transit":false,"station_id":"KDS","time":3,"distance":2504,"i_lat":-6.166068,"line":5,"station_name":"Kalideres","is_transit":false,"i_long":106.701612},{"i_long":106.679458,"station_id":"PI","station_name":"Poris","line":5,"is_transit":false,"time":3,"transit":false,"distance":2548,"i_lat":-6.169933},{"line":5,"transit":false,"i_long":106.665036,"station_id":"BPR","station_name":"Batuceper","is_transit":false,"time":3,"i_lat":-6.171811,"distance":1834},{"i_long":106.64657,"distance":2028,"station_id":"TTI","is_transit":false,"station_name":"Tanah Tinggi","time":3,"transit":false,"i_lat":-6.17331,"line":5},{"station_name":"Tangerang","is_transit":false,"i_long":106.632761,"time":3,"line":5,"transit":false,"i_lat":-6.176583,"station_id":"TNG","distance":1547}],[{"line":2,"time":0,"distance":0,"i_lat":-6.530544,"i_long":106.800016,"station_name":"Cilebut","is_transit":false,"transit":false,"station_id":"CLT"},{"station_name":"Bojonggede","time":5,"line":2,"i_lat":-6.493243,"station_id":"BJD","is_transit":false,"i_long":106.792719,"distance":4331,"transit":false},{"time":5,"distance":5197,"station_name":"Citayam","station_id":"CTA","line":2,"is_transit":false,"transit":false,"i_long":106.800298,"i_lat":-6.448811},{"is_transit":false,"transit":false,"time":6,"station_name":"Depok","distance":5084,"i_lat":-6.405256,"line":2,"i_long":106.816926,"station_id":"DP"},{"transit":false,"i_lat":-6.391065,"station_id":"DPB","i_long":106.819451,"line":2,"station_name":"Depokbaru","time":3,"distance":1584,"is_transit":false},{"i_long":106.831114,"distance":2727,"line":2,"is_transit":false,"i_lat":-6.369073,"station_id":"POC","transit":false,"time":4,"station_name":"Pondok Cina"},{"i_lat":-6.360749,"line":2,"station_name":"Univ. Indonesia","i_long":106.831474,"is_transit":false,"time":2,"station_id":"UI","distance":1109,"transit":false},{"is_transit":false,"transit":false,"distance":2264,"line":2,"i_lat":-6.339291,"i_long":106.834175,"time":3,"station_name":"Univ. Pancasila","station_id":"UP"},{"transit":false,"is_transit":false,"station_name":"Lenteng Agung","distance":1029,"line":2,"i_long":106.832616,"station_id":"LNA","time":2,"i_lat":-6.330363},{"transit":false,"distance":2671,"is_transit":false,"time":3,"i_long":106.838896,"station_name":"Tanjung Barat","i_lat":-6.3080680000000005,"station_id":"TNT","line":2},{"line":2,"station_id":"PSM","i_lat":-6.2842400000000005,"i_long":106.843999,"station_name":"Pasar Minggu","transit":false,"is_transit":false,"time":4,"distance":2820},{"line":2,"time":2,"station_name":"Pasar Minggu Baru","is_transit":false,"transit":false,"station_id":"PSMB","i_lat":-6.263214,"i_long":106.851577,"distance":2380},{"time":2,"i_long":106.85449,"station_id":"DRN","line":2,"distance":824,"station_name":"Duren Kalibata","i_lat":-6.255332,"is_transit":false,"transit":false},{"station_name":"Cawang","station_id":"CW","i_long":106.856607,"line":2,"transit":false,"time":3,"distance":1546,"i_lat":-6.242512,"is_transit":false},{"time":2,"station_id":"TEB","is_transit":false,"station_name":"Tebet","transit":false,"i_long":106.857948,"line":2,"i_lat":-6.226659,"distance":1230},{"station_id":"MRI","line":2,"transit":false,"station_name":"Manggarai","time":4,"is_transit":false,"distance":2610,"i_lat":-6.209883,"i_long":106.84912},{"i_long":106.840169,"station_name":"Cikini","station_id":"CKI","i_lat":-6.198556,"is_transit":false,"distance":1590,"line":2,"time":4,"transit":false},{"station_name":"Gondangdia","station_id":"GDD","distance":1750,"transit":false,"i_long":106.832183,"is_transit":false,"time":3,"i_lat":-6.186295,"line":2},{"transit":false,"is_transit":false,"i_long":106.828284,"station_name":"Juanda","station_id":"JUA","i_lat":-6.166716,"time":4,"line":2,"distance":2015},{"i_lat":-6.160725,"time":2,"is_transit":false,"transit":false,"station_name":"Sawah Besar","station_id":"SW","distance":1149,"i_long":106.827103,"line":2},{"line":2,"station_name":"Manggabesar","distance":906,"transit":false,"is_transit":false,"station_id":"MGB","time":2,"i_long":106.82482,"i_lat":-6.149769},{"i_long":106.820901,"station_id":"JAY","time":2,"transit":false,"line":2,"distance":1080,"is_transit":false,"i_lat":-6.141205,"station_name":"Jayakarta"},{"line":2,"station_name":"Jakarta Kota","time":4,"transit":true,"distance":1264,"station_id":"JAKK","i_lat":-6.137569,"i_long":106.812439,"is_transit":true},{"i_lat":-6.132549,"distance":1364,"line":4,"station_name":"Kampung Bandan","station_id":"KPB","is_transit":true,"transit":true,"time":3,"i_long":106.826365},{"is_transit":false,"i_long":106.79867,"station_id":"AK","transit":false,"distance":4102,"i_lat":-6.144674,"time":9,"station_name":"Angke","line":1},{"transit":true,"station_id":"DU","is_transit":true,"i_lat":-6.155215,"line":1,"distance":1230,"station_name":"Duri","time":4,"i_long":106.800832},{"line":5,"transit":false,"station_name":"Grogol","distance":1700,"i_lat":-6.162021,"is_transit":false,"time":3,"i_long":106.788277,"station_id":"GGL"},{"transit":false,"distance":2036,"time":2,"station_id":"PSG","station_name":"Pesing","i_lat":-6.161433,"line":5,"is_transit":false,"i_long":106.771379},{"line":5,"i_long":106.756522,"station_id":"TKO","distance":1614,"transit":false,"station_name":"Taman Kota","i_lat":-6.1587309999999995,"is_transit":false,"time":2},{"station_name":"Bojongindah","is_transit":false,"i_lat":-6.159876,"station_id":"BOI","distance":2334,"transit":false,"i_long":106.737035,"line":5,"time":2},{"distance":1152,"station_name":"Rawa Buaya","is_transit":false,"time":4,"i_long":106.723064,"line":5,"transit":false,"station_id":"RW","i_lat":-6.162758},{"distance":2504,"i_long":106.701612,"is_transit":false,"station_id":"KDS","time":3,"transit":false,"i_lat":-6.166068,"station_name":"Kalideres","line":5},{"i_long":106.679458,"line":5,"time":3,"distance":2548,"transit":false,"i_lat":-6.169933,"is_transit":false,"station_name":"Poris","station_id":"PI"},{"i_long":106.665036,"station_name":"Batuceper","station_id":"BPR","is_transit":false,"time":3,"distance":1834,"i_lat":-6.171811,"line":5,"transit":false},{"is_transit":false,"i_long":106.64657,"station_name":"Tanah Tinggi","time":3,"distance":2028,"station_id":"TTI","transit":false,"line":5,"i_lat":-6.17331},{"station_name":"Tangerang","time":3,"i_lat":-6.176583,"station_id":"TNG","is_transit":false,"distance":1547,"transit":false,"i_long":106.632761,"line":5}],[{"station_name":"Cilebut","time":0,"station_id":"CLT","is_transit":false,"i_long":106.800016,"transit":false,"i_lat":-6.530544,"line":2,"distance":0},{"is_transit":false,"i_long":106.792719,"line":2,"station_id":"BJD","i_lat":-6.493243,"transit":false,"distance":4331,"station_name":"Bojonggede","time":5},{"i_long":106.800298,"i_lat":-6.448811,"station_id":"CTA","is_transit":false,"transit":false,"distance":5197,"line":2,"station_name":"Citayam","time":5},{"i_long":106.816926,"transit":false,"station_id":"DP","distance":5084,"time":6,"station_name":"Depok","is_transit":false,"line":2,"i_lat":-6.405256},{"is_transit":false,"i_lat":-6.391065,"i_long":106.819451,"station_name":"Depokbaru","transit":false,"station_id":"DPB","line":2,"time":3,"distance":1584},{"station_name":"Pondok Cina","i_long":106.831114,"station_id":"POC","line":2,"distance":2727,"is_transit":false,"time":4,"transit":false,"i_lat":-6.369073},{"i_lat":-6.360749,"i_long":106.831474,"is_transit":false,"transit":false,"line":2,"station_name":"Univ. Indonesia","station_id":"UI","distance":1109,"time":2},{"is_transit":false,"i_lat":-6.339291,"i_long":106.834175,"station_id":"UP","distance":2264,"line":2,"transit":false,"time":3,"station_name":"Univ. Pancasila"},{"line":2,"station_id":"LNA","time":2,"i_lat":-6.330363,"station_name":"Lenteng Agung","is_transit":false,"i_long":106.832616,"transit":false,"distance":1029},{"i_lat":-6.3080680000000005,"distance":2671,"time":3,"line":2,"station_id":"TNT","is_transit":false,"i_long":106.838896,"station_name":"Tanjung Barat","transit":false},{"time":4,"station_name":"Pasar Minggu","is_transit":false,"line":2,"transit":false,"station_id":"PSM","i_lat":-6.2842400000000005,"distance":2820,"i_long":106.843999},{"i_lat":-6.263214,"station_name":"Pasar Minggu Baru","i_long":106.851577,"line":2,"time":2,"is_transit":false,"station_id":"PSMB","transit":false,"distance":2380},{"transit":false,"station_id":"DRN","station_name":"Duren Kalibata","is_transit":false,"distance":824,"line":2,"i_long":106.85449,"i_lat":-6.255332,"time":2},{"station_name":"Cawang","i_lat":-6.242512,"time":3,"line":2,"station_id":"CW","i_long":106.856607,"transit":false,"distance":1546,"is_transit":false},{"is_transit":false,"line":2,"i_lat":-6.226659,"time":2,"i_long":106.857948,"station_id":"TEB","transit":false,"station_name":"Tebet","distance":1230},{"station_name":"Manggarai","station_id":"MRI","distance":2610,"i_long":106.84912,"is_transit":true,"time":4,"line":2,"transit":true,"i_lat":-6.209883},{"line":1,"station_id":"MTR","i_lat":-6.212485,"i_long":106.858896,"time":2,"distance":1275,"station_name":"Matraman","is_transit":false,"transit":false},{"is_transit":true,"i_long":106.86807400000001,"line":1,"station_id":"JNG","transit":true,"distance":1377,"i_lat":-6.215091,"time":8,"station_name":"Jatinegara"},{"station_name":"Pondok Jati","is_transit":false,"transit":false,"i_long":106.861737,"time":2,"line":11,"i_lat":-6.209188,"distance":1236,"station_id":"POK"},{"station_id":"KMT","transit":false,"distance":1829,"i_long":106.855437,"time":2,"station_name":"Kramat","line":11,"is_transit":false,"i_lat":-6.193792},{"station_name":"Gang Sentiong","is_transit":false,"distance":973,"i_lat":-6.185975,"time":1,"line":11,"transit":false,"station_id":"GST","i_long":106.850107},{"station_id":"PSE","station_name":"Pasar Senen","i_lat":-6.174784,"line":11,"transit":false,"time":8,"i_long":106.84368,"is_transit":false,"distance":1567},{"time":4,"i_long":106.839204,"distance":1436,"line":11,"is_transit":false,"i_lat":-6.161728,"station_name":"Kemayoran","transit":false,"station_id":"KMO"},{"station_id":"RJW","transit":false,"is_transit":false,"station_name":"Rajawali","i_lat":-6.14505,"time":5,"line":11,"i_long":106.836569,"distance":1901},{"i_lat":-6.132549,"line":4,"time":3,"distance":1444,"station_id":"KPB","i_long":106.826365,"is_transit":true,"transit":true,"station_name":"Kampung Bandan"},{"is_transit":false,"i_lat":-6.144674,"transit":false,"line":1,"station_id":"AK","time":9,"station_name":"Angke","distance":4102,"i_long":106.79867},{"transit":true,"is_transit":true,"distance":1230,"i_lat":-6.155215,"i_long":106.800832,"station_name":"Duri","line":1,"station_id":"DU","time":4},{"i_lat":-6.162021,"distance":1700,"transit":false,"i_long":106.788277,"time":3,"station_name":"Grogol","is_transit":false,"station_id":"GGL","line":5},{"i_long":106.771379,"is_transit":false,"transit":false,"station_id":"PSG","line":5,"distance":2036,"station_name":"Pesing","time":2,"i_lat":-6.161433},{"station_id":"TKO","line":5,"i_long":106.756522,"i_lat":-6.1587309999999995,"distance":1614,"transit":false,"is_transit":false,"station_name":"Taman Kota","time":2},{"i_long":106.737035,"station_name":"Bojongindah","time":2,"transit":false,"distance":2334,"i_lat":-6.159876,"line":5,"is_transit":false,"station_id":"BOI"},{"station_name":"Rawa Buaya","distance":1152,"i_long":106.723064,"time":4,"i_lat":-6.162758,"line":5,"transit":false,"station_id":"RW","is_transit":false},{"time":3,"distance":2504,"station_name":"Kalideres","transit":false,"i_lat":-6.166068,"line":5,"station_id":"KDS","is_transit":false,"i_long":106.701612},{"line":5,"time":3,"i_long":106.679458,"station_name":"Poris","transit":false,"distance":2548,"i_lat":-6.169933,"station_id":"PI","is_transit":false},{"station_id":"BPR","time":3,"line":5,"station_name":"Batuceper","transit":false,"distance":1834,"is_transit":false,"i_lat":-6.171811,"i_long":106.665036},{"is_transit":false,"transit":false,"i_lat":-6.17331,"distance":2028,"station_name":"Tanah Tinggi","time":3,"i_long":106.64657,"station_id":"TTI","line":5},{"distance":1547,"time":3,"i_long":106.632761,"i_lat":-6.176583,"transit":false,"station_name":"Tangerang","station_id":"TNG","is_transit":false,"line":5}]]}