{"data":[[{"i_lat":-6.530544,"time":0,"distance":0,"line":2,"station_id":"CLT","is_transit":false,"station_name":"Cilebut","transit":false,"i_long":106.800016},{"time":5,"i_long":106.792719,"line":2,"i_lat":-6.493243,"station_name":"Bojonggede","distance":4331,"is_transit":false,"transit":false,"station_id":"BJD"},{"transit":false,"time":5,"station_name":"Citayam","station_id":"CTA","is_transit":false,"i_long":106.800298,"i_lat":-6.448811,"distance":5197,"line":2},{"station_name":"Depok","line":2,"is_transit":false,"i_lat":-6.405256,"distance":5084,"station_id":"DP","i_long":106.816926,"time":6,"transit":false},{"distance":1584,"i_long":106.819451,"time":3,"transit":false,"is_transit":false,"i_lat":-6.391065,"line":2,"station_name":"Depokbaru","station_id":"DPB"},{"distance":2727,"line":2,"transit":false,"station_id":"POC","station_name":"Pondok Cina","time":4,"is_transit":false,"i_lat":-6.369073,"i_long":106.831114},{"time":2,"i_lat":-6.360749,"station_id":"UI","station_name":"Univ. Indonesia","line":2,"distance":1109,"is_transit":false,"i_long":106.831474,"transit":false},{"station_id":"UP","i_lat":-6.339291,"transit":false,"distance":2264,"i_long":106.834175,"line":2,"is_transit":false,"station_name":"Univ. Pancasila","time":3},{"station_name":"Lenteng Agung","transit":false,"time":2,"i_lat":-6.330363,"line":2,"is_transit":false,"distance":1029,"station_id":"LNA","i_long":106.832616},{"station_name":"Tanjung Barat","distance":2671,"i_long":106.838896,"line":2,"time":3,"station_id":"TNT","transit":false,"i_lat":-6.3080680000000005,"is_transit":false},{"is_transit":false,"distance":2820,"time":4,"station_id":"PSM","i_lat":-6.2842400000000005,"i_long":106.843999,"station_name":"Pasar Minggu","transit":false,"line":2},{"transit":false,"station_id":"PSMB","is_transit":false,"i_lat":-6.263214,"time":2,"i_long":106.851577,"line":2,"station_name":"Pasar Minggu Baru","distance":2380},{"distance":824,"i_lat":-6.255332,"station_name":"Duren Kalibata","station_id":"DRN","is_transit":false,"transit":false,"time":2,"i_long":106.85449,"line":2},{"time":3,"line":2,"station_id":"CW","i_long":106.856607,"distance":1546,"i_lat":-6.242512,"transit":false,"is_transit":false,"station_name":"Cawang"},{"i_lat":-6.226659,"time":2,"station_id":"TEB","distance":1230,"transit":false,"line":2,"is_transit":false,"i_long":106.857948,"station_name":"Tebet"},{"i_lat":-6.209883,"i_long":106.84912,"station_name":"Manggarai","is_transit":true,"time":4,"line":2,"distance":2610,"station_id":"MRI","transit":true},{"distance":3186,"station_id":"SUD","is_transit":false,"i_long":106.822649,"line":1,"station_name":"Sudirman","time":4,"i_lat":-6.202263,"transit":false},{"is_transit":false,"station_name":"Sudirman Baru","transit":false,"i_long":106.819881,"line":1,"i_lat":-6.201433,"distance":280,"time":1,"station_id":"SUDB"},{"transit":false,"station_name":"Karet","distance":471,"station_id":"KAT","time":1,"is_transit":false,"i_lat":-6.20132,"i_long":106.816351,"line":1},{"i_long":106.811091,"station_id":"THB","station_name":"Tanah Abang","i_lat":-6.185545,"is_transit":false,"transit":false,"time":5,"line":1,"distance":2029},{"time":8,"station_id":"DU","is_transit":false,"transit":false,"distance":3632,"i_lat":-6.155215,"i_long":106.800832,"station_name":"Duri","line":1},{"i_long":106.79867,"is_transit":false,"station_id":"AK","station_name":"Angke","transit":false,"line":1,"time":4,"distance":1230,"i_lat":-6.144674}],[{"station_name":"Cilebut","station_id":"CLT","line":2,"time":0,"distance":0,"transit":false,"is_transit":false,"i_lat":-6.530544,"i_long":106.800016},{"station_id":"BJD","station_name":"Bojonggede","transit":false,"time":5,"i_lat":-6.493243,"i_long":106.792719,"line":2,"is_transit":false,"distance":4331},{"i_lat":-6.448811,"station_name":"Citayam","time":5,"distance":5197,"transit":false,"i_long":106.800298,"station_id":"CTA","line":2,"is_transit":false},{"distance":5084,"transit":false,"station_id":"DP","station_name":"Depok","time":6,"line":2,"i_long":106.816926,"i_lat":-6.405256,"is_transit":false},{"is_transit":false,"line":2,"transit":false,"station_name":"Depokbaru","time":3,"station_id":"DPB","distance":1584,"i_lat":-6.391065,"i_long":106.819451},{"i_long":106.831114,"station_id":"POC","transit":false,"line":2,"station_name":"Pondok Cina","distance":2727,"i_lat":-6.369073,"time":4,"is_transit":false},{"i_lat":-6.360749,"i_long":106.831474,"line":2,"station_id":"UI","station_name":"Univ. Indonesia","time":2,"transit":false,"distance":1109,"is_transit":false},{"i_long":106.834175,"is_transit":false,"i_lat":-6.339291,"transit":false,"distance":2264,"station_name":"Univ. Pancasila","time":3,"line":2,"station_id":"UP"},{"station_id":"LNA","is_transit":false,"line":2,"station_name":"Lenteng Agung","transit":false,"i_long":106.832616,"distance":1029,"time":2,"i_lat":-6.330363},{"transit":false,"i_long":106.838896,"is_transit":false,"i_lat":-6.3080680000000005,"line":2,"station_name":"Tanjung Barat","station_id":"TNT","time":3,"distance":2671},{"station_id":"PSM","distance":2820,"i_lat":-6.2842400000000005,"line":2,"is_transit":false,"time":4,"transit":false,"i_long":106.843999,"station_name":"Pasar Minggu"},{"station_name":"Pasar Minggu Baru","line":2,"transit":false,"i_lat":-6.263214,"station_id":"PSMB","distance":2380,"time":2,"is_transit":false,"i_long":106.851577},{"time":2,"transit":false,"distance":824,"is_transit":false,"station_name":"Duren Kalibata","i_lat":-6.255332,"line":2,"i_long":106.85449,"station_id":"DRN"},{"station_id":"CW","is_transit":false,"station_name":"Cawang","distance":1546,"time":3,"i_lat":-6.242512,"line":2,"i_long":106.856607,"transit":false},{"distance":1230,"station_name":"Tebet","transit":false,"is_transit":false,"i_lat":-6.226659,"i_long":106.857948,"line":2,"station_id":"TEB","time":2},{"station_name":"Manggarai","time":4,"is_transit":false,"line":2,"transit":false,"i_long":106.84912,"i_lat":-6.209883,"station_id":"MRI","distance":2610},{"i_lat":-6.198556,"distance":1590,"is_transit":false,"time":4,"transit":false,"i_long":106.840169,"line":2,"station_id":"CKI","station_name":"Cikini"},{"is_transit":false,"i_long":106.832183,"line":2,"distance":1750,"transit":false,"station_name":"Gondangdia","time":3,"i_lat":-6.186295,"station_id":"GDD"},{"transit":false,"time":4,"line":2,"station_name":"Juanda","distance":2015,"i_lat":-6.166716,"station_id":"JUA","is_transit":false,"i_long":106.828284},{"time":2,"transit":false,"is_transit":false,"distance":1149,"i_long":106.827103,"line":2,"station_id":"SW","i_lat":-6.160725,"station_name":"Sawah Besar"},{"is_transit":false,"station_id":"MGB","i_long":106.82482,"i_lat":-6.149769,"distance":906,"station_name":"Manggabesar","line":2,"transit":false,"time":2},{"is_transit":false,"time":2,"station_name":"Jayakarta","i_long":106.820901,"i_lat":-6.141205,"line":2,"transit":false,"station_id":"JAY","distance":1080},{"station_id":"JAKK","is_transit":true,"distance":1264,"i_long":106.812439,"line":2,"time":4,"station_name":"Jakarta Kota","transit":true,"i_lat":-6.137569},{"station_id":"KPB","distance":1364,"is_transit":true,"transit":true,"i_long":106.826365,"i_lat":-6.132549,"station_name":"Kampung Bandan","time":3,"line":4},{"is_transit":false,"distance":4102,"transit":false,"i_long":106.79867,"station_id":"AK","i_lat":-6.144674,"station_name":"Angke","time":9,"line":1}],[{"time":0,"station_name":"Cilebut","line":2,"is_transit":false,"transit":false,"station_id":"CLT","i_long":106.800016,"i_lat":-6.530544,"distance":0},{"station_name":"Bojonggede","distance":4331,"is_transit":false,"transit":false,"i_lat":-6.493243,"station_id":"BJD","time":5,"i_long":106.792719,"line":2},{"line":2,"station_name":"Citayam","is_transit":false,"transit":false,"i_long":106.800298,"station_id":"CTA","time":5,"i_lat":-6.448811,"distance":5197},{"line":2,"distance":5084,"is_transit":false,"station_name":"Depok","i_lat":-6.405256,"station_id":"DP","transit":false,"i_long":106.816926,"time":6},{"distance":1584,"is_transit":false,"i_lat":-6.391065,"station_name":"Depokbaru","station_id":"DPB","i_long":106.819451,"time":3,"transit":false,"line":2},{"time":4,"distance":2727,"i_long":106.831114,"transit":false,"station_id":"POC","station_name":"Pondok Cina","i_lat":-6.369073,"line":2,"is_transit":false},{"i_long":106.831474,"distance":1109,"transit":false,"time":2,"i_lat":-6.360749,"station_id":"UI","station_name":"Univ. Indonesia","is_transit":false,"line":2},{"distance":2264,"i_lat":-6.339291,"time":3,"station_id":"UP","transit":false,"i_long":106.834175,"line":2,"is_transit":false,"station_name":"Univ. Pancasila"},{"station_id":"LNA","i_lat":-6.330363,"line":2,"station_name":"Lenteng Agung","is_transit":false,"i_long":106.832616,"distance":1029,"transit":false,"time":2},{"station_id":"TNT","line":2,"station_name":"Tanjung Barat","time":3,"is_transit":false,"i_long":106.838896,"transit":false,"i_lat":-6.3080680000000005,"distance":2671},{"distance":2820,"i_lat":-6.2842400000000005,"transit":false,"time":4,"i_long":106.843999,"station_id":"PSM","line":2,"station_name":"Pasar Minggu","is_transit":false},{"time":2,"i_lat":-6.263214,"i_long":106.851577,"is_transit":false,"line":2,"distance":2380,"station_id":"PSMB","transit":false,"station_name":"Pasar Minggu Baru"},{"time":2,"transit":false,"is_transit":false,"station_name":"Duren Kalibata","i_lat":-6.255332,"i_long":106.85449,"line":2,"station_id":"DRN","distance":824},{"time":3,"station_id":"CW","line":2,"transit":false,"i_lat":-6.242512,"distance":1546,"is_transit":false,"station_name":"Cawang","i_long":106.856607},{"is_transit":false,"line":2,"distance":1230,"station_id":"TEB","transit":false,"time":2,"i_lat":-6.226659,"station_name":"Tebet","i_long":106.857948},{"distance":2610,"transit":true,"i_lat":-6.209883,"line":2,"i_long":106.84912,"station_name":"Manggarai","is_transit":true,"station_id":"MRI","time":4},{"line":1,"transit":false,"is_transit":false,"station_name":"Matraman","distance":1275,"time":2,"i_lat":-6.212485,"station_id":"MTR","i_long":106.858896},{"distance":1377,"is_transit":true,"transit":true,"time":8,"station_id":"JNG","station_name":"Jatinegara","line":1,"i_long":106.86807400000001,"i_lat":-6.215091},{"transit":false,"station_id":"POK","station_name":"Pondok Jati","distance":1236,"i_lat":-6.209188,"line":11,"is_transit":false,"i_long":106.861737,"time":2},{"is_transit":false,"distance":1829,"transit":false,"time":2,"i_long":106.855437,"station_id":"KMT","station_name":"Kramat","i_lat":-6.193792,"line":11},{"line":11,"station_id":"GST","i_lat":-6.185975,"i_long":106.850107,"station_name":"Gang Sentiong","time":1,"distance":973,"is_transit":false,"transit":false},{"i_lat":-6.174784,"station_name":"Pasar Senen","time":8,"station_id":"PSE","is_transit":false,"transit":false,"i_long":106.84368,"distance":1567,"line":11},{"station_id":"KMO","distance":1436,"is_transit":false,"time":4,"station_name":"Kemayoran","i_lat":-6.161728,"i_long":106.839204,"transit":false,"line":11},{"distance":1901,"is_transit":false,"i_long":106.836569,"station_id":"RJW","i_lat":-6.14505,"line":11,"time":5,"transit":false,"station_name":"Rajawali"},{"time":3,"distance":1444,"line":4,"i_long":106.826365,"station_name":"Kampung Bandan","i_lat":-6.132549,"station_id":"KPB","transit":true,"is_transit":true},{"i_lat":-6.144674,"line":1,"station_name":"Angke","station_id":"AK","transit":false,"is_transit":false,"distance":4102,"time":9,"i_long":106.79867}]]}