{"data":[[{"i_long":106.800016,"line":0,"is_transit":false,"station_name":"Cilebut","transit":false,"station_id":"CLT","distance":0,"i_lat":-6.530544,"time":0},{"station_id":"BJD","time":5,"station_name":"Bojonggede","transit":false,"i_lat":-6.493243,"is_transit":false,"line":0,"distance":4331,"i_long":106.792719},{"line":1,"time":5,"distance":5197,"station_id":"CTA","is_transit":true,"transit":false,"i_long":106.800298,"i_lat":-6.448811,"station_name":"Citayam"},{"i_lat":-6.405256,"station_id":"DP","distance":5084,"i_long":106.816926,"station_name":"Depok","transit":false,"time":6,"is_transit":false,"line":0},{"is_transit":false,"transit":false,"station_name":"Depokbaru","i_lat":-6.391065,"i_long":106.819451,"distance":1584,"time":3,"line":0,"station_id":"DPB"},{"is_transit":false,"station_id":"POC","station_name":"Pondok Cina","i_long":106.831114,"time":4,"i_lat":-6.369073,"distance":2727,"transit":false,"line":2},{"transit":false,"station_id":"UI","i_long":106.831474,"is_transit":false,"i_lat":-6.360749,"line":2,"station_name":"Univ. Indonesia","time":2,"distance":1109},{"station_name":"Univ. Pancasila","station_id":"UP","distance":2264,"transit":false,"i_long":106.834175,"line":2,"is_transit":false,"time":3,"i_lat":-6.339291},{"station_id":"LNA","time":2,"i_lat":-6.330363,"station_name":"Lenteng Agung","transit":false,"line":2,"i_long":106.832616,"distance":1029,"is_transit":false},{"station_id":"TNT","station_name":"Tanjung Barat","line":2,"time":3,"distance":2671,"i_lat":-6.3080680000000005,"i_long":106.838896,"is_transit":false,"transit":false},{"is_transit":false,"time":4,"distance":2820,"transit":false,"i_long":106.843999,"line":2,"i_lat":-6.2842400000000005,"station_id":"PSM","station_name":"Pasar Minggu"},{"distance":2380,"station_name":"Pasar Minggu Baru","time":2,"line":2,"i_long":106.851577,"transit":false,"i_lat":-6.263214,"station_id":"PSMB","is_transit":false},{"station_id":"DRN","i_lat":-6.255332,"is_transit":false,"line":0,"time":2,"i_long":106.85449,"distance":824,"transit":false,"station_name":"Duren Kalibata"},{"i_long":106.856607,"i_lat":-6.242512,"station_id":"CW","time":3,"distance":1546,"station_name":"Cawang","line":0,"is_transit":false,"transit":false},{"i_lat":-6.226659,"station_id":"TEB","is_transit":false,"time":2,"distance":1230,"transit":false,"i_long":106.857948,"line":2,"station_name":"Tebet"},{"station_name":"Manggarai","i_lat":-6.209883,"line":0,"transit":true,"i_long":106.84912,"is_transit":true,"distance":2610,"station_id":"MRI","time":4},{"station_id":"SUD","i_lat":-6.202263,"is_transit":false,"distance":3186,"station_name":"Sudirman","i_long":106.822649,"time":4,"transit":false,"line":1},{"station_id":"SUDB","time":1,"station_name":"Sudirman Baru","transit":false,"line":1,"is_transit":false,"i_long":106.819881,"distance":280,"i_lat":-6.201433},{"distance":471,"i_lat":-6.20132,"transit":false,"station_id":"KAT","is_transit":false,"time":1,"i_long":106.816351,"line":1,"station_name":"Karet"},{"distance":2029,"i_long":106.811091,"is_transit":true,"line":1,"i_lat":-6.185545,"transit":false,"station_name":"Tanah Abang","station_id":"THB","time":5},{"station_name":"Duri","distance":3632,"time":8,"transit":true,"i_long":106.800832,"station_id":"DU","is_transit":true,"i_lat":-6.155215,"line":1},{"line":5,"station_id":"GGL","distance":1700,"i_long":106.788277,"time":3,"station_name":"Grogol","is_transit":false,"transit":false,"i_lat":-6.162021},{"distance":2036,"time":2,"i_long":106.771379,"station_id":"PSG","is_transit":false,"station_name":"Pesing","transit":false,"i_lat":-6.161433,"line":5},{"i_lat":-6.1587309999999995,"station_name":"Taman Kota","i_long":106.756522,"station_id":"TKO","transit":false,"is_transit":false,"time":2,"line":5,"distance":1614},{"station_name":"Bojongindah","time":2,"is_transit":false,"i_lat":-6.159876,"i_long":106.737035,"transit":false,"distance":2334,"line":0,"station_id":"BOI"},{"line":5,"i_lat":-6.162758,"i_long":106.723064,"station_name":"Rawa Buaya","is_transit":false,"distance":1152,"time":4,"transit":false,"station_id":"RW"}],[{"line":0,"is_transit":false,"time":0,"transit":false,"distance":0,"station_name":"Cilebut","station_id":"CLT","i_lat":-6.530544,"i_long":106.800016},{"is_transit":false,"station_id":"BJD","line":0,"station_name":"Bojonggede","i_long":106.792719,"transit":false,"i_lat":-6.493243,"time":5,"distance":4331},{"time":5,"line":1,"station_id":"CTA","distance":5197,"is_transit":true,"transit":false,"station_name":"Citayam","i_long":106.800298,"i_lat":-6.448811},{"i_lat":-6.405256,"is_transit":false,"i_long":106.816926,"line":0,"station_id":"DP","transit":false,"station_name":"Depok","time":6,"distance":5084},{"distance":1584,"transit":false,"time":3,"station_id":"DPB","i_long":106.819451,"i_lat":-6.391065,"station_name":"Depokbaru","line":0,"is_transit":false},{"is_transit":false,"station_name":"Pondok Cina","time":4,"line":2,"transit":false,"station_id":"POC","distance":2727,"i_long":106.831114,"i_lat":-6.369073},{"is_transit":false,"distance":1109,"line":2,"i_lat":-6.360749,"i_long":106.831474,"station_name":"Univ. Indonesia","transit":false,"time":2,"station_id":"UI"},{"distance":2264,"station_id":"UP","is_transit":false,"line":2,"i_lat":-6.339291,"time":3,"station_name":"Univ. Pancasila","transit":false,"i_long":106.834175},{"distance":1029,"i_lat":-6.330363,"time":2,"i_long":106.832616,"line":2,"is_transit":false,"station_name":"Lenteng Agung","transit":false,"station_id":"LNA"},{"distance":2671,"transit":false,"station_name":"Tanjung Barat","i_long":106.838896,"i_lat":-6.3080680000000005,"station_id":"TNT","is_transit":false,"line":2,"time":3},{"i_long":106.843999,"time":4,"line":2,"station_name":"Pasar Minggu","station_id":"PSM","distance":2820,"transit":false,"is_transit":false,"i_lat":-6.2842400000000005},{"station_name":"Pasar Minggu Baru","distance":2380,"time":2,"transit":false,"line":2,"is_transit":false,"i_lat":-6.263214,"station_id":"PSMB","i_long":106.851577},{"station_name":"Duren Kalibata","i_long":106.85449,"time":2,"distance":824,"i_lat":-6.255332,"line":0,"is_transit":false,"station_id":"DRN","transit":false},{"i_lat":-6.242512,"is_transit":false,"transit":false,"distance":1546,"station_name":"Cawang","time":3,"i_long":106.856607,"station_id":"CW","line":0},{"station_name":"Tebet","is_transit":false,"distance":1230,"i_lat":-6.226659,"time":2,"transit":false,"line":2,"station_id":"TEB","i_long":106.857948},{"transit":true,"station_id":"MRI","i_lat":-6.209883,"i_long":106.84912,"time":4,"line":0,"distance":2610,"is_transit":true,"station_name":"Manggarai"},{"i_lat":-6.198556,"station_name":"Cikini","distance":1590,"time":4,"line":0,"station_id":"CKI","is_transit":false,"transit":false,"i_long":106.840169},{"station_name":"Gondangdia","time":3,"i_long":106.832183,"station_id":"GDD","i_lat":-6.186295,"line":2,"transit":false,"distance":1750,"is_transit":false},{"distance":2015,"station_name":"Juanda","is_transit":false,"line":2,"i_long":106.828284,"time":4,"transit":false,"i_lat":-6.166716,"station_id":"JUA"},{"transit":false,"line":2,"station_id":"SW","i_long":106.827103,"time":2,"distance":1149,"station_name":"Sawah Besar","is_transit":false,"i_lat":-6.160725},{"time":2,"station_id":"MGB","i_long":106.82482,"transit":false,"distance":906,"i_lat":-6.149769,"station_name":"Manggabesar","is_transit":false,"line":2},{"line":7,"distance":1080,"is_transit":false,"station_id":"JAY","time":2,"transit":false,"i_lat":-6.141205,"station_name":"Jayakarta","i_long":106.820901},{"station_id":"JAKK","is_transit":true,"i_long":106.812439,"i_lat":-6.137569,"line":0,"transit":true,"distance":1264,"station_name":"Jakarta Kota","time":4},{"station_id":"KPB","is_transit":true,"station_name":"Kampung Bandan","time":3,"distance":1364,"i_long":106.826365,"transit":false,"i_lat":-6.132549,"line":0},{"transit":false,"distance":4102,"i_long":106.79867,"is_transit":false,"station_name":"Angke","i_lat":-6.144674,"line":0,"station_id":"AK","time":9},{"line":1,"station_name":"Duri","i_long":106.800832,"is_transit":true,"station_id":"DU","transit":true,"i_lat":-6.155215,"time":4,"distance":1230},{"station_name":"Grogol","transit":false,"i_lat":-6.162021,"time":3,"distance":1700,"is_transit":false,"line":5,"station_id":"GGL","i_long":106.788277},{"i_long":106.771379,"i_lat":-6.161433,"line":5,"time":2,"station_id":"PSG","is_transit":false,"station_name":"Pesing","transit":false,"distance":2036},{"transit":false,"i_lat":-6.1587309999999995,"time":2,"station_id":"TKO","is_transit":false,"distance":1614,"station_name":"Taman Kota","i_long":106.756522,"line":5},{"station_id":"BOI","i_lat":-6.159876,"distance":2334,"is_transit":false,"transit":false,"i_long":106.737035,"line":0,"time":2,"station_name":"Bojongindah"},{"station_name":"Rawa Buaya","is_transit":false,"i_long":106.723064,"line":5,"distance":1152,"time":4,"station_id":"RW","i_lat":-6.162758,"transit":false}],[{"station_id":"CLT","time":0,"is_transit":false,"station_name":"Cilebut","i_long":106.800016,"transit":false,"distance":0,"i_lat":-6.530544,"line":0},{"line":0,"i_long":106.792719,"station_id":"BJD","station_name":"Bojonggede","is_transit":false,"transit":false,"distance":4331,"i_lat":-6.493243,"time":5},{"station_id":"CTA","time":5,"station_name":"Citayam","i_long":106.800298,"is_transit":true,"line":1,"i_lat":-6.448811,"distance":5197,"transit":false},{"station_name":"Depok","station_id":"DP","is_transit":false,"i_lat":-6.405256,"i_long":106.816926,"line":0,"distance":5084,"transit":false,"time":6},{"is_transit":false,"i_long":106.819451,"distance":1584,"station_id":"DPB","station_name":"Depokbaru","transit":false,"i_lat":-6.391065,"line":0,"time":3},{"is_transit":false,"time":4,"distance":2727,"station_id":"POC","station_name":"Pondok Cina","i_lat":-6.369073,"line":2,"transit":false,"i_long":106.831114},{"station_id":"UI","station_name":"Univ. Indonesia","line":2,"transit":false,"distance":1109,"i_long":106.831474,"time":2,"is_transit":false,"i_lat":-6.360749},{"i_lat":-6.339291,"station_id":"UP","transit":false,"i_long":106.834175,"is_transit":false,"time":3,"line":2,"distance":2264,"station_name":"Univ. Pancasila"},{"is_transit":false,"i_long":106.832616,"i_lat":-6.330363,"station_id":"LNA","distance":1029,"time":2,"station_name":"Lenteng Agung","transit":false,"line":2},{"station_name":"Tanjung Barat","distance":2671,"i_lat":-6.3080680000000005,"i_long":106.838896,"time":3,"transit":false,"station_id":"TNT","is_transit":false,"line":2},{"transit":false,"i_long":106.843999,"is_transit":false,"distance":2820,"station_name":"Pasar Minggu","line":2,"time":4,"station_id":"PSM","i_lat":-6.2842400000000005},{"station_name":"Pasar Minggu Baru","time":2,"i_long":106.851577,"station_id":"PSMB","distance":2380,"i_lat":-6.263214,"is_transit":false,"transit":false,"line":2},{"distance":824,"station_id":"DRN","i_lat":-6.255332,"time":2,"station_name":"Duren Kalibata","transit":false,"i_long":106.85449,"is_transit":false,"line":0},{"distance":1546,"station_name":"Cawang","line":0,"is_transit":false,"time":3,"transit":false,"i_long":106.856607,"station_id":"CW","i_lat":-6.242512},{"station_id":"TEB","time":2,"i_lat":-6.226659,"i_long":106.857948,"is_transit":false,"distance":1230,"transit":false,"line":2,"station_name":"Tebet"},{"line":0,"is_transit":true,"time":4,"station_id":"MRI","distance":2610,"station_name":"Manggarai","transit":true,"i_lat":-6.209883,"i_long":106.84912},{"is_transit":false,"i_lat":-6.212485,"distance":1275,"station_id":"MTR","time":2,"i_long":106.858896,"line":1,"station_name":"Matraman","transit":false},{"i_long":106.86807400000001,"time":8,"i_lat":-6.215091,"is_transit":true,"station_name":"Jatinegara","line":0,"station_id":"JNG","distance":1377,"transit":true},{"station_id":"POK","distance":1236,"is_transit":false,"time":2,"transit":false,"line":11,"station_name":"Pondok Jati","i_lat":-6.209188,"i_long":106.861737},{"i_lat":-6.193792,"transit":false,"station_id":"KMT","time":2,"distance":1829,"line":11,"is_transit":false,"station_name":"Kramat","i_long":106.855437},{"time":1,"station_id":"GST","i_lat":-6.185975,"line":11,"station_name":"Gang Sentiong","is_transit":false,"distance":973,"i_long":106.850107,"transit":false},{"transit":false,"station_id":"PSE","i_lat":-6.174784,"i_long":106.84368,"is_transit":false,"station_name":"Pasar Senen","line":11,"distance":1567,"time":8},{"distance":1436,"is_transit":false,"station_name":"Kemayoran","i_long":106.839204,"station_id":"KMO","time":4,"line":11,"i_lat":-6.161728,"transit":false},{"station_id":"RJW","is_transit":false,"line":11,"time":5,"distance":1901,"i_long":106.836569,"transit":false,"i_lat":-6.14505,"station_name":"Rajawali"},{"time":3,"distance":1444,"is_transit":true,"station_name":"Kampung Bandan","transit":true,"i_lat":-6.132549,"line":0,"i_long":106.826365,"station_id":"KPB"},{"distance":4102,"is_transit":false,"time":9,"i_lat":-6.144674,"station_name":"Angke","i_long":106.79867,"line":0,"station_id":"AK","transit":false},{"station_name":"Duri","i_lat":-6.155215,"i_long":106.800832,"station_id":"DU","distance":1230,"is_transit":true,"time":4,"line":1,"transit":true},{"station_name":"Grogol","i_lat":-6.162021,"distance":1700,"is_transit":false,"transit":false,"i_long":106.788277,"station_id":"GGL","time":3,"line":5},{"time":2,"i_lat":-6.161433,"i_long":106.771379,"station_name":"Pesing","is_transit":false,"transit":false,"line":5,"station_id":"PSG","distance":2036},{"distance":1614,"line":5,"is_transit":false,"time":2,"station_id":"TKO","station_name":"Taman Kota","i_long":106.756522,"i_lat":-6.1587309999999995,"transit":false},{"station_id":"BOI","time":2,"distance":2334,"line":0,"i_long":106.737035,"station_name":"Bojongindah","transit":false,"i_lat":-6.159876,"is_transit":false},{"is_transit":false,"station_id":"RW","line":5,"time":4,"transit":false,"i_long":106.723064,"station_name":"Rawa Buaya","i_lat":-6.162758,"distance":1152}]]}