{"data":[[{"is_transit":false,"station_name":"Cilebut","i_lat":-6.530544,"transit":false,"distance":0,"station_id":"CLT","time":0,"i_long":106.800016,"line":2},{"line":2,"station_id":"BJD","station_name":"Bojonggede","transit":false,"time":5,"i_lat":-6.493243,"distance":4331,"i_long":106.792719,"is_transit":false},{"transit":false,"distance":5197,"station_id":"CTA","time":5,"station_name":"Citayam","i_long":106.800298,"i_lat":-6.448811,"line":2,"is_transit":false},{"station_id":"DP","time":6,"is_transit":false,"line":2,"i_lat":-6.405256,"station_name":"Depok","distance":5084,"i_long":106.816926,"transit":false},{"station_name":"Depokbaru","transit":false,"distance":1584,"station_id":"DPB","time":3,"line":2,"is_transit":false,"i_lat":-6.391065,"i_long":106.819451},{"is_transit":false,"distance":2727,"i_long":106.831114,"station_id":"POC","station_name":"Pondok Cina","transit":false,"line":2,"i_lat":-6.369073,"time":4},{"station_name":"Univ. Indonesia","i_lat":-6.360749,"i_long":106.831474,"is_transit":false,"line":2,"transit":false,"distance":1109,"station_id":"UI","time":2},{"station_id":"UP","distance":2264,"time":3,"line":2,"station_name":"Univ. Pancasila","transit":false,"i_lat":-6.339291,"i_long":106.834175,"is_transit":false},{"distance":1029,"station_name":"Lenteng Agung","time":2,"station_id":"LNA","transit":false,"i_lat":-6.330363,"i_long":106.832616,"is_transit":false,"line":2},{"distance":2671,"is_transit":false,"station_name":"Tanjung Barat","time":3,"line":2,"transit":false,"i_long":106.838896,"i_lat":-6.3080680000000005,"station_id":"TNT"},{"line":2,"station_name":"Pasar Minggu","is_transit":false,"i_lat":-6.2842400000000005,"i_long":106.843999,"time":4,"distance":2820,"transit":false,"station_id":"PSM"},{"transit":false,"is_transit":false,"time":2,"i_lat":-6.263214,"station_id":"PSMB","line":2,"distance":2380,"station_name":"Pasar Minggu Baru","i_long":106.851577},{"i_long":106.85449,"line":2,"i_lat":-6.255332,"station_name":"Duren Kalibata","transit":false,"station_id":"DRN","time":2,"is_transit":false,"distance":824},{"i_long":106.856607,"station_id":"CW","station_name":"Cawang","distance":1546,"transit":false,"line":2,"is_transit":false,"time":3,"i_lat":-6.242512},{"station_id":"TEB","time":2,"station_name":"Tebet","is_transit":false,"i_lat":-6.226659,"i_long":106.857948,"line":2,"transit":false,"distance":1230},{"line":2,"transit":true,"station_id":"MRI","time":4,"i_lat":-6.209883,"i_long":106.84912,"is_transit":true,"distance":2610,"station_name":"Manggarai"},{"line":1,"station_id":"MTR","is_transit":false,"time":2,"i_long":106.858896,"distance":1275,"station_name":"Matraman","i_lat":-6.212485,"transit":false},{"time":8,"transit":false,"station_name":"Jatinegara","i_lat":-6.215091,"i_long":106.86807400000001,"station_id":"JNG","line":1,"distance":1377,"is_transit":false},{"time":3,"transit":false,"distance":3395,"i_lat":-6.2135,"station_name":"Klender","i_long":106.899548,"is_transit":false,"station_id":"KLD","line":1},{"i_long":106.922662,"station_name":"Buaran","line":1,"i_lat":-6.215568,"transit":false,"distance":3100,"is_transit":false,"station_id":"BUA","time":2},{"station_name":"Klenderbaru","transit":false,"station_id":"KLDB","time":1,"line":1,"distance":1305,"i_lat":-6.217455,"is_transit":false,"i_long":106.939679},{"line":1,"is_transit":false,"distance":1385,"station_id":"CUK","station_name":"Cakung","transit":false,"time":8,"i_lat":-6.219053,"i_long":106.951283}],[{"distance":0,"i_long":106.800016,"is_transit":false,"time":0,"station_name":"Cilebut","transit":false,"station_id":"CLT","i_lat":-6.530544,"line":2},{"is_transit":false,"time":5,"station_id":"BJD","i_long":106.792719,"station_name":"Bojonggede","line":2,"distance":4331,"transit":false,"i_lat":-6.493243},{"station_name":"Citayam","line":2,"i_long":106.800298,"transit":false,"is_transit":false,"time":5,"i_lat":-6.448811,"distance":5197,"station_id":"CTA"},{"i_long":106.816926,"station_name":"Depok","i_lat":-6.405256,"transit":false,"is_transit":false,"station_id":"DP","time":6,"line":2,"distance":5084},{"i_long":106.819451,"station_name":"Depokbaru","time":3,"is_transit":false,"line":2,"i_lat":-6.391065,"transit":false,"distance":1584,"station_id":"DPB"},{"transit":false,"distance":2727,"i_long":106.831114,"time":4,"is_transit":false,"line":2,"station_name":"Pondok Cina","station_id":"POC","i_lat":-6.369073},{"i_long":106.831474,"is_transit":false,"time":2,"transit":false,"station_name":"Univ. Indonesia","station_id":"UI","i_lat":-6.360749,"line":2,"distance":1109},{"time":3,"i_long":106.834175,"station_name":"Univ. Pancasila","i_lat":-6.339291,"station_id":"UP","line":2,"is_transit":false,"transit":false,"distance":2264},{"transit":false,"distance":1029,"line":2,"station_id":"LNA","time":2,"i_long":106.832616,"station_name":"Lenteng Agung","is_transit":false,"i_lat":-6.330363},{"is_transit":false,"station_name":"Tanjung Barat","transit":false,"i_lat":-6.3080680000000005,"line":2,"distance":2671,"i_long":106.838896,"time":3,"station_id":"TNT"},{"is_transit":false,"distance":2820,"i_long":106.843999,"transit":false,"line":2,"i_lat":-6.2842400000000005,"time":4,"station_name":"Pasar Minggu","station_id":"PSM"},{"transit":false,"is_transit":false,"station_name":"Pasar Minggu Baru","i_lat":-6.263214,"i_long":106.851577,"distance":2380,"time":2,"line":2,"station_id":"PSMB"},{"station_id":"DRN","line":2,"station_name":"Duren Kalibata","is_transit":false,"time":2,"distance":824,"i_lat":-6.255332,"i_long":106.85449,"transit":false},{"line":2,"station_id":"CW","i_long":106.856607,"time":3,"station_name":"Cawang","i_lat":-6.242512,"is_transit":false,"transit":false,"distance":1546},{"time":2,"line":2,"i_lat":-6.226659,"transit":false,"station_id":"TEB","station_name":"Tebet","is_transit":false,"distance":1230,"i_long":106.857948},{"distance":2610,"station_id":"MRI","i_lat":-6.209883,"is_transit":true,"station_name":"Manggarai","time":4,"i_long":106.84912,"line":2,"transit":true},{"transit":false,"station_name":"Sudirman","distance":3186,"i_long":106.822649,"time":4,"line":1,"i_lat":-6.202263,"is_transit":false,"station_id":"SUD"},{"station_name":"Sudirman Baru","line":1,"distance":280,"station_id":"SUDB","i_lat":-6.201433,"i_long":106.819881,"transit":false,"is_transit":false,"time":1},{"i_lat":-6.20132,"transit":false,"line":1,"i_long":106.816351,"station_id":"KAT","station_name":"Karet","time":1,"is_transit":false,"distance":471},{"line":1,"distance":2029,"time":5,"station_id":"THB","station_name":"Tanah Abang","is_transit":false,"transit":false,"i_lat":-6.185545,"i_long":106.811091},{"time":8,"i_lat":-6.155215,"transit":false,"is_transit":false,"distance":3632,"i_long":106.800832,"line":1,"station_id":"DU","station_name":"Duri"},{"transit":false,"line":1,"time":4,"station_name":"Angke","is_transit":false,"station_id":"AK","i_lat":-6.144674,"distance":1230,"i_long":106.79867},{"i_long":106.826365,"is_transit":true,"distance":4102,"i_lat":-6.132549,"station_name":"Kampung Bandan","station_id":"KPB","transit":true,"time":9,"line":4},{"i_lat":-6.14505,"transit":false,"distance":1444,"time":3,"station_name":"Rajawali","line":11,"i_long":106.836569,"station_id":"RJW","is_transit":false},{"i_long":106.839204,"line":11,"i_lat":-6.161728,"distance":1901,"station_id":"KMO","station_name":"Kemayoran","is_transit":false,"time":5,"transit":false},{"distance":1436,"station_name":"Pasar Senen","time":4,"i_lat":-6.174784,"transit":false,"is_transit":false,"station_id":"PSE","line":11,"i_long":106.84368},{"station_id":"GST","station_name":"Gang Sentiong","i_lat":-6.185975,"is_transit":false,"time":8,"transit":false,"distance":1567,"i_long":106.850107,"line":11},{"distance":973,"station_name":"Kramat","is_transit":false,"transit":false,"i_lat":-6.193792,"i_long":106.855437,"time":1,"station_id":"KMT","line":11},{"i_lat":-6.209188,"is_transit":false,"station_id":"POK","line":11,"i_long":106.861737,"distance":1829,"station_name":"Pondok Jati","time":2,"transit":false},{"i_long":106.86807400000001,"station_id":"JNG","is_transit":true,"line":1,"station_name":"Jatinegara","distance":1236,"i_lat":-6.215091,"transit":true,"time":9},{"distance":3395,"station_id":"KLD","transit":false,"time":3,"i_long":106.899548,"station_name":"Klender","i_lat":-6.2135,"line":1,"is_transit":false},{"transit":false,"distance":3100,"station_name":"Buaran","is_transit":false,"i_lat":-6.215568,"station_id":"BUA","line":1,"i_long":106.922662,"time":2},{"transit":false,"station_name":"Klenderbaru","i_long":106.939679,"time":1,"distance":1305,"station_id":"KLDB","line":1,"is_transit":false,"i_lat":-6.217455},{"transit":false,"station_id":"CUK","i_long":106.951283,"is_transit":false,"time":8,"i_lat":-6.219053,"distance":1385,"station_name":"Cakung","line":1}],[{"station_id":"CLT","time":0,"i_long":106.800016,"is_transit":false,"line":2,"distance":0,"i_lat":-6.530544,"transit":false,"station_name":"Cilebut"},{"time":5,"station_id":"BJD","station_name":"Bojonggede","i_long":106.792719,"is_transit":false,"transit":false,"distance":4331,"i_lat":-6.493243,"line":2},{"is_transit":false,"line":2,"distance":5197,"i_lat":-6.448811,"station_id":"CTA","i_long":106.800298,"time":5,"transit":false,"station_name":"Citayam"},{"time":6,"line":2,"station_name":"Depok","i_lat":-6.405256,"is_transit":false,"station_id":"DP","transit":false,"distance":5084,"i_long":106.816926},{"is_transit":false,"station_id":"DPB","line":2,"transit":false,"i_long":106.819451,"distance":1584,"time":3,"i_lat":-6.391065,"station_name":"Depokbaru"},{"transit":false,"is_transit":false,"distance":2727,"station_id":"POC","time":4,"i_lat":-6.369073,"i_long":106.831114,"line":2,"station_name":"Pondok Cina"},{"transit":false,"i_long":106.831474,"station_id":"UI","is_transit":false,"distance":1109,"station_name":"Univ. Indonesia","i_lat":-6.360749,"time":2,"line":2},{"i_long":106.834175,"transit":false,"station_name":"Univ. Pancasila","is_transit":false,"time":3,"station_id":"UP","line":2,"distance":2264,"i_lat":-6.339291},{"distance":1029,"station_id":"LNA","line":2,"i_lat":-6.330363,"is_transit":false,"station_name":"Lenteng Agung","i_long":106.832616,"transit":false,"time":2},{"is_transit":false,"distance":2671,"line":2,"station_id":"TNT","transit":false,"station_name":"Tanjung Barat","i_lat":-6.3080680000000005,"time":3,"i_long":106.838896},{"line":2,"station_id":"PSM","distance":2820,"time":4,"i_long":106.843999,"is_transit":false,"i_lat":-6.2842400000000005,"station_name":"Pasar Minggu","transit":false},{"station_name":"Pasar Minggu Baru","line":2,"distance":2380,"is_transit":false,"transit":false,"i_long":106.851577,"station_id":"PSMB","time":2,"i_lat":-6.263214},{"is_transit":false,"distance":824,"station_id":"DRN","transit":false,"time":2,"line":2,"i_long":106.85449,"i_lat":-6.255332,"station_name":"Duren Kalibata"},{"station_id":"CW","time":3,"i_lat":-6.242512,"i_long":106.856607,"line":2,"station_name":"Cawang","transit":false,"is_transit":false,"distance":1546},{"line":2,"transit":false,"distance":1230,"station_name":"Tebet","is_transit":false,"station_id":"TEB","i_lat":-6.226659,"i_long":106.857948,"time":2},{"station_name":"Manggarai","line":2,"station_id":"MRI","is_transit":false,"i_lat":-6.209883,"time":4,"transit":false,"i_long":106.84912,"distance":2610},{"line":2,"i_long":106.840169,"distance":1590,"i_lat":-6.198556,"station_name":"Cikini","time":4,"transit":false,"is_transit":false,"station_id":"CKI"},{"station_id":"GDD","i_long":106.832183,"line":2,"time":3,"distance":1750,"station_name":"Gondangdia","transit":false,"i_lat":-6.186295,"is_transit":false},{"time":4,"transit":false,"i_long":106.828284,"is_transit":false,"station_name":"Juanda","i_lat":-6.166716,"station_id":"JUA","distance":2015,"line":2},{"transit":false,"station_id":"SW","station_name":"Sawah Besar","line":2,"is_transit":false,"i_lat":-6.160725,"time":2,"distance":1149,"i_long":106.827103},{"transit":false,"is_transit":false,"distance":906,"time":2,"i_long":106.82482,"i_lat":-6.149769,"line":2,"station_name":"Manggabesar","station_id":"MGB"},{"i_long":106.820901,"station_id":"JAY","station_name":"Jayakarta","i_lat":-6.141205,"line":2,"time":2,"is_transit":false,"distance":1080,"transit":false},{"distance":1264,"line":2,"station_id":"JAKK","i_lat":-6.137569,"i_long":106.812439,"transit":true,"is_transit":true,"time":4,"station_name":"Jakarta Kota"},{"i_long":106.826365,"is_transit":true,"time":3,"distance":1364,"station_id":"KPB","station_name":"Kampung Bandan","line":4,"i_lat":-6.132549,"transit":true},{"is_transit":false,"transit":false,"station_name":"Rajawali","station_id":"RJW","i_long":106.836569,"line":11,"distance":1444,"time":3,"i_lat":-6.14505},{"distance":1901,"station_id":"KMO","station_name":"Kemayoran","i_lat":-6.161728,"is_transit":false,"i_long":106.839204,"time":5,"line":11,"transit":false},{"i_long":106.84368,"transit":false,"line":11,"station_name":"Pasar Senen","is_transit":false,"distance":1436,"station_id":"PSE","time":4,"i_lat":-6.174784},{"i_lat":-6.185975,"time":8,"transit":false,"is_transit":false,"distance":1567,"line":11,"station_name":"Gang Sentiong","i_long":106.850107,"station_id":"GST"},{"i_long":106.855437,"station_id":"KMT","time":1,"station_name":"Kramat","transit":false,"is_transit":false,"distance":973,"i_lat":-6.193792,"line":11},{"transit":false,"i_long":106.861737,"station_id":"POK","line":11,"station_name":"Pondok Jati","distance":1829,"i_lat":-6.209188,"is_transit":false,"time":2},{"i_lat":-6.215091,"time":9,"line":1,"i_long":106.86807400000001,"station_name":"Jatinegara","transit":true,"station_id":"JNG","is_transit":true,"distance":1236},{"station_id":"KLD","i_long":106.899548,"line":1,"station_name":"Klender","time":3,"is_transit":false,"i_lat":-6.2135,"transit":false,"distance":3395},{"station_name":"Buaran","i_lat":-6.215568,"distance":3100,"station_id":"BUA","i_long":106.922662,"line":1,"is_transit":false,"time":2,"transit":false},{"is_transit":false,"line":1,"time":1,"station_name":"Klenderbaru","station_id":"KLDB","i_long":106.939679,"transit":false,"distance":1305,"i_lat":-6.217455},{"station_name":"Cakung","time":8,"i_lat":-6.219053,"distance":1385,"transit":false,"line":1,"is_transit":false,"i_long":106.951283,"station_id":"CUK"}]]}