{"data":[[{"station_id":"CLT","i_long":106.800016,"i_lat":-6.530544,"is_transit":false,"station_name":"Cilebut","line":2,"time":0,"distance":0,"transit":false},{"station_id":"BJD","distance":4331,"i_lat":-6.493243,"line":2,"transit":false,"i_long":106.792719,"is_transit":false,"station_name":"Bojonggede","time":5},{"distance":5197,"time":5,"i_lat":-6.448811,"is_transit":false,"station_id":"CTA","line":2,"station_name":"Citayam","i_long":106.800298,"transit":false},{"distance":5084,"is_transit":false,"transit":false,"station_id":"DP","station_name":"Depok","i_lat":-6.405256,"i_long":106.816926,"line":2,"time":6},{"is_transit":false,"transit":false,"station_name":"Depokbaru","station_id":"DPB","time":3,"line":2,"distance":1584,"i_lat":-6.391065,"i_long":106.819451},{"line":2,"station_name":"Pondok Cina","time":4,"is_transit":false,"transit":false,"i_long":106.831114,"distance":2727,"i_lat":-6.369073,"station_id":"POC"},{"transit":false,"distance":1109,"is_transit":false,"station_id":"UI","station_name":"Univ. Indonesia","line":2,"i_lat":-6.360749,"i_long":106.831474,"time":2},{"transit":false,"is_transit":false,"i_lat":-6.339291,"line":2,"time":3,"distance":2264,"station_id":"UP","i_long":106.834175,"station_name":"Univ. Pancasila"},{"time":2,"transit":false,"station_name":"Lenteng Agung","station_id":"LNA","i_lat":-6.330363,"line":2,"distance":1029,"i_long":106.832616,"is_transit":false},{"station_id":"TNT","transit":false,"i_lat":-6.3080680000000005,"i_long":106.838896,"line":2,"distance":2671,"station_name":"Tanjung Barat","is_transit":false,"time":3},{"i_long":106.843999,"transit":false,"i_lat":-6.2842400000000005,"line":2,"station_name":"Pasar Minggu","is_transit":false,"station_id":"PSM","time":4,"distance":2820},{"distance":2380,"station_name":"Pasar Minggu Baru","i_long":106.851577,"station_id":"PSMB","line":2,"is_transit":false,"time":2,"transit":false,"i_lat":-6.263214},{"is_transit":false,"line":2,"distance":824,"i_long":106.85449,"time":2,"transit":false,"i_lat":-6.255332,"station_name":"Duren Kalibata","station_id":"DRN"},{"distance":1546,"station_name":"Cawang","i_long":106.856607,"station_id":"CW","time":3,"is_transit":false,"transit":false,"i_lat":-6.242512,"line":2},{"station_id":"TEB","i_long":106.857948,"line":2,"i_lat":-6.226659,"station_name":"Tebet","is_transit":false,"time":2,"transit":false,"distance":1230},{"distance":2610,"i_lat":-6.209883,"transit":true,"i_long":106.84912,"station_name":"Manggarai","line":2,"station_id":"MRI","time":4,"is_transit":true},{"station_id":"MTR","station_name":"Matraman","time":2,"i_lat":-6.212485,"distance":1275,"is_transit":false,"i_long":106.858896,"line":1,"transit":false},{"i_lat":-6.215091,"station_name":"Jatinegara","distance":1377,"station_id":"JNG","line":1,"transit":true,"time":8,"is_transit":true,"i_long":106.86807400000001},{"distance":1236,"station_id":"POK","time":2,"transit":false,"station_name":"Pondok Jati","i_lat":-6.209188,"i_long":106.861737,"line":11,"is_transit":false},{"i_long":106.855437,"distance":1829,"station_name":"Kramat","i_lat":-6.193792,"is_transit":false,"transit":false,"time":2,"line":11,"station_id":"KMT"}],[{"i_long":106.800016,"i_lat":-6.530544,"station_id":"CLT","transit":false,"station_name":"Cilebut","is_transit":false,"line":2,"distance":0,"time":0},{"time":5,"station_id":"BJD","i_lat":-6.493243,"i_long":106.792719,"is_transit":false,"station_name":"Bojonggede","transit":false,"line":2,"distance":4331},{"is_transit":false,"station_id":"CTA","time":5,"i_long":106.800298,"distance":5197,"transit":false,"line":2,"i_lat":-6.448811,"station_name":"Citayam"},{"distance":5084,"i_lat":-6.405256,"i_long":106.816926,"station_name":"Depok","line":2,"is_transit":false,"transit":false,"time":6,"station_id":"DP"},{"distance":1584,"station_name":"Depokbaru","is_transit":false,"i_long":106.819451,"i_lat":-6.391065,"transit":false,"time":3,"station_id":"DPB","line":2},{"line":2,"is_transit":false,"transit":false,"time":4,"station_name":"Pondok Cina","i_long":106.831114,"station_id":"POC","distance":2727,"i_lat":-6.369073},{"time":2,"station_id":"UI","i_long":106.831474,"line":2,"i_lat":-6.360749,"distance":1109,"transit":false,"station_name":"Univ. Indonesia","is_transit":false},{"time":3,"station_name":"Univ. Pancasila","transit":false,"line":2,"i_lat":-6.339291,"i_long":106.834175,"is_transit":false,"distance":2264,"station_id":"UP"},{"station_id":"LNA","is_transit":false,"line":2,"i_lat":-6.330363,"distance":1029,"i_long":106.832616,"time":2,"transit":false,"station_name":"Lenteng Agung"},{"is_transit":false,"transit":false,"i_lat":-6.3080680000000005,"line":2,"distance":2671,"station_id":"TNT","station_name":"Tanjung Barat","time":3,"i_long":106.838896},{"distance":2820,"i_lat":-6.2842400000000005,"is_transit":false,"transit":false,"station_id":"PSM","time":4,"i_long":106.843999,"station_name":"Pasar Minggu","line":2},{"line":2,"station_id":"PSMB","station_name":"Pasar Minggu Baru","time":2,"i_lat":-6.263214,"distance":2380,"is_transit":false,"transit":false,"i_long":106.851577},{"transit":false,"i_long":106.85449,"time":2,"station_id":"DRN","station_name":"Duren Kalibata","distance":824,"i_lat":-6.255332,"is_transit":false,"line":2},{"i_lat":-6.242512,"transit":false,"i_long":106.856607,"station_id":"CW","line":2,"time":3,"is_transit":false,"distance":1546,"station_name":"Cawang"},{"i_lat":-6.226659,"is_transit":false,"line":2,"i_long":106.857948,"station_id":"TEB","station_name":"Tebet","distance":1230,"time":2,"transit":false},{"distance":2610,"i_long":106.84912,"station_name":"Manggarai","is_transit":true,"i_lat":-6.209883,"transit":true,"time":4,"line":2,"station_id":"MRI"},{"station_id":"SUD","i_lat":-6.202263,"distance":3186,"line":1,"transit":false,"time":4,"is_transit":false,"station_name":"Sudirman","i_long":106.822649},{"distance":280,"station_id":"SUDB","time":1,"station_name":"Sudirman Baru","transit":false,"i_long":106.819881,"line":1,"is_transit":false,"i_lat":-6.201433},{"line":1,"station_id":"KAT","is_transit":false,"distance":471,"i_long":106.816351,"i_lat":-6.20132,"transit":false,"station_name":"Karet","time":1},{"is_transit":false,"time":5,"station_id":"THB","i_long":106.811091,"line":1,"transit":false,"station_name":"Tanah Abang","i_lat":-6.185545,"distance":2029},{"station_name":"Duri","transit":false,"line":1,"is_transit":false,"distance":3632,"station_id":"DU","time":8,"i_lat":-6.155215,"i_long":106.800832},{"distance":1230,"transit":false,"line":1,"is_transit":false,"i_lat":-6.144674,"i_long":106.79867,"station_name":"Angke","time":4,"station_id":"AK"},{"time":9,"station_name":"Kampung Bandan","i_lat":-6.132549,"i_long":106.826365,"is_transit":true,"station_id":"KPB","transit":true,"line":4,"distance":4102},{"i_lat":-6.14505,"line":11,"distance":1444,"i_long":106.836569,"time":3,"station_id":"RJW","is_transit":false,"station_name":"Rajawali","transit":false},{"i_long":106.839204,"is_transit":false,"i_lat":-6.161728,"distance":1901,"station_id":"KMO","line":11,"station_name":"Kemayoran","time":5,"transit":false},{"station_id":"PSE","i_lat":-6.174784,"is_transit":false,"transit":false,"distance":1436,"time":4,"line":11,"i_long":106.84368,"station_name":"Pasar Senen"},{"distance":1567,"is_transit":false,"time":8,"station_name":"Gang Sentiong","transit":false,"station_id":"GST","i_lat":-6.185975,"line":11,"i_long":106.850107},{"is_transit":false,"transit":false,"i_lat":-6.193792,"station_name":"Kramat","i_long":106.855437,"station_id":"KMT","line":11,"distance":973,"time":1}],[{"distance":0,"station_name":"Cilebut","transit":false,"i_lat":-6.530544,"i_long":106.800016,"line":2,"station_id":"CLT","is_transit":false,"time":0},{"station_id":"BJD","line":2,"distance":4331,"station_name":"Bojonggede","transit":false,"i_lat":-6.493243,"is_transit":false,"time":5,"i_long":106.792719},{"station_id":"CTA","station_name":"Citayam","is_transit":false,"distance":5197,"transit":false,"time":5,"i_lat":-6.448811,"i_long":106.800298,"line":2},{"i_lat":-6.405256,"time":6,"transit":false,"i_long":106.816926,"station_id":"DP","station_name":"Depok","distance":5084,"line":2,"is_transit":false},{"distance":1584,"i_lat":-6.391065,"transit":false,"station_id":"DPB","station_name":"Depokbaru","is_transit":false,"i_long":106.819451,"time":3,"line":2},{"is_transit":false,"transit":false,"time":4,"i_lat":-6.369073,"station_name":"Pondok Cina","i_long":106.831114,"line":2,"distance":2727,"station_id":"POC"},{"time":2,"transit":false,"is_transit":false,"station_name":"Univ. Indonesia","station_id":"UI","i_lat":-6.360749,"i_long":106.831474,"line":2,"distance":1109},{"is_transit":false,"i_lat":-6.339291,"station_id":"UP","transit":false,"i_long":106.834175,"time":3,"station_name":"Univ. Pancasila","line":2,"distance":2264},{"time":2,"transit":false,"station_id":"LNA","i_lat":-6.330363,"distance":1029,"i_long":106.832616,"station_name":"Lenteng Agung","line":2,"is_transit":false},{"line":2,"distance":2671,"station_id":"TNT","time":3,"transit":false,"station_name":"Tanjung Barat","i_lat":-6.3080680000000005,"i_long":106.838896,"is_transit":false},{"i_lat":-6.2842400000000005,"line":2,"distance":2820,"station_id":"PSM","transit":false,"i_long":106.843999,"is_transit":false,"station_name":"Pasar Minggu","time":4},{"line":2,"distance":2380,"i_lat":-6.263214,"i_long":106.851577,"station_name":"Pasar Minggu Baru","is_transit":false,"station_id":"PSMB","time":2,"transit":false},{"station_id":"DRN","distance":824,"i_long":106.85449,"line":2,"time":2,"station_name":"Duren Kalibata","transit":false,"is_transit":false,"i_lat":-6.255332},{"station_name":"Cawang","i_long":106.856607,"station_id":"CW","transit":false,"line":2,"i_lat":-6.242512,"distance":1546,"is_transit":false,"time":3},{"line":2,"transit":false,"station_id":"TEB","i_long":106.857948,"station_name":"Tebet","distance":1230,"time":2,"i_lat":-6.226659,"is_transit":false},{"i_long":106.84912,"distance":2610,"station_id":"MRI","i_lat":-6.209883,"is_transit":false,"station_name":"Manggarai","line":2,"time":4,"transit":false},{"i_long":106.840169,"time":4,"station_id":"CKI","transit":false,"is_transit":false,"line":2,"i_lat":-6.198556,"station_name":"Cikini","distance":1590},{"station_id":"GDD","transit":false,"line":2,"i_lat":-6.186295,"distance":1750,"station_name":"Gondangdia","time":3,"i_long":106.832183,"is_transit":false},{"station_name":"Juanda","time":4,"i_long":106.828284,"line":2,"station_id":"JUA","i_lat":-6.166716,"distance":2015,"is_transit":false,"transit":false},{"station_name":"Sawah Besar","i_lat":-6.160725,"line":2,"distance":1149,"transit":false,"time":2,"is_transit":false,"station_id":"SW","i_long":106.827103},{"distance":906,"transit":false,"i_long":106.82482,"i_lat":-6.149769,"station_id":"MGB","station_name":"Manggabesar","is_transit":false,"time":2,"line":2},{"i_lat":-6.141205,"distance":1080,"i_long":106.820901,"is_transit":false,"station_id":"JAY","station_name":"Jayakarta","line":2,"transit":false,"time":2},{"line":2,"transit":true,"station_id":"JAKK","time":4,"is_transit":true,"i_lat":-6.137569,"i_long":106.812439,"distance":1264,"station_name":"Jakarta Kota"},{"line":4,"distance":1364,"station_id":"KPB","time":3,"station_name":"Kampung Bandan","is_transit":true,"i_lat":-6.132549,"i_long":106.826365,"transit":true},{"is_transit":false,"i_lat":-6.14505,"line":11,"station_name":"Rajawali","time":3,"station_id":"RJW","transit":false,"i_long":106.836569,"distance":1444},{"i_lat":-6.161728,"station_id":"KMO","distance":1901,"time":5,"transit":false,"line":11,"i_long":106.839204,"is_transit":false,"station_name":"Kemayoran"},{"time":4,"i_long":106.84368,"distance":1436,"is_transit":false,"station_id":"PSE","transit":false,"line":11,"i_lat":-6.174784,"station_name":"Pasar Senen"},{"transit":false,"time":8,"is_transit":false,"distance":1567,"i_long":106.850107,"line":11,"station_id":"GST","station_name":"Gang Sentiong","i_lat":-6.185975},{"distance":973,"i_long":106.855437,"line":11,"station_name":"Kramat","i_lat":-6.193792,"station_id":"KMT","is_transit":false,"transit":false,"time":1}]]}