{"data":[[{"i_long":106.800016,"i_lat":-6.530544,"distance":0,"transit":false,"station_id":"CLT","time":0,"is_transit":false,"station_name":"Cilebut","line":2},{"station_name":"Bojonggede","i_lat":-6.493243,"time":5,"station_id":"BJD","is_transit":false,"i_long":106.792719,"distance":4331,"line":2,"transit":false},{"i_lat":-6.448811,"station_id":"CTA","line":2,"i_long":106.800298,"station_name":"Citayam","transit":false,"is_transit":false,"time":5,"distance":5197},{"station_name":"Depok","station_id":"DP","line":2,"is_transit":false,"transit":false,"distance":5084,"i_lat":-6.405256,"time":6,"i_long":106.816926},{"transit":false,"station_name":"Depokbaru","i_lat":-6.391065,"i_long":106.819451,"is_transit":false,"time":3,"line":2,"station_id":"DPB","distance":1584},{"distance":2727,"line":2,"station_id":"POC","i_lat":-6.369073,"is_transit":false,"i_long":106.831114,"time":4,"station_name":"Pondok Cina","transit":false},{"station_name":"Univ. Indonesia","i_lat":-6.360749,"station_id":"UI","i_long":106.831474,"is_transit":false,"distance":1109,"line":2,"transit":false,"time":2},{"i_long":106.834175,"station_name":"Univ. Pancasila","is_transit":false,"time":3,"distance":2264,"i_lat":-6.339291,"line":2,"station_id":"UP","transit":false},{"station_name":"Lenteng Agung","station_id":"LNA","is_transit":false,"distance":1029,"transit":false,"i_lat":-6.330363,"i_long":106.832616,"line":2,"time":2},{"station_name":"Tanjung Barat","time":3,"i_long":106.838896,"line":2,"transit":false,"station_id":"TNT","is_transit":false,"i_lat":-6.3080680000000005,"distance":2671},{"station_id":"PSM","i_lat":-6.2842400000000005,"station_name":"Pasar Minggu","i_long":106.843999,"transit":false,"time":4,"is_transit":false,"distance":2820,"line":2},{"station_name":"Pasar Minggu Baru","station_id":"PSMB","is_transit":false,"distance":2380,"i_long":106.851577,"time":2,"line":2,"i_lat":-6.263214,"transit":false},{"i_lat":-6.255332,"is_transit":false,"i_long":106.85449,"line":2,"station_id":"DRN","transit":false,"station_name":"Duren Kalibata","distance":824,"time":2},{"transit":false,"station_id":"CW","distance":1546,"station_name":"Cawang","i_lat":-6.242512,"time":3,"line":2,"i_long":106.856607,"is_transit":false},{"time":2,"i_long":106.857948,"transit":false,"station_id":"TEB","is_transit":false,"distance":1230,"station_name":"Tebet","line":2,"i_lat":-6.226659},{"time":4,"transit":true,"station_name":"Manggarai","i_long":106.84912,"is_transit":true,"line":2,"distance":2610,"i_lat":-6.209883,"station_id":"MRI"},{"station_name":"Sudirman","is_transit":false,"time":4,"distance":3186,"line":1,"i_long":106.822649,"i_lat":-6.202263,"transit":false,"station_id":"SUD"},{"i_lat":-6.201433,"line":1,"transit":false,"distance":280,"time":1,"is_transit":false,"station_name":"Sudirman Baru","i_long":106.819881,"station_id":"SUDB"},{"i_lat":-6.20132,"station_id":"KAT","i_long":106.816351,"transit":false,"time":1,"distance":471,"is_transit":false,"line":1,"station_name":"Karet"},{"line":1,"station_id":"THB","station_name":"Tanah Abang","distance":2029,"i_lat":-6.185545,"is_transit":false,"time":5,"i_long":106.811091,"transit":false},{"time":8,"station_name":"Duri","i_long":106.800832,"distance":3632,"is_transit":true,"i_lat":-6.155215,"transit":true,"line":1,"station_id":"DU"},{"time":3,"transit":false,"is_transit":false,"station_name":"Grogol","i_lat":-6.162021,"line":5,"distance":1700,"i_long":106.788277,"station_id":"GGL"},{"i_long":106.771379,"station_id":"PSG","transit":false,"station_name":"Pesing","time":2,"is_transit":false,"i_lat":-6.161433,"distance":2036,"line":5},{"distance":1614,"is_transit":false,"time":2,"transit":false,"station_name":"Taman Kota","station_id":"TKO","i_lat":-6.1587309999999995,"i_long":106.756522,"line":5},{"station_id":"BOI","i_long":106.737035,"i_lat":-6.159876,"station_name":"Bojongindah","distance":2334,"is_transit":false,"line":5,"time":2,"transit":false},{"station_name":"Rawa Buaya","i_lat":-6.162758,"time":4,"is_transit":false,"i_long":106.723064,"transit":false,"line":5,"station_id":"RW","distance":1152},{"time":3,"distance":2504,"i_lat":-6.166068,"line":5,"station_id":"KDS","is_transit":false,"i_long":106.701612,"transit":false,"station_name":"Kalideres"},{"line":5,"is_transit":false,"station_name":"Poris","i_lat":-6.169933,"time":3,"i_long":106.679458,"station_id":"PI","transit":false,"distance":2548},{"transit":false,"station_name":"Batuceper","line":5,"time":3,"is_transit":false,"distance":1834,"i_lat":-6.171811,"station_id":"BPR","i_long":106.665036},{"line":5,"transit":false,"station_id":"TTI","is_transit":false,"time":3,"station_name":"Tanah Tinggi","distance":2028,"i_lat":-6.17331,"i_long":106.64657}],[{"line":2,"is_transit":false,"distance":0,"i_long":106.800016,"i_lat":-6.530544,"transit":false,"station_id":"CLT","time":0,"station_name":"Cilebut"},{"is_transit":false,"transit":false,"time":5,"station_name":"Bojonggede","distance":4331,"line":2,"i_lat":-6.493243,"station_id":"BJD","i_long":106.792719},{"is_transit":false,"line":2,"station_name":"Citayam","station_id":"CTA","transit":false,"i_lat":-6.448811,"i_long":106.800298,"distance":5197,"time":5},{"distance":5084,"line":2,"i_long":106.816926,"station_id":"DP","transit":false,"is_transit":false,"time":6,"i_lat":-6.405256,"station_name":"Depok"},{"line":2,"station_id":"DPB","transit":false,"i_lat":-6.391065,"i_long":106.819451,"time":3,"station_name":"Depokbaru","distance":1584,"is_transit":false},{"i_lat":-6.369073,"is_transit":false,"i_long":106.831114,"station_id":"POC","transit":false,"time":4,"station_name":"Pondok Cina","distance":2727,"line":2},{"station_id":"UI","station_name":"Univ. Indonesia","is_transit":false,"distance":1109,"i_lat":-6.360749,"line":2,"i_long":106.831474,"transit":false,"time":2},{"transit":false,"i_long":106.834175,"distance":2264,"i_lat":-6.339291,"station_name":"Univ. Pancasila","line":2,"is_transit":false,"time":3,"station_id":"UP"},{"station_name":"Lenteng Agung","station_id":"LNA","distance":1029,"transit":false,"is_transit":false,"time":2,"i_lat":-6.330363,"line":2,"i_long":106.832616},{"i_long":106.838896,"transit":false,"distance":2671,"time":3,"line":2,"station_name":"Tanjung Barat","i_lat":-6.3080680000000005,"station_id":"TNT","is_transit":false},{"line":2,"station_id":"PSM","i_long":106.843999,"is_transit":false,"station_name":"Pasar Minggu","distance":2820,"transit":false,"time":4,"i_lat":-6.2842400000000005},{"i_lat":-6.263214,"station_id":"PSMB","distance":2380,"line":2,"i_long":106.851577,"time":2,"transit":false,"is_transit":false,"station_name":"Pasar Minggu Baru"},{"time":2,"distance":824,"station_id":"DRN","line":2,"transit":false,"station_name":"Duren Kalibata","is_transit":false,"i_lat":-6.255332,"i_long":106.85449},{"line":2,"station_name":"Cawang","station_id":"CW","i_lat":-6.242512,"distance":1546,"is_transit":false,"time":3,"i_long":106.856607,"transit":false},{"is_transit":false,"time":2,"station_name":"Tebet","station_id":"TEB","i_long":106.857948,"transit":false,"line":2,"distance":1230,"i_lat":-6.226659},{"i_long":106.84912,"i_lat":-6.209883,"time":4,"station_name":"Manggarai","station_id":"MRI","distance":2610,"line":2,"transit":false,"is_transit":false},{"station_id":"CKI","i_long":106.840169,"line":2,"is_transit":false,"transit":false,"distance":1590,"i_lat":-6.198556,"station_name":"Cikini","time":4},{"transit":false,"distance":1750,"time":3,"station_id":"GDD","is_transit":false,"i_lat":-6.186295,"station_name":"Gondangdia","i_long":106.832183,"line":2},{"line":2,"time":4,"distance":2015,"i_lat":-6.166716,"transit":false,"station_name":"Juanda","station_id":"JUA","is_transit":false,"i_long":106.828284},{"i_long":106.827103,"distance":1149,"is_transit":false,"time":2,"i_lat":-6.160725,"station_id":"SW","line":2,"station_name":"Sawah Besar","transit":false},{"distance":906,"station_name":"Manggabesar","transit":false,"time":2,"station_id":"MGB","i_lat":-6.149769,"i_long":106.82482,"line":2,"is_transit":false},{"transit":false,"time":2,"station_id":"JAY","station_name":"Jayakarta","distance":1080,"i_lat":-6.141205,"is_transit":false,"i_long":106.820901,"line":2},{"i_lat":-6.137569,"station_id":"JAKK","is_transit":true,"station_name":"Jakarta Kota","time":4,"i_long":106.812439,"line":2,"transit":true,"distance":1264},{"station_id":"KPB","transit":true,"is_transit":true,"i_lat":-6.132549,"station_name":"Kampung Bandan","i_long":106.826365,"line":4,"time":3,"distance":1364},{"station_id":"AK","time":9,"i_lat":-6.144674,"i_long":106.79867,"distance":4102,"is_transit":false,"station_name":"Angke","line":1,"transit":false},{"time":4,"transit":true,"station_name":"Duri","station_id":"DU","is_transit":true,"line":1,"i_lat":-6.155215,"distance":1230,"i_long":106.800832},{"distance":1700,"i_long":106.788277,"i_lat":-6.162021,"station_name":"Grogol","line":5,"station_id":"GGL","transit":false,"is_transit":false,"time":3},{"station_id":"PSG","distance":2036,"i_lat":-6.161433,"station_name":"Pesing","i_long":106.771379,"transit":false,"is_transit":false,"line":5,"time":2},{"station_name":"Taman Kota","distance":1614,"i_lat":-6.1587309999999995,"is_transit":false,"i_long":106.756522,"transit":false,"station_id":"TKO","time":2,"line":5},{"station_id":"BOI","time":2,"is_transit":false,"i_lat":-6.159876,"transit":false,"i_long":106.737035,"distance":2334,"station_name":"Bojongindah","line":5},{"line":5,"transit":false,"station_name":"Rawa Buaya","distance":1152,"time":4,"is_transit":false,"i_lat":-6.162758,"station_id":"RW","i_long":106.723064},{"station_id":"KDS","is_transit":false,"station_name":"Kalideres","distance":2504,"transit":false,"i_lat":-6.166068,"i_long":106.701612,"time":3,"line":5},{"time":3,"transit":false,"station_name":"Poris","distance":2548,"i_long":106.679458,"line":5,"station_id":"PI","i_lat":-6.169933,"is_transit":false},{"station_name":"Batuceper","station_id":"BPR","i_lat":-6.171811,"distance":1834,"transit":false,"line":5,"time":3,"i_long":106.665036,"is_transit":false},{"i_long":106.64657,"station_id":"TTI","station_name":"Tanah Tinggi","distance":2028,"transit":false,"i_lat":-6.17331,"is_transit":false,"time":3,"line":5}],[{"is_transit":false,"station_id":"CLT","line":2,"time":0,"station_name":"Cilebut","transit":false,"distance":0,"i_long":106.800016,"i_lat":-6.530544},{"time":5,"i_lat":-6.493243,"transit":false,"is_transit":false,"station_id":"BJD","i_long":106.792719,"station_name":"Bojonggede","line":2,"distance":4331},{"distance":5197,"line":2,"time":5,"i_long":106.800298,"station_id":"CTA","station_name":"Citayam","i_lat":-6.448811,"transit":false,"is_transit":false},{"station_id":"DP","is_transit":false,"line":2,"time":6,"transit":false,"i_lat":-6.405256,"station_name":"Depok","i_long":106.816926,"distance":5084},{"distance":1584,"line":2,"i_lat":-6.391065,"station_name":"Depokbaru","transit":false,"station_id":"DPB","is_transit":false,"time":3,"i_long":106.819451},{"line":2,"time":4,"station_name":"Pondok Cina","transit":false,"i_lat":-6.369073,"i_long":106.831114,"distance":2727,"station_id":"POC","is_transit":false},{"distance":1109,"time":2,"station_id":"UI","line":2,"i_lat":-6.360749,"transit":false,"i_long":106.831474,"station_name":"Univ. Indonesia","is_transit":false},{"i_long":106.834175,"station_name":"Univ. Pancasila","line":2,"transit":false,"distance":2264,"i_lat":-6.339291,"station_id":"UP","time":3,"is_transit":false},{"distance":1029,"line":2,"is_transit":false,"i_long":106.832616,"time":2,"transit":false,"station_id":"LNA","i_lat":-6.330363,"station_name":"Lenteng Agung"},{"i_lat":-6.3080680000000005,"is_transit":false,"i_long":106.838896,"station_name":"Tanjung Barat","line":2,"station_id":"TNT","transit":false,"time":3,"distance":2671},{"time":4,"station_id":"PSM","transit":false,"distance":2820,"i_lat":-6.2842400000000005,"is_transit":false,"station_name":"Pasar Minggu","i_long":106.843999,"line":2},{"transit":false,"station_name":"Pasar Minggu Baru","station_id":"PSMB","line":2,"i_long":106.851577,"distance":2380,"i_lat":-6.263214,"is_transit":false,"time":2},{"transit":false,"time":2,"station_name":"Duren Kalibata","distance":824,"is_transit":false,"i_long":106.85449,"station_id":"DRN","line":2,"i_lat":-6.255332},{"i_lat":-6.242512,"distance":1546,"i_long":106.856607,"line":2,"transit":false,"time":3,"station_name":"Cawang","station_id":"CW","is_transit":false},{"station_name":"Tebet","distance":1230,"is_transit":false,"time":2,"i_long":106.857948,"line":2,"transit":false,"station_id":"TEB","i_lat":-6.226659},{"line":2,"i_long":106.84912,"i_lat":-6.209883,"is_transit":true,"station_name":"Manggarai","distance":2610,"time":4,"station_id":"MRI","transit":true},{"is_transit":false,"line":1,"station_name":"Matraman","station_id":"MTR","time":2,"distance":1275,"transit":false,"i_lat":-6.212485,"i_long":106.858896},{"i_lat":-6.215091,"line":1,"is_transit":true,"distance":1377,"station_id":"JNG","i_long":106.86807400000001,"station_name":"Jatinegara","transit":true,"time":8},{"station_id":"POK","is_transit":false,"distance":1236,"line":11,"transit":false,"i_long":106.861737,"station_name":"Pondok Jati","i_lat":-6.209188,"time":2},{"transit":false,"time":2,"i_lat":-6.193792,"distance":1829,"is_transit":false,"station_name":"Kramat","line":11,"i_long":106.855437,"station_id":"KMT"},{"station_name":"Gang Sentiong","transit":false,"i_long":106.850107,"line":11,"i_lat":-6.185975,"is_transit":false,"time":1,"station_id":"GST","distance":973},{"i_lat":-6.174784,"line":11,"transit":false,"time":8,"i_long":106.84368,"station_id":"PSE","station_name":"Pasar Senen","distance":1567,"is_transit":false},{"distance":1436,"time":4,"station_name":"Kemayoran","i_long":106.839204,"transit":false,"i_lat":-6.161728,"line":11,"is_transit":false,"station_id":"KMO"},{"line":11,"station_id":"RJW","i_long":106.836569,"time":5,"station_name":"Rajawali","is_transit":false,"distance":1901,"transit":false,"i_lat":-6.14505},{"station_name":"Kampung Bandan","transit":true,"is_transit":true,"distance":1444,"station_id":"KPB","i_long":106.826365,"i_lat":-6.132549,"time":3,"line":4},{"station_name":"Angke","station_id":"AK","transit":false,"line":1,"is_transit":false,"distance":4102,"time":9,"i_lat":-6.144674,"i_long":106.79867},{"line":1,"transit":true,"i_lat":-6.155215,"distance":1230,"station_id":"DU","station_name":"Duri","is_transit":true,"time":4,"i_long":106.800832},{"station_name":"Grogol","is_transit":false,"distance":1700,"transit":false,"station_id":"GGL","line":5,"time":3,"i_long":106.788277,"i_lat":-6.162021},{"is_transit":false,"transit":false,"line":5,"station_id":"PSG","distance":2036,"station_name":"Pesing","i_long":106.771379,"time":2,"i_lat":-6.161433},{"time":2,"station_id":"TKO","station_name":"Taman Kota","is_transit":false,"distance":1614,"i_lat":-6.1587309999999995,"transit":false,"line":5,"i_long":106.756522},{"time":2,"line":5,"station_name":"Bojongindah","station_id":"BOI","distance":2334,"transit":false,"is_transit":false,"i_lat":-6.159876,"i_long":106.737035},{"station_id":"RW","distance":1152,"time":4,"transit":false,"station_name":"Rawa Buaya","i_long":106.723064,"is_transit":false,"line":5,"i_lat":-6.162758},{"distance":2504,"time":3,"i_long":106.701612,"station_id":"KDS","transit":false,"is_transit":false,"station_name":"Kalideres","i_lat":-6.166068,"line":5},{"station_name":"Poris","i_long":106.679458,"time":3,"i_lat":-6.169933,"transit":false,"line":5,"distance":2548,"station_id":"PI","is_transit":false},{"i_long":106.665036,"station_id":"BPR","is_transit":false,"station_name":"Batuceper","transit":false,"time":3,"i_lat":-6.171811,"distance":1834,"line":5},{"time":3,"is_transit":false,"line":5,"station_id":"TTI","transit":false,"i_lat":-6.17331,"i_long":106.64657,"station_name":"Tanah Tinggi","distance":2028}]]}