{"data":[[{"time":0,"station_id":"CLT","i_lat":-6.530544,"transit":false,"i_long":106.800016,"distance":0,"is_transit":false,"station_name":"Cilebut","line":0},{"i_long":106.792719,"distance":4331,"is_transit":false,"line":0,"transit":false,"i_lat":-6.493243,"station_id":"BJD","time":5,"station_name":"Bojonggede"},{"i_lat":-6.448811,"time":5,"is_transit":true,"distance":5197,"line":1,"station_name":"Citayam","station_id":"CTA","transit":false,"i_long":106.800298},{"station_id":"DP","i_lat":-6.405256,"station_name":"Depok","transit":false,"time":6,"distance":5084,"line":0,"i_long":106.816926,"is_transit":false},{"is_transit":false,"station_name":"Depokbaru","station_id":"DPB","transit":false,"time":3,"distance":1584,"i_lat":-6.391065,"line":0,"i_long":106.819451},{"i_lat":-6.369073,"distance":2727,"time":4,"station_id":"POC","transit":false,"i_long":106.831114,"line":2,"is_transit":false,"station_name":"Pondok Cina"},{"distance":1109,"transit":false,"i_long":106.831474,"line":2,"i_lat":-6.360749,"is_transit":false,"station_id":"UI","station_name":"Univ. Indonesia","time":2},{"line":2,"is_transit":false,"time":3,"transit":false,"i_long":106.834175,"station_id":"UP","station_name":"Univ. Pancasila","i_lat":-6.339291,"distance":2264},{"station_id":"LNA","distance":1029,"station_name":"Lenteng Agung","time":2,"transit":false,"i_lat":-6.330363,"i_long":106.832616,"line":2,"is_transit":false},{"is_transit":false,"station_id":"TNT","time":3,"line":2,"i_lat":-6.3080680000000005,"station_name":"Tanjung Barat","distance":2671,"i_long":106.838896,"transit":false},{"i_long":106.843999,"distance":2820,"station_id":"PSM","is_transit":false,"line":2,"i_lat":-6.2842400000000005,"time":4,"transit":false,"station_name":"Pasar Minggu"},{"transit":false,"i_long":106.851577,"station_id":"PSMB","distance":2380,"station_name":"Pasar Minggu Baru","time":2,"line":2,"is_transit":false,"i_lat":-6.263214},{"distance":824,"transit":false,"time":2,"line":0,"is_transit":false,"station_name":"Duren Kalibata","station_id":"DRN","i_lat":-6.255332,"i_long":106.85449},{"time":3,"line":0,"station_id":"CW","i_lat":-6.242512,"is_transit":false,"i_long":106.856607,"distance":1546,"station_name":"Cawang","transit":false},{"station_name":"Tebet","station_id":"TEB","i_lat":-6.226659,"is_transit":false,"time":2,"transit":false,"i_long":106.857948,"distance":1230,"line":2},{"is_transit":true,"line":0,"station_id":"MRI","transit":true,"distance":2610,"i_long":106.84912,"i_lat":-6.209883,"time":4,"station_name":"Manggarai"},{"time":2,"station_id":"MTR","is_transit":false,"i_lat":-6.212485,"line":1,"transit":false,"station_name":"Matraman","distance":1275,"i_long":106.858896},{"station_name":"Jatinegara","i_lat":-6.215091,"time":8,"i_long":106.86807400000001,"transit":true,"distance":1377,"is_transit":true,"station_id":"JNG","line":0},{"is_transit":false,"time":2,"i_long":106.861737,"line":11,"station_id":"POK","transit":false,"distance":1236,"i_lat":-6.209188,"station_name":"Pondok Jati"},{"station_name":"Kramat","i_long":106.855437,"line":11,"i_lat":-6.193792,"time":2,"is_transit":false,"transit":false,"distance":1829,"station_id":"KMT"}],[{"i_long":106.800016,"time":0,"station_id":"CLT","line":0,"distance":0,"station_name":"Cilebut","transit":false,"i_lat":-6.530544,"is_transit":false},{"i_long":106.792719,"i_lat":-6.493243,"distance":4331,"line":0,"is_transit":false,"station_name":"Bojonggede","station_id":"BJD","time":5,"transit":false},{"station_id":"CTA","is_transit":true,"i_lat":-6.448811,"i_long":106.800298,"station_name":"Citayam","line":1,"distance":5197,"transit":false,"time":5},{"time":6,"line":0,"station_name":"Depok","transit":false,"i_lat":-6.405256,"distance":5084,"i_long":106.816926,"station_id":"DP","is_transit":false},{"time":3,"is_transit":false,"station_name":"Depokbaru","i_long":106.819451,"distance":1584,"station_id":"DPB","i_lat":-6.391065,"transit":false,"line":0},{"line":2,"distance":2727,"station_name":"Pondok Cina","station_id":"POC","i_long":106.831114,"transit":false,"time":4,"i_lat":-6.369073,"is_transit":false},{"station_name":"Univ. Indonesia","i_lat":-6.360749,"line":2,"is_transit":false,"station_id":"UI","distance":1109,"i_long":106.831474,"transit":false,"time":2},{"is_transit":false,"station_name":"Univ. Pancasila","i_lat":-6.339291,"line":2,"distance":2264,"station_id":"UP","time":3,"i_long":106.834175,"transit":false},{"station_name":"Lenteng Agung","i_lat":-6.330363,"transit":false,"time":2,"distance":1029,"is_transit":false,"i_long":106.832616,"line":2,"station_id":"LNA"},{"i_long":106.838896,"line":2,"station_name":"Tanjung Barat","transit":false,"i_lat":-6.3080680000000005,"is_transit":false,"time":3,"distance":2671,"station_id":"TNT"},{"time":4,"is_transit":false,"distance":2820,"transit":false,"station_name":"Pasar Minggu","i_lat":-6.2842400000000005,"line":2,"i_long":106.843999,"station_id":"PSM"},{"transit":false,"is_transit":false,"station_name":"Pasar Minggu Baru","i_long":106.851577,"i_lat":-6.263214,"distance":2380,"line":2,"station_id":"PSMB","time":2},{"is_transit":false,"i_long":106.85449,"station_name":"Duren Kalibata","time":2,"station_id":"DRN","distance":824,"i_lat":-6.255332,"line":0,"transit":false},{"station_id":"CW","time":3,"is_transit":false,"i_lat":-6.242512,"i_long":106.856607,"station_name":"Cawang","line":0,"transit":false,"distance":1546},{"line":2,"station_id":"TEB","distance":1230,"i_lat":-6.226659,"station_name":"Tebet","is_transit":false,"transit":false,"time":2,"i_long":106.857948},{"time":4,"station_name":"Manggarai","distance":2610,"i_lat":-6.209883,"i_long":106.84912,"line":0,"transit":true,"is_transit":true,"station_id":"MRI"},{"time":4,"station_name":"Sudirman","transit":false,"is_transit":false,"station_id":"SUD","distance":3186,"i_lat":-6.202263,"i_long":106.822649,"line":1},{"station_id":"SUDB","transit":false,"i_long":106.819881,"i_lat":-6.201433,"line":1,"distance":280,"station_name":"Sudirman Baru","is_transit":false,"time":1},{"i_lat":-6.20132,"transit":false,"time":1,"distance":471,"line":1,"station_id":"KAT","i_long":106.816351,"is_transit":false,"station_name":"Karet"},{"station_id":"THB","station_name":"Tanah Abang","distance":2029,"transit":false,"i_lat":-6.185545,"line":1,"is_transit":true,"i_long":106.811091,"time":5},{"i_long":106.800832,"line":1,"time":8,"i_lat":-6.155215,"station_name":"Duri","is_transit":true,"station_id":"DU","distance":3632,"transit":true},{"station_name":"Angke","station_id":"AK","transit":false,"line":0,"distance":1230,"i_lat":-6.144674,"is_transit":false,"i_long":106.79867,"time":4},{"is_transit":true,"i_long":106.826365,"distance":4102,"i_lat":-6.132549,"station_id":"KPB","station_name":"Kampung Bandan","time":9,"line":0,"transit":true},{"station_name":"Rajawali","station_id":"RJW","i_lat":-6.14505,"line":11,"distance":1444,"is_transit":false,"time":3,"i_long":106.836569,"transit":false},{"transit":false,"i_long":106.839204,"station_id":"KMO","distance":1901,"is_transit":false,"line":11,"time":5,"i_lat":-6.161728,"station_name":"Kemayoran"},{"line":11,"is_transit":false,"distance":1436,"station_name":"Pasar Senen","time":4,"station_id":"PSE","i_long":106.84368,"i_lat":-6.174784,"transit":false},{"is_transit":false,"distance":1567,"i_long":106.850107,"time":8,"transit":false,"i_lat":-6.185975,"station_name":"Gang Sentiong","station_id":"GST","line":11},{"i_lat":-6.193792,"distance":973,"station_name":"Kramat","i_long":106.855437,"transit":false,"time":1,"is_transit":false,"station_id":"KMT","line":11}],[{"i_lat":-6.530544,"line":0,"station_id":"CLT","distance":0,"i_long":106.800016,"is_transit":false,"transit":false,"station_name":"Cilebut","time":0},{"time":5,"transit":false,"i_long":106.792719,"is_transit":false,"line":0,"distance":4331,"station_name":"Bojonggede","station_id":"BJD","i_lat":-6.493243},{"line":1,"station_id":"CTA","is_transit":true,"time":5,"distance":5197,"i_long":106.800298,"station_name":"Citayam","i_lat":-6.448811,"transit":false},{"station_name":"Depok","time":6,"distance":5084,"i_lat":-6.405256,"i_long":106.816926,"line":0,"transit":false,"is_transit":false,"station_id":"DP"},{"distance":1584,"is_transit":false,"i_lat":-6.391065,"station_id":"DPB","time":3,"i_long":106.819451,"line":0,"station_name":"Depokbaru","transit":false},{"station_id":"POC","station_name":"Pondok Cina","is_transit":false,"line":2,"i_lat":-6.369073,"i_long":106.831114,"transit":false,"time":4,"distance":2727},{"is_transit":false,"transit":false,"line":2,"station_id":"UI","time":2,"i_lat":-6.360749,"i_long":106.831474,"distance":1109,"station_name":"Univ. Indonesia"},{"i_long":106.834175,"is_transit":false,"distance":2264,"i_lat":-6.339291,"station_name":"Univ. Pancasila","time":3,"transit":false,"line":2,"station_id":"UP"},{"is_transit":false,"time":2,"transit":false,"i_long":106.832616,"station_id":"LNA","i_lat":-6.330363,"line":2,"distance":1029,"station_name":"Lenteng Agung"},{"station_id":"TNT","station_name":"Tanjung Barat","is_transit":false,"time":3,"i_long":106.838896,"distance":2671,"line":2,"i_lat":-6.3080680000000005,"transit":false},{"station_id":"PSM","time":4,"is_transit":false,"station_name":"Pasar Minggu","distance":2820,"i_long":106.843999,"line":2,"i_lat":-6.2842400000000005,"transit":false},{"distance":2380,"transit":false,"i_long":106.851577,"line":2,"station_name":"Pasar Minggu Baru","is_transit":false,"station_id":"PSMB","time":2,"i_lat":-6.263214},{"i_long":106.85449,"station_id":"DRN","line":0,"transit":false,"time":2,"is_transit":false,"station_name":"Duren Kalibata","distance":824,"i_lat":-6.255332},{"i_long":106.856607,"station_id":"CW","distance":1546,"i_lat":-6.242512,"is_transit":false,"station_name":"Cawang","transit":false,"line":0,"time":3},{"i_lat":-6.226659,"distance":1230,"i_long":106.857948,"line":2,"is_transit":false,"time":2,"station_id":"TEB","transit":false,"station_name":"Tebet"},{"is_transit":true,"station_name":"Manggarai","station_id":"MRI","transit":true,"i_long":106.84912,"i_lat":-6.209883,"line":0,"distance":2610,"time":4},{"line":0,"i_lat":-6.198556,"distance":1590,"is_transit":false,"station_name":"Cikini","time":4,"i_long":106.840169,"transit":false,"station_id":"CKI"},{"i_lat":-6.186295,"line":2,"time":3,"transit":false,"is_transit":false,"station_name":"Gondangdia","station_id":"GDD","distance":1750,"i_long":106.832183},{"i_long":106.828284,"station_name":"Juanda","i_lat":-6.166716,"is_transit":false,"transit":false,"station_id":"JUA","distance":2015,"time":4,"line":2},{"i_lat":-6.160725,"i_long":106.827103,"line":2,"transit":false,"distance":1149,"station_name":"Sawah Besar","is_transit":false,"time":2,"station_id":"SW"},{"time":2,"is_transit":false,"distance":906,"line":2,"i_lat":-6.149769,"station_name":"Manggabesar","station_id":"MGB","transit":false,"i_long":106.82482},{"time":2,"distance":1080,"transit":false,"i_long":106.820901,"station_name":"Jayakarta","station_id":"JAY","i_lat":-6.141205,"is_transit":false,"line":7},{"station_id":"JAKK","distance":1264,"i_long":106.812439,"i_lat":-6.137569,"transit":true,"time":4,"is_transit":true,"station_name":"Jakarta Kota","line":0},{"i_long":106.826365,"is_transit":true,"station_name":"Kampung Bandan","station_id":"KPB","transit":true,"time":3,"line":0,"distance":1364,"i_lat":-6.132549},{"station_id":"RJW","transit":false,"station_name":"Rajawali","time":3,"is_transit":false,"i_lat":-6.14505,"distance":1444,"line":11,"i_long":106.836569},{"transit":false,"i_long":106.839204,"i_lat":-6.161728,"is_transit":false,"distance":1901,"time":5,"line":11,"station_name":"Kemayoran","station_id":"KMO"},{"station_name":"Pasar Senen","i_lat":-6.174784,"distance":1436,"line":11,"is_transit":false,"i_long":106.84368,"station_id":"PSE","time":4,"transit":false},{"i_long":106.850107,"distance":1567,"i_lat":-6.185975,"station_name":"Gang Sentiong","is_transit":false,"time":8,"line":11,"transit":false,"station_id":"GST"},{"transit":false,"station_id":"KMT","distance":973,"line":11,"station_name":"Kramat","i_long":106.855437,"time":1,"i_lat":-6.193792,"is_transit":false}]]}