{"data":[[{"is_transit":false,"i_lat":-6.530544,"station_name":"Cilebut","line":2,"transit":false,"time":0,"station_id":"CLT","distance":0,"i_long":106.800016},{"time":5,"line":2,"transit":false,"i_long":106.792719,"station_name":"Bojonggede","is_transit":false,"station_id":"BJD","distance":4331,"i_lat":-6.493243},{"line":2,"station_name":"Citayam","transit":false,"i_long":106.800298,"is_transit":false,"i_lat":-6.448811,"time":5,"distance":5197,"station_id":"CTA"},{"is_transit":false,"station_name":"Depok","station_id":"DP","i_lat":-6.405256,"distance":5084,"i_long":106.816926,"time":6,"line":2,"transit":false},{"is_transit":false,"station_name":"Depokbaru","distance":1584,"transit":false,"time":3,"line":2,"station_id":"DPB","i_lat":-6.391065,"i_long":106.819451},{"time":4,"distance":2727,"transit":false,"line":2,"station_name":"Pondok Cina","is_transit":false,"station_id":"POC","i_lat":-6.369073,"i_long":106.831114},{"i_lat":-6.360749,"station_name":"Univ. Indonesia","line":2,"i_long":106.831474,"distance":1109,"is_transit":false,"time":2,"station_id":"UI","transit":false},{"transit":false,"time":3,"line":2,"is_transit":false,"i_lat":-6.339291,"i_long":106.834175,"station_id":"UP","distance":2264,"station_name":"Univ. Pancasila"},{"i_long":106.832616,"i_lat":-6.330363,"station_name":"Lenteng Agung","is_transit":false,"time":2,"transit":false,"distance":1029,"station_id":"LNA","line":2},{"time":3,"station_name":"Tanjung Barat","station_id":"TNT","i_long":106.838896,"i_lat":-6.3080680000000005,"transit":false,"line":2,"is_transit":false,"distance":2671},{"line":2,"time":4,"is_transit":false,"distance":2820,"station_name":"Pasar Minggu","i_lat":-6.2842400000000005,"station_id":"PSM","i_long":106.843999,"transit":false},{"distance":2380,"time":2,"station_name":"Pasar Minggu Baru","line":2,"is_transit":false,"transit":false,"i_lat":-6.263214,"i_long":106.851577,"station_id":"PSMB"},{"line":2,"transit":false,"i_lat":-6.255332,"distance":824,"time":2,"station_name":"Duren Kalibata","station_id":"DRN","is_transit":false,"i_long":106.85449},{"time":3,"is_transit":false,"distance":1546,"station_name":"Cawang","i_lat":-6.242512,"station_id":"CW","line":2,"i_long":106.856607,"transit":false},{"distance":1230,"time":2,"i_lat":-6.226659,"station_name":"Tebet","line":2,"is_transit":false,"station_id":"TEB","i_long":106.857948,"transit":false},{"i_lat":-6.209883,"station_id":"MRI","distance":2610,"i_long":106.84912,"station_name":"Manggarai","transit":true,"line":2,"is_transit":true,"time":4},{"transit":false,"line":1,"distance":3186,"is_transit":false,"time":4,"station_name":"Sudirman","station_id":"SUD","i_lat":-6.202263,"i_long":106.822649},{"line":1,"time":1,"station_name":"Sudirman Baru","is_transit":false,"transit":false,"station_id":"SUDB","i_long":106.819881,"distance":280,"i_lat":-6.201433},{"transit":false,"line":1,"time":1,"distance":471,"station_name":"Karet","station_id":"KAT","is_transit":false,"i_lat":-6.20132,"i_long":106.816351},{"time":5,"station_name":"Tanah Abang","distance":2029,"transit":true,"station_id":"THB","is_transit":true,"i_long":106.811091,"i_lat":-6.185545,"line":1},{"station_name":"Palmerah","transit":false,"station_id":"PLM","i_lat":-6.207404,"time":6,"line":6,"distance":3191,"is_transit":false,"i_long":106.79689},{"distance":3737,"station_id":"KBY","station_name":"Kebayoran","transit":false,"i_long":106.780334,"time":7,"is_transit":false,"line":6,"i_lat":-6.237242},{"is_transit":false,"i_lat":-6.276362,"station_id":"PDJ","line":6,"distance":6218,"time":8,"transit":false,"station_name":"Pondokranji","i_long":106.74273},{"i_lat":-6.288927,"distance":2179,"i_long":106.728916,"station_name":"Jurangmangu","station_id":"JMU","line":6,"is_transit":false,"time":3,"transit":false},{"line":6,"distance":1994,"time":4,"is_transit":false,"station_id":"SDM","i_lat":-6.296963,"transit":false,"i_long":106.712277,"station_name":"Sudimara"},{"time":6,"line":6,"transit":false,"station_id":"RU","i_lat":-6.314823,"i_long":106.675475,"station_name":"Rawa Buntu","distance":4566,"is_transit":false},{"i_lat":-6.319871,"station_name":"Serpong","distance":2413,"station_id":"SRP","is_transit":false,"line":6,"time":4,"transit":false,"i_long":106.66566},{"i_lat":-6.32484,"is_transit":false,"station_id":"CSK","distance":1784,"time":4,"line":3,"i_long":106.640411,"station_name":"Cisauk","transit":false}],[{"time":0,"distance":0,"is_transit":false,"i_lat":-6.530544,"line":2,"i_long":106.800016,"transit":false,"station_id":"CLT","station_name":"Cilebut"},{"distance":4331,"line":2,"station_name":"Bojonggede","time":5,"station_id":"BJD","i_lat":-6.493243,"i_long":106.792719,"is_transit":false,"transit":false},{"transit":false,"i_lat":-6.448811,"time":5,"i_long":106.800298,"line":2,"is_transit":false,"station_id":"CTA","station_name":"Citayam","distance":5197},{"station_id":"DP","transit":false,"distance":5084,"i_lat":-6.405256,"i_long":106.816926,"time":6,"station_name":"Depok","is_transit":false,"line":2},{"time":3,"i_lat":-6.391065,"station_name":"Depokbaru","station_id":"DPB","line":2,"i_long":106.819451,"is_transit":false,"distance":1584,"transit":false},{"distance":2727,"transit":false,"station_id":"POC","station_name":"Pondok Cina","i_lat":-6.369073,"is_transit":false,"i_long":106.831114,"line":2,"time":4},{"distance":1109,"i_lat":-6.360749,"is_transit":false,"transit":false,"time":2,"station_id":"UI","station_name":"Univ. Indonesia","line":2,"i_long":106.831474},{"station_id":"UP","transit":false,"time":3,"station_name":"Univ. Pancasila","i_lat":-6.339291,"i_long":106.834175,"distance":2264,"line":2,"is_transit":false},{"is_transit":false,"time":2,"i_long":106.832616,"line":2,"station_name":"Lenteng Agung","i_lat":-6.330363,"station_id":"LNA","distance":1029,"transit":false},{"is_transit":false,"time":3,"station_id":"TNT","i_long":106.838896,"line":2,"station_name":"Tanjung Barat","distance":2671,"i_lat":-6.3080680000000005,"transit":false},{"station_id":"PSM","i_long":106.843999,"transit":false,"line":2,"distance":2820,"station_name":"Pasar Minggu","time":4,"is_transit":false,"i_lat":-6.2842400000000005},{"is_transit":false,"transit":false,"line":2,"station_id":"PSMB","station_name":"Pasar Minggu Baru","i_lat":-6.263214,"time":2,"distance":2380,"i_long":106.851577},{"line":2,"is_transit":false,"distance":824,"station_id":"DRN","transit":false,"time":2,"station_name":"Duren Kalibata","i_lat":-6.255332,"i_long":106.85449},{"line":2,"time":3,"is_transit":false,"distance":1546,"i_lat":-6.242512,"transit":false,"station_id":"CW","station_name":"Cawang","i_long":106.856607},{"distance":1230,"station_id":"TEB","line":2,"i_lat":-6.226659,"time":2,"i_long":106.857948,"station_name":"Tebet","is_transit":false,"transit":false},{"distance":2610,"time":4,"is_transit":false,"station_name":"Manggarai","station_id":"MRI","i_long":106.84912,"transit":false,"line":2,"i_lat":-6.209883},{"station_name":"Cikini","i_long":106.840169,"transit":false,"distance":1590,"i_lat":-6.198556,"is_transit":false,"time":4,"line":2,"station_id":"CKI"},{"i_long":106.832183,"distance":1750,"time":3,"transit":false,"station_id":"GDD","i_lat":-6.186295,"line":2,"is_transit":false,"station_name":"Gondangdia"},{"transit":false,"time":4,"station_name":"Juanda","i_lat":-6.166716,"i_long":106.828284,"line":2,"station_id":"JUA","distance":2015,"is_transit":false},{"i_long":106.827103,"station_name":"Sawah Besar","transit":false,"distance":1149,"line":2,"is_transit":false,"time":2,"station_id":"SW","i_lat":-6.160725},{"transit":false,"i_long":106.82482,"distance":906,"station_name":"Manggabesar","i_lat":-6.149769,"time":2,"station_id":"MGB","is_transit":false,"line":2},{"distance":1080,"line":2,"transit":false,"i_lat":-6.141205,"i_long":106.820901,"is_transit":false,"time":2,"station_id":"JAY","station_name":"Jayakarta"},{"station_id":"JAKK","i_lat":-6.137569,"i_long":106.812439,"time":4,"line":2,"is_transit":true,"distance":1264,"transit":true,"station_name":"Jakarta Kota"},{"distance":1364,"is_transit":true,"transit":true,"station_name":"Kampung Bandan","station_id":"KPB","i_lat":-6.132549,"line":4,"time":3,"i_long":106.826365},{"line":1,"i_lat":-6.144674,"station_id":"AK","is_transit":false,"distance":4102,"transit":false,"time":9,"station_name":"Angke","i_long":106.79867},{"line":1,"time":4,"i_lat":-6.155215,"transit":false,"i_long":106.800832,"distance":1230,"station_name":"Duri","is_transit":false,"station_id":"DU"},{"station_id":"THB","transit":true,"i_long":106.811091,"line":1,"time":8,"station_name":"Tanah Abang","distance":3632,"i_lat":-6.185545,"is_transit":true},{"i_long":106.79689,"line":6,"is_transit":false,"station_name":"Palmerah","i_lat":-6.207404,"distance":3191,"transit":false,"time":6,"station_id":"PLM"},{"is_transit":false,"i_lat":-6.237242,"station_name":"Kebayoran","time":7,"transit":false,"line":6,"i_long":106.780334,"station_id":"KBY","distance":3737},{"i_lat":-6.276362,"is_transit":false,"transit":false,"time":8,"station_name":"Pondokranji","line":6,"distance":6218,"i_long":106.74273,"station_id":"PDJ"},{"transit":false,"i_long":106.728916,"is_transit":false,"station_name":"Jurangmangu","distance":2179,"station_id":"JMU","time":3,"line":6,"i_lat":-6.288927},{"time":4,"distance":1994,"station_name":"Sudimara","i_lat":-6.296963,"line":6,"i_long":106.712277,"station_id":"SDM","is_transit":false,"transit":false},{"transit":false,"station_name":"Rawa Buntu","i_lat":-6.314823,"line":6,"time":6,"is_transit":false,"distance":4566,"station_id":"RU","i_long":106.675475},{"transit":false,"line":6,"i_lat":-6.319871,"time":4,"is_transit":false,"station_id":"SRP","i_long":106.66566,"distance":2413,"station_name":"Serpong"},{"station_id":"CSK","station_name":"Cisauk","is_transit":false,"distance":1784,"line":3,"transit":false,"time":4,"i_lat":-6.32484,"i_long":106.640411}],[{"station_name":"Cilebut","i_lat":-6.530544,"station_id":"CLT","distance":0,"is_transit":false,"transit":false,"i_long":106.800016,"line":2,"time":0},{"transit":false,"i_lat":-6.493243,"station_id":"BJD","line":2,"station_name":"Bojonggede","is_transit":false,"time":5,"distance":4331,"i_long":106.792719},{"station_id":"CTA","is_transit":false,"time":5,"i_long":106.800298,"line":2,"transit":false,"station_name":"Citayam","i_lat":-6.448811,"distance":5197},{"distance":5084,"station_id":"DP","transit":false,"i_lat":-6.405256,"is_transit":false,"line":2,"station_name":"Depok","i_long":106.816926,"time":6},{"is_transit":false,"time":3,"line":2,"distance":1584,"station_name":"Depokbaru","station_id":"DPB","transit":false,"i_lat":-6.391065,"i_long":106.819451},{"line":2,"i_lat":-6.369073,"is_transit":false,"time":4,"i_long":106.831114,"station_name":"Pondok Cina","transit":false,"distance":2727,"station_id":"POC"},{"station_name":"Univ. Indonesia","line":2,"station_id":"UI","is_transit":false,"i_lat":-6.360749,"transit":false,"time":2,"distance":1109,"i_long":106.831474},{"is_transit":false,"station_name":"Univ. Pancasila","line":2,"distance":2264,"transit":false,"time":3,"i_long":106.834175,"station_id":"UP","i_lat":-6.339291},{"i_lat":-6.330363,"distance":1029,"transit":false,"time":2,"is_transit":false,"line":2,"station_name":"Lenteng Agung","station_id":"LNA","i_long":106.832616},{"i_lat":-6.3080680000000005,"is_transit":false,"transit":false,"distance":2671,"time":3,"station_name":"Tanjung Barat","station_id":"TNT","line":2,"i_long":106.838896},{"line":2,"is_transit":false,"transit":false,"i_long":106.843999,"time":4,"station_name":"Pasar Minggu","i_lat":-6.2842400000000005,"station_id":"PSM","distance":2820},{"transit":false,"station_name":"Pasar Minggu Baru","line":2,"station_id":"PSMB","i_lat":-6.263214,"distance":2380,"is_transit":false,"time":2,"i_long":106.851577},{"i_lat":-6.255332,"i_long":106.85449,"station_id":"DRN","distance":824,"time":2,"transit":false,"station_name":"Duren Kalibata","is_transit":false,"line":2},{"i_lat":-6.242512,"station_id":"CW","is_transit":false,"station_name":"Cawang","line":2,"distance":1546,"time":3,"i_long":106.856607,"transit":false},{"i_lat":-6.226659,"transit":false,"station_id":"TEB","i_long":106.857948,"distance":1230,"station_name":"Tebet","line":2,"is_transit":false,"time":2},{"transit":true,"time":4,"i_lat":-6.209883,"distance":2610,"station_id":"MRI","i_long":106.84912,"line":2,"station_name":"Manggarai","is_transit":true},{"line":1,"station_id":"MTR","transit":false,"distance":1275,"time":2,"station_name":"Matraman","is_transit":false,"i_lat":-6.212485,"i_long":106.858896},{"transit":true,"station_id":"JNG","line":1,"distance":1377,"is_transit":true,"time":8,"i_long":106.86807400000001,"station_name":"Jatinegara","i_lat":-6.215091},{"is_transit":false,"station_id":"POK","distance":1236,"time":2,"i_lat":-6.209188,"i_long":106.861737,"station_name":"Pondok Jati","line":11,"transit":false},{"time":2,"is_transit":false,"distance":1829,"station_name":"Kramat","i_long":106.855437,"station_id":"KMT","transit":false,"i_lat":-6.193792,"line":11},{"line":11,"i_lat":-6.185975,"distance":973,"time":1,"transit":false,"is_transit":false,"station_name":"Gang Sentiong","i_long":106.850107,"station_id":"GST"},{"i_long":106.84368,"is_transit":false,"line":11,"i_lat":-6.174784,"time":8,"station_id":"PSE","station_name":"Pasar Senen","distance":1567,"transit":false},{"i_lat":-6.161728,"i_long":106.839204,"line":11,"is_transit":false,"distance":1436,"transit":false,"station_id":"KMO","time":4,"station_name":"Kemayoran"},{"is_transit":false,"distance":1901,"i_lat":-6.14505,"line":11,"transit":false,"station_name":"Rajawali","time":5,"i_long":106.836569,"station_id":"RJW"},{"station_name":"Kampung Bandan","station_id":"KPB","i_long":106.826365,"line":4,"distance":1444,"transit":true,"i_lat":-6.132549,"is_transit":true,"time":3},{"i_lat":-6.144674,"station_name":"Angke","station_id":"AK","i_long":106.79867,"transit":false,"is_transit":false,"line":1,"distance":4102,"time":9},{"station_id":"DU","is_transit":false,"station_name":"Duri","i_lat":-6.155215,"i_long":106.800832,"time":4,"distance":1230,"line":1,"transit":false},{"i_lat":-6.185545,"is_transit":true,"transit":true,"i_long":106.811091,"station_name":"Tanah Abang","line":1,"distance":3632,"time":8,"station_id":"THB"},{"i_long":106.79689,"station_name":"Palmerah","time":6,"station_id":"PLM","line":6,"distance":3191,"is_transit":false,"i_lat":-6.207404,"transit":false},{"distance":3737,"is_transit":false,"i_lat":-6.237242,"transit":false,"time":7,"station_id":"KBY","line":6,"i_long":106.780334,"station_name":"Kebayoran"},{"transit":false,"station_id":"PDJ","i_long":106.74273,"line":6,"is_transit":false,"station_name":"Pondokranji","i_lat":-6.276362,"distance":6218,"time":8},{"transit":false,"station_name":"Jurangmangu","station_id":"JMU","i_lat":-6.288927,"distance":2179,"is_transit":false,"time":3,"i_long":106.728916,"line":6},{"line":6,"i_lat":-6.296963,"is_transit":false,"i_long":106.712277,"time":4,"station_name":"Sudimara","distance":1994,"station_id":"SDM","transit":false},{"distance":4566,"line":6,"is_transit":false,"station_id":"RU","i_lat":-6.314823,"transit":false,"time":6,"i_long":106.675475,"station_name":"Rawa Buntu"},{"station_id":"SRP","transit":false,"station_name":"Serpong","is_transit":false,"i_long":106.66566,"line":6,"distance":2413,"time":4,"i_lat":-6.319871},{"time":4,"station_id":"CSK","distance":1784,"i_long":106.640411,"i_lat":-6.32484,"line":3,"is_transit":false,"station_name":"Cisauk","transit":false}]]}