{"data":[[{"i_long":106.800016,"time":0,"distance":0,"i_lat":-6.530544,"station_name":"Cilebut","station_id":"CLT","is_transit":false,"line":2,"transit":false},{"station_id":"BJD","time":5,"station_name":"Bojonggede","transit":false,"distance":4331,"is_transit":false,"i_long":106.792719,"line":2,"i_lat":-6.493243},{"line":2,"distance":5197,"is_transit":false,"i_lat":-6.448811,"transit":false,"i_long":106.800298,"station_id":"CTA","station_name":"Citayam","time":5},{"station_id":"DP","distance":5084,"time":6,"station_name":"Depok","is_transit":false,"transit":false,"i_long":106.816926,"line":2,"i_lat":-6.405256},{"i_lat":-6.391065,"i_long":106.819451,"distance":1584,"time":3,"transit":false,"is_transit":false,"line":2,"station_id":"DPB","station_name":"Depokbaru"},{"line":2,"transit":false,"distance":2727,"station_id":"POC","time":4,"i_lat":-6.369073,"station_name":"Pondok Cina","is_transit":false,"i_long":106.831114},{"transit":false,"station_id":"UI","distance":1109,"i_long":106.831474,"station_name":"Univ. Indonesia","is_transit":false,"time":2,"i_lat":-6.360749,"line":2},{"transit":false,"i_long":106.834175,"station_name":"Univ. Pancasila","station_id":"UP","time":3,"line":2,"is_transit":false,"distance":2264,"i_lat":-6.339291},{"distance":1029,"station_id":"LNA","is_transit":false,"i_lat":-6.330363,"line":2,"station_name":"Lenteng Agung","i_long":106.832616,"transit":false,"time":2},{"distance":2671,"station_name":"Tanjung Barat","station_id":"TNT","transit":false,"time":3,"line":2,"i_long":106.838896,"i_lat":-6.3080680000000005,"is_transit":false},{"line":2,"distance":2820,"i_lat":-6.2842400000000005,"i_long":106.843999,"station_id":"PSM","is_transit":false,"time":4,"transit":false,"station_name":"Pasar Minggu"},{"station_name":"Pasar Minggu Baru","transit":false,"station_id":"PSMB","time":2,"i_long":106.851577,"line":2,"is_transit":false,"distance":2380,"i_lat":-6.263214},{"transit":false,"line":2,"is_transit":false,"i_lat":-6.255332,"station_name":"Duren Kalibata","station_id":"DRN","time":2,"distance":824,"i_long":106.85449},{"line":2,"station_id":"CW","is_transit":false,"distance":1546,"station_name":"Cawang","time":3,"i_long":106.856607,"transit":false,"i_lat":-6.242512},{"time":2,"station_name":"Tebet","transit":false,"i_long":106.857948,"distance":1230,"i_lat":-6.226659,"station_id":"TEB","is_transit":false,"line":2},{"i_long":106.84912,"station_id":"MRI","distance":2610,"transit":true,"line":2,"is_transit":true,"station_name":"Manggarai","time":4,"i_lat":-6.209883},{"station_id":"MTR","time":2,"i_lat":-6.212485,"distance":1275,"transit":false,"i_long":106.858896,"is_transit":false,"line":1,"station_name":"Matraman"},{"transit":false,"i_lat":-6.215091,"station_name":"Jatinegara","i_long":106.86807400000001,"line":1,"station_id":"JNG","time":8,"is_transit":false,"distance":1377},{"is_transit":false,"line":1,"station_id":"KLD","station_name":"Klender","distance":3395,"time":3,"transit":false,"i_long":106.899548,"i_lat":-6.2135},{"i_long":106.922662,"distance":3100,"line":1,"station_name":"Buaran","transit":false,"time":2,"i_lat":-6.215568,"is_transit":false,"station_id":"BUA"},{"i_lat":-6.217455,"line":1,"station_id":"KLDB","distance":1305,"station_name":"Klenderbaru","is_transit":false,"i_long":106.939679,"transit":false,"time":1},{"line":1,"distance":1385,"station_name":"Cakung","is_transit":false,"station_id":"CUK","i_long":106.951283,"time":8,"i_lat":-6.219053,"transit":false}],[{"is_transit":false,"station_id":"CLT","i_long":106.800016,"distance":0,"transit":false,"line":2,"station_name":"Cilebut","i_lat":-6.530544,"time":0},{"station_id":"BJD","line":2,"station_name":"Bojonggede","transit":false,"is_transit":false,"time":5,"i_lat":-6.493243,"i_long":106.792719,"distance":4331},{"is_transit":false,"station_id":"CTA","line":2,"i_long":106.800298,"transit":false,"station_name":"Citayam","i_lat":-6.448811,"time":5,"distance":5197},{"distance":5084,"line":2,"transit":false,"i_long":106.816926,"time":6,"station_id":"DP","station_name":"Depok","is_transit":false,"i_lat":-6.405256},{"time":3,"distance":1584,"is_transit":false,"line":2,"station_name":"Depokbaru","station_id":"DPB","transit":false,"i_lat":-6.391065,"i_long":106.819451},{"distance":2727,"i_lat":-6.369073,"time":4,"transit":false,"is_transit":false,"station_name":"Pondok Cina","i_long":106.831114,"line":2,"station_id":"POC"},{"line":2,"time":2,"distance":1109,"station_name":"Univ. Indonesia","transit":false,"i_lat":-6.360749,"is_transit":false,"i_long":106.831474,"station_id":"UI"},{"distance":2264,"i_long":106.834175,"station_name":"Univ. Pancasila","transit":false,"is_transit":false,"station_id":"UP","line":2,"i_lat":-6.339291,"time":3},{"transit":false,"line":2,"distance":1029,"i_lat":-6.330363,"time":2,"station_name":"Lenteng Agung","station_id":"LNA","is_transit":false,"i_long":106.832616},{"is_transit":false,"i_long":106.838896,"station_name":"Tanjung Barat","i_lat":-6.3080680000000005,"distance":2671,"transit":false,"line":2,"station_id":"TNT","time":3},{"distance":2820,"station_name":"Pasar Minggu","is_transit":false,"line":2,"transit":false,"i_long":106.843999,"station_id":"PSM","time":4,"i_lat":-6.2842400000000005},{"i_lat":-6.263214,"distance":2380,"is_transit":false,"station_name":"Pasar Minggu Baru","station_id":"PSMB","i_long":106.851577,"line":2,"transit":false,"time":2},{"i_long":106.85449,"time":2,"station_name":"Duren Kalibata","is_transit":false,"station_id":"DRN","transit":false,"i_lat":-6.255332,"line":2,"distance":824},{"station_name":"Cawang","time":3,"i_lat":-6.242512,"distance":1546,"transit":false,"station_id":"CW","i_long":106.856607,"line":2,"is_transit":false},{"i_long":106.857948,"station_name":"Tebet","transit":false,"time":2,"distance":1230,"station_id":"TEB","is_transit":false,"line":2,"i_lat":-6.226659},{"station_name":"Manggarai","line":2,"time":4,"distance":2610,"is_transit":true,"transit":true,"station_id":"MRI","i_long":106.84912,"i_lat":-6.209883},{"is_transit":false,"station_id":"SUD","line":1,"i_lat":-6.202263,"time":4,"station_name":"Sudirman","i_long":106.822649,"distance":3186,"transit":false},{"line":1,"transit":false,"i_long":106.819881,"time":1,"distance":280,"station_id":"SUDB","is_transit":false,"i_lat":-6.201433,"station_name":"Sudirman Baru"},{"i_long":106.816351,"station_id":"KAT","distance":471,"line":1,"transit":false,"station_name":"Karet","is_transit":false,"time":1,"i_lat":-6.20132},{"transit":false,"station_id":"THB","station_name":"Tanah Abang","time":5,"distance":2029,"i_long":106.811091,"i_lat":-6.185545,"line":1,"is_transit":false},{"is_transit":false,"i_long":106.800832,"line":1,"station_name":"Duri","distance":3632,"transit":false,"time":8,"i_lat":-6.155215,"station_id":"DU"},{"line":1,"transit":false,"is_transit":false,"station_name":"Angke","i_lat":-6.144674,"distance":1230,"station_id":"AK","i_long":106.79867,"time":4},{"i_long":106.826365,"line":4,"station_name":"Kampung Bandan","station_id":"KPB","transit":true,"distance":4102,"i_lat":-6.132549,"time":9,"is_transit":true},{"distance":1444,"i_long":106.836569,"station_id":"RJW","transit":false,"line":11,"i_lat":-6.14505,"is_transit":false,"time":3,"station_name":"Rajawali"},{"distance":1901,"line":11,"station_name":"Kemayoran","i_long":106.839204,"time":5,"transit":false,"station_id":"KMO","is_transit":false,"i_lat":-6.161728},{"is_transit":false,"time":4,"station_id":"PSE","line":11,"distance":1436,"station_name":"Pasar Senen","transit":false,"i_long":106.84368,"i_lat":-6.174784},{"is_transit":false,"station_name":"Gang Sentiong","time":8,"i_long":106.850107,"line":11,"station_id":"GST","transit":false,"i_lat":-6.185975,"distance":1567},{"station_name":"Kramat","time":1,"i_long":106.855437,"is_transit":false,"transit":false,"line":11,"station_id":"KMT","i_lat":-6.193792,"distance":973},{"is_transit":false,"i_lat":-6.209188,"station_name":"Pondok Jati","distance":1829,"time":2,"i_long":106.861737,"line":11,"transit":false,"station_id":"POK"},{"i_long":106.86807400000001,"station_name":"Jatinegara","distance":1236,"station_id":"JNG","i_lat":-6.215091,"line":1,"transit":true,"is_transit":true,"time":9},{"is_transit":false,"station_name":"Klender","i_lat":-6.2135,"distance":3395,"station_id":"KLD","transit":false,"time":3,"line":1,"i_long":106.899548},{"station_id":"BUA","station_name":"Buaran","transit":false,"i_lat":-6.215568,"is_transit":false,"time":2,"distance":3100,"line":1,"i_long":106.922662},{"i_long":106.939679,"station_name":"Klenderbaru","is_transit":false,"line":1,"time":1,"distance":1305,"i_lat":-6.217455,"station_id":"KLDB","transit":false},{"time":8,"i_long":106.951283,"station_name":"Cakung","is_transit":false,"transit":false,"i_lat":-6.219053,"distance":1385,"line":1,"station_id":"CUK"}],[{"station_name":"Cilebut","station_id":"CLT","is_transit":false,"distance":0,"i_lat":-6.530544,"line":2,"time":0,"transit":false,"i_long":106.800016},{"time":5,"line":2,"station_id":"BJD","i_long":106.792719,"station_name":"Bojonggede","distance":4331,"i_lat":-6.493243,"is_transit":false,"transit":false},{"station_name":"Citayam","station_id":"CTA","time":5,"transit":false,"line":2,"is_transit":false,"i_lat":-6.448811,"distance":5197,"i_long":106.800298},{"i_lat":-6.405256,"station_id":"DP","distance":5084,"station_name":"Depok","time":6,"line":2,"i_long":106.816926,"transit":false,"is_transit":false},{"i_lat":-6.391065,"transit":false,"i_long":106.819451,"station_id":"DPB","time":3,"line":2,"distance":1584,"station_name":"Depokbaru","is_transit":false},{"i_lat":-6.369073,"i_long":106.831114,"station_name":"Pondok Cina","time":4,"station_id":"POC","transit":false,"distance":2727,"is_transit":false,"line":2},{"i_long":106.831474,"station_id":"UI","transit":false,"is_transit":false,"i_lat":-6.360749,"line":2,"distance":1109,"station_name":"Univ. Indonesia","time":2},{"distance":2264,"station_name":"Univ. Pancasila","transit":false,"time":3,"i_lat":-6.339291,"line":2,"station_id":"UP","i_long":106.834175,"is_transit":false},{"distance":1029,"i_lat":-6.330363,"transit":false,"is_transit":false,"station_id":"LNA","i_long":106.832616,"line":2,"station_name":"Lenteng Agung","time":2},{"distance":2671,"line":2,"transit":false,"station_name":"Tanjung Barat","station_id":"TNT","i_lat":-6.3080680000000005,"time":3,"is_transit":false,"i_long":106.838896},{"distance":2820,"station_id":"PSM","i_long":106.843999,"line":2,"is_transit":false,"station_name":"Pasar Minggu","transit":false,"time":4,"i_lat":-6.2842400000000005},{"i_long":106.851577,"station_name":"Pasar Minggu Baru","is_transit":false,"distance":2380,"station_id":"PSMB","i_lat":-6.263214,"time":2,"line":2,"transit":false},{"distance":824,"time":2,"line":2,"is_transit":false,"transit":false,"station_id":"DRN","i_lat":-6.255332,"i_long":106.85449,"station_name":"Duren Kalibata"},{"station_id":"CW","time":3,"line":2,"transit":false,"distance":1546,"is_transit":false,"i_lat":-6.242512,"i_long":106.856607,"station_name":"Cawang"},{"i_lat":-6.226659,"i_long":106.857948,"is_transit":false,"station_id":"TEB","transit":false,"line":2,"station_name":"Tebet","distance":1230,"time":2},{"station_name":"Manggarai","transit":false,"line":2,"i_lat":-6.209883,"is_transit":false,"station_id":"MRI","i_long":106.84912,"time":4,"distance":2610},{"i_long":106.840169,"distance":1590,"is_transit":false,"station_name":"Cikini","time":4,"station_id":"CKI","i_lat":-6.198556,"line":2,"transit":false},{"time":3,"distance":1750,"i_lat":-6.186295,"station_name":"Gondangdia","line":2,"transit":false,"i_long":106.832183,"is_transit":false,"station_id":"GDD"},{"station_id":"JUA","line":2,"distance":2015,"station_name":"Juanda","is_transit":false,"i_long":106.828284,"time":4,"i_lat":-6.166716,"transit":false},{"transit":false,"station_id":"SW","time":2,"i_lat":-6.160725,"i_long":106.827103,"is_transit":false,"distance":1149,"line":2,"station_name":"Sawah Besar"},{"is_transit":false,"line":2,"i_long":106.82482,"distance":906,"time":2,"station_name":"Manggabesar","station_id":"MGB","i_lat":-6.149769,"transit":false},{"i_long":106.820901,"station_name":"Jayakarta","is_transit":false,"line":2,"distance":1080,"time":2,"transit":false,"i_lat":-6.141205,"station_id":"JAY"},{"time":4,"i_lat":-6.137569,"i_long":106.812439,"is_transit":true,"line":2,"station_name":"Jakarta Kota","distance":1264,"station_id":"JAKK","transit":true},{"i_lat":-6.132549,"i_long":106.826365,"station_name":"Kampung Bandan","time":3,"line":4,"station_id":"KPB","distance":1364,"transit":true,"is_transit":true},{"is_transit":false,"i_long":106.836569,"station_id":"RJW","transit":false,"line":11,"i_lat":-6.14505,"time":3,"station_name":"Rajawali","distance":1444},{"distance":1901,"transit":false,"i_long":106.839204,"time":5,"line":11,"i_lat":-6.161728,"station_name":"Kemayoran","station_id":"KMO","is_transit":false},{"is_transit":false,"time":4,"transit":false,"i_long":106.84368,"distance":1436,"station_id":"PSE","line":11,"i_lat":-6.174784,"station_name":"Pasar Senen"},{"station_id":"GST","line":11,"station_name":"Gang Sentiong","time":8,"is_transit":false,"distance":1567,"i_long":106.850107,"transit":false,"i_lat":-6.185975},{"line":11,"transit":false,"station_id":"KMT","is_transit":false,"distance":973,"time":1,"i_lat":-6.193792,"i_long":106.855437,"station_name":"Kramat"},{"time":2,"station_name":"Pondok Jati","i_lat":-6.209188,"i_long":106.861737,"line":11,"station_id":"POK","distance":1829,"transit":false,"is_transit":false},{"time":9,"i_long":106.86807400000001,"line":1,"station_id":"JNG","transit":true,"distance":1236,"station_name":"Jatinegara","is_transit":true,"i_lat":-6.215091},{"station_name":"Klender","i_long":106.899548,"i_lat":-6.2135,"line":1,"transit":false,"is_transit":false,"station_id":"KLD","distance":3395,"time":3},{"station_name":"Buaran","line":1,"transit":false,"time":2,"is_transit":false,"i_long":106.922662,"distance":3100,"station_id":"BUA","i_lat":-6.215568},{"station_name":"Klenderbaru","time":1,"i_long":106.939679,"i_lat":-6.217455,"line":1,"distance":1305,"is_transit":false,"station_id":"KLDB","transit":false},{"is_transit":false,"station_name":"Cakung","distance":1385,"time":8,"i_lat":-6.219053,"i_long":106.951283,"transit":false,"line":1,"station_id":"CUK"}]]}