{"data":[[{"line":0,"i_lat":-6.530544,"station_id":"CLT","station_name":"Cilebut","distance":0,"is_transit":false,"transit":false,"time":0,"i_long":106.800016},{"line":0,"is_transit":false,"transit":false,"distance":4331,"i_long":106.792719,"time":5,"station_name":"Bojonggede","i_lat":-6.493243,"station_id":"BJD"},{"station_name":"Citayam","station_id":"CTA","line":1,"transit":false,"i_lat":-6.448811,"is_transit":true,"time":5,"distance":5197,"i_long":106.800298},{"line":0,"i_long":106.816926,"station_id":"DP","time":6,"is_transit":false,"transit":false,"station_name":"Depok","distance":5084,"i_lat":-6.405256},{"is_transit":false,"station_name":"Depokbaru","i_lat":-6.391065,"station_id":"DPB","distance":1584,"line":0,"time":3,"i_long":106.819451,"transit":false},{"station_id":"POC","time":4,"is_transit":false,"i_lat":-6.369073,"i_long":106.831114,"line":2,"station_name":"Pondok Cina","transit":false,"distance":2727},{"time":2,"is_transit":false,"i_lat":-6.360749,"line":2,"distance":1109,"transit":false,"station_id":"UI","i_long":106.831474,"station_name":"Univ. Indonesia"},{"line":2,"distance":2264,"station_name":"Univ. Pancasila","station_id":"UP","is_transit":false,"time":3,"i_lat":-6.339291,"transit":false,"i_long":106.834175},{"time":2,"i_lat":-6.330363,"is_transit":false,"transit":false,"distance":1029,"i_long":106.832616,"station_id":"LNA","line":2,"station_name":"Lenteng Agung"},{"station_id":"TNT","is_transit":false,"station_name":"Tanjung Barat","i_lat":-6.3080680000000005,"i_long":106.838896,"time":3,"transit":false,"distance":2671,"line":2},{"time":4,"distance":2820,"i_long":106.843999,"is_transit":false,"station_id":"PSM","line":2,"station_name":"Pasar Minggu","transit":false,"i_lat":-6.2842400000000005},{"distance":2380,"i_lat":-6.263214,"i_long":106.851577,"line":2,"transit":false,"time":2,"station_id":"PSMB","station_name":"Pasar Minggu Baru","is_transit":false},{"time":2,"transit":false,"i_lat":-6.255332,"distance":824,"is_transit":false,"line":0,"station_id":"DRN","i_long":106.85449,"station_name":"Duren Kalibata"},{"station_name":"Cawang","station_id":"CW","time":3,"transit":false,"i_lat":-6.242512,"line":0,"is_transit":false,"i_long":106.856607,"distance":1546},{"is_transit":false,"station_name":"Tebet","line":2,"i_lat":-6.226659,"time":2,"i_long":106.857948,"station_id":"TEB","transit":false,"distance":1230},{"line":0,"station_name":"Manggarai","transit":true,"distance":2610,"is_transit":true,"i_lat":-6.209883,"station_id":"MRI","time":4,"i_long":106.84912},{"i_lat":-6.212485,"i_long":106.858896,"line":1,"distance":1275,"time":2,"is_transit":false,"transit":false,"station_name":"Matraman","station_id":"MTR"},{"line":0,"time":8,"station_name":"Jatinegara","station_id":"JNG","distance":1377,"i_long":106.86807400000001,"is_transit":true,"i_lat":-6.215091,"transit":false},{"is_transit":false,"distance":3395,"i_lat":-6.2135,"line":1,"station_name":"Klender","time":3,"transit":false,"station_id":"KLD","i_long":106.899548}],[{"i_lat":-6.530544,"line":0,"station_name":"Cilebut","time":0,"station_id":"CLT","i_long":106.800016,"transit":false,"is_transit":false,"distance":0},{"station_name":"Bojonggede","is_transit":false,"distance":4331,"transit":false,"line":0,"time":5,"i_long":106.792719,"i_lat":-6.493243,"station_id":"BJD"},{"i_lat":-6.448811,"transit":false,"distance":5197,"station_id":"CTA","i_long":106.800298,"time":5,"station_name":"Citayam","is_transit":true,"line":1},{"transit":false,"i_long":106.816926,"station_name":"Depok","station_id":"DP","is_transit":false,"line":0,"i_lat":-6.405256,"distance":5084,"time":6},{"i_long":106.819451,"transit":false,"distance":1584,"time":3,"i_lat":-6.391065,"is_transit":false,"station_id":"DPB","line":0,"station_name":"Depokbaru"},{"line":2,"is_transit":false,"i_lat":-6.369073,"i_long":106.831114,"station_id":"POC","station_name":"Pondok Cina","time":4,"transit":false,"distance":2727},{"station_name":"Univ. Indonesia","i_long":106.831474,"transit":false,"distance":1109,"is_transit":false,"i_lat":-6.360749,"line":2,"station_id":"UI","time":2},{"line":2,"station_id":"UP","station_name":"Univ. Pancasila","time":3,"distance":2264,"i_long":106.834175,"transit":false,"is_transit":false,"i_lat":-6.339291},{"i_long":106.832616,"distance":1029,"station_id":"LNA","time":2,"station_name":"Lenteng Agung","transit":false,"i_lat":-6.330363,"line":2,"is_transit":false},{"station_name":"Tanjung Barat","station_id":"TNT","time":3,"is_transit":false,"i_lat":-6.3080680000000005,"transit":false,"i_long":106.838896,"line":2,"distance":2671},{"line":2,"station_id":"PSM","time":4,"distance":2820,"station_name":"Pasar Minggu","transit":false,"i_lat":-6.2842400000000005,"is_transit":false,"i_long":106.843999},{"is_transit":false,"i_lat":-6.263214,"transit":false,"station_id":"PSMB","station_name":"Pasar Minggu Baru","distance":2380,"time":2,"i_long":106.851577,"line":2},{"is_transit":false,"i_lat":-6.255332,"distance":824,"station_id":"DRN","transit":false,"line":0,"i_long":106.85449,"station_name":"Duren Kalibata","time":2},{"i_lat":-6.242512,"transit":false,"is_transit":false,"i_long":106.856607,"line":0,"distance":1546,"station_id":"CW","time":3,"station_name":"Cawang"},{"station_name":"Tebet","line":2,"transit":false,"distance":1230,"i_long":106.857948,"time":2,"i_lat":-6.226659,"station_id":"TEB","is_transit":false},{"i_lat":-6.209883,"station_id":"MRI","i_long":106.84912,"distance":2610,"line":0,"time":4,"station_name":"Manggarai","transit":true,"is_transit":true},{"is_transit":false,"station_id":"SUD","time":4,"station_name":"Sudirman","distance":3186,"i_long":106.822649,"line":1,"i_lat":-6.202263,"transit":false},{"is_transit":false,"station_name":"Sudirman Baru","i_lat":-6.201433,"time":1,"i_long":106.819881,"distance":280,"station_id":"SUDB","transit":false,"line":1},{"station_name":"Karet","transit":false,"time":1,"distance":471,"line":1,"i_lat":-6.20132,"i_long":106.816351,"is_transit":false,"station_id":"KAT"},{"i_lat":-6.185545,"transit":false,"station_id":"THB","time":5,"station_name":"Tanah Abang","is_transit":true,"distance":2029,"i_long":106.811091,"line":1},{"is_transit":true,"distance":3632,"transit":true,"i_lat":-6.155215,"line":1,"station_id":"DU","i_long":106.800832,"time":8,"station_name":"Duri"},{"i_lat":-6.144674,"transit":false,"time":4,"i_long":106.79867,"station_id":"AK","station_name":"Angke","is_transit":false,"distance":1230,"line":0},{"transit":true,"i_long":106.826365,"station_name":"Kampung Bandan","line":0,"time":9,"station_id":"KPB","is_transit":true,"distance":4102,"i_lat":-6.132549},{"distance":1444,"station_id":"RJW","time":3,"station_name":"Rajawali","transit":false,"is_transit":false,"i_lat":-6.14505,"i_long":106.836569,"line":11},{"station_id":"KMO","time":5,"transit":false,"i_long":106.839204,"is_transit":false,"i_lat":-6.161728,"station_name":"Kemayoran","distance":1901,"line":11},{"is_transit":false,"distance":1436,"station_id":"PSE","transit":false,"time":4,"station_name":"Pasar Senen","i_long":106.84368,"i_lat":-6.174784,"line":11},{"i_lat":-6.185975,"station_name":"Gang Sentiong","i_long":106.850107,"transit":false,"line":11,"time":8,"station_id":"GST","distance":1567,"is_transit":false},{"i_lat":-6.193792,"station_id":"KMT","is_transit":false,"i_long":106.855437,"transit":false,"station_name":"Kramat","distance":973,"time":1,"line":11},{"is_transit":false,"transit":false,"distance":1829,"station_name":"Pondok Jati","line":11,"time":2,"i_long":106.861737,"i_lat":-6.209188,"station_id":"POK"},{"distance":1236,"station_id":"JNG","transit":true,"i_lat":-6.215091,"i_long":106.86807400000001,"time":9,"line":0,"station_name":"Jatinegara","is_transit":true},{"i_long":106.899548,"station_id":"KLD","line":1,"time":3,"i_lat":-6.2135,"distance":3395,"transit":false,"is_transit":false,"station_name":"Klender"}],[{"i_lat":-6.530544,"line":0,"distance":0,"time":0,"is_transit":false,"station_name":"Cilebut","station_id":"CLT","transit":false,"i_long":106.800016},{"distance":4331,"line":0,"transit":false,"is_transit":false,"time":5,"i_lat":-6.493243,"station_id":"BJD","i_long":106.792719,"station_name":"Bojonggede"},{"time":5,"i_lat":-6.448811,"station_name":"Citayam","transit":false,"station_id":"CTA","i_long":106.800298,"is_transit":true,"distance":5197,"line":1},{"i_lat":-6.405256,"time":6,"i_long":106.816926,"line":0,"is_transit":false,"station_id":"DP","transit":false,"station_name":"Depok","distance":5084},{"station_id":"DPB","i_lat":-6.391065,"line":0,"i_long":106.819451,"distance":1584,"time":3,"is_transit":false,"transit":false,"station_name":"Depokbaru"},{"i_long":106.831114,"station_name":"Pondok Cina","line":2,"station_id":"POC","time":4,"transit":false,"i_lat":-6.369073,"is_transit":false,"distance":2727},{"transit":false,"station_id":"UI","station_name":"Univ. Indonesia","i_long":106.831474,"distance":1109,"time":2,"is_transit":false,"i_lat":-6.360749,"line":2},{"station_name":"Univ. Pancasila","i_lat":-6.339291,"i_long":106.834175,"transit":false,"time":3,"is_transit":false,"distance":2264,"station_id":"UP","line":2},{"station_id":"LNA","line":2,"i_long":106.832616,"station_name":"Lenteng Agung","transit":false,"time":2,"is_transit":false,"distance":1029,"i_lat":-6.330363},{"distance":2671,"i_lat":-6.3080680000000005,"transit":false,"station_id":"TNT","i_long":106.838896,"station_name":"Tanjung Barat","time":3,"line":2,"is_transit":false},{"station_id":"PSM","distance":2820,"line":2,"station_name":"Pasar Minggu","is_transit":false,"i_long":106.843999,"transit":false,"time":4,"i_lat":-6.2842400000000005},{"distance":2380,"line":2,"station_id":"PSMB","time":2,"is_transit":false,"i_long":106.851577,"i_lat":-6.263214,"station_name":"Pasar Minggu Baru","transit":false},{"station_name":"Duren Kalibata","line":0,"time":2,"transit":false,"is_transit":false,"distance":824,"i_long":106.85449,"i_lat":-6.255332,"station_id":"DRN"},{"station_id":"CW","station_name":"Cawang","is_transit":false,"i_lat":-6.242512,"time":3,"line":0,"distance":1546,"i_long":106.856607,"transit":false},{"is_transit":false,"station_name":"Tebet","line":2,"transit":false,"distance":1230,"i_lat":-6.226659,"station_id":"TEB","time":2,"i_long":106.857948},{"i_lat":-6.209883,"station_name":"Manggarai","transit":true,"line":0,"is_transit":true,"station_id":"MRI","time":4,"distance":2610,"i_long":106.84912},{"line":0,"distance":1590,"i_long":106.840169,"station_name":"Cikini","transit":false,"is_transit":false,"station_id":"CKI","time":4,"i_lat":-6.198556},{"transit":false,"is_transit":false,"station_id":"GDD","station_name":"Gondangdia","time":3,"distance":1750,"i_lat":-6.186295,"i_long":106.832183,"line":2},{"station_id":"JUA","transit":false,"station_name":"Juanda","i_lat":-6.166716,"line":2,"i_long":106.828284,"distance":2015,"time":4,"is_transit":false},{"station_name":"Sawah Besar","transit":false,"i_long":106.827103,"line":2,"distance":1149,"i_lat":-6.160725,"station_id":"SW","is_transit":false,"time":2},{"distance":906,"transit":false,"station_name":"Manggabesar","is_transit":false,"i_long":106.82482,"line":2,"time":2,"station_id":"MGB","i_lat":-6.149769},{"station_id":"JAY","distance":1080,"transit":false,"line":7,"i_lat":-6.141205,"time":2,"is_transit":false,"station_name":"Jayakarta","i_long":106.820901},{"station_name":"Jakarta Kota","i_long":106.812439,"is_transit":true,"time":4,"line":0,"station_id":"JAKK","distance":1264,"transit":true,"i_lat":-6.137569},{"distance":1364,"time":3,"station_id":"KPB","transit":true,"is_transit":true,"i_lat":-6.132549,"i_long":106.826365,"line":0,"station_name":"Kampung Bandan"},{"line":11,"station_name":"Rajawali","station_id":"RJW","i_long":106.836569,"transit":false,"time":3,"distance":1444,"i_lat":-6.14505,"is_transit":false},{"distance":1901,"transit":false,"i_lat":-6.161728,"i_long":106.839204,"is_transit":false,"station_name":"Kemayoran","time":5,"line":11,"station_id":"KMO"},{"time":4,"line":11,"i_lat":-6.174784,"i_long":106.84368,"station_id":"PSE","is_transit":false,"station_name":"Pasar Senen","transit":false,"distance":1436},{"time":8,"is_transit":false,"i_long":106.850107,"line":11,"distance":1567,"i_lat":-6.185975,"transit":false,"station_id":"GST","station_name":"Gang Sentiong"},{"station_id":"KMT","is_transit":false,"station_name":"Kramat","i_long":106.855437,"line":11,"transit":false,"distance":973,"i_lat":-6.193792,"time":1},{"i_lat":-6.209188,"time":2,"i_long":106.861737,"station_id":"POK","line":11,"station_name":"Pondok Jati","transit":false,"distance":1829,"is_transit":false},{"i_lat":-6.215091,"distance":1236,"station_id":"JNG","i_long":106.86807400000001,"station_name":"Jatinegara","time":9,"is_transit":true,"transit":true,"line":0},{"i_lat":-6.2135,"station_id":"KLD","i_long":106.899548,"line":1,"time":3,"station_name":"Klender","transit":false,"is_transit":false,"distance":3395}]]}