{"data":[[{"time":0,"transit":false,"station_name":"Cilebut","line":2,"i_lat":-6.530544,"station_id":"CLT","is_transit":false,"i_long":106.800016,"distance":0},{"line":2,"is_transit":false,"time":5,"station_name":"Bojonggede","station_id":"BJD","transit":false,"i_lat":-6.493243,"distance":4331,"i_long":106.792719},{"transit":false,"distance":5197,"station_id":"CTA","is_transit":false,"i_long":106.800298,"line":2,"station_name":"Citayam","i_lat":-6.448811,"time":5},{"i_lat":-6.405256,"is_transit":false,"time":6,"station_id":"DP","i_long":106.816926,"distance":5084,"line":2,"transit":false,"station_name":"Depok"},{"distance":1584,"transit":false,"i_long":106.819451,"station_id":"DPB","station_name":"Depokbaru","i_lat":-6.391065,"is_transit":false,"time":3,"line":2},{"i_long":106.831114,"line":2,"time":4,"i_lat":-6.369073,"station_name":"Pondok Cina","station_id":"POC","distance":2727,"is_transit":false,"transit":false},{"i_long":106.831474,"line":2,"transit":false,"time":2,"distance":1109,"station_id":"UI","station_name":"Univ. Indonesia","i_lat":-6.360749,"is_transit":false},{"station_name":"Univ. Pancasila","distance":2264,"transit":false,"is_transit":false,"i_lat":-6.339291,"time":3,"station_id":"UP","i_long":106.834175,"line":2},{"station_name":"Lenteng Agung","i_lat":-6.330363,"station_id":"LNA","i_long":106.832616,"distance":1029,"line":2,"is_transit":false,"transit":false,"time":2},{"station_name":"Tanjung Barat","i_long":106.838896,"transit":false,"line":2,"station_id":"TNT","i_lat":-6.3080680000000005,"is_transit":false,"distance":2671,"time":3},{"station_name":"Pasar Minggu","transit":false,"line":2,"time":4,"distance":2820,"is_transit":false,"station_id":"PSM","i_lat":-6.2842400000000005,"i_long":106.843999},{"is_transit":false,"station_name":"Pasar Minggu Baru","time":2,"line":2,"transit":false,"distance":2380,"i_lat":-6.263214,"station_id":"PSMB","i_long":106.851577},{"distance":824,"is_transit":false,"i_lat":-6.255332,"station_name":"Duren Kalibata","line":2,"transit":false,"time":2,"station_id":"DRN","i_long":106.85449},{"distance":1546,"line":2,"i_long":106.856607,"station_name":"Cawang","station_id":"CW","is_transit":false,"transit":false,"i_lat":-6.242512,"time":3},{"time":2,"distance":1230,"station_id":"TEB","transit":false,"station_name":"Tebet","is_transit":false,"i_lat":-6.226659,"line":2,"i_long":106.857948},{"station_name":"Manggarai","transit":true,"i_lat":-6.209883,"i_long":106.84912,"station_id":"MRI","line":2,"time":4,"distance":2610,"is_transit":true},{"time":2,"line":1,"station_id":"MTR","station_name":"Matraman","is_transit":false,"transit":false,"i_long":106.858896,"distance":1275,"i_lat":-6.212485},{"station_id":"JNG","station_name":"Jatinegara","transit":false,"distance":1377,"time":8,"is_transit":false,"i_long":106.86807400000001,"i_lat":-6.215091,"line":1},{"time":3,"station_id":"KLD","distance":3395,"station_name":"Klender","is_transit":false,"i_lat":-6.2135,"i_long":106.899548,"line":1,"transit":false},{"station_name":"Buaran","station_id":"BUA","is_transit":false,"i_lat":-6.215568,"distance":3100,"line":1,"i_long":106.922662,"time":2,"transit":false},{"is_transit":false,"i_lat":-6.217455,"distance":1305,"station_name":"Klenderbaru","time":1,"i_long":106.939679,"station_id":"KLDB","line":1,"transit":false},{"distance":1385,"time":8,"transit":false,"station_name":"Cakung","i_lat":-6.219053,"i_long":106.951283,"station_id":"CUK","is_transit":false,"line":1},{"distance":3097,"i_lat":-6.224515,"station_id":"KRI","transit":false,"line":1,"time":3,"i_long":106.977657,"station_name":"Kranji","is_transit":false},{"i_long":106.997013,"time":4,"station_id":"BKS","line":1,"distance":2520,"i_lat":-6.236616,"station_name":"Bekasi","transit":false,"is_transit":false},{"time":2,"i_lat":-6.248029,"line":1,"is_transit":false,"transit":false,"distance":2368,"station_id":"BKST","station_name":"Bekasi Timur","i_long":107.016735},{"time":7,"is_transit":false,"transit":false,"distance":4460,"line":1,"station_name":"Tambun","i_lat":-6.258864,"i_long":107.055722,"station_id":"TB"},{"time":3,"i_long":107.083084,"i_lat":-6.261877,"station_name":"Cibitung","station_id":"CIT","transit":false,"distance":3420,"line":1,"is_transit":false}],[{"time":0,"is_transit":false,"i_long":106.800016,"transit":false,"i_lat":-6.530544,"distance":0,"line":2,"station_name":"Cilebut","station_id":"CLT"},{"is_transit":false,"transit":false,"station_id":"BJD","time":5,"i_lat":-6.493243,"station_name":"Bojonggede","distance":4331,"line":2,"i_long":106.792719},{"i_lat":-6.448811,"i_long":106.800298,"distance":5197,"time":5,"line":2,"station_name":"Citayam","station_id":"CTA","transit":false,"is_transit":false},{"station_id":"DP","transit":false,"distance":5084,"time":6,"station_name":"Depok","is_transit":false,"i_lat":-6.405256,"i_long":106.816926,"line":2},{"time":3,"station_id":"DPB","i_lat":-6.391065,"i_long":106.819451,"is_transit":false,"line":2,"station_name":"Depokbaru","transit":false,"distance":1584},{"i_lat":-6.369073,"i_long":106.831114,"distance":2727,"is_transit":false,"line":2,"transit":false,"time":4,"station_name":"Pondok Cina","station_id":"POC"},{"time":2,"transit":false,"i_lat":-6.360749,"i_long":106.831474,"station_name":"Univ. Indonesia","station_id":"UI","distance":1109,"is_transit":false,"line":2},{"transit":false,"is_transit":false,"time":3,"line":2,"station_name":"Univ. Pancasila","i_long":106.834175,"station_id":"UP","distance":2264,"i_lat":-6.339291},{"time":2,"i_lat":-6.330363,"is_transit":false,"station_name":"Lenteng Agung","i_long":106.832616,"distance":1029,"line":2,"station_id":"LNA","transit":false},{"time":3,"i_lat":-6.3080680000000005,"station_id":"TNT","is_transit":false,"station_name":"Tanjung Barat","i_long":106.838896,"line":2,"distance":2671,"transit":false},{"transit":false,"i_lat":-6.2842400000000005,"i_long":106.843999,"line":2,"distance":2820,"station_id":"PSM","station_name":"Pasar Minggu","is_transit":false,"time":4},{"i_long":106.851577,"station_name":"Pasar Minggu Baru","station_id":"PSMB","is_transit":false,"time":2,"distance":2380,"transit":false,"i_lat":-6.263214,"line":2},{"transit":false,"line":2,"distance":824,"time":2,"i_long":106.85449,"station_name":"Duren Kalibata","is_transit":false,"station_id":"DRN","i_lat":-6.255332},{"is_transit":false,"station_name":"Cawang","i_lat":-6.242512,"station_id":"CW","i_long":106.856607,"transit":false,"time":3,"distance":1546,"line":2},{"is_transit":false,"line":2,"distance":1230,"station_name":"Tebet","i_long":106.857948,"time":2,"i_lat":-6.226659,"transit":false,"station_id":"TEB"},{"distance":2610,"station_id":"MRI","line":2,"station_name":"Manggarai","transit":true,"is_transit":true,"i_lat":-6.209883,"time":4,"i_long":106.84912},{"line":1,"time":4,"station_name":"Sudirman","transit":false,"distance":3186,"station_id":"SUD","i_lat":-6.202263,"is_transit":false,"i_long":106.822649},{"station_name":"Sudirman Baru","i_lat":-6.201433,"transit":false,"station_id":"SUDB","distance":280,"line":1,"time":1,"is_transit":false,"i_long":106.819881},{"transit":false,"is_transit":false,"i_long":106.816351,"line":1,"distance":471,"i_lat":-6.20132,"time":1,"station_id":"KAT","station_name":"Karet"},{"line":1,"is_transit":false,"distance":2029,"station_name":"Tanah Abang","station_id":"THB","i_lat":-6.185545,"transit":false,"time":5,"i_long":106.811091},{"time":8,"distance":3632,"is_transit":false,"i_lat":-6.155215,"i_long":106.800832,"transit":false,"line":1,"station_name":"Duri","station_id":"DU"},{"is_transit":false,"time":4,"i_long":106.79867,"line":1,"station_name":"Angke","i_lat":-6.144674,"distance":1230,"transit":false,"station_id":"AK"},{"i_long":106.826365,"time":9,"i_lat":-6.132549,"station_id":"KPB","line":4,"transit":true,"distance":4102,"station_name":"Kampung Bandan","is_transit":true},{"i_long":106.836569,"distance":1444,"is_transit":false,"time":3,"station_name":"Rajawali","station_id":"RJW","i_lat":-6.14505,"line":11,"transit":false},{"time":5,"is_transit":false,"distance":1901,"station_name":"Kemayoran","station_id":"KMO","i_lat":-6.161728,"transit":false,"i_long":106.839204,"line":11},{"station_name":"Pasar Senen","station_id":"PSE","line":11,"is_transit":false,"i_lat":-6.174784,"i_long":106.84368,"time":4,"transit":false,"distance":1436},{"distance":1567,"line":11,"i_long":106.850107,"time":8,"station_id":"GST","i_lat":-6.185975,"is_transit":false,"station_name":"Gang Sentiong","transit":false},{"station_id":"KMT","i_lat":-6.193792,"distance":973,"line":11,"time":1,"is_transit":false,"station_name":"Kramat","i_long":106.855437,"transit":false},{"station_id":"POK","line":11,"time":2,"transit":false,"distance":1829,"i_lat":-6.209188,"is_transit":false,"station_name":"Pondok Jati","i_long":106.861737},{"time":9,"i_lat":-6.215091,"station_name":"Jatinegara","transit":true,"distance":1236,"station_id":"JNG","is_transit":true,"i_long":106.86807400000001,"line":1},{"i_long":106.899548,"distance":3395,"time":3,"is_transit":false,"i_lat":-6.2135,"transit":false,"station_id":"KLD","line":1,"station_name":"Klender"},{"distance":3100,"station_id":"BUA","is_transit":false,"line":1,"i_lat":-6.215568,"time":2,"transit":false,"station_name":"Buaran","i_long":106.922662},{"i_long":106.939679,"is_transit":false,"transit":false,"time":1,"station_id":"KLDB","station_name":"Klenderbaru","i_lat":-6.217455,"line":1,"distance":1305},{"is_transit":false,"station_id":"CUK","i_long":106.951283,"i_lat":-6.219053,"line":1,"transit":false,"time":8,"distance":1385,"station_name":"Cakung"},{"distance":3097,"i_long":106.977657,"station_name":"Kranji","transit":false,"station_id":"KRI","time":3,"line":1,"is_transit":false,"i_lat":-6.224515},{"transit":false,"station_name":"Bekasi","i_lat":-6.236616,"distance":2520,"station_id":"BKS","i_long":106.997013,"time":4,"is_transit":false,"line":1},{"station_id":"BKST","distance":2368,"time":2,"is_transit":false,"station_name":"Bekasi Timur","i_lat":-6.248029,"line":1,"i_long":107.016735,"transit":false},{"time":7,"distance":4460,"transit":false,"station_id":"TB","i_lat":-6.258864,"is_transit":false,"station_name":"Tambun","i_long":107.055722,"line":1},{"line":1,"station_id":"CIT","i_lat":-6.261877,"transit":false,"time":3,"distance":3420,"is_transit":false,"i_long":107.083084,"station_name":"Cibitung"}],[{"transit":false,"time":0,"i_lat":-6.530544,"station_name":"Cilebut","i_long":106.800016,"distance":0,"is_transit":false,"line":2,"station_id":"CLT"},{"transit":false,"distance":4331,"i_long":106.792719,"station_name":"Bojonggede","i_lat":-6.493243,"line":2,"time":5,"station_id":"BJD","is_transit":false},{"distance":5197,"line":2,"time":5,"i_lat":-6.448811,"i_long":106.800298,"transit":false,"station_id":"CTA","is_transit":false,"station_name":"Citayam"},{"line":2,"distance":5084,"is_transit":false,"transit":false,"station_name":"Depok","station_id":"DP","time":6,"i_lat":-6.405256,"i_long":106.816926},{"station_id":"DPB","i_long":106.819451,"i_lat":-6.391065,"time":3,"is_transit":false,"line":2,"transit":false,"distance":1584,"station_name":"Depokbaru"},{"i_long":106.831114,"station_name":"Pondok Cina","i_lat":-6.369073,"line":2,"transit":false,"distance":2727,"time":4,"station_id":"POC","is_transit":false},{"line":2,"station_name":"Univ. Indonesia","time":2,"is_transit":false,"distance":1109,"i_lat":-6.360749,"i_long":106.831474,"transit":false,"station_id":"UI"},{"transit":false,"line":2,"station_name":"Univ. Pancasila","time":3,"station_id":"UP","i_lat":-6.339291,"distance":2264,"i_long":106.834175,"is_transit":false},{"is_transit":false,"station_id":"LNA","i_lat":-6.330363,"time":2,"i_long":106.832616,"station_name":"Lenteng Agung","transit":false,"line":2,"distance":1029},{"station_name":"Tanjung Barat","time":3,"is_transit":false,"station_id":"TNT","i_lat":-6.3080680000000005,"i_long":106.838896,"line":2,"distance":2671,"transit":false},{"distance":2820,"i_long":106.843999,"station_name":"Pasar Minggu","transit":false,"station_id":"PSM","i_lat":-6.2842400000000005,"line":2,"is_transit":false,"time":4},{"i_lat":-6.263214,"station_name":"Pasar Minggu Baru","is_transit":false,"time":2,"transit":false,"distance":2380,"station_id":"PSMB","line":2,"i_long":106.851577},{"station_id":"DRN","is_transit":false,"transit":false,"i_lat":-6.255332,"distance":824,"time":2,"station_name":"Duren Kalibata","i_long":106.85449,"line":2},{"line":2,"i_lat":-6.242512,"transit":false,"distance":1546,"station_id":"CW","is_transit":false,"time":3,"i_long":106.856607,"station_name":"Cawang"},{"station_name":"Tebet","i_lat":-6.226659,"transit":false,"time":2,"distance":1230,"station_id":"TEB","is_transit":false,"i_long":106.857948,"line":2},{"time":4,"transit":false,"station_name":"Manggarai","station_id":"MRI","distance":2610,"is_transit":false,"line":2,"i_lat":-6.209883,"i_long":106.84912},{"time":4,"station_name":"Cikini","station_id":"CKI","transit":false,"is_transit":false,"i_long":106.840169,"distance":1590,"i_lat":-6.198556,"line":2},{"i_long":106.832183,"transit":false,"distance":1750,"station_name":"Gondangdia","station_id":"GDD","is_transit":false,"line":2,"time":3,"i_lat":-6.186295},{"transit":false,"station_id":"JUA","line":2,"i_lat":-6.166716,"time":4,"station_name":"Juanda","distance":2015,"is_transit":false,"i_long":106.828284},{"distance":1149,"i_long":106.827103,"station_id":"SW","is_transit":false,"transit":false,"i_lat":-6.160725,"line":2,"station_name":"Sawah Besar","time":2},{"station_name":"Manggabesar","station_id":"MGB","distance":906,"i_lat":-6.149769,"i_long":106.82482,"line":2,"time":2,"transit":false,"is_transit":false},{"time":2,"station_id":"JAY","station_name":"Jayakarta","i_lat":-6.141205,"transit":false,"distance":1080,"line":2,"is_transit":false,"i_long":106.820901},{"station_name":"Jakarta Kota","distance":1264,"station_id":"JAKK","i_long":106.812439,"transit":true,"i_lat":-6.137569,"line":2,"is_transit":true,"time":4},{"is_transit":true,"distance":1364,"time":3,"transit":true,"line":4,"station_id":"KPB","i_lat":-6.132549,"station_name":"Kampung Bandan","i_long":106.826365},{"i_long":106.836569,"is_transit":false,"time":3,"station_name":"Rajawali","station_id":"RJW","distance":1444,"transit":false,"line":11,"i_lat":-6.14505},{"i_lat":-6.161728,"line":11,"time":5,"transit":false,"distance":1901,"is_transit":false,"station_id":"KMO","i_long":106.839204,"station_name":"Kemayoran"},{"distance":1436,"i_long":106.84368,"station_name":"Pasar Senen","station_id":"PSE","is_transit":false,"line":11,"i_lat":-6.174784,"time":4,"transit":false},{"station_id":"GST","station_name":"Gang Sentiong","line":11,"time":8,"distance":1567,"transit":false,"i_lat":-6.185975,"is_transit":false,"i_long":106.850107},{"transit":false,"i_lat":-6.193792,"i_long":106.855437,"station_name":"Kramat","is_transit":false,"station_id":"KMT","line":11,"time":1,"distance":973},{"line":11,"i_long":106.861737,"distance":1829,"is_transit":false,"i_lat":-6.209188,"time":2,"station_name":"Pondok Jati","station_id":"POK","transit":false},{"line":1,"i_long":106.86807400000001,"station_id":"JNG","time":9,"station_name":"Jatinegara","i_lat":-6.215091,"transit":true,"is_transit":true,"distance":1236},{"i_long":106.899548,"station_name":"Klender","is_transit":false,"distance":3395,"transit":false,"line":1,"station_id":"KLD","i_lat":-6.2135,"time":3},{"i_long":106.922662,"i_lat":-6.215568,"distance":3100,"station_id":"BUA","transit":false,"is_transit":false,"line":1,"time":2,"station_name":"Buaran"},{"station_id":"KLDB","distance":1305,"i_lat":-6.217455,"line":1,"time":1,"station_name":"Klenderbaru","is_transit":false,"i_long":106.939679,"transit":false},{"i_long":106.951283,"time":8,"station_id":"CUK","is_transit":false,"i_lat":-6.219053,"line":1,"distance":1385,"station_name":"Cakung","transit":false},{"line":1,"station_id":"KRI","time":3,"transit":false,"distance":3097,"station_name":"Kranji","i_long":106.977657,"is_transit":false,"i_lat":-6.224515},{"line":1,"station_id":"BKS","i_lat":-6.236616,"station_name":"Bekasi","transit":false,"time":4,"i_long":106.997013,"is_transit":false,"distance":2520},{"time":2,"station_name":"Bekasi Timur","station_id":"BKST","transit":false,"line":1,"i_lat":-6.248029,"is_transit":false,"i_long":107.016735,"distance":2368},{"i_lat":-6.258864,"transit":false,"distance":4460,"station_id":"TB","is_transit":false,"i_long":107.055722,"line":1,"time":7,"station_name":"Tambun"},{"station_id":"CIT","i_lat":-6.261877,"line":1,"i_long":107.083084,"is_transit":false,"time":3,"station_name":"Cibitung","transit":false,"distance":3420}]]}