{"data":[[{"is_transit":false,"i_lat":-6.530544,"station_name":"Cilebut","transit":false,"i_long":106.800016,"line":2,"time":0,"distance":0,"station_id":"CLT"},{"i_long":106.792719,"time":5,"transit":false,"line":2,"is_transit":false,"distance":4331,"station_id":"BJD","i_lat":-6.493243,"station_name":"Bojonggede"},{"i_lat":-6.448811,"i_long":106.800298,"station_id":"CTA","transit":false,"is_transit":false,"distance":5197,"line":2,"time":5,"station_name":"Citayam"},{"i_lat":-6.405256,"line":2,"i_long":106.816926,"distance":5084,"station_id":"DP","station_name":"Depok","transit":false,"time":6,"is_transit":false},{"transit":false,"station_id":"DPB","line":2,"i_lat":-6.391065,"is_transit":false,"time":3,"station_name":"Depokbaru","i_long":106.819451,"distance":1584},{"i_long":106.831114,"station_name":"Pondok Cina","line":2,"distance":2727,"station_id":"POC","is_transit":false,"time":4,"transit":false,"i_lat":-6.369073},{"i_long":106.831474,"station_id":"UI","line":2,"is_transit":false,"distance":1109,"i_lat":-6.360749,"transit":false,"time":2,"station_name":"Univ. Indonesia"},{"distance":2264,"station_id":"UP","time":3,"line":2,"i_lat":-6.339291,"is_transit":false,"transit":false,"i_long":106.834175,"station_name":"Univ. Pancasila"},{"station_id":"LNA","i_long":106.832616,"station_name":"Lenteng Agung","distance":1029,"transit":false,"i_lat":-6.330363,"line":2,"time":2,"is_transit":false},{"i_lat":-6.3080680000000005,"line":2,"station_id":"TNT","transit":false,"time":3,"station_name":"Tanjung Barat","is_transit":false,"i_long":106.838896,"distance":2671},{"i_long":106.843999,"station_id":"PSM","station_name":"Pasar Minggu","line":2,"distance":2820,"is_transit":false,"transit":false,"i_lat":-6.2842400000000005,"time":4},{"time":2,"i_lat":-6.263214,"station_id":"PSMB","is_transit":false,"transit":false,"i_long":106.851577,"line":2,"distance":2380,"station_name":"Pasar Minggu Baru"},{"station_id":"DRN","is_transit":false,"i_lat":-6.255332,"i_long":106.85449,"station_name":"Duren Kalibata","transit":false,"line":2,"time":2,"distance":824}]]}