{"data":[[{"distance":0,"i_lat":-6.530544,"time":0,"transit":false,"station_id":"CLT","i_long":106.800016,"is_transit":false,"line":0,"station_name":"Cilebut"},{"transit":false,"distance":4331,"i_lat":-6.493243,"is_transit":false,"station_id":"BJD","i_long":106.792719,"station_name":"Bojonggede","line":0,"time":5},{"distance":5197,"station_id":"CTA","i_long":106.800298,"is_transit":true,"time":5,"line":1,"station_name":"Citayam","i_lat":-6.448811,"transit":false},{"i_lat":-6.405256,"station_name":"Depok","station_id":"DP","is_transit":false,"time":6,"i_long":106.816926,"line":0,"transit":false,"distance":5084},{"station_name":"Depokbaru","time":3,"station_id":"DPB","i_lat":-6.391065,"line":0,"i_long":106.819451,"is_transit":false,"distance":1584,"transit":false},{"station_name":"Pondok Cina","transit":false,"i_lat":-6.369073,"is_transit":false,"distance":2727,"station_id":"POC","time":4,"i_long":106.831114,"line":2},{"i_lat":-6.360749,"is_transit":false,"transit":false,"time":2,"station_id":"UI","i_long":106.831474,"line":2,"distance":1109,"station_name":"Univ. Indonesia"},{"station_id":"UP","time":3,"distance":2264,"station_name":"Univ. Pancasila","is_transit":false,"line":2,"i_lat":-6.339291,"i_long":106.834175,"transit":false},{"is_transit":false,"i_long":106.832616,"station_name":"Lenteng Agung","i_lat":-6.330363,"station_id":"LNA","distance":1029,"transit":false,"time":2,"line":2},{"transit":false,"i_lat":-6.3080680000000005,"station_name":"Tanjung Barat","station_id":"TNT","line":2,"i_long":106.838896,"time":3,"distance":2671,"is_transit":false},{"station_id":"PSM","time":4,"i_lat":-6.2842400000000005,"i_long":106.843999,"distance":2820,"line":2,"transit":false,"station_name":"Pasar Minggu","is_transit":false},{"i_long":106.851577,"line":2,"transit":false,"is_transit":false,"time":2,"distance":2380,"station_name":"Pasar Minggu Baru","station_id":"PSMB","i_lat":-6.263214},{"time":2,"distance":824,"station_id":"DRN","line":0,"is_transit":false,"station_name":"Duren Kalibata","transit":false,"i_long":106.85449,"i_lat":-6.255332},{"station_name":"Cawang","distance":1546,"transit":false,"is_transit":false,"station_id":"CW","time":3,"i_long":106.856607,"i_lat":-6.242512,"line":0},{"i_long":106.857948,"station_name":"Tebet","distance":1230,"i_lat":-6.226659,"line":2,"is_transit":false,"time":2,"transit":false,"station_id":"TEB"},{"i_lat":-6.209883,"time":4,"station_name":"Manggarai","i_long":106.84912,"is_transit":true,"station_id":"MRI","distance":2610,"transit":true,"line":0},{"transit":false,"i_long":106.858896,"station_id":"MTR","line":1,"time":2,"i_lat":-6.212485,"station_name":"Matraman","is_transit":false,"distance":1275},{"transit":false,"is_transit":true,"station_name":"Jatinegara","i_lat":-6.215091,"station_id":"JNG","line":0,"i_long":106.86807400000001,"distance":1377,"time":8},{"time":3,"line":1,"transit":false,"is_transit":false,"station_id":"KLD","distance":3395,"i_long":106.899548,"i_lat":-6.2135,"station_name":"Klender"},{"time":2,"distance":3100,"i_lat":-6.215568,"i_long":106.922662,"line":0,"is_transit":false,"station_name":"Buaran","transit":false,"station_id":"BUA"},{"transit":false,"i_long":106.939679,"time":1,"station_id":"KLDB","station_name":"Klenderbaru","line":1,"distance":1305,"is_transit":false,"i_lat":-6.217455},{"distance":1385,"station_name":"Cakung","is_transit":false,"station_id":"CUK","i_long":106.951283,"line":0,"time":8,"transit":false,"i_lat":-6.219053},{"station_id":"KRI","transit":false,"line":1,"station_name":"Kranji","i_lat":-6.224515,"time":3,"distance":3097,"i_long":106.977657,"is_transit":false},{"station_name":"Bekasi","is_transit":false,"station_id":"BKS","distance":2520,"line":0,"time":4,"i_lat":-6.236616,"i_long":106.997013,"transit":false},{"time":2,"transit":false,"line":0,"i_lat":-6.248029,"distance":2368,"station_id":"BKST","station_name":"Bekasi Timur","is_transit":false,"i_long":107.016735},{"transit":false,"i_long":107.055722,"station_name":"Tambun","line":1,"time":7,"station_id":"TB","distance":4460,"is_transit":false,"i_lat":-6.258864},{"time":3,"distance":3420,"is_transit":false,"line":0,"transit":false,"station_id":"CIT","i_lat":-6.261877,"station_name":"Cibitung","i_long":107.083084}],[{"i_lat":-6.530544,"transit":false,"station_name":"Cilebut","i_long":106.800016,"distance":0,"time":0,"line":0,"is_transit":false,"station_id":"CLT"},{"line":0,"transit":false,"i_long":106.792719,"station_name":"Bojonggede","station_id":"BJD","i_lat":-6.493243,"time":5,"distance":4331,"is_transit":false},{"distance":5197,"station_id":"CTA","station_name":"Citayam","is_transit":true,"i_lat":-6.448811,"time":5,"transit":false,"i_long":106.800298,"line":1},{"distance":5084,"is_transit":false,"transit":false,"i_lat":-6.405256,"line":0,"station_id":"DP","time":6,"station_name":"Depok","i_long":106.816926},{"time":3,"station_id":"DPB","i_long":106.819451,"line":0,"station_name":"Depokbaru","transit":false,"is_transit":false,"distance":1584,"i_lat":-6.391065},{"line":2,"distance":2727,"i_lat":-6.369073,"station_id":"POC","station_name":"Pondok Cina","is_transit":false,"transit":false,"time":4,"i_long":106.831114},{"transit":false,"station_name":"Univ. Indonesia","i_lat":-6.360749,"line":2,"distance":1109,"station_id":"UI","i_long":106.831474,"time":2,"is_transit":false},{"distance":2264,"i_long":106.834175,"i_lat":-6.339291,"station_name":"Univ. Pancasila","transit":false,"is_transit":false,"line":2,"time":3,"station_id":"UP"},{"station_name":"Lenteng Agung","distance":1029,"time":2,"is_transit":false,"i_long":106.832616,"transit":false,"line":2,"i_lat":-6.330363,"station_id":"LNA"},{"is_transit":false,"transit":false,"station_name":"Tanjung Barat","time":3,"distance":2671,"station_id":"TNT","i_lat":-6.3080680000000005,"line":2,"i_long":106.838896},{"i_lat":-6.2842400000000005,"station_name":"Pasar Minggu","time":4,"distance":2820,"line":2,"i_long":106.843999,"is_transit":false,"transit":false,"station_id":"PSM"},{"line":2,"station_name":"Pasar Minggu Baru","transit":false,"station_id":"PSMB","time":2,"i_lat":-6.263214,"distance":2380,"is_transit":false,"i_long":106.851577},{"line":0,"time":2,"is_transit":false,"distance":824,"i_long":106.85449,"transit":false,"i_lat":-6.255332,"station_id":"DRN","station_name":"Duren Kalibata"},{"transit":false,"distance":1546,"station_id":"CW","is_transit":false,"i_lat":-6.242512,"station_name":"Cawang","time":3,"i_long":106.856607,"line":0},{"distance":1230,"i_long":106.857948,"is_transit":false,"line":2,"time":2,"station_name":"Tebet","transit":false,"station_id":"TEB","i_lat":-6.226659},{"transit":true,"distance":2610,"time":4,"station_name":"Manggarai","station_id":"MRI","is_transit":true,"i_long":106.84912,"line":0,"i_lat":-6.209883},{"transit":false,"station_name":"Sudirman","i_long":106.822649,"is_transit":false,"station_id":"SUD","time":4,"i_lat":-6.202263,"line":1,"distance":3186},{"station_name":"Sudirman Baru","i_lat":-6.201433,"transit":false,"is_transit":false,"station_id":"SUDB","distance":280,"i_long":106.819881,"time":1,"line":1},{"is_transit":false,"station_name":"Karet","time":1,"transit":false,"station_id":"KAT","line":1,"i_lat":-6.20132,"distance":471,"i_long":106.816351},{"is_transit":true,"station_name":"Tanah Abang","line":1,"i_long":106.811091,"distance":2029,"station_id":"THB","i_lat":-6.185545,"transit":false,"time":5},{"time":8,"station_name":"Duri","i_lat":-6.155215,"station_id":"DU","distance":3632,"line":1,"transit":true,"i_long":106.800832,"is_transit":true},{"i_lat":-6.144674,"station_id":"AK","time":4,"distance":1230,"is_transit":false,"line":0,"transit":false,"station_name":"Angke","i_long":106.79867},{"time":9,"i_lat":-6.132549,"station_id":"KPB","line":0,"transit":true,"i_long":106.826365,"distance":4102,"station_name":"Kampung Bandan","is_transit":true},{"is_transit":false,"transit":false,"i_lat":-6.14505,"station_name":"Rajawali","station_id":"RJW","i_long":106.836569,"time":3,"line":11,"distance":1444},{"distance":1901,"station_name":"Kemayoran","line":11,"is_transit":false,"i_long":106.839204,"transit":false,"i_lat":-6.161728,"station_id":"KMO","time":5},{"i_long":106.84368,"line":11,"time":4,"distance":1436,"is_transit":false,"i_lat":-6.174784,"station_name":"Pasar Senen","station_id":"PSE","transit":false},{"i_lat":-6.185975,"time":8,"is_transit":false,"distance":1567,"station_id":"GST","line":11,"station_name":"Gang Sentiong","transit":false,"i_long":106.850107},{"line":11,"distance":973,"i_lat":-6.193792,"time":1,"transit":false,"station_name":"Kramat","i_long":106.855437,"is_transit":false,"station_id":"KMT"},{"station_name":"Pondok Jati","station_id":"POK","distance":1829,"line":11,"transit":false,"is_transit":false,"time":2,"i_long":106.861737,"i_lat":-6.209188},{"distance":1236,"line":0,"time":9,"station_id":"JNG","i_lat":-6.215091,"i_long":106.86807400000001,"station_name":"Jatinegara","transit":true,"is_transit":true},{"i_long":106.899548,"i_lat":-6.2135,"transit":false,"station_id":"KLD","is_transit":false,"time":3,"line":1,"station_name":"Klender","distance":3395},{"distance":3100,"line":0,"station_id":"BUA","i_lat":-6.215568,"i_long":106.922662,"transit":false,"station_name":"Buaran","is_transit":false,"time":2},{"station_name":"Klenderbaru","distance":1305,"i_lat":-6.217455,"is_transit":false,"transit":false,"time":1,"i_long":106.939679,"station_id":"KLDB","line":1},{"transit":false,"is_transit":false,"i_long":106.951283,"time":8,"station_name":"Cakung","line":0,"distance":1385,"station_id":"CUK","i_lat":-6.219053},{"station_name":"Kranji","i_long":106.977657,"time":3,"transit":false,"i_lat":-6.224515,"distance":3097,"station_id":"KRI","is_transit":false,"line":1},{"line":0,"distance":2520,"time":4,"transit":false,"station_id":"BKS","i_lat":-6.236616,"station_name":"Bekasi","i_long":106.997013,"is_transit":false},{"time":2,"station_name":"Bekasi Timur","line":0,"i_lat":-6.248029,"transit":false,"i_long":107.016735,"is_transit":false,"station_id":"BKST","distance":2368},{"station_name":"Tambun","i_long":107.055722,"line":1,"transit":false,"station_id":"TB","time":7,"distance":4460,"is_transit":false,"i_lat":-6.258864},{"station_name":"Cibitung","i_long":107.083084,"line":0,"time":3,"distance":3420,"transit":false,"is_transit":false,"i_lat":-6.261877,"station_id":"CIT"}],[{"station_id":"CLT","i_long":106.800016,"line":0,"i_lat":-6.530544,"time":0,"is_transit":false,"station_name":"Cilebut","distance":0,"transit":false},{"station_id":"BJD","i_lat":-6.493243,"i_long":106.792719,"transit":false,"time":5,"distance":4331,"station_name":"Bojonggede","line":0,"is_transit":false},{"transit":false,"time":5,"station_id":"CTA","i_lat":-6.448811,"distance":5197,"is_transit":true,"line":1,"station_name":"Citayam","i_long":106.800298},{"time":6,"i_lat":-6.405256,"i_long":106.816926,"line":0,"transit":false,"station_name":"Depok","distance":5084,"is_transit":false,"station_id":"DP"},{"transit":false,"line":0,"station_name":"Depokbaru","time":3,"is_transit":false,"i_long":106.819451,"distance":1584,"station_id":"DPB","i_lat":-6.391065},{"is_transit":false,"time":4,"station_name":"Pondok Cina","distance":2727,"i_long":106.831114,"line":2,"transit":false,"i_lat":-6.369073,"station_id":"POC"},{"time":2,"is_transit":false,"station_id":"UI","i_long":106.831474,"i_lat":-6.360749,"transit":false,"line":2,"distance":1109,"station_name":"Univ. Indonesia"},{"i_lat":-6.339291,"line":2,"transit":false,"i_long":106.834175,"time":3,"distance":2264,"is_transit":false,"station_name":"Univ. Pancasila","station_id":"UP"},{"line":2,"station_id":"LNA","is_transit":false,"transit":false,"station_name":"Lenteng Agung","i_lat":-6.330363,"i_long":106.832616,"time":2,"distance":1029},{"distance":2671,"station_id":"TNT","i_long":106.838896,"line":2,"i_lat":-6.3080680000000005,"is_transit":false,"station_name":"Tanjung Barat","transit":false,"time":3},{"distance":2820,"i_lat":-6.2842400000000005,"time":4,"transit":false,"line":2,"is_transit":false,"station_name":"Pasar Minggu","station_id":"PSM","i_long":106.843999},{"station_name":"Pasar Minggu Baru","line":2,"is_transit":false,"i_lat":-6.263214,"time":2,"transit":false,"i_long":106.851577,"distance":2380,"station_id":"PSMB"},{"line":0,"i_lat":-6.255332,"time":2,"transit":false,"station_name":"Duren Kalibata","i_long":106.85449,"distance":824,"station_id":"DRN","is_transit":false},{"time":3,"is_transit":false,"station_id":"CW","i_long":106.856607,"transit":false,"distance":1546,"station_name":"Cawang","i_lat":-6.242512,"line":0},{"station_name":"Tebet","station_id":"TEB","i_lat":-6.226659,"time":2,"i_long":106.857948,"line":2,"is_transit":false,"distance":1230,"transit":false},{"distance":2610,"time":4,"i_long":106.84912,"i_lat":-6.209883,"is_transit":true,"line":0,"station_name":"Manggarai","transit":true,"station_id":"MRI"},{"distance":1590,"i_long":106.840169,"station_id":"CKI","is_transit":false,"line":0,"transit":false,"i_lat":-6.198556,"station_name":"Cikini","time":4},{"transit":false,"time":3,"i_long":106.832183,"distance":1750,"station_name":"Gondangdia","i_lat":-6.186295,"is_transit":false,"station_id":"GDD","line":2},{"is_transit":false,"distance":2015,"station_id":"JUA","i_lat":-6.166716,"time":4,"station_name":"Juanda","i_long":106.828284,"line":2,"transit":false},{"i_long":106.827103,"is_transit":false,"time":2,"distance":1149,"station_id":"SW","i_lat":-6.160725,"station_name":"Sawah Besar","line":2,"transit":false},{"transit":false,"station_id":"MGB","i_lat":-6.149769,"time":2,"station_name":"Manggabesar","i_long":106.82482,"is_transit":false,"distance":906,"line":2},{"transit":false,"station_id":"JAY","time":2,"distance":1080,"line":7,"i_lat":-6.141205,"is_transit":false,"i_long":106.820901,"station_name":"Jayakarta"},{"i_lat":-6.137569,"station_name":"Jakarta Kota","line":0,"station_id":"JAKK","distance":1264,"is_transit":true,"time":4,"i_long":106.812439,"transit":true},{"station_id":"KPB","line":0,"distance":1364,"i_long":106.826365,"i_lat":-6.132549,"time":3,"station_name":"Kampung Bandan","transit":true,"is_transit":true},{"transit":false,"line":11,"i_long":106.836569,"is_transit":false,"station_id":"RJW","distance":1444,"time":3,"station_name":"Rajawali","i_lat":-6.14505},{"station_id":"KMO","i_long":106.839204,"transit":false,"distance":1901,"i_lat":-6.161728,"line":11,"time":5,"is_transit":false,"station_name":"Kemayoran"},{"station_name":"Pasar Senen","time":4,"transit":false,"i_lat":-6.174784,"distance":1436,"is_transit":false,"i_long":106.84368,"station_id":"PSE","line":11},{"station_name":"Gang Sentiong","is_transit":false,"distance":1567,"i_lat":-6.185975,"transit":false,"time":8,"station_id":"GST","line":11,"i_long":106.850107},{"time":1,"line":11,"distance":973,"is_transit":false,"transit":false,"i_lat":-6.193792,"i_long":106.855437,"station_name":"Kramat","station_id":"KMT"},{"station_name":"Pondok Jati","time":2,"i_long":106.861737,"transit":false,"station_id":"POK","line":11,"distance":1829,"i_lat":-6.209188,"is_transit":false},{"distance":1236,"transit":true,"station_name":"Jatinegara","station_id":"JNG","is_transit":true,"line":0,"i_long":106.86807400000001,"time":9,"i_lat":-6.215091},{"i_long":106.899548,"line":1,"i_lat":-6.2135,"is_transit":false,"transit":false,"time":3,"distance":3395,"station_name":"Klender","station_id":"KLD"},{"i_long":106.922662,"line":0,"transit":false,"station_id":"BUA","time":2,"station_name":"Buaran","is_transit":false,"distance":3100,"i_lat":-6.215568},{"i_lat":-6.217455,"i_long":106.939679,"time":1,"distance":1305,"station_name":"Klenderbaru","line":1,"is_transit":false,"station_id":"KLDB","transit":false},{"distance":1385,"station_name":"Cakung","line":0,"i_long":106.951283,"is_transit":false,"station_id":"CUK","i_lat":-6.219053,"transit":false,"time":8},{"station_name":"Kranji","distance":3097,"transit":false,"i_lat":-6.224515,"time":3,"station_id":"KRI","is_transit":false,"i_long":106.977657,"line":1},{"transit":false,"distance":2520,"is_transit":false,"i_long":106.997013,"station_id":"BKS","time":4,"line":0,"station_name":"Bekasi","i_lat":-6.236616},{"distance":2368,"i_long":107.016735,"transit":false,"time":2,"is_transit":false,"station_name":"Bekasi Timur","station_id":"BKST","i_lat":-6.248029,"line":0},{"time":7,"distance":4460,"i_lat":-6.258864,"is_transit":false,"transit":false,"station_name":"Tambun","line":1,"station_id":"TB","i_long":107.055722},{"transit":false,"station_name":"Cibitung","time":3,"distance":3420,"is_transit":false,"station_id":"CIT","line":0,"i_long":107.083084,"i_lat":-6.261877}]]}