{"data":[[{"station_id":"CLT","i_long":106.800016,"i_lat":-6.530544,"time":0,"station_name":"Cilebut","line":2,"distance":0,"is_transit":false,"transit":false},{"station_name":"Bojonggede","transit":false,"i_lat":-6.493243,"line":2,"station_id":"BJD","is_transit":false,"i_long":106.792719,"distance":4331,"time":5},{"line":2,"is_transit":false,"i_lat":-6.448811,"distance":5197,"time":5,"station_id":"CTA","transit":false,"i_long":106.800298,"station_name":"Citayam"},{"is_transit":false,"line":2,"time":6,"transit":false,"i_long":106.816926,"i_lat":-6.405256,"distance":5084,"station_name":"Depok","station_id":"DP"},{"time":3,"transit":false,"distance":1584,"i_long":106.819451,"station_name":"Depokbaru","station_id":"DPB","is_transit":false,"line":2,"i_lat":-6.391065},{"distance":2727,"i_lat":-6.369073,"is_transit":false,"station_name":"Pondok Cina","i_long":106.831114,"line":2,"station_id":"POC","time":4,"transit":false},{"time":2,"line":2,"station_id":"UI","i_lat":-6.360749,"distance":1109,"is_transit":false,"station_name":"Univ. Indonesia","transit":false,"i_long":106.831474},{"distance":2264,"is_transit":false,"transit":false,"line":2,"time":3,"station_name":"Univ. Pancasila","station_id":"UP","i_lat":-6.339291,"i_long":106.834175},{"is_transit":false,"transit":false,"i_long":106.832616,"line":2,"station_name":"Lenteng Agung","distance":1029,"station_id":"LNA","i_lat":-6.330363,"time":2},{"distance":2671,"station_id":"TNT","i_lat":-6.3080680000000005,"i_long":106.838896,"transit":false,"time":3,"is_transit":false,"station_name":"Tanjung Barat","line":2},{"is_transit":false,"i_long":106.843999,"i_lat":-6.2842400000000005,"distance":2820,"station_name":"Pasar Minggu","transit":false,"time":4,"station_id":"PSM","line":2}]]}