{"data":[[{"transit":false,"station_name":"Cilebut","time":0,"i_lat":-6.530544,"line":2,"is_transit":false,"station_id":"CLT","distance":0,"i_long":106.800016},{"is_transit":false,"i_lat":-6.493243,"time":5,"i_long":106.792719,"line":2,"station_id":"BJD","distance":4331,"transit":false,"station_name":"Bojonggede"},{"station_id":"CTA","i_lat":-6.448811,"distance":5197,"station_name":"Citayam","time":5,"is_transit":false,"transit":false,"line":2,"i_long":106.800298},{"is_transit":false,"station_name":"Depok","time":6,"transit":false,"i_lat":-6.405256,"i_long":106.816926,"distance":5084,"station_id":"DP","line":2},{"station_name":"Depokbaru","distance":1584,"i_lat":-6.391065,"is_transit":false,"time":3,"station_id":"DPB","transit":false,"i_long":106.819451,"line":2},{"transit":false,"i_lat":-6.369073,"distance":2727,"i_long":106.831114,"station_id":"POC","is_transit":false,"station_name":"Pondok Cina","line":2,"time":4},{"i_long":106.831474,"station_id":"UI","distance":1109,"transit":false,"i_lat":-6.360749,"is_transit":false,"station_name":"Univ. Indonesia","time":2,"line":2},{"line":2,"distance":2264,"station_id":"UP","i_lat":-6.339291,"transit":false,"time":3,"station_name":"Univ. Pancasila","is_transit":false,"i_long":106.834175},{"time":2,"distance":1029,"i_long":106.832616,"transit":false,"station_id":"LNA","i_lat":-6.330363,"station_name":"Lenteng Agung","is_transit":false,"line":2},{"i_long":106.838896,"station_name":"Tanjung Barat","is_transit":false,"time":3,"station_id":"TNT","distance":2671,"transit":false,"line":2,"i_lat":-6.3080680000000005},{"station_id":"PSM","station_name":"Pasar Minggu","is_transit":false,"transit":false,"time":4,"distance":2820,"i_long":106.843999,"i_lat":-6.2842400000000005,"line":2}]]}