{"data":[[{"station_name":"Cilebut","i_lat":-6.530544,"time":0,"transit":false,"is_transit":false,"i_long":106.800016,"distance":0,"station_id":"CLT","line":2},{"transit":false,"time":5,"station_id":"BJD","i_lat":-6.493243,"station_name":"Bojonggede","distance":4331,"line":2,"is_transit":false,"i_long":106.792719},{"i_lat":-6.448811,"station_id":"CTA","station_name":"Citayam","time":5,"transit":false,"line":2,"distance":5197,"i_long":106.800298,"is_transit":false},{"line":2,"is_transit":false,"distance":5084,"i_long":106.816926,"station_id":"DP","transit":false,"i_lat":-6.405256,"station_name":"Depok","time":6},{"i_lat":-6.391065,"i_long":106.819451,"station_name":"Depokbaru","time":3,"line":2,"is_transit":false,"distance":1584,"station_id":"DPB","transit":false},{"i_lat":-6.369073,"line":2,"transit":false,"station_name":"Pondok Cina","distance":2727,"time":4,"i_long":106.831114,"is_transit":false,"station_id":"POC"},{"i_lat":-6.360749,"i_long":106.831474,"line":2,"station_name":"Univ. Indonesia","station_id":"UI","time":2,"transit":false,"distance":1109,"is_transit":false},{"line":2,"transit":false,"station_name":"Univ. Pancasila","station_id":"UP","i_lat":-6.339291,"i_long":106.834175,"distance":2264,"is_transit":false,"time":3},{"i_long":106.832616,"line":2,"station_id":"LNA","distance":1029,"transit":false,"is_transit":false,"time":2,"i_lat":-6.330363,"station_name":"Lenteng Agung"},{"station_id":"TNT","station_name":"Tanjung Barat","distance":2671,"time":3,"line":2,"i_lat":-6.3080680000000005,"i_long":106.838896,"transit":false,"is_transit":false},{"transit":false,"station_id":"PSM","is_transit":false,"time":4,"i_lat":-6.2842400000000005,"i_long":106.843999,"station_name":"Pasar Minggu","distance":2820,"line":2},{"station_name":"Pasar Minggu Baru","time":2,"distance":2380,"i_lat":-6.263214,"i_long":106.851577,"is_transit":false,"line":2,"station_id":"PSMB","transit":false},{"transit":false,"line":2,"time":2,"station_name":"Duren Kalibata","station_id":"DRN","is_transit":false,"distance":824,"i_lat":-6.255332,"i_long":106.85449},{"line":2,"station_name":"Cawang","i_long":106.856607,"distance":1546,"is_transit":false,"time":3,"transit":false,"i_lat":-6.242512,"station_id":"CW"},{"station_name":"Tebet","i_lat":-6.226659,"station_id":"TEB","time":2,"distance":1230,"is_transit":false,"line":2,"i_long":106.857948,"transit":false},{"transit":true,"i_lat":-6.209883,"is_transit":true,"line":2,"distance":2610,"time":4,"i_long":106.84912,"station_name":"Manggarai","station_id":"MRI"},{"i_lat":-6.212485,"line":1,"time":2,"transit":false,"i_long":106.858896,"is_transit":false,"station_name":"Matraman","distance":1275,"station_id":"MTR"},{"line":1,"distance":1377,"transit":false,"time":8,"station_id":"JNG","is_transit":false,"i_long":106.86807400000001,"i_lat":-6.215091,"station_name":"Jatinegara"},{"i_long":106.899548,"station_name":"Klender","is_transit":false,"distance":3395,"transit":false,"station_id":"KLD","time":3,"line":1,"i_lat":-6.2135},{"distance":3100,"line":1,"station_name":"Buaran","time":2,"station_id":"BUA","i_long":106.922662,"is_transit":false,"transit":false,"i_lat":-6.215568},{"is_transit":false,"station_name":"Klenderbaru","distance":1305,"transit":false,"i_long":106.939679,"i_lat":-6.217455,"time":1,"line":1,"station_id":"KLDB"},{"line":1,"i_long":106.951283,"time":8,"i_lat":-6.219053,"station_id":"CUK","is_transit":false,"distance":1385,"station_name":"Cakung","transit":false},{"transit":false,"time":3,"is_transit":false,"i_long":106.977657,"i_lat":-6.224515,"station_id":"KRI","station_name":"Kranji","line":1,"distance":3097},{"time":4,"transit":false,"station_id":"BKS","distance":2520,"line":1,"station_name":"Bekasi","i_lat":-6.236616,"is_transit":false,"i_long":106.997013},{"station_name":"Bekasi Timur","line":1,"is_transit":false,"distance":2368,"time":2,"i_long":107.016735,"transit":false,"i_lat":-6.248029,"station_id":"BKST"},{"time":7,"i_long":107.055722,"transit":false,"distance":4460,"i_lat":-6.258864,"line":1,"station_id":"TB","station_name":"Tambun","is_transit":false},{"distance":3420,"is_transit":false,"station_name":"Cibitung","time":3,"transit":false,"line":1,"station_id":"CIT","i_lat":-6.261877,"i_long":107.083084}],[{"time":0,"distance":0,"i_lat":-6.530544,"i_long":106.800016,"line":2,"transit":false,"station_name":"Cilebut","station_id":"CLT","is_transit":false},{"i_lat":-6.493243,"transit":false,"is_transit":false,"distance":4331,"i_long":106.792719,"line":2,"station_name":"Bojonggede","time":5,"station_id":"BJD"},{"transit":false,"station_name":"Citayam","i_lat":-6.448811,"i_long":106.800298,"is_transit":false,"distance":5197,"station_id":"CTA","line":2,"time":5},{"is_transit":false,"distance":5084,"i_long":106.816926,"line":2,"time":6,"i_lat":-6.405256,"transit":false,"station_id":"DP","station_name":"Depok"},{"station_id":"DPB","i_lat":-6.391065,"transit":false,"line":2,"i_long":106.819451,"station_name":"Depokbaru","time":3,"distance":1584,"is_transit":false},{"transit":false,"station_name":"Pondok Cina","is_transit":false,"line":2,"station_id":"POC","time":4,"distance":2727,"i_long":106.831114,"i_lat":-6.369073},{"is_transit":false,"time":2,"distance":1109,"station_name":"Univ. Indonesia","line":2,"i_lat":-6.360749,"station_id":"UI","transit":false,"i_long":106.831474},{"line":2,"station_id":"UP","station_name":"Univ. Pancasila","transit":false,"is_transit":false,"i_lat":-6.339291,"i_long":106.834175,"distance":2264,"time":3},{"station_id":"LNA","i_long":106.832616,"is_transit":false,"transit":false,"time":2,"line":2,"distance":1029,"station_name":"Lenteng Agung","i_lat":-6.330363},{"time":3,"station_name":"Tanjung Barat","distance":2671,"i_long":106.838896,"station_id":"TNT","transit":false,"i_lat":-6.3080680000000005,"line":2,"is_transit":false},{"transit":false,"station_name":"Pasar Minggu","i_lat":-6.2842400000000005,"station_id":"PSM","time":4,"distance":2820,"i_long":106.843999,"is_transit":false,"line":2},{"distance":2380,"transit":false,"station_name":"Pasar Minggu Baru","station_id":"PSMB","line":2,"i_lat":-6.263214,"i_long":106.851577,"is_transit":false,"time":2},{"i_long":106.85449,"time":2,"station_name":"Duren Kalibata","transit":false,"distance":824,"i_lat":-6.255332,"line":2,"is_transit":false,"station_id":"DRN"},{"line":2,"i_lat":-6.242512,"i_long":106.856607,"station_id":"CW","station_name":"Cawang","transit":false,"distance":1546,"time":3,"is_transit":false},{"transit":false,"station_name":"Tebet","is_transit":false,"station_id":"TEB","i_lat":-6.226659,"distance":1230,"line":2,"i_long":106.857948,"time":2},{"distance":2610,"transit":true,"station_id":"MRI","i_long":106.84912,"time":4,"i_lat":-6.209883,"is_transit":true,"line":2,"station_name":"Manggarai"},{"station_name":"Sudirman","i_long":106.822649,"transit":false,"station_id":"SUD","distance":3186,"line":1,"time":4,"is_transit":false,"i_lat":-6.202263},{"transit":false,"time":1,"station_name":"Sudirman Baru","i_long":106.819881,"is_transit":false,"i_lat":-6.201433,"distance":280,"line":1,"station_id":"SUDB"},{"is_transit":false,"i_long":106.816351,"line":1,"station_id":"KAT","transit":false,"station_name":"Karet","i_lat":-6.20132,"distance":471,"time":1},{"distance":2029,"line":1,"transit":false,"station_name":"Tanah Abang","is_transit":false,"time":5,"i_lat":-6.185545,"station_id":"THB","i_long":106.811091},{"line":1,"transit":false,"time":8,"station_id":"DU","station_name":"Duri","distance":3632,"i_long":106.800832,"i_lat":-6.155215,"is_transit":false},{"station_id":"AK","distance":1230,"i_lat":-6.144674,"station_name":"Angke","is_transit":false,"time":4,"transit":false,"i_long":106.79867,"line":1},{"i_long":106.826365,"i_lat":-6.132549,"line":4,"is_transit":true,"station_id":"KPB","time":9,"transit":true,"station_name":"Kampung Bandan","distance":4102},{"i_lat":-6.14505,"station_id":"RJW","line":11,"transit":false,"distance":1444,"is_transit":false,"time":3,"i_long":106.836569,"station_name":"Rajawali"},{"is_transit":false,"distance":1901,"time":5,"i_lat":-6.161728,"station_name":"Kemayoran","line":11,"station_id":"KMO","transit":false,"i_long":106.839204},{"transit":false,"distance":1436,"station_id":"PSE","i_lat":-6.174784,"time":4,"line":11,"i_long":106.84368,"station_name":"Pasar Senen","is_transit":false},{"station_name":"Gang Sentiong","time":8,"transit":false,"i_long":106.850107,"distance":1567,"line":11,"i_lat":-6.185975,"station_id":"GST","is_transit":false},{"line":11,"station_id":"KMT","i_long":106.855437,"time":1,"transit":false,"is_transit":false,"station_name":"Kramat","distance":973,"i_lat":-6.193792},{"is_transit":false,"station_name":"Pondok Jati","transit":false,"time":2,"station_id":"POK","i_lat":-6.209188,"line":11,"distance":1829,"i_long":106.861737},{"line":1,"distance":1236,"i_long":106.86807400000001,"station_name":"Jatinegara","is_transit":true,"i_lat":-6.215091,"transit":true,"time":9,"station_id":"JNG"},{"station_id":"KLD","time":3,"distance":3395,"i_long":106.899548,"is_transit":false,"station_name":"Klender","i_lat":-6.2135,"transit":false,"line":1},{"time":2,"transit":false,"line":1,"distance":3100,"station_name":"Buaran","station_id":"BUA","i_lat":-6.215568,"is_transit":false,"i_long":106.922662},{"time":1,"i_long":106.939679,"station_name":"Klenderbaru","line":1,"transit":false,"distance":1305,"station_id":"KLDB","i_lat":-6.217455,"is_transit":false},{"line":1,"distance":1385,"transit":false,"station_name":"Cakung","is_transit":false,"i_lat":-6.219053,"time":8,"i_long":106.951283,"station_id":"CUK"},{"time":3,"line":1,"distance":3097,"i_lat":-6.224515,"i_long":106.977657,"transit":false,"station_id":"KRI","station_name":"Kranji","is_transit":false},{"transit":false,"is_transit":false,"time":4,"distance":2520,"line":1,"i_long":106.997013,"i_lat":-6.236616,"station_name":"Bekasi","station_id":"BKS"},{"line":1,"i_long":107.016735,"station_id":"BKST","transit":false,"distance":2368,"station_name":"Bekasi Timur","i_lat":-6.248029,"is_transit":false,"time":2},{"i_long":107.055722,"line":1,"i_lat":-6.258864,"is_transit":false,"transit":false,"station_id":"TB","station_name":"Tambun","distance":4460,"time":7},{"time":3,"distance":3420,"i_lat":-6.261877,"line":1,"station_id":"CIT","station_name":"Cibitung","is_transit":false,"i_long":107.083084,"transit":false}],[{"time":0,"transit":false,"i_long":106.800016,"distance":0,"station_name":"Cilebut","i_lat":-6.530544,"line":2,"station_id":"CLT","is_transit":false},{"transit":false,"line":2,"is_transit":false,"i_lat":-6.493243,"station_id":"BJD","station_name":"Bojonggede","i_long":106.792719,"time":5,"distance":4331},{"distance":5197,"i_lat":-6.448811,"transit":false,"i_long":106.800298,"time":5,"line":2,"station_name":"Citayam","is_transit":false,"station_id":"CTA"},{"line":2,"i_lat":-6.405256,"station_name":"Depok","time":6,"distance":5084,"i_long":106.816926,"is_transit":false,"transit":false,"station_id":"DP"},{"is_transit":false,"station_id":"DPB","i_long":106.819451,"transit":false,"station_name":"Depokbaru","time":3,"line":2,"distance":1584,"i_lat":-6.391065},{"i_long":106.831114,"time":4,"distance":2727,"line":2,"station_id":"POC","transit":false,"station_name":"Pondok Cina","i_lat":-6.369073,"is_transit":false},{"line":2,"distance":1109,"time":2,"transit":false,"station_name":"Univ. Indonesia","i_lat":-6.360749,"i_long":106.831474,"station_id":"UI","is_transit":false},{"is_transit":false,"time":3,"i_long":106.834175,"i_lat":-6.339291,"transit":false,"station_name":"Univ. Pancasila","station_id":"UP","distance":2264,"line":2},{"time":2,"station_id":"LNA","line":2,"transit":false,"is_transit":false,"i_long":106.832616,"station_name":"Lenteng Agung","distance":1029,"i_lat":-6.330363},{"line":2,"transit":false,"station_name":"Tanjung Barat","station_id":"TNT","distance":2671,"i_lat":-6.3080680000000005,"i_long":106.838896,"time":3,"is_transit":false},{"line":2,"distance":2820,"i_lat":-6.2842400000000005,"i_long":106.843999,"transit":false,"station_id":"PSM","station_name":"Pasar Minggu","is_transit":false,"time":4},{"station_name":"Pasar Minggu Baru","distance":2380,"i_lat":-6.263214,"is_transit":false,"i_long":106.851577,"line":2,"transit":false,"station_id":"PSMB","time":2},{"transit":false,"time":2,"is_transit":false,"i_long":106.85449,"station_name":"Duren Kalibata","station_id":"DRN","distance":824,"line":2,"i_lat":-6.255332},{"distance":1546,"i_long":106.856607,"is_transit":false,"i_lat":-6.242512,"transit":false,"station_name":"Cawang","line":2,"station_id":"CW","time":3},{"i_lat":-6.226659,"is_transit":false,"line":2,"time":2,"transit":false,"station_name":"Tebet","distance":1230,"i_long":106.857948,"station_id":"TEB"},{"i_long":106.84912,"station_name":"Manggarai","transit":false,"station_id":"MRI","time":4,"distance":2610,"is_transit":false,"line":2,"i_lat":-6.209883},{"station_id":"CKI","i_long":106.840169,"time":4,"station_name":"Cikini","i_lat":-6.198556,"distance":1590,"line":2,"transit":false,"is_transit":false},{"time":3,"station_id":"GDD","distance":1750,"station_name":"Gondangdia","transit":false,"i_long":106.832183,"i_lat":-6.186295,"is_transit":false,"line":2},{"i_long":106.828284,"station_name":"Juanda","transit":false,"distance":2015,"i_lat":-6.166716,"is_transit":false,"time":4,"station_id":"JUA","line":2},{"i_lat":-6.160725,"i_long":106.827103,"is_transit":false,"station_name":"Sawah Besar","distance":1149,"time":2,"line":2,"station_id":"SW","transit":false},{"distance":906,"time":2,"station_name":"Manggabesar","is_transit":false,"line":2,"station_id":"MGB","transit":false,"i_lat":-6.149769,"i_long":106.82482},{"is_transit":false,"i_long":106.820901,"i_lat":-6.141205,"distance":1080,"station_name":"Jayakarta","line":2,"time":2,"transit":false,"station_id":"JAY"},{"i_lat":-6.137569,"station_name":"Jakarta Kota","i_long":106.812439,"transit":true,"is_transit":true,"line":2,"distance":1264,"station_id":"JAKK","time":4},{"distance":1364,"is_transit":true,"time":3,"i_lat":-6.132549,"station_name":"Kampung Bandan","transit":true,"i_long":106.826365,"station_id":"KPB","line":4},{"i_long":106.836569,"transit":false,"distance":1444,"line":11,"time":3,"i_lat":-6.14505,"station_name":"Rajawali","station_id":"RJW","is_transit":false},{"i_lat":-6.161728,"i_long":106.839204,"line":11,"distance":1901,"station_name":"Kemayoran","transit":false,"station_id":"KMO","is_transit":false,"time":5},{"is_transit":false,"transit":false,"station_name":"Pasar Senen","station_id":"PSE","time":4,"distance":1436,"i_long":106.84368,"line":11,"i_lat":-6.174784},{"station_id":"GST","is_transit":false,"line":11,"transit":false,"i_lat":-6.185975,"station_name":"Gang Sentiong","time":8,"distance":1567,"i_long":106.850107},{"i_lat":-6.193792,"line":11,"time":1,"distance":973,"station_id":"KMT","station_name":"Kramat","is_transit":false,"transit":false,"i_long":106.855437},{"distance":1829,"time":2,"station_id":"POK","i_lat":-6.209188,"station_name":"Pondok Jati","is_transit":false,"i_long":106.861737,"transit":false,"line":11},{"station_name":"Jatinegara","i_lat":-6.215091,"i_long":106.86807400000001,"transit":true,"is_transit":true,"time":9,"distance":1236,"station_id":"JNG","line":1},{"distance":3395,"is_transit":false,"i_long":106.899548,"i_lat":-6.2135,"time":3,"line":1,"station_name":"Klender","transit":false,"station_id":"KLD"},{"station_id":"BUA","i_long":106.922662,"i_lat":-6.215568,"distance":3100,"transit":false,"is_transit":false,"time":2,"station_name":"Buaran","line":1},{"station_id":"KLDB","is_transit":false,"i_lat":-6.217455,"transit":false,"station_name":"Klenderbaru","time":1,"i_long":106.939679,"distance":1305,"line":1},{"line":1,"is_transit":false,"time":8,"i_lat":-6.219053,"distance":1385,"i_long":106.951283,"transit":false,"station_name":"Cakung","station_id":"CUK"},{"time":3,"station_id":"KRI","transit":false,"distance":3097,"i_long":106.977657,"line":1,"i_lat":-6.224515,"is_transit":false,"station_name":"Kranji"},{"station_id":"BKS","i_lat":-6.236616,"i_long":106.997013,"station_name":"Bekasi","distance":2520,"is_transit":false,"time":4,"line":1,"transit":false},{"line":1,"time":2,"is_transit":false,"i_long":107.016735,"station_name":"Bekasi Timur","distance":2368,"station_id":"BKST","transit":false,"i_lat":-6.248029},{"line":1,"i_long":107.055722,"station_name":"Tambun","is_transit":false,"i_lat":-6.258864,"transit":false,"station_id":"TB","time":7,"distance":4460},{"line":1,"i_long":107.083084,"station_name":"Cibitung","distance":3420,"i_lat":-6.261877,"is_transit":false,"transit":false,"time":3,"station_id":"CIT"}]]}