{"data":[[{"time":0,"station_name":"Cilebut","line":2,"transit":false,"station_id":"CLT","is_transit":false,"i_lat":-6.530544,"distance":0,"i_long":106.800016},{"line":2,"transit":false,"time":5,"i_lat":-6.493243,"i_long":106.792719,"station_name":"Bojonggede","station_id":"BJD","distance":4331,"is_transit":false},{"is_transit":false,"distance":5197,"station_name":"Citayam","station_id":"CTA","i_long":106.800298,"time":5,"i_lat":-6.448811,"transit":false,"line":2},{"i_lat":-6.405256,"transit":false,"station_name":"Depok","distance":5084,"i_long":106.816926,"station_id":"DP","line":2,"time":6,"is_transit":false},{"station_name":"Depokbaru","transit":false,"i_lat":-6.391065,"distance":1584,"line":2,"i_long":106.819451,"is_transit":false,"station_id":"DPB","time":3},{"i_lat":-6.369073,"i_long":106.831114,"station_name":"Pondok Cina","line":2,"transit":false,"station_id":"POC","distance":2727,"is_transit":false,"time":4},{"i_lat":-6.360749,"line":2,"station_id":"UI","transit":false,"station_name":"Univ. Indonesia","time":2,"i_long":106.831474,"distance":1109,"is_transit":false},{"time":3,"is_transit":false,"transit":false,"station_name":"Univ. Pancasila","i_long":106.834175,"i_lat":-6.339291,"station_id":"UP","line":2,"distance":2264},{"is_transit":false,"i_long":106.832616,"transit":false,"station_name":"Lenteng Agung","station_id":"LNA","line":2,"i_lat":-6.330363,"distance":1029,"time":2},{"time":3,"distance":2671,"is_transit":false,"i_lat":-6.3080680000000005,"line":2,"station_name":"Tanjung Barat","i_long":106.838896,"transit":false,"station_id":"TNT"},{"transit":false,"station_id":"PSM","distance":2820,"line":2,"i_lat":-6.2842400000000005,"time":4,"is_transit":false,"i_long":106.843999,"station_name":"Pasar Minggu"},{"i_lat":-6.263214,"transit":false,"is_transit":false,"time":2,"distance":2380,"station_name":"Pasar Minggu Baru","i_long":106.851577,"line":2,"station_id":"PSMB"},{"i_long":106.85449,"station_id":"DRN","line":2,"i_lat":-6.255332,"is_transit":false,"time":2,"station_name":"Duren Kalibata","transit":false,"distance":824},{"is_transit":false,"distance":1546,"i_lat":-6.242512,"i_long":106.856607,"time":3,"station_name":"Cawang","line":2,"transit":false,"station_id":"CW"},{"station_name":"Tebet","i_lat":-6.226659,"line":2,"transit":false,"distance":1230,"time":2,"station_id":"TEB","i_long":106.857948,"is_transit":false},{"i_lat":-6.209883,"i_long":106.84912,"distance":2610,"station_id":"MRI","line":2,"is_transit":true,"station_name":"Manggarai","time":4,"transit":true},{"transit":false,"station_id":"MTR","time":2,"distance":1275,"i_lat":-6.212485,"line":1,"station_name":"Matraman","i_long":106.858896,"is_transit":false},{"time":8,"transit":false,"station_id":"JNG","distance":1377,"i_lat":-6.215091,"station_name":"Jatinegara","i_long":106.86807400000001,"is_transit":false,"line":1},{"line":1,"distance":3395,"i_long":106.899548,"is_transit":false,"transit":false,"station_id":"KLD","i_lat":-6.2135,"time":3,"station_name":"Klender"},{"transit":false,"i_lat":-6.215568,"time":2,"distance":3100,"station_id":"BUA","line":1,"is_transit":false,"i_long":106.922662,"station_name":"Buaran"},{"distance":1305,"line":1,"i_lat":-6.217455,"station_name":"Klenderbaru","is_transit":false,"time":1,"i_long":106.939679,"station_id":"KLDB","transit":false},{"i_lat":-6.219053,"transit":false,"is_transit":false,"line":1,"station_name":"Cakung","i_long":106.951283,"time":8,"distance":1385,"station_id":"CUK"},{"station_id":"KRI","transit":false,"time":3,"i_lat":-6.224515,"line":1,"station_name":"Kranji","distance":3097,"is_transit":false,"i_long":106.977657},{"station_id":"BKS","line":1,"i_lat":-6.236616,"i_long":106.997013,"transit":false,"is_transit":false,"time":4,"station_name":"Bekasi","distance":2520},{"i_long":107.016735,"i_lat":-6.248029,"station_name":"Bekasi Timur","distance":2368,"time":2,"station_id":"BKST","transit":false,"is_transit":false,"line":1},{"time":7,"i_lat":-6.258864,"line":1,"transit":false,"station_id":"TB","is_transit":false,"distance":4460,"i_long":107.055722,"station_name":"Tambun"},{"time":3,"station_name":"Cibitung","station_id":"CIT","i_lat":-6.261877,"i_long":107.083084,"line":1,"transit":false,"distance":3420,"is_transit":false}],[{"station_id":"CLT","is_transit":false,"time":0,"i_long":106.800016,"transit":false,"distance":0,"station_name":"Cilebut","i_lat":-6.530544,"line":2},{"is_transit":false,"time":5,"line":2,"distance":4331,"station_name":"Bojonggede","station_id":"BJD","i_lat":-6.493243,"i_long":106.792719,"transit":false},{"station_id":"CTA","i_lat":-6.448811,"distance":5197,"line":2,"transit":false,"i_long":106.800298,"is_transit":false,"station_name":"Citayam","time":5},{"i_long":106.816926,"distance":5084,"station_name":"Depok","station_id":"DP","is_transit":false,"time":6,"i_lat":-6.405256,"transit":false,"line":2},{"line":2,"distance":1584,"i_lat":-6.391065,"station_name":"Depokbaru","station_id":"DPB","time":3,"is_transit":false,"transit":false,"i_long":106.819451},{"transit":false,"station_name":"Pondok Cina","distance":2727,"line":2,"is_transit":false,"time":4,"station_id":"POC","i_long":106.831114,"i_lat":-6.369073},{"i_long":106.831474,"time":2,"i_lat":-6.360749,"station_name":"Univ. Indonesia","station_id":"UI","distance":1109,"transit":false,"is_transit":false,"line":2},{"transit":false,"distance":2264,"time":3,"station_id":"UP","is_transit":false,"i_lat":-6.339291,"i_long":106.834175,"line":2,"station_name":"Univ. Pancasila"},{"time":2,"i_long":106.832616,"station_id":"LNA","i_lat":-6.330363,"line":2,"transit":false,"station_name":"Lenteng Agung","distance":1029,"is_transit":false},{"station_id":"TNT","i_long":106.838896,"station_name":"Tanjung Barat","is_transit":false,"i_lat":-6.3080680000000005,"distance":2671,"transit":false,"line":2,"time":3},{"line":2,"transit":false,"station_id":"PSM","distance":2820,"time":4,"i_lat":-6.2842400000000005,"station_name":"Pasar Minggu","is_transit":false,"i_long":106.843999},{"is_transit":false,"time":2,"station_name":"Pasar Minggu Baru","transit":false,"distance":2380,"i_lat":-6.263214,"line":2,"station_id":"PSMB","i_long":106.851577},{"time":2,"station_id":"DRN","is_transit":false,"i_long":106.85449,"line":2,"distance":824,"i_lat":-6.255332,"transit":false,"station_name":"Duren Kalibata"},{"transit":false,"station_name":"Cawang","station_id":"CW","time":3,"line":2,"distance":1546,"i_lat":-6.242512,"is_transit":false,"i_long":106.856607},{"station_id":"TEB","i_lat":-6.226659,"i_long":106.857948,"line":2,"station_name":"Tebet","is_transit":false,"time":2,"transit":false,"distance":1230},{"distance":2610,"i_long":106.84912,"line":2,"station_name":"Manggarai","transit":true,"is_transit":true,"time":4,"station_id":"MRI","i_lat":-6.209883},{"is_transit":false,"line":1,"station_name":"Sudirman","time":4,"station_id":"SUD","transit":false,"i_long":106.822649,"distance":3186,"i_lat":-6.202263},{"transit":false,"i_long":106.819881,"station_id":"SUDB","is_transit":false,"i_lat":-6.201433,"time":1,"line":1,"distance":280,"station_name":"Sudirman Baru"},{"is_transit":false,"i_long":106.816351,"line":1,"transit":false,"station_id":"KAT","distance":471,"time":1,"i_lat":-6.20132,"station_name":"Karet"},{"station_name":"Tanah Abang","transit":false,"distance":2029,"i_long":106.811091,"time":5,"line":1,"i_lat":-6.185545,"is_transit":false,"station_id":"THB"},{"station_name":"Duri","i_long":106.800832,"line":1,"station_id":"DU","is_transit":false,"distance":3632,"time":8,"i_lat":-6.155215,"transit":false},{"is_transit":false,"distance":1230,"i_lat":-6.144674,"time":4,"line":1,"transit":false,"station_id":"AK","station_name":"Angke","i_long":106.79867},{"transit":true,"i_lat":-6.132549,"station_name":"Kampung Bandan","time":9,"station_id":"KPB","distance":4102,"i_long":106.826365,"is_transit":true,"line":4},{"i_lat":-6.14505,"time":3,"station_name":"Rajawali","station_id":"RJW","transit":false,"distance":1444,"is_transit":false,"i_long":106.836569,"line":11},{"transit":false,"station_name":"Kemayoran","station_id":"KMO","is_transit":false,"i_lat":-6.161728,"i_long":106.839204,"time":5,"distance":1901,"line":11},{"time":4,"i_long":106.84368,"station_id":"PSE","transit":false,"distance":1436,"line":11,"is_transit":false,"i_lat":-6.174784,"station_name":"Pasar Senen"},{"time":8,"transit":false,"i_lat":-6.185975,"i_long":106.850107,"line":11,"is_transit":false,"station_name":"Gang Sentiong","distance":1567,"station_id":"GST"},{"time":1,"distance":973,"i_lat":-6.193792,"transit":false,"is_transit":false,"i_long":106.855437,"line":11,"station_name":"Kramat","station_id":"KMT"},{"station_name":"Pondok Jati","i_long":106.861737,"distance":1829,"time":2,"line":11,"transit":false,"is_transit":false,"i_lat":-6.209188,"station_id":"POK"},{"station_id":"JNG","station_name":"Jatinegara","time":9,"transit":true,"i_long":106.86807400000001,"i_lat":-6.215091,"line":1,"distance":1236,"is_transit":true},{"is_transit":false,"i_long":106.899548,"station_id":"KLD","time":3,"line":1,"i_lat":-6.2135,"transit":false,"station_name":"Klender","distance":3395},{"station_name":"Buaran","distance":3100,"station_id":"BUA","is_transit":false,"time":2,"i_lat":-6.215568,"transit":false,"i_long":106.922662,"line":1},{"station_name":"Klenderbaru","time":1,"i_lat":-6.217455,"transit":false,"station_id":"KLDB","is_transit":false,"i_long":106.939679,"distance":1305,"line":1},{"is_transit":false,"time":8,"station_id":"CUK","station_name":"Cakung","line":1,"distance":1385,"i_lat":-6.219053,"i_long":106.951283,"transit":false},{"station_id":"KRI","line":1,"distance":3097,"transit":false,"is_transit":false,"time":3,"i_long":106.977657,"i_lat":-6.224515,"station_name":"Kranji"},{"is_transit":false,"transit":false,"station_id":"BKS","time":4,"distance":2520,"i_long":106.997013,"i_lat":-6.236616,"line":1,"station_name":"Bekasi"},{"time":2,"transit":false,"line":1,"station_id":"BKST","is_transit":false,"distance":2368,"i_lat":-6.248029,"i_long":107.016735,"station_name":"Bekasi Timur"},{"station_name":"Tambun","distance":4460,"transit":false,"time":7,"i_long":107.055722,"station_id":"TB","is_transit":false,"i_lat":-6.258864,"line":1},{"i_long":107.083084,"i_lat":-6.261877,"station_name":"Cibitung","line":1,"distance":3420,"time":3,"station_id":"CIT","transit":false,"is_transit":false}],[{"station_name":"Cilebut","time":0,"i_long":106.800016,"station_id":"CLT","transit":false,"i_lat":-6.530544,"line":2,"distance":0,"is_transit":false},{"is_transit":false,"i_long":106.792719,"time":5,"station_name":"Bojonggede","line":2,"transit":false,"i_lat":-6.493243,"station_id":"BJD","distance":4331},{"i_long":106.800298,"line":2,"transit":false,"station_name":"Citayam","distance":5197,"is_transit":false,"time":5,"i_lat":-6.448811,"station_id":"CTA"},{"transit":false,"time":6,"is_transit":false,"station_id":"DP","line":2,"i_long":106.816926,"station_name":"Depok","distance":5084,"i_lat":-6.405256},{"distance":1584,"is_transit":false,"transit":false,"line":2,"station_name":"Depokbaru","i_lat":-6.391065,"station_id":"DPB","time":3,"i_long":106.819451},{"i_long":106.831114,"transit":false,"is_transit":false,"distance":2727,"time":4,"line":2,"station_name":"Pondok Cina","i_lat":-6.369073,"station_id":"POC"},{"distance":1109,"is_transit":false,"station_name":"Univ. Indonesia","i_lat":-6.360749,"time":2,"transit":false,"station_id":"UI","line":2,"i_long":106.831474},{"time":3,"station_name":"Univ. Pancasila","line":2,"distance":2264,"is_transit":false,"station_id":"UP","transit":false,"i_lat":-6.339291,"i_long":106.834175},{"line":2,"distance":1029,"station_id":"LNA","station_name":"Lenteng Agung","transit":false,"is_transit":false,"i_long":106.832616,"time":2,"i_lat":-6.330363},{"distance":2671,"station_id":"TNT","i_long":106.838896,"is_transit":false,"i_lat":-6.3080680000000005,"line":2,"transit":false,"station_name":"Tanjung Barat","time":3},{"line":2,"station_name":"Pasar Minggu","is_transit":false,"distance":2820,"transit":false,"i_lat":-6.2842400000000005,"i_long":106.843999,"station_id":"PSM","time":4},{"i_long":106.851577,"i_lat":-6.263214,"transit":false,"station_id":"PSMB","station_name":"Pasar Minggu Baru","distance":2380,"time":2,"is_transit":false,"line":2},{"transit":false,"distance":824,"time":2,"station_id":"DRN","i_long":106.85449,"is_transit":false,"line":2,"i_lat":-6.255332,"station_name":"Duren Kalibata"},{"station_name":"Cawang","time":3,"station_id":"CW","i_lat":-6.242512,"is_transit":false,"i_long":106.856607,"transit":false,"distance":1546,"line":2},{"distance":1230,"station_name":"Tebet","station_id":"TEB","line":2,"time":2,"i_long":106.857948,"is_transit":false,"transit":false,"i_lat":-6.226659},{"i_lat":-6.209883,"is_transit":false,"transit":false,"station_name":"Manggarai","station_id":"MRI","distance":2610,"line":2,"time":4,"i_long":106.84912},{"distance":1590,"line":2,"i_lat":-6.198556,"i_long":106.840169,"station_id":"CKI","station_name":"Cikini","time":4,"transit":false,"is_transit":false},{"transit":false,"line":2,"station_name":"Gondangdia","station_id":"GDD","is_transit":false,"distance":1750,"time":3,"i_long":106.832183,"i_lat":-6.186295},{"distance":2015,"transit":false,"station_name":"Juanda","i_long":106.828284,"is_transit":false,"station_id":"JUA","i_lat":-6.166716,"time":4,"line":2},{"i_lat":-6.160725,"distance":1149,"transit":false,"i_long":106.827103,"is_transit":false,"time":2,"line":2,"station_name":"Sawah Besar","station_id":"SW"},{"station_name":"Manggabesar","line":2,"distance":906,"i_long":106.82482,"station_id":"MGB","transit":false,"i_lat":-6.149769,"is_transit":false,"time":2},{"station_id":"JAY","station_name":"Jayakarta","i_long":106.820901,"is_transit":false,"i_lat":-6.141205,"line":2,"time":2,"transit":false,"distance":1080},{"line":2,"time":4,"i_long":106.812439,"distance":1264,"i_lat":-6.137569,"transit":true,"station_id":"JAKK","is_transit":true,"station_name":"Jakarta Kota"},{"distance":1364,"is_transit":true,"time":3,"station_id":"KPB","i_long":106.826365,"i_lat":-6.132549,"transit":true,"station_name":"Kampung Bandan","line":4},{"is_transit":false,"line":11,"transit":false,"station_name":"Rajawali","time":3,"station_id":"RJW","distance":1444,"i_lat":-6.14505,"i_long":106.836569},{"transit":false,"station_name":"Kemayoran","line":11,"time":5,"i_lat":-6.161728,"is_transit":false,"station_id":"KMO","i_long":106.839204,"distance":1901},{"i_long":106.84368,"time":4,"station_id":"PSE","i_lat":-6.174784,"line":11,"station_name":"Pasar Senen","is_transit":false,"transit":false,"distance":1436},{"line":11,"is_transit":false,"station_name":"Gang Sentiong","transit":false,"time":8,"i_long":106.850107,"distance":1567,"station_id":"GST","i_lat":-6.185975},{"i_lat":-6.193792,"time":1,"transit":false,"station_name":"Kramat","is_transit":false,"line":11,"station_id":"KMT","distance":973,"i_long":106.855437},{"line":11,"station_name":"Pondok Jati","is_transit":false,"distance":1829,"time":2,"i_long":106.861737,"station_id":"POK","transit":false,"i_lat":-6.209188},{"transit":true,"time":9,"line":1,"distance":1236,"is_transit":true,"i_lat":-6.215091,"i_long":106.86807400000001,"station_name":"Jatinegara","station_id":"JNG"},{"distance":3395,"is_transit":false,"transit":false,"i_lat":-6.2135,"station_name":"Klender","i_long":106.899548,"station_id":"KLD","time":3,"line":1},{"station_id":"BUA","time":2,"is_transit":false,"distance":3100,"i_lat":-6.215568,"station_name":"Buaran","i_long":106.922662,"line":1,"transit":false},{"station_id":"KLDB","distance":1305,"i_long":106.939679,"transit":false,"station_name":"Klenderbaru","i_lat":-6.217455,"is_transit":false,"line":1,"time":1},{"time":8,"transit":false,"station_name":"Cakung","station_id":"CUK","is_transit":false,"i_lat":-6.219053,"distance":1385,"line":1,"i_long":106.951283},{"i_long":106.977657,"distance":3097,"station_id":"KRI","line":1,"station_name":"Kranji","is_transit":false,"i_lat":-6.224515,"time":3,"transit":false},{"is_transit":false,"i_lat":-6.236616,"distance":2520,"station_id":"BKS","line":1,"time":4,"transit":false,"i_long":106.997013,"station_name":"Bekasi"},{"station_id":"BKST","i_lat":-6.248029,"distance":2368,"station_name":"Bekasi Timur","line":1,"transit":false,"i_long":107.016735,"is_transit":false,"time":2},{"i_lat":-6.258864,"distance":4460,"is_transit":false,"station_name":"Tambun","station_id":"TB","time":7,"i_long":107.055722,"transit":false,"line":1},{"is_transit":false,"distance":3420,"transit":false,"station_id":"CIT","i_lat":-6.261877,"i_long":107.083084,"station_name":"Cibitung","time":3,"line":1}]]}