{"data":[[{"station_name":"Cilebut","time":0,"distance":0,"i_long":106.800016,"line":0,"transit":false,"i_lat":-6.530544,"station_id":"CLT","is_transit":false},{"transit":false,"i_long":106.792719,"is_transit":false,"line":0,"i_lat":-6.493243,"time":5,"distance":4331,"station_id":"BJD","station_name":"Bojonggede"},{"i_lat":-6.448811,"time":5,"i_long":106.800298,"station_id":"CTA","distance":5197,"station_name":"Citayam","line":1,"transit":false,"is_transit":true},{"station_id":"DP","station_name":"Depok","i_long":106.816926,"time":6,"i_lat":-6.405256,"transit":false,"line":0,"distance":5084,"is_transit":false},{"transit":false,"distance":1584,"i_lat":-6.391065,"i_long":106.819451,"line":0,"station_name":"Depokbaru","is_transit":false,"station_id":"DPB","time":3},{"i_lat":-6.369073,"time":4,"i_long":106.831114,"is_transit":false,"line":2,"distance":2727,"station_id":"POC","station_name":"Pondok Cina","transit":false},{"transit":false,"i_lat":-6.360749,"is_transit":false,"i_long":106.831474,"time":2,"distance":1109,"line":2,"station_id":"UI","station_name":"Univ. Indonesia"},{"station_id":"UP","distance":2264,"i_long":106.834175,"is_transit":false,"transit":false,"time":3,"station_name":"Univ. Pancasila","line":2,"i_lat":-6.339291},{"station_id":"LNA","is_transit":false,"i_lat":-6.330363,"line":2,"station_name":"Lenteng Agung","transit":false,"i_long":106.832616,"time":2,"distance":1029},{"station_name":"Tanjung Barat","distance":2671,"transit":false,"time":3,"station_id":"TNT","i_long":106.838896,"i_lat":-6.3080680000000005,"line":2,"is_transit":false},{"time":4,"distance":2820,"i_long":106.843999,"line":2,"station_id":"PSM","station_name":"Pasar Minggu","i_lat":-6.2842400000000005,"transit":false,"is_transit":false},{"distance":2380,"i_lat":-6.263214,"station_name":"Pasar Minggu Baru","transit":false,"line":2,"station_id":"PSMB","time":2,"is_transit":false,"i_long":106.851577},{"is_transit":false,"time":2,"transit":false,"distance":824,"line":0,"station_id":"DRN","i_lat":-6.255332,"station_name":"Duren Kalibata","i_long":106.85449},{"i_long":106.856607,"station_name":"Cawang","distance":1546,"time":3,"station_id":"CW","i_lat":-6.242512,"line":0,"transit":false,"is_transit":false},{"transit":false,"time":2,"station_name":"Tebet","is_transit":false,"i_lat":-6.226659,"i_long":106.857948,"distance":1230,"line":2,"station_id":"TEB"},{"transit":true,"station_name":"Manggarai","i_long":106.84912,"is_transit":true,"distance":2610,"line":0,"i_lat":-6.209883,"station_id":"MRI","time":4},{"line":1,"distance":3186,"transit":false,"is_transit":false,"station_id":"SUD","station_name":"Sudirman","i_lat":-6.202263,"time":4,"i_long":106.822649},{"i_long":106.819881,"transit":false,"is_transit":false,"i_lat":-6.201433,"line":1,"time":1,"station_name":"Sudirman Baru","station_id":"SUDB","distance":280},{"station_id":"KAT","transit":false,"is_transit":false,"i_long":106.816351,"time":1,"station_name":"Karet","i_lat":-6.20132,"line":1,"distance":471},{"is_transit":true,"time":5,"distance":2029,"i_long":106.811091,"transit":false,"station_id":"THB","station_name":"Tanah Abang","i_lat":-6.185545,"line":1},{"time":8,"transit":true,"distance":3632,"station_name":"Duri","i_lat":-6.155215,"station_id":"DU","is_transit":true,"i_long":106.800832,"line":1},{"is_transit":false,"distance":1700,"transit":false,"time":3,"i_long":106.788277,"station_name":"Grogol","i_lat":-6.162021,"station_id":"GGL","line":5},{"i_long":106.771379,"distance":2036,"i_lat":-6.161433,"line":5,"station_name":"Pesing","is_transit":false,"station_id":"PSG","transit":false,"time":2},{"i_lat":-6.1587309999999995,"transit":false,"i_long":106.756522,"station_id":"TKO","is_transit":false,"time":2,"distance":1614,"station_name":"Taman Kota","line":5},{"distance":2334,"line":0,"is_transit":false,"station_name":"Bojongindah","i_lat":-6.159876,"station_id":"BOI","transit":false,"time":2,"i_long":106.737035},{"distance":1152,"i_long":106.723064,"transit":false,"time":4,"station_name":"Rawa Buaya","station_id":"RW","i_lat":-6.162758,"line":5,"is_transit":false},{"is_transit":false,"station_id":"KDS","distance":2504,"i_lat":-6.166068,"time":3,"i_long":106.701612,"station_name":"Kalideres","transit":false,"line":5},{"station_id":"PI","station_name":"Poris","transit":false,"i_lat":-6.169933,"i_long":106.679458,"line":5,"is_transit":false,"time":3,"distance":2548},{"distance":1834,"transit":false,"line":0,"station_id":"BPR","i_lat":-6.171811,"is_transit":false,"i_long":106.665036,"station_name":"Batuceper","time":3},{"is_transit":false,"i_lat":-6.17331,"transit":false,"distance":2028,"time":3,"station_name":"Tanah Tinggi","i_long":106.64657,"line":5,"station_id":"TTI"}],[{"time":0,"i_lat":-6.530544,"line":0,"is_transit":false,"station_id":"CLT","distance":0,"station_name":"Cilebut","i_long":106.800016,"transit":false},{"distance":4331,"line":0,"station_id":"BJD","time":5,"transit":false,"i_lat":-6.493243,"is_transit":false,"i_long":106.792719,"station_name":"Bojonggede"},{"line":1,"transit":false,"station_id":"CTA","time":5,"i_lat":-6.448811,"distance":5197,"i_long":106.800298,"station_name":"Citayam","is_transit":true},{"time":6,"distance":5084,"is_transit":false,"line":0,"transit":false,"i_lat":-6.405256,"station_name":"Depok","i_long":106.816926,"station_id":"DP"},{"station_name":"Depokbaru","i_lat":-6.391065,"distance":1584,"is_transit":false,"station_id":"DPB","i_long":106.819451,"line":0,"time":3,"transit":false},{"time":4,"station_id":"POC","transit":false,"i_lat":-6.369073,"is_transit":false,"station_name":"Pondok Cina","distance":2727,"line":2,"i_long":106.831114},{"is_transit":false,"station_id":"UI","time":2,"i_long":106.831474,"i_lat":-6.360749,"distance":1109,"station_name":"Univ. Indonesia","transit":false,"line":2},{"time":3,"i_lat":-6.339291,"i_long":106.834175,"distance":2264,"is_transit":false,"station_name":"Univ. Pancasila","transit":false,"station_id":"UP","line":2},{"station_name":"Lenteng Agung","i_lat":-6.330363,"is_transit":false,"station_id":"LNA","i_long":106.832616,"transit":false,"distance":1029,"time":2,"line":2},{"distance":2671,"is_transit":false,"transit":false,"i_lat":-6.3080680000000005,"station_id":"TNT","station_name":"Tanjung Barat","time":3,"i_long":106.838896,"line":2},{"distance":2820,"station_name":"Pasar Minggu","line":2,"time":4,"transit":false,"station_id":"PSM","i_lat":-6.2842400000000005,"i_long":106.843999,"is_transit":false},{"line":2,"i_long":106.851577,"time":2,"transit":false,"is_transit":false,"station_name":"Pasar Minggu Baru","i_lat":-6.263214,"station_id":"PSMB","distance":2380},{"i_long":106.85449,"line":0,"transit":false,"distance":824,"is_transit":false,"time":2,"station_name":"Duren Kalibata","i_lat":-6.255332,"station_id":"DRN"},{"line":0,"is_transit":false,"distance":1546,"station_id":"CW","station_name":"Cawang","time":3,"i_long":106.856607,"transit":false,"i_lat":-6.242512},{"transit":false,"time":2,"station_name":"Tebet","i_long":106.857948,"distance":1230,"i_lat":-6.226659,"is_transit":false,"line":2,"station_id":"TEB"},{"is_transit":true,"transit":true,"time":4,"station_id":"MRI","distance":2610,"i_long":106.84912,"line":0,"station_name":"Manggarai","i_lat":-6.209883},{"distance":1590,"station_name":"Cikini","line":0,"transit":false,"station_id":"CKI","i_lat":-6.198556,"time":4,"i_long":106.840169,"is_transit":false},{"is_transit":false,"line":2,"i_long":106.832183,"station_name":"Gondangdia","transit":false,"i_lat":-6.186295,"distance":1750,"time":3,"station_id":"GDD"},{"transit":false,"i_lat":-6.166716,"line":2,"time":4,"distance":2015,"i_long":106.828284,"is_transit":false,"station_name":"Juanda","station_id":"JUA"},{"station_id":"SW","line":2,"time":2,"i_lat":-6.160725,"distance":1149,"station_name":"Sawah Besar","transit":false,"i_long":106.827103,"is_transit":false},{"station_id":"MGB","line":2,"time":2,"distance":906,"transit":false,"is_transit":false,"i_lat":-6.149769,"station_name":"Manggabesar","i_long":106.82482},{"transit":false,"station_name":"Jayakarta","line":7,"station_id":"JAY","time":2,"i_long":106.820901,"distance":1080,"i_lat":-6.141205,"is_transit":false},{"transit":true,"i_long":106.812439,"distance":1264,"i_lat":-6.137569,"time":4,"station_name":"Jakarta Kota","station_id":"JAKK","is_transit":true,"line":0},{"line":0,"i_lat":-6.132549,"transit":false,"is_transit":true,"distance":1364,"i_long":106.826365,"station_id":"KPB","station_name":"Kampung Bandan","time":3},{"is_transit":false,"station_name":"Angke","i_long":106.79867,"i_lat":-6.144674,"distance":4102,"time":9,"line":0,"station_id":"AK","transit":false},{"line":1,"i_long":106.800832,"transit":true,"station_name":"Duri","distance":1230,"station_id":"DU","is_transit":true,"i_lat":-6.155215,"time":4},{"i_long":106.788277,"is_transit":false,"station_name":"Grogol","distance":1700,"station_id":"GGL","transit":false,"time":3,"i_lat":-6.162021,"line":5},{"i_lat":-6.161433,"transit":false,"is_transit":false,"station_name":"Pesing","station_id":"PSG","time":2,"distance":2036,"line":5,"i_long":106.771379},{"transit":false,"i_lat":-6.1587309999999995,"distance":1614,"i_long":106.756522,"station_id":"TKO","is_transit":false,"time":2,"line":5,"station_name":"Taman Kota"},{"transit":false,"distance":2334,"is_transit":false,"line":0,"station_id":"BOI","station_name":"Bojongindah","i_lat":-6.159876,"i_long":106.737035,"time":2},{"is_transit":false,"station_id":"RW","station_name":"Rawa Buaya","time":4,"transit":false,"distance":1152,"i_lat":-6.162758,"i_long":106.723064,"line":5},{"is_transit":false,"transit":false,"time":3,"station_id":"KDS","distance":2504,"station_name":"Kalideres","i_lat":-6.166068,"i_long":106.701612,"line":5},{"station_name":"Poris","transit":false,"distance":2548,"i_long":106.679458,"line":5,"time":3,"station_id":"PI","i_lat":-6.169933,"is_transit":false},{"time":3,"distance":1834,"station_id":"BPR","transit":false,"i_lat":-6.171811,"station_name":"Batuceper","i_long":106.665036,"is_transit":false,"line":0},{"line":5,"transit":false,"i_long":106.64657,"station_id":"TTI","distance":2028,"station_name":"Tanah Tinggi","time":3,"i_lat":-6.17331,"is_transit":false}],[{"distance":0,"transit":false,"station_id":"CLT","station_name":"Cilebut","time":0,"line":0,"is_transit":false,"i_lat":-6.530544,"i_long":106.800016},{"transit":false,"i_lat":-6.493243,"time":5,"is_transit":false,"i_long":106.792719,"station_id":"BJD","distance":4331,"station_name":"Bojonggede","line":0},{"time":5,"line":1,"station_name":"Citayam","i_lat":-6.448811,"transit":false,"station_id":"CTA","i_long":106.800298,"is_transit":true,"distance":5197},{"distance":5084,"time":6,"transit":false,"i_lat":-6.405256,"i_long":106.816926,"station_id":"DP","is_transit":false,"station_name":"Depok","line":0},{"line":0,"station_id":"DPB","transit":false,"time":3,"distance":1584,"station_name":"Depokbaru","i_lat":-6.391065,"i_long":106.819451,"is_transit":false},{"transit":false,"i_long":106.831114,"i_lat":-6.369073,"line":2,"station_name":"Pondok Cina","is_transit":false,"time":4,"distance":2727,"station_id":"POC"},{"station_name":"Univ. Indonesia","station_id":"UI","line":2,"i_lat":-6.360749,"i_long":106.831474,"is_transit":false,"distance":1109,"transit":false,"time":2},{"i_long":106.834175,"is_transit":false,"time":3,"station_name":"Univ. Pancasila","distance":2264,"transit":false,"line":2,"i_lat":-6.339291,"station_id":"UP"},{"is_transit":false,"line":2,"distance":1029,"transit":false,"i_lat":-6.330363,"time":2,"station_name":"Lenteng Agung","station_id":"LNA","i_long":106.832616},{"distance":2671,"i_long":106.838896,"i_lat":-6.3080680000000005,"is_transit":false,"station_name":"Tanjung Barat","transit":false,"line":2,"station_id":"TNT","time":3},{"distance":2820,"i_long":106.843999,"station_id":"PSM","transit":false,"is_transit":false,"time":4,"station_name":"Pasar Minggu","i_lat":-6.2842400000000005,"line":2},{"i_lat":-6.263214,"transit":false,"time":2,"is_transit":false,"line":2,"i_long":106.851577,"distance":2380,"station_id":"PSMB","station_name":"Pasar Minggu Baru"},{"time":2,"distance":824,"i_long":106.85449,"transit":false,"station_id":"DRN","i_lat":-6.255332,"is_transit":false,"line":0,"station_name":"Duren Kalibata"},{"transit":false,"i_lat":-6.242512,"time":3,"station_name":"Cawang","station_id":"CW","distance":1546,"i_long":106.856607,"is_transit":false,"line":0},{"transit":false,"i_long":106.857948,"line":2,"time":2,"station_name":"Tebet","distance":1230,"i_lat":-6.226659,"is_transit":false,"station_id":"TEB"},{"time":4,"is_transit":true,"distance":2610,"station_name":"Manggarai","i_long":106.84912,"station_id":"MRI","transit":true,"line":0,"i_lat":-6.209883},{"transit":false,"line":1,"is_transit":false,"distance":1275,"station_id":"MTR","station_name":"Matraman","i_long":106.858896,"time":2,"i_lat":-6.212485},{"line":0,"is_transit":true,"distance":1377,"i_long":106.86807400000001,"transit":true,"time":8,"i_lat":-6.215091,"station_id":"JNG","station_name":"Jatinegara"},{"distance":1236,"i_long":106.861737,"is_transit":false,"station_name":"Pondok Jati","transit":false,"station_id":"POK","time":2,"i_lat":-6.209188,"line":11},{"transit":false,"i_long":106.855437,"line":11,"time":2,"distance":1829,"station_name":"Kramat","i_lat":-6.193792,"station_id":"KMT","is_transit":false},{"time":1,"transit":false,"i_lat":-6.185975,"distance":973,"station_id":"GST","line":11,"station_name":"Gang Sentiong","i_long":106.850107,"is_transit":false},{"distance":1567,"station_name":"Pasar Senen","i_lat":-6.174784,"time":8,"line":11,"station_id":"PSE","i_long":106.84368,"transit":false,"is_transit":false},{"is_transit":false,"station_id":"KMO","i_long":106.839204,"station_name":"Kemayoran","i_lat":-6.161728,"distance":1436,"line":11,"transit":false,"time":4},{"line":11,"time":5,"i_long":106.836569,"distance":1901,"station_id":"RJW","is_transit":false,"station_name":"Rajawali","i_lat":-6.14505,"transit":false},{"distance":1444,"time":3,"transit":true,"is_transit":true,"station_name":"Kampung Bandan","station_id":"KPB","line":0,"i_lat":-6.132549,"i_long":106.826365},{"line":0,"station_id":"AK","is_transit":false,"i_lat":-6.144674,"time":9,"transit":false,"i_long":106.79867,"station_name":"Angke","distance":4102},{"is_transit":true,"time":4,"transit":true,"line":1,"i_lat":-6.155215,"i_long":106.800832,"distance":1230,"station_id":"DU","station_name":"Duri"},{"station_id":"GGL","time":3,"is_transit":false,"station_name":"Grogol","i_long":106.788277,"transit":false,"i_lat":-6.162021,"line":5,"distance":1700},{"line":5,"i_lat":-6.161433,"time":2,"is_transit":false,"station_id":"PSG","station_name":"Pesing","distance":2036,"transit":false,"i_long":106.771379},{"station_name":"Taman Kota","is_transit":false,"line":5,"time":2,"transit":false,"i_lat":-6.1587309999999995,"station_id":"TKO","distance":1614,"i_long":106.756522},{"is_transit":false,"time":2,"station_name":"Bojongindah","i_lat":-6.159876,"i_long":106.737035,"distance":2334,"station_id":"BOI","transit":false,"line":0},{"line":5,"i_long":106.723064,"is_transit":false,"time":4,"i_lat":-6.162758,"station_id":"RW","station_name":"Rawa Buaya","transit":false,"distance":1152},{"transit":false,"station_id":"KDS","line":5,"is_transit":false,"time":3,"i_lat":-6.166068,"i_long":106.701612,"distance":2504,"station_name":"Kalideres"},{"station_id":"PI","time":3,"station_name":"Poris","line":5,"distance":2548,"i_lat":-6.169933,"is_transit":false,"i_long":106.679458,"transit":false},{"station_id":"BPR","transit":false,"i_lat":-6.171811,"station_name":"Batuceper","is_transit":false,"line":0,"time":3,"distance":1834,"i_long":106.665036},{"is_transit":false,"time":3,"station_id":"TTI","distance":2028,"transit":false,"i_lat":-6.17331,"station_name":"Tanah Tinggi","i_long":106.64657,"line":5}]]}