{"data":[[{"i_lat":-6.530544,"is_transit":false,"distance":0,"i_long":106.800016,"station_id":"CLT","transit":false,"line":2,"time":0,"station_name":"Cilebut"},{"station_name":"Bojonggede","distance":4331,"time":5,"line":2,"transit":false,"i_long":106.792719,"i_lat":-6.493243,"station_id":"BJD","is_transit":false},{"station_id":"CTA","is_transit":false,"i_lat":-6.448811,"line":2,"distance":5197,"station_name":"Citayam","time":5,"i_long":106.800298,"transit":false},{"transit":false,"station_id":"DP","i_lat":-6.405256,"i_long":106.816926,"is_transit":false,"station_name":"Depok","time":6,"distance":5084,"line":2},{"i_lat":-6.391065,"is_transit":false,"distance":1584,"i_long":106.819451,"transit":false,"station_name":"Depokbaru","station_id":"DPB","line":2,"time":3},{"i_long":106.831114,"distance":2727,"i_lat":-6.369073,"time":4,"station_name":"Pondok Cina","transit":false,"line":2,"station_id":"POC","is_transit":false},{"is_transit":false,"distance":1109,"time":2,"i_long":106.831474,"transit":false,"station_name":"Univ. Indonesia","station_id":"UI","i_lat":-6.360749,"line":2},{"distance":2264,"i_lat":-6.339291,"station_id":"UP","station_name":"Univ. Pancasila","time":3,"i_long":106.834175,"is_transit":false,"transit":false,"line":2},{"is_transit":false,"time":2,"distance":1029,"i_lat":-6.330363,"i_long":106.832616,"line":2,"station_id":"LNA","transit":false,"station_name":"Lenteng Agung"},{"transit":false,"time":3,"distance":2671,"station_id":"TNT","station_name":"Tanjung Barat","line":2,"i_long":106.838896,"i_lat":-6.3080680000000005,"is_transit":false},{"station_id":"PSM","i_lat":-6.2842400000000005,"transit":false,"i_long":106.843999,"line":2,"is_transit":false,"distance":2820,"station_name":"Pasar Minggu","time":4},{"time":2,"i_long":106.851577,"line":2,"i_lat":-6.263214,"transit":false,"station_name":"Pasar Minggu Baru","station_id":"PSMB","is_transit":false,"distance":2380},{"station_name":"Duren Kalibata","time":2,"line":2,"station_id":"DRN","is_transit":false,"i_long":106.85449,"i_lat":-6.255332,"transit":false,"distance":824},{"station_name":"Cawang","distance":1546,"line":2,"transit":false,"i_lat":-6.242512,"i_long":106.856607,"is_transit":false,"time":3,"station_id":"CW"},{"i_long":106.857948,"transit":false,"station_id":"TEB","i_lat":-6.226659,"time":2,"station_name":"Tebet","is_transit":false,"distance":1230,"line":2},{"i_lat":-6.209883,"time":4,"station_id":"MRI","distance":2610,"transit":true,"line":2,"station_name":"Manggarai","i_long":106.84912,"is_transit":true},{"transit":false,"is_transit":false,"line":1,"i_lat":-6.202263,"i_long":106.822649,"station_name":"Sudirman","time":4,"station_id":"SUD","distance":3186},{"i_lat":-6.201433,"transit":false,"time":1,"station_id":"SUDB","distance":280,"line":1,"i_long":106.819881,"station_name":"Sudirman Baru","is_transit":false},{"transit":false,"station_id":"KAT","is_transit":false,"line":1,"time":1,"station_name":"Karet","i_long":106.816351,"distance":471,"i_lat":-6.20132},{"station_id":"THB","is_transit":false,"i_lat":-6.185545,"i_long":106.811091,"transit":false,"line":1,"distance":2029,"station_name":"Tanah Abang","time":5},{"station_name":"Duri","is_transit":false,"time":8,"station_id":"DU","i_long":106.800832,"transit":false,"distance":3632,"i_lat":-6.155215,"line":1},{"station_id":"AK","line":1,"distance":1230,"time":4,"transit":false,"i_long":106.79867,"is_transit":false,"i_lat":-6.144674,"station_name":"Angke"}],[{"line":2,"distance":0,"i_long":106.800016,"is_transit":false,"i_lat":-6.530544,"station_id":"CLT","station_name":"Cilebut","transit":false,"time":0},{"station_id":"BJD","line":2,"i_long":106.792719,"is_transit":false,"time":5,"i_lat":-6.493243,"transit":false,"distance":4331,"station_name":"Bojonggede"},{"line":2,"transit":false,"time":5,"i_lat":-6.448811,"station_name":"Citayam","i_long":106.800298,"is_transit":false,"station_id":"CTA","distance":5197},{"station_id":"DP","time":6,"station_name":"Depok","i_lat":-6.405256,"is_transit":false,"line":2,"transit":false,"distance":5084,"i_long":106.816926},{"station_name":"Depokbaru","i_lat":-6.391065,"line":2,"distance":1584,"transit":false,"station_id":"DPB","time":3,"i_long":106.819451,"is_transit":false},{"i_long":106.831114,"line":2,"transit":false,"is_transit":false,"i_lat":-6.369073,"station_id":"POC","station_name":"Pondok Cina","time":4,"distance":2727},{"distance":1109,"transit":false,"i_lat":-6.360749,"i_long":106.831474,"station_id":"UI","line":2,"is_transit":false,"time":2,"station_name":"Univ. Indonesia"},{"is_transit":false,"time":3,"transit":false,"i_lat":-6.339291,"line":2,"station_id":"UP","station_name":"Univ. Pancasila","distance":2264,"i_long":106.834175},{"time":2,"transit":false,"line":2,"distance":1029,"station_name":"Lenteng Agung","station_id":"LNA","i_long":106.832616,"i_lat":-6.330363,"is_transit":false},{"is_transit":false,"distance":2671,"i_long":106.838896,"transit":false,"i_lat":-6.3080680000000005,"line":2,"station_name":"Tanjung Barat","time":3,"station_id":"TNT"},{"station_id":"PSM","time":4,"line":2,"i_long":106.843999,"transit":false,"is_transit":false,"distance":2820,"station_name":"Pasar Minggu","i_lat":-6.2842400000000005},{"is_transit":false,"i_long":106.851577,"time":2,"station_id":"PSMB","station_name":"Pasar Minggu Baru","line":2,"i_lat":-6.263214,"transit":false,"distance":2380},{"distance":824,"time":2,"station_name":"Duren Kalibata","i_lat":-6.255332,"line":2,"transit":false,"is_transit":false,"i_long":106.85449,"station_id":"DRN"},{"station_name":"Cawang","is_transit":false,"line":2,"transit":false,"time":3,"distance":1546,"i_lat":-6.242512,"i_long":106.856607,"station_id":"CW"},{"distance":1230,"station_name":"Tebet","i_long":106.857948,"time":2,"i_lat":-6.226659,"station_id":"TEB","line":2,"transit":false,"is_transit":false},{"transit":false,"time":4,"line":2,"distance":2610,"i_long":106.84912,"station_id":"MRI","is_transit":false,"i_lat":-6.209883,"station_name":"Manggarai"},{"i_lat":-6.198556,"is_transit":false,"time":4,"transit":false,"station_id":"CKI","i_long":106.840169,"station_name":"Cikini","line":2,"distance":1590},{"station_name":"Gondangdia","transit":false,"station_id":"GDD","time":3,"distance":1750,"line":2,"i_lat":-6.186295,"is_transit":false,"i_long":106.832183},{"distance":2015,"station_name":"Juanda","is_transit":false,"station_id":"JUA","i_lat":-6.166716,"time":4,"transit":false,"i_long":106.828284,"line":2},{"is_transit":false,"line":2,"i_lat":-6.160725,"station_name":"Sawah Besar","transit":false,"time":2,"distance":1149,"i_long":106.827103,"station_id":"SW"},{"station_id":"MGB","distance":906,"time":2,"station_name":"Manggabesar","line":2,"transit":false,"is_transit":false,"i_lat":-6.149769,"i_long":106.82482},{"is_transit":false,"i_lat":-6.141205,"line":2,"distance":1080,"station_id":"JAY","time":2,"station_name":"Jayakarta","i_long":106.820901,"transit":false},{"transit":true,"line":2,"distance":1264,"time":4,"is_transit":true,"station_id":"JAKK","i_lat":-6.137569,"i_long":106.812439,"station_name":"Jakarta Kota"},{"station_name":"Kampung Bandan","station_id":"KPB","time":3,"distance":1364,"i_lat":-6.132549,"i_long":106.826365,"transit":true,"line":4,"is_transit":true},{"i_lat":-6.144674,"i_long":106.79867,"station_id":"AK","station_name":"Angke","transit":false,"time":9,"distance":4102,"line":1,"is_transit":false}],[{"time":0,"line":2,"i_lat":-6.530544,"transit":false,"station_id":"CLT","station_name":"Cilebut","i_long":106.800016,"is_transit":false,"distance":0},{"i_long":106.792719,"line":2,"transit":false,"i_lat":-6.493243,"station_id":"BJD","is_transit":false,"distance":4331,"time":5,"station_name":"Bojonggede"},{"i_long":106.800298,"station_id":"CTA","is_transit":false,"line":2,"distance":5197,"time":5,"station_name":"Citayam","i_lat":-6.448811,"transit":false},{"is_transit":false,"i_lat":-6.405256,"station_id":"DP","transit":false,"distance":5084,"station_name":"Depok","time":6,"i_long":106.816926,"line":2},{"station_name":"Depokbaru","distance":1584,"i_lat":-6.391065,"line":2,"time":3,"i_long":106.819451,"station_id":"DPB","is_transit":false,"transit":false},{"station_id":"POC","transit":false,"is_transit":false,"station_name":"Pondok Cina","time":4,"distance":2727,"i_long":106.831114,"line":2,"i_lat":-6.369073},{"distance":1109,"i_long":106.831474,"line":2,"station_id":"UI","time":2,"is_transit":false,"station_name":"Univ. Indonesia","transit":false,"i_lat":-6.360749},{"distance":2264,"station_name":"Univ. Pancasila","i_lat":-6.339291,"transit":false,"time":3,"i_long":106.834175,"line":2,"is_transit":false,"station_id":"UP"},{"station_name":"Lenteng Agung","i_lat":-6.330363,"station_id":"LNA","distance":1029,"i_long":106.832616,"is_transit":false,"line":2,"transit":false,"time":2},{"station_id":"TNT","line":2,"transit":false,"i_long":106.838896,"station_name":"Tanjung Barat","time":3,"distance":2671,"is_transit":false,"i_lat":-6.3080680000000005},{"station_id":"PSM","station_name":"Pasar Minggu","time":4,"distance":2820,"i_long":106.843999,"is_transit":false,"i_lat":-6.2842400000000005,"line":2,"transit":false},{"distance":2380,"station_name":"Pasar Minggu Baru","line":2,"transit":false,"i_long":106.851577,"is_transit":false,"station_id":"PSMB","time":2,"i_lat":-6.263214},{"i_long":106.85449,"is_transit":false,"distance":824,"time":2,"transit":false,"station_name":"Duren Kalibata","station_id":"DRN","line":2,"i_lat":-6.255332},{"i_lat":-6.242512,"line":2,"station_id":"CW","distance":1546,"is_transit":false,"transit":false,"station_name":"Cawang","time":3,"i_long":106.856607},{"transit":false,"station_name":"Tebet","time":2,"station_id":"TEB","i_long":106.857948,"is_transit":false,"i_lat":-6.226659,"line":2,"distance":1230},{"distance":2610,"i_lat":-6.209883,"time":4,"i_long":106.84912,"station_name":"Manggarai","is_transit":true,"transit":true,"station_id":"MRI","line":2},{"time":2,"i_long":106.858896,"i_lat":-6.212485,"station_id":"MTR","transit":false,"line":1,"station_name":"Matraman","distance":1275,"is_transit":false},{"is_transit":true,"distance":1377,"time":8,"station_id":"JNG","station_name":"Jatinegara","i_lat":-6.215091,"i_long":106.86807400000001,"transit":true,"line":1},{"time":2,"line":11,"is_transit":false,"distance":1236,"i_lat":-6.209188,"i_long":106.861737,"station_id":"POK","station_name":"Pondok Jati","transit":false},{"distance":1829,"transit":false,"station_id":"KMT","i_long":106.855437,"is_transit":false,"line":11,"i_lat":-6.193792,"time":2,"station_name":"Kramat"},{"i_lat":-6.185975,"time":1,"line":11,"transit":false,"station_id":"GST","distance":973,"i_long":106.850107,"is_transit":false,"station_name":"Gang Sentiong"},{"i_lat":-6.174784,"time":8,"line":11,"is_transit":false,"distance":1567,"transit":false,"station_name":"Pasar Senen","i_long":106.84368,"station_id":"PSE"},{"station_id":"KMO","transit":false,"distance":1436,"station_name":"Kemayoran","i_lat":-6.161728,"time":4,"i_long":106.839204,"line":11,"is_transit":false},{"is_transit":false,"station_name":"Rajawali","i_long":106.836569,"line":11,"distance":1901,"station_id":"RJW","i_lat":-6.14505,"time":5,"transit":false},{"transit":true,"time":3,"distance":1444,"station_id":"KPB","i_lat":-6.132549,"is_transit":true,"i_long":106.826365,"line":4,"station_name":"Kampung Bandan"},{"is_transit":false,"line":1,"station_id":"AK","distance":4102,"i_long":106.79867,"station_name":"Angke","transit":false,"time":9,"i_lat":-6.144674}]]}