{"data":[[{"distance":0,"time":0,"station_name":"Cilebut","i_lat":-6.530544,"i_long":106.800016,"line":2,"is_transit":false,"station_id":"CLT","transit":false},{"is_transit":false,"station_id":"BJD","transit":false,"station_name":"Bojonggede","i_long":106.792719,"distance":4331,"line":2,"time":5,"i_lat":-6.493243},{"station_id":"CTA","i_long":106.800298,"is_transit":false,"distance":5197,"i_lat":-6.448811,"time":5,"transit":false,"station_name":"Citayam","line":2},{"time":6,"station_name":"Depok","transit":false,"i_lat":-6.405256,"line":2,"distance":5084,"is_transit":false,"station_id":"DP","i_long":106.816926},{"line":2,"station_id":"DPB","is_transit":false,"transit":false,"station_name":"Depokbaru","distance":1584,"i_lat":-6.391065,"time":3,"i_long":106.819451},{"i_lat":-6.369073,"station_name":"Pondok Cina","line":2,"time":4,"is_transit":false,"station_id":"POC","transit":false,"distance":2727,"i_long":106.831114},{"station_name":"Univ. Indonesia","i_long":106.831474,"line":2,"i_lat":-6.360749,"time":2,"transit":false,"is_transit":false,"station_id":"UI","distance":1109},{"i_long":106.834175,"transit":false,"is_transit":false,"station_name":"Univ. Pancasila","i_lat":-6.339291,"distance":2264,"line":2,"station_id":"UP","time":3},{"station_name":"Lenteng Agung","line":2,"is_transit":false,"transit":false,"time":2,"station_id":"LNA","i_lat":-6.330363,"distance":1029,"i_long":106.832616},{"time":3,"station_name":"Tanjung Barat","distance":2671,"line":2,"transit":false,"i_long":106.838896,"is_transit":false,"station_id":"TNT","i_lat":-6.3080680000000005},{"station_name":"Pasar Minggu","station_id":"PSM","distance":2820,"is_transit":false,"transit":false,"i_long":106.843999,"time":4,"i_lat":-6.2842400000000005,"line":2},{"time":2,"is_transit":false,"station_id":"PSMB","line":2,"i_long":106.851577,"i_lat":-6.263214,"distance":2380,"transit":false,"station_name":"Pasar Minggu Baru"},{"station_id":"DRN","time":2,"line":2,"i_long":106.85449,"is_transit":false,"transit":false,"i_lat":-6.255332,"station_name":"Duren Kalibata","distance":824},{"station_id":"CW","transit":false,"distance":1546,"station_name":"Cawang","i_lat":-6.242512,"line":2,"i_long":106.856607,"time":3,"is_transit":false},{"is_transit":false,"time":2,"i_long":106.857948,"station_id":"TEB","distance":1230,"i_lat":-6.226659,"transit":false,"line":2,"station_name":"Tebet"},{"time":4,"station_name":"Manggarai","distance":2610,"transit":true,"station_id":"MRI","i_lat":-6.209883,"line":2,"is_transit":true,"i_long":106.84912},{"distance":3186,"line":1,"time":4,"station_id":"SUD","station_name":"Sudirman","is_transit":false,"i_long":106.822649,"i_lat":-6.202263,"transit":false},{"station_name":"Sudirman Baru","time":1,"i_lat":-6.201433,"distance":280,"is_transit":false,"transit":false,"i_long":106.819881,"station_id":"SUDB","line":1},{"station_name":"Karet","station_id":"KAT","line":1,"time":1,"i_long":106.816351,"is_transit":false,"transit":false,"distance":471,"i_lat":-6.20132},{"station_id":"THB","line":1,"i_long":106.811091,"is_transit":true,"time":5,"distance":2029,"station_name":"Tanah Abang","transit":true,"i_lat":-6.185545},{"is_transit":false,"time":6,"distance":3191,"line":6,"station_id":"PLM","i_lat":-6.207404,"station_name":"Palmerah","i_long":106.79689,"transit":false},{"i_lat":-6.237242,"distance":3737,"time":7,"i_long":106.780334,"station_name":"Kebayoran","line":6,"is_transit":false,"station_id":"KBY","transit":false},{"station_id":"PDJ","station_name":"Pondokranji","transit":false,"distance":6218,"i_lat":-6.276362,"line":6,"is_transit":false,"time":8,"i_long":106.74273},{"time":3,"i_long":106.728916,"station_name":"Jurangmangu","station_id":"JMU","is_transit":false,"transit":false,"distance":2179,"i_lat":-6.288927,"line":6},{"i_long":106.712277,"transit":false,"line":6,"is_transit":false,"station_name":"Sudimara","station_id":"SDM","time":4,"i_lat":-6.296963,"distance":1994},{"distance":4566,"line":6,"is_transit":false,"time":6,"i_long":106.675475,"station_id":"RU","station_name":"Rawa Buntu","i_lat":-6.314823,"transit":false},{"line":6,"time":4,"transit":false,"station_id":"SRP","is_transit":false,"i_long":106.66566,"station_name":"Serpong","i_lat":-6.319871,"distance":2413},{"station_name":"Cisauk","time":4,"i_lat":-6.32484,"is_transit":false,"i_long":106.640411,"line":3,"distance":1784,"station_id":"CSK","transit":false},{"station_id":"CC","station_name":"Cicayur","i_long":106.617853,"time":4,"transit":false,"i_lat":-6.329547,"line":3,"is_transit":false,"distance":2519},{"station_name":"Parung Panjang","distance":5968,"i_long":106.568863,"time":8,"station_id":"PRP","line":6,"is_transit":false,"transit":false,"i_lat":-6.3441410000000005},{"station_id":"CJT","i_lat":-6.354349,"time":9,"line":3,"is_transit":false,"i_long":106.508482,"station_name":"Cilejit","distance":7025,"transit":false},{"line":0,"station_id":"DAR","distance":2675,"transit":false,"time":6,"i_lat":-6.338021,"is_transit":false,"i_long":106.491338,"station_name":"Daru"},{"i_lat":-6.327251,"station_id":"TEJ","line":6,"distance":3902,"is_transit":false,"time":5,"transit":false,"i_long":106.460812,"station_name":"Tenjo"}],[{"time":0,"line":2,"distance":0,"station_name":"Cilebut","is_transit":false,"transit":false,"i_long":106.800016,"i_lat":-6.530544,"station_id":"CLT"},{"station_name":"Bojonggede","distance":4331,"i_long":106.792719,"is_transit":false,"line":2,"time":5,"i_lat":-6.493243,"station_id":"BJD","transit":false},{"time":5,"line":2,"station_name":"Citayam","transit":false,"i_lat":-6.448811,"distance":5197,"is_transit":false,"station_id":"CTA","i_long":106.800298},{"is_transit":false,"station_name":"Depok","time":6,"i_lat":-6.405256,"line":2,"i_long":106.816926,"transit":false,"distance":5084,"station_id":"DP"},{"is_transit":false,"transit":false,"distance":1584,"station_name":"Depokbaru","i_lat":-6.391065,"station_id":"DPB","i_long":106.819451,"time":3,"line":2},{"transit":false,"time":4,"distance":2727,"i_lat":-6.369073,"is_transit":false,"line":2,"station_id":"POC","i_long":106.831114,"station_name":"Pondok Cina"},{"i_lat":-6.360749,"i_long":106.831474,"distance":1109,"transit":false,"station_name":"Univ. Indonesia","station_id":"UI","time":2,"line":2,"is_transit":false},{"time":3,"i_lat":-6.339291,"transit":false,"station_name":"Univ. Pancasila","distance":2264,"line":2,"i_long":106.834175,"station_id":"UP","is_transit":false},{"time":2,"i_lat":-6.330363,"line":2,"station_id":"LNA","station_name":"Lenteng Agung","is_transit":false,"transit":false,"distance":1029,"i_long":106.832616},{"line":2,"station_id":"TNT","station_name":"Tanjung Barat","distance":2671,"is_transit":false,"i_lat":-6.3080680000000005,"transit":false,"time":3,"i_long":106.838896},{"station_name":"Pasar Minggu","line":2,"distance":2820,"time":4,"transit":false,"station_id":"PSM","i_long":106.843999,"i_lat":-6.2842400000000005,"is_transit":false},{"distance":2380,"time":2,"station_id":"PSMB","i_lat":-6.263214,"is_transit":false,"station_name":"Pasar Minggu Baru","i_long":106.851577,"line":2,"transit":false},{"is_transit":false,"transit":false,"station_id":"DRN","line":2,"time":2,"i_long":106.85449,"distance":824,"i_lat":-6.255332,"station_name":"Duren Kalibata"},{"distance":1546,"i_lat":-6.242512,"line":2,"transit":false,"is_transit":false,"time":3,"i_long":106.856607,"station_id":"CW","station_name":"Cawang"},{"i_long":106.857948,"line":2,"station_name":"Tebet","is_transit":false,"time":2,"distance":1230,"i_lat":-6.226659,"station_id":"TEB","transit":false},{"transit":false,"i_lat":-6.209883,"station_name":"Manggarai","time":4,"station_id":"MRI","i_long":106.84912,"line":2,"distance":2610,"is_transit":false},{"i_lat":-6.198556,"transit":false,"line":2,"station_name":"Cikini","time":4,"is_transit":false,"station_id":"CKI","i_long":106.840169,"distance":1590},{"i_lat":-6.186295,"i_long":106.832183,"time":3,"distance":1750,"station_name":"Gondangdia","transit":false,"station_id":"GDD","is_transit":false,"line":2},{"station_id":"JUA","station_name":"Juanda","is_transit":false,"distance":2015,"i_lat":-6.166716,"line":2,"transit":false,"time":4,"i_long":106.828284},{"distance":1149,"i_long":106.827103,"station_id":"SW","station_name":"Sawah Besar","time":2,"line":2,"is_transit":false,"transit":false,"i_lat":-6.160725},{"station_name":"Manggabesar","transit":false,"station_id":"MGB","line":2,"time":2,"distance":906,"i_lat":-6.149769,"i_long":106.82482,"is_transit":false},{"station_name":"Jayakarta","is_transit":false,"time":2,"line":2,"i_lat":-6.141205,"distance":1080,"station_id":"JAY","i_long":106.820901,"transit":false},{"time":4,"transit":true,"distance":1264,"i_long":106.812439,"station_id":"JAKK","line":2,"i_lat":-6.137569,"station_name":"Jakarta Kota","is_transit":true},{"i_lat":-6.132549,"transit":true,"station_name":"Kampung Bandan","time":3,"line":4,"distance":1364,"is_transit":true,"station_id":"KPB","i_long":106.826365},{"transit":false,"station_name":"Angke","distance":4102,"time":9,"station_id":"AK","is_transit":false,"line":1,"i_lat":-6.144674,"i_long":106.79867},{"time":4,"station_id":"DU","i_lat":-6.155215,"i_long":106.800832,"line":1,"station_name":"Duri","distance":1230,"is_transit":false,"transit":false},{"is_transit":true,"station_id":"THB","i_long":106.811091,"time":8,"station_name":"Tanah Abang","transit":true,"i_lat":-6.185545,"distance":3632,"line":1},{"station_name":"Palmerah","line":6,"is_transit":false,"time":6,"distance":3191,"station_id":"PLM","i_lat":-6.207404,"transit":false,"i_long":106.79689},{"i_long":106.780334,"distance":3737,"is_transit":false,"station_id":"KBY","station_name":"Kebayoran","line":6,"transit":false,"i_lat":-6.237242,"time":7},{"station_id":"PDJ","i_long":106.74273,"distance":6218,"i_lat":-6.276362,"time":8,"is_transit":false,"station_name":"Pondokranji","transit":false,"line":6},{"i_long":106.728916,"distance":2179,"station_name":"Jurangmangu","transit":false,"time":3,"i_lat":-6.288927,"station_id":"JMU","is_transit":false,"line":6},{"station_name":"Sudimara","is_transit":false,"time":4,"station_id":"SDM","line":6,"distance":1994,"i_long":106.712277,"transit":false,"i_lat":-6.296963},{"station_name":"Rawa Buntu","distance":4566,"line":6,"is_transit":false,"i_lat":-6.314823,"station_id":"RU","time":6,"i_long":106.675475,"transit":false},{"is_transit":false,"transit":false,"station_id":"SRP","i_lat":-6.319871,"i_long":106.66566,"station_name":"Serpong","time":4,"distance":2413,"line":6},{"i_long":106.640411,"is_transit":false,"station_id":"CSK","station_name":"Cisauk","distance":1784,"i_lat":-6.32484,"line":3,"transit":false,"time":4},{"line":3,"is_transit":false,"station_name":"Cicayur","transit":false,"distance":2519,"station_id":"CC","i_lat":-6.329547,"i_long":106.617853,"time":4},{"station_id":"PRP","station_name":"Parung Panjang","is_transit":false,"i_long":106.568863,"time":8,"distance":5968,"i_lat":-6.3441410000000005,"transit":false,"line":6},{"station_id":"CJT","station_name":"Cilejit","time":9,"is_transit":false,"distance":7025,"i_long":106.508482,"transit":false,"line":3,"i_lat":-6.354349},{"i_long":106.491338,"transit":false,"is_transit":false,"line":0,"station_id":"DAR","station_name":"Daru","distance":2675,"time":6,"i_lat":-6.338021},{"distance":3902,"is_transit":false,"transit":false,"i_lat":-6.327251,"line":6,"time":5,"i_long":106.460812,"station_id":"TEJ","station_name":"Tenjo"}],[{"station_name":"Cilebut","transit":false,"is_transit":false,"time":0,"distance":0,"i_lat":-6.530544,"i_long":106.800016,"station_id":"CLT","line":2},{"i_lat":-6.493243,"station_name":"Bojonggede","time":5,"is_transit":false,"transit":false,"i_long":106.792719,"distance":4331,"station_id":"BJD","line":2},{"station_id":"CTA","i_lat":-6.448811,"is_transit":false,"line":2,"station_name":"Citayam","distance":5197,"transit":false,"i_long":106.800298,"time":5},{"distance":5084,"is_transit":false,"i_lat":-6.405256,"time":6,"transit":false,"station_name":"Depok","station_id":"DP","i_long":106.816926,"line":2},{"time":3,"station_name":"Depokbaru","i_long":106.819451,"i_lat":-6.391065,"transit":false,"line":2,"is_transit":false,"distance":1584,"station_id":"DPB"},{"i_long":106.831114,"i_lat":-6.369073,"is_transit":false,"station_id":"POC","line":2,"station_name":"Pondok Cina","transit":false,"distance":2727,"time":4},{"transit":false,"time":2,"station_id":"UI","distance":1109,"i_lat":-6.360749,"line":2,"is_transit":false,"i_long":106.831474,"station_name":"Univ. Indonesia"},{"transit":false,"is_transit":false,"i_long":106.834175,"line":2,"i_lat":-6.339291,"distance":2264,"station_name":"Univ. Pancasila","station_id":"UP","time":3},{"time":2,"is_transit":false,"station_name":"Lenteng Agung","station_id":"LNA","line":2,"transit":false,"i_long":106.832616,"distance":1029,"i_lat":-6.330363},{"distance":2671,"is_transit":false,"time":3,"transit":false,"station_id":"TNT","i_lat":-6.3080680000000005,"i_long":106.838896,"line":2,"station_name":"Tanjung Barat"},{"is_transit":false,"i_lat":-6.2842400000000005,"transit":false,"distance":2820,"time":4,"i_long":106.843999,"station_name":"Pasar Minggu","station_id":"PSM","line":2},{"station_id":"PSMB","i_long":106.851577,"line":2,"station_name":"Pasar Minggu Baru","distance":2380,"i_lat":-6.263214,"is_transit":false,"time":2,"transit":false},{"station_id":"DRN","i_lat":-6.255332,"is_transit":false,"transit":false,"line":2,"station_name":"Duren Kalibata","time":2,"distance":824,"i_long":106.85449},{"i_long":106.856607,"station_name":"Cawang","time":3,"distance":1546,"is_transit":false,"station_id":"CW","i_lat":-6.242512,"line":2,"transit":false},{"station_name":"Tebet","station_id":"TEB","i_long":106.857948,"i_lat":-6.226659,"transit":false,"line":2,"time":2,"is_transit":false,"distance":1230},{"line":2,"distance":2610,"station_id":"MRI","transit":true,"i_lat":-6.209883,"i_long":106.84912,"is_transit":true,"time":4,"station_name":"Manggarai"},{"line":1,"station_name":"Matraman","station_id":"MTR","i_long":106.858896,"is_transit":false,"i_lat":-6.212485,"distance":1275,"transit":false,"time":2},{"is_transit":true,"distance":1377,"station_name":"Jatinegara","line":1,"station_id":"JNG","time":8,"i_long":106.86807400000001,"i_lat":-6.215091,"transit":true},{"line":11,"station_name":"Pondok Jati","is_transit":false,"distance":1236,"station_id":"POK","i_long":106.861737,"i_lat":-6.209188,"transit":false,"time":2},{"is_transit":false,"i_lat":-6.193792,"station_name":"Kramat","station_id":"KMT","transit":false,"time":2,"i_long":106.855437,"line":11,"distance":1829},{"is_transit":false,"i_long":106.850107,"i_lat":-6.185975,"station_name":"Gang Sentiong","transit":false,"station_id":"GST","distance":973,"line":11,"time":1},{"distance":1567,"time":8,"i_lat":-6.174784,"line":11,"is_transit":false,"station_id":"PSE","i_long":106.84368,"station_name":"Pasar Senen","transit":false},{"distance":1436,"station_name":"Kemayoran","is_transit":false,"time":4,"i_long":106.839204,"i_lat":-6.161728,"transit":false,"station_id":"KMO","line":11},{"i_long":106.836569,"station_name":"Rajawali","time":5,"station_id":"RJW","line":11,"i_lat":-6.14505,"distance":1901,"transit":false,"is_transit":false},{"line":4,"is_transit":true,"transit":true,"i_lat":-6.132549,"station_name":"Kampung Bandan","station_id":"KPB","distance":1444,"time":3,"i_long":106.826365},{"i_lat":-6.144674,"transit":false,"i_long":106.79867,"is_transit":false,"time":9,"station_id":"AK","distance":4102,"line":1,"station_name":"Angke"},{"transit":false,"station_id":"DU","is_transit":false,"i_long":106.800832,"line":1,"station_name":"Duri","i_lat":-6.155215,"distance":1230,"time":4},{"transit":true,"i_lat":-6.185545,"time":8,"station_id":"THB","distance":3632,"line":1,"station_name":"Tanah Abang","is_transit":true,"i_long":106.811091},{"transit":false,"station_id":"PLM","is_transit":false,"line":6,"station_name":"Palmerah","distance":3191,"i_lat":-6.207404,"time":6,"i_long":106.79689},{"is_transit":false,"distance":3737,"i_long":106.780334,"station_id":"KBY","station_name":"Kebayoran","transit":false,"time":7,"line":6,"i_lat":-6.237242},{"time":8,"station_id":"PDJ","i_lat":-6.276362,"line":6,"station_name":"Pondokranji","i_long":106.74273,"is_transit":false,"transit":false,"distance":6218},{"i_long":106.728916,"station_id":"JMU","i_lat":-6.288927,"transit":false,"line":6,"distance":2179,"is_transit":false,"time":3,"station_name":"Jurangmangu"},{"line":6,"time":4,"is_transit":false,"distance":1994,"station_id":"SDM","i_lat":-6.296963,"station_name":"Sudimara","i_long":106.712277,"transit":false},{"station_name":"Rawa Buntu","is_transit":false,"distance":4566,"i_long":106.675475,"line":6,"station_id":"RU","transit":false,"time":6,"i_lat":-6.314823},{"station_id":"SRP","line":6,"i_lat":-6.319871,"time":4,"i_long":106.66566,"transit":false,"station_name":"Serpong","distance":2413,"is_transit":false},{"i_long":106.640411,"is_transit":false,"i_lat":-6.32484,"line":3,"time":4,"distance":1784,"transit":false,"station_id":"CSK","station_name":"Cisauk"},{"line":3,"distance":2519,"time":4,"is_transit":false,"transit":false,"station_name":"Cicayur","station_id":"CC","i_lat":-6.329547,"i_long":106.617853},{"i_long":106.568863,"time":8,"is_transit":false,"i_lat":-6.3441410000000005,"distance":5968,"station_name":"Parung Panjang","station_id":"PRP","transit":false,"line":6},{"transit":false,"station_name":"Cilejit","distance":7025,"station_id":"CJT","i_long":106.508482,"is_transit":false,"time":9,"i_lat":-6.354349,"line":3},{"is_transit":false,"line":0,"distance":2675,"time":6,"i_long":106.491338,"station_id":"DAR","i_lat":-6.338021,"transit":false,"station_name":"Daru"},{"i_long":106.460812,"station_name":"Tenjo","station_id":"TEJ","transit":false,"time":5,"distance":3902,"is_transit":false,"i_lat":-6.327251,"line":6}]]}