{"data":[[{"distance":0,"station_name":"Cilebut","line":2,"is_transit":false,"i_long":106.800016,"time":0,"transit":false,"i_lat":-6.530544,"station_id":"CLT"},{"is_transit":false,"transit":false,"line":2,"distance":4331,"station_name":"Bojonggede","station_id":"BJD","i_lat":-6.493243,"time":5,"i_long":106.792719},{"station_id":"CTA","i_lat":-6.448811,"i_long":106.800298,"distance":5197,"is_transit":false,"line":2,"transit":false,"station_name":"Citayam","time":5},{"station_name":"Depok","i_lat":-6.405256,"i_long":106.816926,"time":6,"transit":false,"is_transit":false,"distance":5084,"line":2,"station_id":"DP"},{"station_id":"DPB","time":3,"distance":1584,"station_name":"Depokbaru","is_transit":false,"transit":false,"i_lat":-6.391065,"i_long":106.819451,"line":2},{"time":4,"line":2,"is_transit":false,"station_name":"Pondok Cina","transit":false,"i_lat":-6.369073,"distance":2727,"i_long":106.831114,"station_id":"POC"},{"station_name":"Univ. Indonesia","time":2,"is_transit":false,"transit":false,"station_id":"UI","i_lat":-6.360749,"i_long":106.831474,"distance":1109,"line":2},{"is_transit":false,"station_id":"UP","station_name":"Univ. Pancasila","time":3,"transit":false,"i_lat":-6.339291,"line":2,"i_long":106.834175,"distance":2264},{"distance":1029,"station_id":"LNA","transit":false,"i_long":106.832616,"station_name":"Lenteng Agung","i_lat":-6.330363,"line":2,"time":2,"is_transit":false},{"distance":2671,"station_id":"TNT","transit":false,"station_name":"Tanjung Barat","line":2,"i_long":106.838896,"time":3,"i_lat":-6.3080680000000005,"is_transit":false},{"station_id":"PSM","line":2,"distance":2820,"time":4,"i_long":106.843999,"station_name":"Pasar Minggu","is_transit":false,"transit":false,"i_lat":-6.2842400000000005},{"time":2,"distance":2380,"station_name":"Pasar Minggu Baru","transit":false,"i_lat":-6.263214,"i_long":106.851577,"line":2,"is_transit":false,"station_id":"PSMB"},{"i_lat":-6.255332,"i_long":106.85449,"time":2,"station_name":"Duren Kalibata","station_id":"DRN","distance":824,"is_transit":false,"transit":false,"line":2},{"transit":false,"time":3,"i_lat":-6.242512,"distance":1546,"is_transit":false,"station_id":"CW","station_name":"Cawang","i_long":106.856607,"line":2},{"station_name":"Tebet","is_transit":false,"time":2,"transit":false,"i_long":106.857948,"line":2,"distance":1230,"i_lat":-6.226659,"station_id":"TEB"},{"station_id":"MRI","is_transit":true,"i_lat":-6.209883,"i_long":106.84912,"transit":true,"time":4,"station_name":"Manggarai","line":2,"distance":2610},{"i_long":106.822649,"line":1,"station_name":"Sudirman","i_lat":-6.202263,"transit":false,"distance":3186,"station_id":"SUD","is_transit":false,"time":4},{"station_name":"Sudirman Baru","time":1,"transit":false,"distance":280,"station_id":"SUDB","is_transit":false,"i_lat":-6.201433,"line":1,"i_long":106.819881},{"time":1,"station_name":"Karet","line":1,"transit":false,"i_lat":-6.20132,"station_id":"KAT","distance":471,"i_long":106.816351,"is_transit":false},{"distance":2029,"station_id":"THB","transit":false,"i_long":106.811091,"is_transit":false,"line":1,"i_lat":-6.185545,"time":5,"station_name":"Tanah Abang"},{"i_long":106.800832,"time":8,"is_transit":true,"distance":3632,"i_lat":-6.155215,"line":1,"station_id":"DU","station_name":"Duri","transit":true},{"time":3,"i_lat":-6.162021,"is_transit":false,"transit":false,"line":5,"station_id":"GRG","distance":1700,"station_name":"Grogol","i_long":106.788277},{"station_id":"PSG","line":5,"time":2,"station_name":"Pesing","transit":false,"i_long":106.771379,"distance":2036,"i_lat":-6.161433,"is_transit":false},{"is_transit":false,"time":2,"station_name":"Taman Kota","distance":1614,"line":5,"transit":false,"i_lat":-6.1587309999999995,"station_id":"TKO","i_long":106.756522},{"i_lat":-6.159876,"station_name":"Bojongindah","is_transit":false,"transit":false,"line":5,"time":2,"i_long":106.737035,"distance":2334,"station_id":"BOI"},{"time":4,"station_name":"Rawa Buaya","line":5,"i_lat":-6.162758,"is_transit":false,"i_long":106.723064,"station_id":"RW","transit":false,"distance":1152}],[{"station_name":"Cilebut","time":0,"i_long":106.800016,"line":2,"i_lat":-6.530544,"is_transit":false,"transit":false,"distance":0,"station_id":"CLT"},{"distance":4331,"is_transit":false,"time":5,"station_name":"Bojonggede","i_long":106.792719,"line":2,"station_id":"BJD","i_lat":-6.493243,"transit":false},{"time":5,"i_lat":-6.448811,"i_long":106.800298,"line":2,"station_id":"CTA","is_transit":false,"transit":false,"distance":5197,"station_name":"Citayam"},{"transit":false,"distance":5084,"station_name":"Depok","i_lat":-6.405256,"i_long":106.816926,"time":6,"station_id":"DP","is_transit":false,"line":2},{"distance":1584,"time":3,"i_long":106.819451,"is_transit":false,"line":2,"station_id":"DPB","i_lat":-6.391065,"transit":false,"station_name":"Depokbaru"},{"station_id":"POC","station_name":"Pondok Cina","distance":2727,"i_long":106.831114,"i_lat":-6.369073,"line":2,"transit":false,"is_transit":false,"time":4},{"time":2,"i_lat":-6.360749,"i_long":106.831474,"transit":false,"line":2,"distance":1109,"station_id":"UI","is_transit":false,"station_name":"Univ. Indonesia"},{"station_id":"UP","distance":2264,"i_lat":-6.339291,"line":2,"time":3,"is_transit":false,"station_name":"Univ. Pancasila","i_long":106.834175,"transit":false},{"i_long":106.832616,"time":2,"station_id":"LNA","is_transit":false,"i_lat":-6.330363,"line":2,"distance":1029,"station_name":"Lenteng Agung","transit":false},{"line":2,"station_id":"TNT","time":3,"distance":2671,"transit":false,"station_name":"Tanjung Barat","i_long":106.838896,"is_transit":false,"i_lat":-6.3080680000000005},{"line":2,"station_id":"PSM","i_lat":-6.2842400000000005,"station_name":"Pasar Minggu","transit":false,"time":4,"i_long":106.843999,"is_transit":false,"distance":2820},{"time":2,"station_name":"Pasar Minggu Baru","station_id":"PSMB","transit":false,"line":2,"i_lat":-6.263214,"is_transit":false,"i_long":106.851577,"distance":2380},{"i_lat":-6.255332,"distance":824,"is_transit":false,"station_id":"DRN","transit":false,"i_long":106.85449,"line":2,"time":2,"station_name":"Duren Kalibata"},{"station_id":"CW","i_lat":-6.242512,"line":2,"i_long":106.856607,"is_transit":false,"time":3,"station_name":"Cawang","transit":false,"distance":1546},{"line":2,"station_id":"TEB","station_name":"Tebet","is_transit":false,"time":2,"distance":1230,"transit":false,"i_lat":-6.226659,"i_long":106.857948},{"i_long":106.84912,"time":4,"is_transit":false,"transit":false,"station_name":"Manggarai","distance":2610,"station_id":"MRI","line":2,"i_lat":-6.209883},{"station_name":"Cikini","is_transit":false,"line":2,"time":4,"i_lat":-6.198556,"distance":1590,"station_id":"CKI","transit":false,"i_long":106.840169},{"i_long":106.832183,"i_lat":-6.186295,"is_transit":false,"time":3,"station_id":"GDD","distance":1750,"line":2,"transit":false,"station_name":"Gondangdia"},{"transit":false,"i_lat":-6.166716,"is_transit":false,"distance":2015,"station_id":"JUA","time":4,"station_name":"Juanda","i_long":106.828284,"line":2},{"station_id":"SW","transit":false,"time":2,"line":2,"station_name":"Sawah Besar","i_long":106.827103,"i_lat":-6.160725,"distance":1149,"is_transit":false},{"i_long":106.82482,"distance":906,"station_name":"Manggabesar","transit":false,"time":2,"is_transit":false,"station_id":"MGB","line":2,"i_lat":-6.149769},{"transit":false,"distance":1080,"line":2,"station_id":"JAY","station_name":"Jayakarta","is_transit":false,"i_long":106.820901,"time":2,"i_lat":-6.141205},{"distance":1264,"station_id":"JAKK","i_lat":-6.137569,"station_name":"Jakarta Kota","time":4,"line":2,"i_long":106.812439,"transit":true,"is_transit":true},{"station_name":"Kampung Bandan","transit":true,"i_long":106.826365,"i_lat":-6.132549,"line":4,"distance":1364,"time":3,"is_transit":true,"station_id":"KPB"},{"transit":false,"time":9,"line":1,"station_name":"Angke","distance":4102,"is_transit":false,"i_long":106.79867,"station_id":"AK","i_lat":-6.144674},{"time":4,"i_lat":-6.155215,"transit":true,"i_long":106.800832,"is_transit":true,"station_id":"DU","distance":1230,"station_name":"Duri","line":1},{"distance":1700,"i_lat":-6.162021,"line":5,"station_name":"Grogol","transit":false,"time":3,"station_id":"GRG","is_transit":false,"i_long":106.788277},{"time":2,"i_lat":-6.161433,"i_long":106.771379,"distance":2036,"line":5,"transit":false,"station_id":"PSG","station_name":"Pesing","is_transit":false},{"line":5,"is_transit":false,"distance":1614,"transit":false,"station_id":"TKO","i_lat":-6.1587309999999995,"station_name":"Taman Kota","time":2,"i_long":106.756522},{"i_lat":-6.159876,"station_name":"Bojongindah","station_id":"BOI","line":5,"distance":2334,"is_transit":false,"time":2,"transit":false,"i_long":106.737035},{"station_id":"RW","i_lat":-6.162758,"station_name":"Rawa Buaya","distance":1152,"time":4,"is_transit":false,"i_long":106.723064,"transit":false,"line":5}],[{"station_name":"Cilebut","transit":false,"station_id":"CLT","is_transit":false,"line":2,"i_lat":-6.530544,"i_long":106.800016,"time":0,"distance":0},{"distance":4331,"i_long":106.792719,"transit":false,"line":2,"is_transit":false,"station_id":"BJD","i_lat":-6.493243,"station_name":"Bojonggede","time":5},{"is_transit":false,"station_name":"Citayam","distance":5197,"transit":false,"station_id":"CTA","i_long":106.800298,"time":5,"i_lat":-6.448811,"line":2},{"line":2,"i_long":106.816926,"station_id":"DP","time":6,"distance":5084,"is_transit":false,"transit":false,"i_lat":-6.405256,"station_name":"Depok"},{"time":3,"is_transit":false,"i_lat":-6.391065,"i_long":106.819451,"distance":1584,"transit":false,"station_name":"Depokbaru","station_id":"DPB","line":2},{"i_long":106.831114,"station_id":"POC","transit":false,"i_lat":-6.369073,"distance":2727,"station_name":"Pondok Cina","is_transit":false,"time":4,"line":2},{"line":2,"i_long":106.831474,"time":2,"is_transit":false,"distance":1109,"station_name":"Univ. Indonesia","transit":false,"i_lat":-6.360749,"station_id":"UI"},{"time":3,"i_long":106.834175,"i_lat":-6.339291,"station_id":"UP","line":2,"distance":2264,"station_name":"Univ. Pancasila","is_transit":false,"transit":false},{"distance":1029,"time":2,"station_name":"Lenteng Agung","station_id":"LNA","transit":false,"is_transit":false,"i_lat":-6.330363,"i_long":106.832616,"line":2},{"is_transit":false,"station_id":"TNT","line":2,"distance":2671,"transit":false,"i_lat":-6.3080680000000005,"i_long":106.838896,"time":3,"station_name":"Tanjung Barat"},{"i_lat":-6.2842400000000005,"i_long":106.843999,"line":2,"station_name":"Pasar Minggu","transit":false,"distance":2820,"time":4,"is_transit":false,"station_id":"PSM"},{"time":2,"i_lat":-6.263214,"station_name":"Pasar Minggu Baru","distance":2380,"is_transit":false,"line":2,"station_id":"PSMB","i_long":106.851577,"transit":false},{"i_lat":-6.255332,"time":2,"i_long":106.85449,"line":2,"station_name":"Duren Kalibata","is_transit":false,"distance":824,"station_id":"DRN","transit":false},{"distance":1546,"is_transit":false,"time":3,"station_name":"Cawang","transit":false,"i_lat":-6.242512,"line":2,"i_long":106.856607,"station_id":"CW"},{"transit":false,"station_id":"TEB","line":2,"station_name":"Tebet","is_transit":false,"distance":1230,"i_lat":-6.226659,"i_long":106.857948,"time":2},{"distance":2610,"station_id":"MRI","i_lat":-6.209883,"line":2,"i_long":106.84912,"time":4,"is_transit":true,"station_name":"Manggarai","transit":true},{"station_id":"MTR","distance":1275,"i_lat":-6.212485,"time":2,"station_name":"Matraman","transit":false,"line":1,"is_transit":false,"i_long":106.858896},{"transit":true,"is_transit":true,"i_long":106.86807400000001,"i_lat":-6.215091,"distance":1377,"station_name":"Jatinegara","line":1,"station_id":"JNG","time":8},{"distance":1236,"time":2,"is_transit":false,"transit":false,"i_long":106.861737,"station_name":"Pondok Jati","i_lat":-6.209188,"line":11,"station_id":"POK"},{"is_transit":false,"station_name":"Kramat","i_long":106.855437,"distance":1829,"station_id":"KMT","transit":false,"time":2,"line":11,"i_lat":-6.193792},{"time":1,"is_transit":false,"i_lat":-6.185975,"i_long":106.850107,"transit":false,"station_name":"Gang Sentiong","station_id":"GST","distance":973,"line":11},{"i_long":106.84368,"i_lat":-6.174784,"is_transit":false,"distance":1567,"station_name":"Pasar Senen","transit":false,"line":11,"time":8,"station_id":"PSE"},{"distance":1436,"i_lat":-6.161728,"station_name":"Kemayoran","is_transit":false,"time":4,"line":11,"station_id":"KMO","transit":false,"i_long":106.839204},{"transit":false,"i_long":106.836569,"line":11,"station_id":"RJW","time":5,"distance":1901,"is_transit":false,"station_name":"Rajawali","i_lat":-6.14505},{"station_id":"KPB","transit":true,"distance":1444,"is_transit":true,"i_long":106.826365,"station_name":"Kampung Bandan","i_lat":-6.132549,"line":4,"time":3},{"i_lat":-6.144674,"i_long":106.79867,"time":9,"is_transit":false,"station_name":"Angke","station_id":"AK","line":1,"transit":false,"distance":4102},{"time":4,"transit":true,"is_transit":true,"line":1,"distance":1230,"i_long":106.800832,"i_lat":-6.155215,"station_id":"DU","station_name":"Duri"},{"station_name":"Grogol","time":3,"line":5,"is_transit":false,"station_id":"GRG","i_long":106.788277,"distance":1700,"transit":false,"i_lat":-6.162021},{"station_id":"PSG","line":5,"time":2,"distance":2036,"is_transit":false,"station_name":"Pesing","transit":false,"i_long":106.771379,"i_lat":-6.161433},{"i_lat":-6.1587309999999995,"line":5,"distance":1614,"i_long":106.756522,"station_name":"Taman Kota","transit":false,"time":2,"station_id":"TKO","is_transit":false},{"time":2,"i_lat":-6.159876,"line":5,"is_transit":false,"station_id":"BOI","transit":false,"distance":2334,"station_name":"Bojongindah","i_long":106.737035},{"distance":1152,"station_id":"RW","transit":false,"line":5,"time":4,"i_lat":-6.162758,"i_long":106.723064,"is_transit":false,"station_name":"Rawa Buaya"}]]}