{"data":[[{"station_name":"Cilebut","distance":0,"i_long":106.800016,"time":0,"i_lat":-6.530544,"station_id":"CLT","line":2,"is_transit":false,"transit":false},{"i_long":106.792719,"line":2,"i_lat":-6.493243,"transit":false,"station_name":"Bojonggede","station_id":"BJD","time":5,"is_transit":false,"distance":4331},{"is_transit":false,"distance":5197,"i_lat":-6.448811,"line":2,"station_id":"CTA","i_long":106.800298,"station_name":"Citayam","transit":false,"time":5},{"station_name":"Depok","time":6,"is_transit":false,"station_id":"DP","i_lat":-6.405256,"line":2,"transit":false,"distance":5084,"i_long":106.816926},{"i_lat":-6.391065,"time":3,"distance":1584,"i_long":106.819451,"transit":false,"line":2,"is_transit":false,"station_name":"Depokbaru","station_id":"DPB"},{"station_id":"POC","time":4,"i_lat":-6.369073,"is_transit":false,"distance":2727,"i_long":106.831114,"line":2,"transit":false,"station_name":"Pondok Cina"},{"station_id":"UI","is_transit":false,"time":2,"i_lat":-6.360749,"station_name":"Univ. Indonesia","i_long":106.831474,"transit":false,"distance":1109,"line":2},{"time":3,"i_long":106.834175,"is_transit":false,"line":2,"station_name":"Univ. Pancasila","distance":2264,"transit":false,"i_lat":-6.339291,"station_id":"UP"},{"i_long":106.832616,"station_id":"LNA","line":2,"is_transit":false,"transit":false,"distance":1029,"i_lat":-6.330363,"station_name":"Lenteng Agung","time":2},{"transit":false,"distance":2671,"i_long":106.838896,"is_transit":false,"station_id":"TNT","i_lat":-6.3080680000000005,"time":3,"station_name":"Tanjung Barat","line":2},{"line":2,"i_lat":-6.2842400000000005,"i_long":106.843999,"station_name":"Pasar Minggu","station_id":"PSM","transit":false,"distance":2820,"is_transit":false,"time":4},{"time":2,"station_name":"Pasar Minggu Baru","is_transit":false,"transit":false,"distance":2380,"station_id":"PSMB","i_long":106.851577,"line":2,"i_lat":-6.263214},{"time":2,"station_name":"Duren Kalibata","is_transit":false,"i_lat":-6.255332,"distance":824,"transit":false,"station_id":"DRN","line":2,"i_long":106.85449},{"time":3,"i_lat":-6.242512,"i_long":106.856607,"line":2,"station_name":"Cawang","transit":false,"distance":1546,"is_transit":false,"station_id":"CW"},{"station_id":"TEB","i_long":106.857948,"distance":1230,"i_lat":-6.226659,"transit":false,"time":2,"is_transit":false,"station_name":"Tebet","line":2},{"i_long":106.84912,"distance":2610,"line":2,"station_id":"MRI","time":4,"transit":true,"i_lat":-6.209883,"is_transit":true,"station_name":"Manggarai"},{"i_lat":-6.202263,"line":1,"i_long":106.822649,"station_id":"SUD","time":4,"is_transit":false,"transit":false,"station_name":"Sudirman","distance":3186},{"is_transit":false,"time":1,"line":1,"i_lat":-6.201433,"station_id":"SUDB","distance":280,"station_name":"Sudirman Baru","transit":false,"i_long":106.819881},{"i_lat":-6.20132,"distance":471,"transit":false,"line":1,"i_long":106.816351,"is_transit":false,"station_id":"KAT","station_name":"Karet","time":1},{"i_lat":-6.185545,"distance":2029,"station_id":"THB","time":5,"i_long":106.811091,"station_name":"Tanah Abang","is_transit":false,"transit":false,"line":1},{"i_lat":-6.155215,"line":1,"transit":true,"station_id":"DU","time":8,"distance":3632,"i_long":106.800832,"station_name":"Duri","is_transit":true},{"i_lat":-6.162021,"transit":false,"station_name":"Grogol","station_id":"GGL","i_long":106.788277,"line":5,"is_transit":false,"distance":1700,"time":3},{"i_lat":-6.161433,"distance":2036,"line":5,"transit":false,"i_long":106.771379,"station_name":"Pesing","is_transit":false,"time":2,"station_id":"PSG"},{"distance":1614,"transit":false,"line":5,"station_name":"Taman Kota","station_id":"TKO","is_transit":false,"i_lat":-6.1587309999999995,"i_long":106.756522,"time":2},{"is_transit":false,"station_id":"BOI","transit":false,"distance":2334,"i_lat":-6.159876,"i_long":106.737035,"time":2,"line":5,"station_name":"Bojongindah"},{"is_transit":false,"transit":false,"distance":1152,"line":5,"station_id":"RW","i_long":106.723064,"time":4,"i_lat":-6.162758,"station_name":"Rawa Buaya"},{"station_name":"Kalideres","is_transit":false,"i_long":106.701612,"station_id":"KDS","i_lat":-6.166068,"time":3,"distance":2504,"line":5,"transit":false},{"time":3,"line":5,"station_id":"PI","transit":false,"i_long":106.679458,"distance":2548,"station_name":"Poris","i_lat":-6.169933,"is_transit":false},{"transit":false,"i_long":106.665036,"station_id":"BPR","line":5,"time":3,"station_name":"Batuceper","i_lat":-6.171811,"is_transit":false,"distance":1834},{"transit":false,"station_name":"Tanah Tinggi","distance":2028,"is_transit":false,"station_id":"TTI","time":3,"i_long":106.64657,"i_lat":-6.17331,"line":5}],[{"transit":false,"station_name":"Cilebut","time":0,"line":2,"distance":0,"i_long":106.800016,"is_transit":false,"i_lat":-6.530544,"station_id":"CLT"},{"time":5,"i_long":106.792719,"station_name":"Bojonggede","line":2,"station_id":"BJD","transit":false,"distance":4331,"is_transit":false,"i_lat":-6.493243},{"transit":false,"distance":5197,"station_name":"Citayam","i_lat":-6.448811,"line":2,"station_id":"CTA","is_transit":false,"time":5,"i_long":106.800298},{"i_lat":-6.405256,"station_name":"Depok","time":6,"station_id":"DP","i_long":106.816926,"line":2,"is_transit":false,"transit":false,"distance":5084},{"line":2,"distance":1584,"is_transit":false,"i_long":106.819451,"station_name":"Depokbaru","time":3,"station_id":"DPB","transit":false,"i_lat":-6.391065},{"station_name":"Pondok Cina","station_id":"POC","i_lat":-6.369073,"transit":false,"is_transit":false,"time":4,"i_long":106.831114,"line":2,"distance":2727},{"time":2,"transit":false,"distance":1109,"line":2,"station_name":"Univ. Indonesia","is_transit":false,"i_lat":-6.360749,"i_long":106.831474,"station_id":"UI"},{"distance":2264,"line":2,"station_id":"UP","is_transit":false,"station_name":"Univ. Pancasila","i_lat":-6.339291,"time":3,"i_long":106.834175,"transit":false},{"is_transit":false,"station_id":"LNA","transit":false,"time":2,"distance":1029,"i_lat":-6.330363,"i_long":106.832616,"line":2,"station_name":"Lenteng Agung"},{"i_long":106.838896,"line":2,"station_name":"Tanjung Barat","transit":false,"i_lat":-6.3080680000000005,"time":3,"distance":2671,"is_transit":false,"station_id":"TNT"},{"station_id":"PSM","i_lat":-6.2842400000000005,"is_transit":false,"i_long":106.843999,"time":4,"distance":2820,"line":2,"station_name":"Pasar Minggu","transit":false},{"distance":2380,"i_long":106.851577,"time":2,"transit":false,"i_lat":-6.263214,"station_name":"Pasar Minggu Baru","line":2,"is_transit":false,"station_id":"PSMB"},{"station_id":"DRN","i_long":106.85449,"is_transit":false,"line":2,"distance":824,"i_lat":-6.255332,"time":2,"station_name":"Duren Kalibata","transit":false},{"line":2,"distance":1546,"transit":false,"station_name":"Cawang","is_transit":false,"station_id":"CW","i_lat":-6.242512,"time":3,"i_long":106.856607},{"station_name":"Tebet","transit":false,"is_transit":false,"line":2,"i_lat":-6.226659,"distance":1230,"station_id":"TEB","i_long":106.857948,"time":2},{"i_lat":-6.209883,"transit":false,"is_transit":false,"line":2,"time":4,"station_name":"Manggarai","distance":2610,"station_id":"MRI","i_long":106.84912},{"transit":false,"station_name":"Cikini","distance":1590,"i_lat":-6.198556,"is_transit":false,"station_id":"CKI","line":2,"i_long":106.840169,"time":4},{"distance":1750,"i_long":106.832183,"station_name":"Gondangdia","line":2,"i_lat":-6.186295,"time":3,"is_transit":false,"transit":false,"station_id":"GDD"},{"line":2,"station_name":"Juanda","is_transit":false,"i_lat":-6.166716,"distance":2015,"station_id":"JUA","transit":false,"i_long":106.828284,"time":4},{"distance":1149,"line":2,"transit":false,"i_long":106.827103,"time":2,"station_name":"Sawah Besar","i_lat":-6.160725,"is_transit":false,"station_id":"SW"},{"distance":906,"line":2,"is_transit":false,"i_lat":-6.149769,"transit":false,"time":2,"station_name":"Manggabesar","i_long":106.82482,"station_id":"MGB"},{"distance":1080,"time":2,"transit":false,"station_name":"Jayakarta","i_lat":-6.141205,"station_id":"JAY","is_transit":false,"i_long":106.820901,"line":2},{"i_lat":-6.137569,"line":2,"transit":true,"station_name":"Jakarta Kota","distance":1264,"i_long":106.812439,"station_id":"JAKK","is_transit":true,"time":4},{"i_lat":-6.132549,"station_name":"Kampung Bandan","time":3,"station_id":"KPB","transit":true,"is_transit":true,"i_long":106.826365,"distance":1364,"line":4},{"i_long":106.79867,"line":1,"i_lat":-6.144674,"time":9,"is_transit":false,"transit":false,"station_name":"Angke","station_id":"AK","distance":4102},{"i_long":106.800832,"transit":true,"station_name":"Duri","station_id":"DU","distance":1230,"is_transit":true,"i_lat":-6.155215,"time":4,"line":1},{"i_long":106.788277,"station_id":"GGL","transit":false,"distance":1700,"time":3,"is_transit":false,"line":5,"i_lat":-6.162021,"station_name":"Grogol"},{"line":5,"station_name":"Pesing","time":2,"transit":false,"is_transit":false,"i_long":106.771379,"i_lat":-6.161433,"station_id":"PSG","distance":2036},{"station_id":"TKO","station_name":"Taman Kota","time":2,"line":5,"transit":false,"i_lat":-6.1587309999999995,"distance":1614,"is_transit":false,"i_long":106.756522},{"station_name":"Bojongindah","line":5,"is_transit":false,"transit":false,"i_long":106.737035,"station_id":"BOI","time":2,"distance":2334,"i_lat":-6.159876},{"transit":false,"i_lat":-6.162758,"is_transit":false,"line":5,"station_id":"RW","distance":1152,"station_name":"Rawa Buaya","time":4,"i_long":106.723064},{"time":3,"transit":false,"line":5,"station_name":"Kalideres","station_id":"KDS","i_lat":-6.166068,"distance":2504,"i_long":106.701612,"is_transit":false},{"station_id":"PI","distance":2548,"line":5,"is_transit":false,"i_lat":-6.169933,"time":3,"transit":false,"i_long":106.679458,"station_name":"Poris"},{"line":5,"time":3,"station_id":"BPR","is_transit":false,"distance":1834,"i_long":106.665036,"transit":false,"i_lat":-6.171811,"station_name":"Batuceper"},{"line":5,"station_id":"TTI","transit":false,"is_transit":false,"time":3,"i_lat":-6.17331,"i_long":106.64657,"station_name":"Tanah Tinggi","distance":2028}],[{"transit":false,"distance":0,"i_long":106.800016,"is_transit":false,"station_id":"CLT","line":2,"station_name":"Cilebut","time":0,"i_lat":-6.530544},{"distance":4331,"line":2,"station_id":"BJD","is_transit":false,"i_lat":-6.493243,"station_name":"Bojonggede","time":5,"i_long":106.792719,"transit":false},{"time":5,"station_id":"CTA","station_name":"Citayam","transit":false,"distance":5197,"i_lat":-6.448811,"i_long":106.800298,"line":2,"is_transit":false},{"i_lat":-6.405256,"line":2,"station_id":"DP","distance":5084,"transit":false,"time":6,"station_name":"Depok","is_transit":false,"i_long":106.816926},{"line":2,"time":3,"distance":1584,"i_lat":-6.391065,"i_long":106.819451,"station_id":"DPB","station_name":"Depokbaru","transit":false,"is_transit":false},{"transit":false,"distance":2727,"time":4,"line":2,"i_lat":-6.369073,"station_name":"Pondok Cina","station_id":"POC","is_transit":false,"i_long":106.831114},{"transit":false,"distance":1109,"i_long":106.831474,"station_name":"Univ. Indonesia","is_transit":false,"i_lat":-6.360749,"line":2,"station_id":"UI","time":2},{"is_transit":false,"transit":false,"station_id":"UP","distance":2264,"line":2,"time":3,"i_long":106.834175,"station_name":"Univ. Pancasila","i_lat":-6.339291},{"station_name":"Lenteng Agung","line":2,"time":2,"station_id":"LNA","i_long":106.832616,"transit":false,"is_transit":false,"distance":1029,"i_lat":-6.330363},{"is_transit":false,"line":2,"station_name":"Tanjung Barat","transit":false,"distance":2671,"time":3,"station_id":"TNT","i_long":106.838896,"i_lat":-6.3080680000000005},{"i_lat":-6.2842400000000005,"is_transit":false,"distance":2820,"station_name":"Pasar Minggu","i_long":106.843999,"transit":false,"station_id":"PSM","line":2,"time":4},{"i_long":106.851577,"station_id":"PSMB","station_name":"Pasar Minggu Baru","is_transit":false,"time":2,"distance":2380,"line":2,"transit":false,"i_lat":-6.263214},{"i_lat":-6.255332,"transit":false,"station_name":"Duren Kalibata","is_transit":false,"i_long":106.85449,"distance":824,"station_id":"DRN","time":2,"line":2},{"transit":false,"time":3,"i_long":106.856607,"line":2,"station_name":"Cawang","is_transit":false,"distance":1546,"i_lat":-6.242512,"station_id":"CW"},{"transit":false,"time":2,"station_name":"Tebet","distance":1230,"line":2,"is_transit":false,"i_long":106.857948,"station_id":"TEB","i_lat":-6.226659},{"station_id":"MRI","distance":2610,"i_lat":-6.209883,"transit":true,"line":2,"i_long":106.84912,"station_name":"Manggarai","time":4,"is_transit":true},{"distance":1275,"i_lat":-6.212485,"i_long":106.858896,"line":1,"station_name":"Matraman","time":2,"is_transit":false,"station_id":"MTR","transit":false},{"time":8,"distance":1377,"transit":true,"is_transit":true,"station_name":"Jatinegara","station_id":"JNG","line":1,"i_lat":-6.215091,"i_long":106.86807400000001},{"distance":1236,"station_id":"POK","transit":false,"station_name":"Pondok Jati","i_long":106.861737,"is_transit":false,"i_lat":-6.209188,"line":11,"time":2},{"i_long":106.855437,"station_id":"KMT","i_lat":-6.193792,"is_transit":false,"station_name":"Kramat","time":2,"line":11,"transit":false,"distance":1829},{"distance":973,"i_lat":-6.185975,"line":11,"time":1,"i_long":106.850107,"station_id":"GST","station_name":"Gang Sentiong","transit":false,"is_transit":false},{"i_lat":-6.174784,"line":11,"transit":false,"is_transit":false,"time":8,"station_id":"PSE","i_long":106.84368,"station_name":"Pasar Senen","distance":1567},{"transit":false,"distance":1436,"is_transit":false,"time":4,"station_name":"Kemayoran","i_long":106.839204,"station_id":"KMO","line":11,"i_lat":-6.161728},{"i_long":106.836569,"i_lat":-6.14505,"station_name":"Rajawali","transit":false,"time":5,"line":11,"distance":1901,"station_id":"RJW","is_transit":false},{"time":3,"line":4,"station_name":"Kampung Bandan","i_lat":-6.132549,"transit":true,"distance":1444,"station_id":"KPB","is_transit":true,"i_long":106.826365},{"station_name":"Angke","is_transit":false,"distance":4102,"time":9,"transit":false,"i_lat":-6.144674,"line":1,"station_id":"AK","i_long":106.79867},{"station_id":"DU","station_name":"Duri","time":4,"line":1,"transit":true,"i_long":106.800832,"distance":1230,"is_transit":true,"i_lat":-6.155215},{"transit":false,"line":5,"station_id":"GGL","is_transit":false,"station_name":"Grogol","distance":1700,"i_long":106.788277,"i_lat":-6.162021,"time":3},{"time":2,"transit":false,"i_long":106.771379,"line":5,"station_name":"Pesing","is_transit":false,"station_id":"PSG","distance":2036,"i_lat":-6.161433},{"i_lat":-6.1587309999999995,"is_transit":false,"line":5,"station_id":"TKO","transit":false,"time":2,"distance":1614,"station_name":"Taman Kota","i_long":106.756522},{"distance":2334,"station_id":"BOI","i_long":106.737035,"time":2,"line":5,"is_transit":false,"station_name":"Bojongindah","transit":false,"i_lat":-6.159876},{"line":5,"station_name":"Rawa Buaya","distance":1152,"i_lat":-6.162758,"station_id":"RW","transit":false,"is_transit":false,"time":4,"i_long":106.723064},{"station_name":"Kalideres","distance":2504,"station_id":"KDS","is_transit":false,"i_lat":-6.166068,"line":5,"i_long":106.701612,"time":3,"transit":false},{"transit":false,"station_name":"Poris","station_id":"PI","distance":2548,"time":3,"i_lat":-6.169933,"is_transit":false,"i_long":106.679458,"line":5},{"line":5,"time":3,"station_name":"Batuceper","i_lat":-6.171811,"i_long":106.665036,"is_transit":false,"station_id":"BPR","distance":1834,"transit":false},{"transit":false,"station_name":"Tanah Tinggi","station_id":"TTI","is_transit":false,"distance":2028,"i_lat":-6.17331,"i_long":106.64657,"time":3,"line":5}]]}