{"data":[[{"i_lat":-6.530544,"transit":false,"time":0,"station_name":"Cilebut","i_long":106.800016,"line":2,"distance":0,"station_id":"CLT","is_transit":false},{"station_id":"BJD","i_lat":-6.493243,"transit":false,"station_name":"Bojonggede","i_long":106.792719,"time":5,"distance":4331,"is_transit":false,"line":2},{"time":5,"line":2,"station_name":"Citayam","station_id":"CTA","i_long":106.800298,"distance":5197,"is_transit":false,"i_lat":-6.448811,"transit":false},{"is_transit":false,"time":6,"station_id":"DP","station_name":"Depok","i_long":106.816926,"distance":5084,"i_lat":-6.405256,"line":2,"transit":false},{"time":3,"i_long":106.819451,"station_name":"Depokbaru","i_lat":-6.391065,"is_transit":false,"station_id":"DPB","transit":false,"line":2,"distance":1584},{"i_long":106.831114,"station_id":"POC","is_transit":false,"distance":2727,"transit":false,"line":2,"i_lat":-6.369073,"station_name":"Pondok Cina","time":4},{"i_long":106.831474,"i_lat":-6.360749,"is_transit":false,"station_id":"UI","time":2,"station_name":"Univ. Indonesia","distance":1109,"line":2,"transit":false},{"station_name":"Univ. Pancasila","i_lat":-6.339291,"i_long":106.834175,"distance":2264,"is_transit":false,"time":3,"station_id":"UP","transit":false,"line":2},{"station_name":"Lenteng Agung","station_id":"LNA","i_lat":-6.330363,"i_long":106.832616,"time":2,"distance":1029,"is_transit":false,"line":2,"transit":false},{"is_transit":false,"station_name":"Tanjung Barat","distance":2671,"station_id":"TNT","i_long":106.838896,"time":3,"line":2,"transit":false,"i_lat":-6.3080680000000005},{"transit":false,"i_long":106.843999,"station_id":"PSM","i_lat":-6.2842400000000005,"distance":2820,"is_transit":false,"time":4,"station_name":"Pasar Minggu","line":2},{"station_name":"Pasar Minggu Baru","distance":2380,"i_lat":-6.263214,"line":2,"station_id":"PSMB","is_transit":false,"i_long":106.851577,"time":2,"transit":false},{"line":2,"station_name":"Duren Kalibata","i_lat":-6.255332,"is_transit":false,"station_id":"DRN","i_long":106.85449,"time":2,"transit":false,"distance":824},{"distance":1546,"station_id":"CW","is_transit":false,"transit":false,"line":2,"i_long":106.856607,"station_name":"Cawang","i_lat":-6.242512,"time":3},{"time":2,"is_transit":false,"distance":1230,"station_name":"Tebet","line":2,"station_id":"TEB","i_lat":-6.226659,"transit":false,"i_long":106.857948},{"line":2,"distance":2610,"is_transit":true,"i_lat":-6.209883,"i_long":106.84912,"station_id":"MRI","station_name":"Manggarai","time":4,"transit":true},{"is_transit":false,"distance":3186,"transit":false,"line":1,"i_long":106.822649,"station_name":"Sudirman","time":4,"station_id":"SUD","i_lat":-6.202263},{"distance":280,"i_long":106.819881,"transit":false,"station_name":"Sudirman Baru","i_lat":-6.201433,"line":1,"is_transit":false,"station_id":"SUDB","time":1},{"transit":false,"station_name":"Karet","i_long":106.816351,"is_transit":false,"time":1,"station_id":"KAT","i_lat":-6.20132,"distance":471,"line":1},{"i_long":106.811091,"line":1,"time":5,"transit":true,"is_transit":true,"station_id":"THB","station_name":"Tanah Abang","distance":2029,"i_lat":-6.185545},{"is_transit":false,"i_lat":-6.207404,"time":6,"transit":false,"station_name":"Palmerah","i_long":106.79689,"station_id":"PLM","distance":3191,"line":6},{"is_transit":false,"distance":3737,"i_lat":-6.237242,"time":7,"station_id":"KBY","station_name":"Kebayoran","transit":false,"i_long":106.780334,"line":6},{"i_long":106.74273,"line":6,"transit":false,"distance":6218,"station_name":"Pondokranji","time":8,"i_lat":-6.276362,"is_transit":false,"station_id":"PDJ"},{"distance":2179,"time":3,"i_lat":-6.288927,"line":6,"is_transit":false,"station_id":"JMU","i_long":106.728916,"station_name":"Jurangmangu","transit":false},{"station_name":"Sudimara","transit":false,"distance":1994,"i_lat":-6.296963,"i_long":106.712277,"line":6,"time":4,"station_id":"SDM","is_transit":false}],[{"station_name":"Cilebut","station_id":"CLT","transit":false,"is_transit":false,"i_long":106.800016,"line":2,"time":0,"distance":0,"i_lat":-6.530544},{"time":5,"i_lat":-6.493243,"i_long":106.792719,"station_id":"BJD","transit":false,"is_transit":false,"line":2,"station_name":"Bojonggede","distance":4331},{"station_id":"CTA","transit":false,"i_long":106.800298,"distance":5197,"i_lat":-6.448811,"is_transit":false,"line":2,"station_name":"Citayam","time":5},{"distance":5084,"i_long":106.816926,"line":2,"time":6,"transit":false,"station_name":"Depok","is_transit":false,"i_lat":-6.405256,"station_id":"DP"},{"i_long":106.819451,"distance":1584,"line":2,"station_name":"Depokbaru","transit":false,"is_transit":false,"i_lat":-6.391065,"station_id":"DPB","time":3},{"line":2,"distance":2727,"station_name":"Pondok Cina","i_lat":-6.369073,"station_id":"POC","transit":false,"time":4,"is_transit":false,"i_long":106.831114},{"line":2,"i_lat":-6.360749,"station_id":"UI","station_name":"Univ. Indonesia","transit":false,"is_transit":false,"time":2,"i_long":106.831474,"distance":1109},{"distance":2264,"station_name":"Univ. Pancasila","transit":false,"i_lat":-6.339291,"station_id":"UP","is_transit":false,"i_long":106.834175,"time":3,"line":2},{"time":2,"is_transit":false,"transit":false,"line":2,"distance":1029,"i_lat":-6.330363,"i_long":106.832616,"station_id":"LNA","station_name":"Lenteng Agung"},{"station_name":"Tanjung Barat","time":3,"transit":false,"distance":2671,"line":2,"station_id":"TNT","i_long":106.838896,"is_transit":false,"i_lat":-6.3080680000000005},{"is_transit":false,"i_lat":-6.2842400000000005,"time":4,"station_id":"PSM","transit":false,"i_long":106.843999,"station_name":"Pasar Minggu","distance":2820,"line":2},{"station_name":"Pasar Minggu Baru","is_transit":false,"distance":2380,"i_lat":-6.263214,"i_long":106.851577,"line":2,"station_id":"PSMB","time":2,"transit":false},{"station_name":"Duren Kalibata","station_id":"DRN","time":2,"distance":824,"i_long":106.85449,"line":2,"i_lat":-6.255332,"is_transit":false,"transit":false},{"time":3,"station_id":"CW","distance":1546,"line":2,"i_lat":-6.242512,"station_name":"Cawang","transit":false,"i_long":106.856607,"is_transit":false},{"i_lat":-6.226659,"station_id":"TEB","station_name":"Tebet","transit":false,"line":2,"time":2,"is_transit":false,"distance":1230,"i_long":106.857948},{"i_lat":-6.209883,"distance":2610,"line":2,"i_long":106.84912,"time":4,"station_name":"Manggarai","is_transit":false,"transit":false,"station_id":"MRI"},{"time":4,"distance":1590,"transit":false,"i_lat":-6.198556,"is_transit":false,"station_id":"CKI","station_name":"Cikini","line":2,"i_long":106.840169},{"line":2,"time":3,"station_id":"GDD","is_transit":false,"station_name":"Gondangdia","distance":1750,"transit":false,"i_long":106.832183,"i_lat":-6.186295},{"line":2,"time":4,"i_lat":-6.166716,"station_id":"JUA","station_name":"Juanda","is_transit":false,"transit":false,"distance":2015,"i_long":106.828284},{"i_lat":-6.160725,"line":2,"time":2,"transit":false,"i_long":106.827103,"station_name":"Sawah Besar","is_transit":false,"station_id":"SW","distance":1149},{"i_lat":-6.149769,"time":2,"station_name":"Manggabesar","i_long":106.82482,"line":2,"station_id":"MGB","is_transit":false,"distance":906,"transit":false},{"station_name":"Jayakarta","is_transit":false,"line":2,"distance":1080,"i_lat":-6.141205,"transit":false,"i_long":106.820901,"station_id":"JAY","time":2},{"i_lat":-6.137569,"time":4,"is_transit":true,"station_id":"JAKK","distance":1264,"station_name":"Jakarta Kota","i_long":106.812439,"line":2,"transit":true},{"time":3,"is_transit":true,"line":4,"distance":1364,"i_long":106.826365,"transit":true,"station_name":"Kampung Bandan","station_id":"KPB","i_lat":-6.132549},{"line":1,"distance":4102,"is_transit":false,"transit":false,"i_lat":-6.144674,"station_id":"AK","time":9,"i_long":106.79867,"station_name":"Angke"},{"distance":1230,"transit":false,"i_lat":-6.155215,"line":1,"station_name":"Duri","is_transit":false,"i_long":106.800832,"time":4,"station_id":"DU"},{"time":8,"is_transit":true,"station_name":"Tanah Abang","transit":true,"i_lat":-6.185545,"station_id":"THB","i_long":106.811091,"line":1,"distance":3632},{"station_id":"PLM","i_long":106.79689,"distance":3191,"time":6,"is_transit":false,"station_name":"Palmerah","transit":false,"i_lat":-6.207404,"line":6},{"transit":false,"is_transit":false,"station_id":"KBY","time":7,"i_lat":-6.237242,"distance":3737,"line":6,"station_name":"Kebayoran","i_long":106.780334},{"is_transit":false,"distance":6218,"i_long":106.74273,"transit":false,"i_lat":-6.276362,"time":8,"station_id":"PDJ","station_name":"Pondokranji","line":6},{"transit":false,"station_id":"JMU","is_transit":false,"distance":2179,"i_lat":-6.288927,"time":3,"station_name":"Jurangmangu","i_long":106.728916,"line":6},{"time":4,"is_transit":false,"distance":1994,"i_lat":-6.296963,"station_name":"Sudimara","line":6,"station_id":"SDM","transit":false,"i_long":106.712277}],[{"line":2,"i_lat":-6.530544,"distance":0,"is_transit":false,"station_name":"Cilebut","transit":false,"i_long":106.800016,"time":0,"station_id":"CLT"},{"i_lat":-6.493243,"station_name":"Bojonggede","distance":4331,"i_long":106.792719,"transit":false,"is_transit":false,"station_id":"BJD","time":5,"line":2},{"i_lat":-6.448811,"is_transit":false,"station_name":"Citayam","transit":false,"distance":5197,"i_long":106.800298,"line":2,"station_id":"CTA","time":5},{"i_lat":-6.405256,"time":6,"i_long":106.816926,"distance":5084,"is_transit":false,"transit":false,"station_name":"Depok","line":2,"station_id":"DP"},{"station_name":"Depokbaru","time":3,"i_lat":-6.391065,"i_long":106.819451,"transit":false,"is_transit":false,"line":2,"station_id":"DPB","distance":1584},{"distance":2727,"is_transit":false,"transit":false,"i_long":106.831114,"station_id":"POC","station_name":"Pondok Cina","time":4,"line":2,"i_lat":-6.369073},{"station_id":"UI","is_transit":false,"i_lat":-6.360749,"time":2,"transit":false,"distance":1109,"i_long":106.831474,"line":2,"station_name":"Univ. Indonesia"},{"is_transit":false,"i_long":106.834175,"time":3,"i_lat":-6.339291,"transit":false,"line":2,"distance":2264,"station_id":"UP","station_name":"Univ. Pancasila"},{"transit":false,"i_long":106.832616,"distance":1029,"station_name":"Lenteng Agung","i_lat":-6.330363,"station_id":"LNA","line":2,"time":2,"is_transit":false},{"i_lat":-6.3080680000000005,"transit":false,"i_long":106.838896,"line":2,"station_name":"Tanjung Barat","station_id":"TNT","is_transit":false,"time":3,"distance":2671},{"i_lat":-6.2842400000000005,"station_name":"Pasar Minggu","station_id":"PSM","line":2,"i_long":106.843999,"time":4,"is_transit":false,"distance":2820,"transit":false},{"distance":2380,"is_transit":false,"station_name":"Pasar Minggu Baru","i_lat":-6.263214,"time":2,"transit":false,"station_id":"PSMB","line":2,"i_long":106.851577},{"station_name":"Duren Kalibata","distance":824,"line":2,"i_lat":-6.255332,"time":2,"transit":false,"i_long":106.85449,"is_transit":false,"station_id":"DRN"},{"line":2,"station_id":"CW","i_lat":-6.242512,"transit":false,"station_name":"Cawang","is_transit":false,"distance":1546,"i_long":106.856607,"time":3},{"line":2,"time":2,"station_name":"Tebet","is_transit":false,"distance":1230,"transit":false,"station_id":"TEB","i_long":106.857948,"i_lat":-6.226659},{"station_name":"Manggarai","transit":true,"time":4,"line":2,"distance":2610,"is_transit":true,"station_id":"MRI","i_long":106.84912,"i_lat":-6.209883},{"transit":false,"time":2,"is_transit":false,"distance":1275,"line":1,"station_name":"Matraman","i_long":106.858896,"i_lat":-6.212485,"station_id":"MTR"},{"distance":1377,"line":1,"is_transit":true,"i_long":106.86807400000001,"station_name":"Jatinegara","time":8,"i_lat":-6.215091,"transit":true,"station_id":"JNG"},{"i_long":106.861737,"station_id":"POK","i_lat":-6.209188,"time":2,"station_name":"Pondok Jati","is_transit":false,"line":11,"distance":1236,"transit":false},{"is_transit":false,"station_name":"Kramat","transit":false,"i_long":106.855437,"time":2,"distance":1829,"line":11,"station_id":"KMT","i_lat":-6.193792},{"station_id":"GST","time":1,"is_transit":false,"distance":973,"station_name":"Gang Sentiong","transit":false,"i_lat":-6.185975,"i_long":106.850107,"line":11},{"distance":1567,"transit":false,"station_id":"PSE","is_transit":false,"i_lat":-6.174784,"station_name":"Pasar Senen","i_long":106.84368,"line":11,"time":8},{"line":11,"time":4,"is_transit":false,"i_lat":-6.161728,"transit":false,"station_id":"KMO","station_name":"Kemayoran","distance":1436,"i_long":106.839204},{"transit":false,"i_lat":-6.14505,"is_transit":false,"i_long":106.836569,"time":5,"distance":1901,"line":11,"station_name":"Rajawali","station_id":"RJW"},{"station_id":"KPB","time":3,"distance":1444,"is_transit":true,"i_long":106.826365,"line":4,"station_name":"Kampung Bandan","transit":true,"i_lat":-6.132549},{"line":1,"station_name":"Angke","is_transit":false,"time":9,"i_long":106.79867,"distance":4102,"transit":false,"station_id":"AK","i_lat":-6.144674},{"time":4,"distance":1230,"station_name":"Duri","i_lat":-6.155215,"is_transit":false,"i_long":106.800832,"transit":false,"line":1,"station_id":"DU"},{"is_transit":true,"station_id":"THB","i_lat":-6.185545,"line":1,"i_long":106.811091,"station_name":"Tanah Abang","time":8,"distance":3632,"transit":true},{"station_name":"Palmerah","is_transit":false,"distance":3191,"i_lat":-6.207404,"transit":false,"i_long":106.79689,"line":6,"time":6,"station_id":"PLM"},{"i_lat":-6.237242,"transit":false,"station_id":"KBY","i_long":106.780334,"distance":3737,"line":6,"time":7,"is_transit":false,"station_name":"Kebayoran"},{"i_lat":-6.276362,"station_id":"PDJ","distance":6218,"is_transit":false,"time":8,"line":6,"i_long":106.74273,"station_name":"Pondokranji","transit":false},{"station_id":"JMU","i_lat":-6.288927,"distance":2179,"line":6,"station_name":"Jurangmangu","is_transit":false,"time":3,"i_long":106.728916,"transit":false},{"station_id":"SDM","i_long":106.712277,"line":6,"station_name":"Sudimara","is_transit":false,"transit":false,"time":4,"i_lat":-6.296963,"distance":1994}]]}