{"data":[[{"transit":false,"time":0,"is_transit":false,"i_lat":-6.530544,"station_name":"Cilebut","i_long":106.800016,"distance":0,"station_id":"CLT","line":2},{"transit":false,"i_lat":-6.493243,"time":5,"line":2,"station_id":"BJD","is_transit":false,"distance":4331,"i_long":106.792719,"station_name":"Bojonggede"},{"time":5,"i_lat":-6.448811,"transit":false,"i_long":106.800298,"station_id":"CTA","line":2,"is_transit":false,"distance":5197,"station_name":"Citayam"},{"station_name":"Depok","is_transit":false,"time":6,"station_id":"DP","i_long":106.816926,"line":2,"transit":false,"i_lat":-6.405256,"distance":5084},{"line":2,"time":3,"transit":false,"station_id":"DPB","station_name":"Depokbaru","is_transit":false,"i_lat":-6.391065,"distance":1584,"i_long":106.819451},{"time":4,"i_long":106.831114,"station_id":"POC","transit":false,"i_lat":-6.369073,"distance":2727,"line":2,"is_transit":false,"station_name":"Pondok Cina"},{"station_id":"UI","i_lat":-6.360749,"transit":false,"is_transit":false,"time":2,"distance":1109,"line":2,"station_name":"Univ. Indonesia","i_long":106.831474},{"time":3,"station_id":"UP","station_name":"Univ. Pancasila","transit":false,"distance":2264,"i_lat":-6.339291,"is_transit":false,"i_long":106.834175,"line":2},{"time":2,"line":2,"station_name":"Lenteng Agung","is_transit":false,"station_id":"LNA","transit":false,"i_lat":-6.330363,"distance":1029,"i_long":106.832616},{"i_long":106.838896,"station_id":"TNT","station_name":"Tanjung Barat","time":3,"i_lat":-6.3080680000000005,"transit":false,"is_transit":false,"line":2,"distance":2671},{"time":4,"i_lat":-6.2842400000000005,"line":2,"station_id":"PSM","i_long":106.843999,"station_name":"Pasar Minggu","transit":false,"distance":2820,"is_transit":false},{"transit":false,"time":2,"distance":2380,"i_lat":-6.263214,"i_long":106.851577,"line":2,"station_id":"PSMB","station_name":"Pasar Minggu Baru","is_transit":false},{"station_id":"DRN","transit":false,"line":2,"is_transit":false,"i_lat":-6.255332,"station_name":"Duren Kalibata","time":2,"distance":824,"i_long":106.85449},{"line":2,"time":3,"i_lat":-6.242512,"transit":false,"station_id":"CW","station_name":"Cawang","is_transit":false,"distance":1546,"i_long":106.856607},{"distance":1230,"transit":false,"line":2,"i_lat":-6.226659,"station_name":"Tebet","is_transit":false,"i_long":106.857948,"station_id":"TEB","time":2},{"distance":2610,"line":2,"station_name":"Manggarai","i_lat":-6.209883,"i_long":106.84912,"transit":true,"station_id":"MRI","time":4,"is_transit":true},{"is_transit":false,"distance":3186,"transit":false,"i_long":106.822649,"line":1,"station_id":"SUD","time":4,"station_name":"Sudirman","i_lat":-6.202263},{"line":1,"station_id":"SUDB","time":1,"transit":false,"is_transit":false,"distance":280,"station_name":"Sudirman Baru","i_lat":-6.201433,"i_long":106.819881},{"i_long":106.816351,"distance":471,"station_id":"KAT","transit":false,"is_transit":false,"i_lat":-6.20132,"time":1,"station_name":"Karet","line":1},{"line":1,"time":5,"is_transit":true,"i_long":106.811091,"station_id":"THB","station_name":"Tanah Abang","transit":true,"i_lat":-6.185545,"distance":2029},{"station_name":"Palmerah","transit":false,"is_transit":false,"line":6,"i_lat":-6.207404,"station_id":"PLM","i_long":106.79689,"time":6,"distance":3191},{"transit":false,"i_long":106.780334,"station_name":"Kebayoran","line":6,"is_transit":false,"distance":3737,"i_lat":-6.237242,"station_id":"KBY","time":7},{"time":8,"station_id":"PDJ","i_lat":-6.276362,"line":6,"station_name":"Pondokranji","distance":6218,"transit":false,"i_long":106.74273,"is_transit":false},{"i_lat":-6.288927,"time":3,"station_id":"JMU","is_transit":false,"transit":false,"distance":2179,"station_name":"Jurangmangu","i_long":106.728916,"line":6},{"i_long":106.712277,"distance":1994,"transit":false,"time":4,"station_id":"SDM","line":6,"station_name":"Sudimara","i_lat":-6.296963,"is_transit":false},{"station_id":"RU","distance":4566,"transit":false,"station_name":"Rawa Buntu","i_lat":-6.314823,"time":6,"is_transit":false,"i_long":106.675475,"line":6},{"i_long":106.66566,"line":6,"i_lat":-6.319871,"station_id":"SRP","station_name":"Serpong","distance":2413,"is_transit":false,"transit":false,"time":4},{"time":4,"is_transit":false,"i_lat":-6.32484,"i_long":106.640411,"station_name":"Cisauk","station_id":"CSK","line":3,"transit":false,"distance":1784},{"station_name":"Cicayur","time":4,"station_id":"CC","i_lat":-6.329547,"line":3,"transit":false,"is_transit":false,"distance":2519,"i_long":106.617853},{"station_name":"Parung Panjang","station_id":"PRP","time":8,"i_long":106.568863,"is_transit":false,"distance":5968,"line":6,"transit":false,"i_lat":-6.3441410000000005},{"transit":false,"is_transit":false,"station_name":"Cilejit","time":9,"i_lat":-6.354349,"i_long":106.508482,"line":3,"distance":7025,"station_id":"CJT"}],[{"station_id":"CLT","line":2,"i_long":106.800016,"i_lat":-6.530544,"station_name":"Cilebut","time":0,"distance":0,"is_transit":false,"transit":false},{"station_name":"Bojonggede","time":5,"distance":4331,"is_transit":false,"i_lat":-6.493243,"line":2,"transit":false,"station_id":"BJD","i_long":106.792719},{"station_id":"CTA","i_long":106.800298,"time":5,"station_name":"Citayam","line":2,"transit":false,"distance":5197,"i_lat":-6.448811,"is_transit":false},{"is_transit":false,"transit":false,"station_id":"DP","i_long":106.816926,"i_lat":-6.405256,"station_name":"Depok","distance":5084,"time":6,"line":2},{"station_name":"Depokbaru","station_id":"DPB","i_lat":-6.391065,"time":3,"is_transit":false,"line":2,"i_long":106.819451,"distance":1584,"transit":false},{"distance":2727,"i_lat":-6.369073,"line":2,"is_transit":false,"station_id":"POC","station_name":"Pondok Cina","time":4,"i_long":106.831114,"transit":false},{"i_lat":-6.360749,"distance":1109,"is_transit":false,"time":2,"transit":false,"station_id":"UI","i_long":106.831474,"line":2,"station_name":"Univ. Indonesia"},{"is_transit":false,"distance":2264,"transit":false,"i_lat":-6.339291,"i_long":106.834175,"line":2,"station_name":"Univ. Pancasila","station_id":"UP","time":3},{"station_name":"Lenteng Agung","is_transit":false,"i_long":106.832616,"transit":false,"i_lat":-6.330363,"time":2,"station_id":"LNA","line":2,"distance":1029},{"station_name":"Tanjung Barat","time":3,"distance":2671,"transit":false,"i_long":106.838896,"is_transit":false,"line":2,"station_id":"TNT","i_lat":-6.3080680000000005},{"station_id":"PSM","time":4,"is_transit":false,"distance":2820,"transit":false,"i_lat":-6.2842400000000005,"i_long":106.843999,"station_name":"Pasar Minggu","line":2},{"is_transit":false,"distance":2380,"station_id":"PSMB","line":2,"time":2,"transit":false,"station_name":"Pasar Minggu Baru","i_long":106.851577,"i_lat":-6.263214},{"line":2,"time":2,"i_lat":-6.255332,"station_name":"Duren Kalibata","is_transit":false,"station_id":"DRN","i_long":106.85449,"distance":824,"transit":false},{"distance":1546,"station_name":"Cawang","i_long":106.856607,"station_id":"CW","i_lat":-6.242512,"is_transit":false,"line":2,"time":3,"transit":false},{"line":2,"transit":false,"station_name":"Tebet","is_transit":false,"i_long":106.857948,"station_id":"TEB","time":2,"distance":1230,"i_lat":-6.226659},{"i_long":106.84912,"line":2,"time":4,"station_id":"MRI","i_lat":-6.209883,"distance":2610,"transit":false,"station_name":"Manggarai","is_transit":false},{"transit":false,"i_lat":-6.198556,"station_name":"Cikini","station_id":"CKI","i_long":106.840169,"time":4,"line":2,"is_transit":false,"distance":1590},{"line":2,"station_name":"Gondangdia","distance":1750,"transit":false,"time":3,"station_id":"GDD","is_transit":false,"i_lat":-6.186295,"i_long":106.832183},{"line":2,"station_id":"JUA","i_lat":-6.166716,"distance":2015,"is_transit":false,"station_name":"Juanda","time":4,"transit":false,"i_long":106.828284},{"i_lat":-6.160725,"is_transit":false,"station_name":"Sawah Besar","time":2,"transit":false,"i_long":106.827103,"distance":1149,"station_id":"SW","line":2},{"i_long":106.82482,"is_transit":false,"station_name":"Manggabesar","distance":906,"transit":false,"station_id":"MGB","i_lat":-6.149769,"time":2,"line":2},{"i_long":106.820901,"line":2,"distance":1080,"time":2,"station_name":"Jayakarta","is_transit":false,"transit":false,"station_id":"JAY","i_lat":-6.141205},{"line":2,"time":4,"station_name":"Jakarta Kota","distance":1264,"is_transit":true,"transit":true,"station_id":"JAKK","i_lat":-6.137569,"i_long":106.812439},{"time":3,"is_transit":true,"transit":true,"station_id":"KPB","i_lat":-6.132549,"line":4,"i_long":106.826365,"distance":1364,"station_name":"Kampung Bandan"},{"is_transit":false,"distance":4102,"station_id":"AK","station_name":"Angke","time":9,"transit":false,"i_long":106.79867,"i_lat":-6.144674,"line":1},{"i_long":106.800832,"line":1,"distance":1230,"time":4,"is_transit":false,"station_id":"DU","station_name":"Duri","transit":false,"i_lat":-6.155215},{"station_name":"Tanah Abang","station_id":"THB","i_lat":-6.185545,"i_long":106.811091,"distance":3632,"transit":true,"line":1,"is_transit":true,"time":8},{"is_transit":false,"station_name":"Palmerah","time":6,"transit":false,"line":6,"station_id":"PLM","distance":3191,"i_long":106.79689,"i_lat":-6.207404},{"time":7,"i_lat":-6.237242,"line":6,"is_transit":false,"distance":3737,"i_long":106.780334,"station_id":"KBY","station_name":"Kebayoran","transit":false},{"station_name":"Pondokranji","i_long":106.74273,"is_transit":false,"distance":6218,"time":8,"transit":false,"station_id":"PDJ","i_lat":-6.276362,"line":6},{"line":6,"station_name":"Jurangmangu","transit":false,"i_lat":-6.288927,"i_long":106.728916,"is_transit":false,"distance":2179,"time":3,"station_id":"JMU"},{"line":6,"time":4,"is_transit":false,"transit":false,"station_name":"Sudimara","i_lat":-6.296963,"distance":1994,"i_long":106.712277,"station_id":"SDM"},{"is_transit":false,"i_long":106.675475,"i_lat":-6.314823,"transit":false,"station_name":"Rawa Buntu","distance":4566,"time":6,"station_id":"RU","line":6},{"line":6,"station_id":"SRP","i_lat":-6.319871,"distance":2413,"i_long":106.66566,"transit":false,"time":4,"station_name":"Serpong","is_transit":false},{"is_transit":false,"transit":false,"station_name":"Cisauk","line":3,"i_lat":-6.32484,"time":4,"i_long":106.640411,"station_id":"CSK","distance":1784},{"is_transit":false,"transit":false,"i_long":106.617853,"station_name":"Cicayur","distance":2519,"time":4,"station_id":"CC","i_lat":-6.329547,"line":3},{"transit":false,"station_id":"PRP","i_lat":-6.3441410000000005,"line":6,"time":8,"is_transit":false,"station_name":"Parung Panjang","i_long":106.568863,"distance":5968},{"transit":false,"i_long":106.508482,"i_lat":-6.354349,"time":9,"is_transit":false,"station_name":"Cilejit","distance":7025,"station_id":"CJT","line":3}],[{"i_lat":-6.530544,"is_transit":false,"distance":0,"i_long":106.800016,"station_name":"Cilebut","time":0,"station_id":"CLT","transit":false,"line":2},{"transit":false,"i_long":106.792719,"distance":4331,"station_name":"Bojonggede","time":5,"is_transit":false,"station_id":"BJD","i_lat":-6.493243,"line":2},{"station_id":"CTA","station_name":"Citayam","time":5,"i_long":106.800298,"line":2,"is_transit":false,"i_lat":-6.448811,"transit":false,"distance":5197},{"distance":5084,"i_lat":-6.405256,"i_long":106.816926,"is_transit":false,"transit":false,"station_name":"Depok","station_id":"DP","line":2,"time":6},{"station_name":"Depokbaru","is_transit":false,"station_id":"DPB","time":3,"i_lat":-6.391065,"i_long":106.819451,"line":2,"distance":1584,"transit":false},{"line":2,"i_long":106.831114,"station_name":"Pondok Cina","is_transit":false,"transit":false,"station_id":"POC","i_lat":-6.369073,"time":4,"distance":2727},{"time":2,"line":2,"distance":1109,"station_name":"Univ. Indonesia","i_lat":-6.360749,"station_id":"UI","i_long":106.831474,"transit":false,"is_transit":false},{"station_id":"UP","line":2,"transit":false,"distance":2264,"station_name":"Univ. Pancasila","time":3,"i_long":106.834175,"is_transit":false,"i_lat":-6.339291},{"is_transit":false,"i_lat":-6.330363,"station_name":"Lenteng Agung","i_long":106.832616,"transit":false,"station_id":"LNA","line":2,"distance":1029,"time":2},{"station_name":"Tanjung Barat","line":2,"i_lat":-6.3080680000000005,"is_transit":false,"station_id":"TNT","transit":false,"i_long":106.838896,"time":3,"distance":2671},{"i_lat":-6.2842400000000005,"line":2,"i_long":106.843999,"is_transit":false,"transit":false,"distance":2820,"station_id":"PSM","station_name":"Pasar Minggu","time":4},{"station_name":"Pasar Minggu Baru","i_long":106.851577,"is_transit":false,"time":2,"distance":2380,"transit":false,"i_lat":-6.263214,"line":2,"station_id":"PSMB"},{"distance":824,"station_name":"Duren Kalibata","i_long":106.85449,"is_transit":false,"line":2,"i_lat":-6.255332,"time":2,"transit":false,"station_id":"DRN"},{"line":2,"distance":1546,"is_transit":false,"station_name":"Cawang","station_id":"CW","transit":false,"i_long":106.856607,"time":3,"i_lat":-6.242512},{"station_id":"TEB","station_name":"Tebet","is_transit":false,"distance":1230,"transit":false,"time":2,"i_lat":-6.226659,"line":2,"i_long":106.857948},{"distance":2610,"station_name":"Manggarai","is_transit":true,"i_long":106.84912,"line":2,"transit":true,"i_lat":-6.209883,"station_id":"MRI","time":4},{"transit":false,"station_id":"MTR","distance":1275,"station_name":"Matraman","time":2,"is_transit":false,"i_lat":-6.212485,"i_long":106.858896,"line":1},{"time":8,"station_name":"Jatinegara","is_transit":true,"transit":true,"station_id":"JNG","i_long":106.86807400000001,"distance":1377,"line":1,"i_lat":-6.215091},{"i_long":106.861737,"station_id":"POK","i_lat":-6.209188,"is_transit":false,"time":2,"line":11,"transit":false,"distance":1236,"station_name":"Pondok Jati"},{"time":2,"i_lat":-6.193792,"is_transit":false,"i_long":106.855437,"line":11,"station_id":"KMT","distance":1829,"station_name":"Kramat","transit":false},{"station_id":"GST","i_long":106.850107,"i_lat":-6.185975,"time":1,"transit":false,"line":11,"distance":973,"station_name":"Gang Sentiong","is_transit":false},{"station_id":"PSE","line":11,"transit":false,"i_long":106.84368,"time":8,"is_transit":false,"distance":1567,"station_name":"Pasar Senen","i_lat":-6.174784},{"is_transit":false,"time":4,"station_id":"KMO","line":11,"i_lat":-6.161728,"distance":1436,"station_name":"Kemayoran","transit":false,"i_long":106.839204},{"time":5,"station_id":"RJW","station_name":"Rajawali","line":11,"distance":1901,"transit":false,"i_lat":-6.14505,"i_long":106.836569,"is_transit":false},{"station_id":"KPB","distance":1444,"transit":true,"line":4,"i_lat":-6.132549,"time":3,"station_name":"Kampung Bandan","is_transit":true,"i_long":106.826365},{"station_name":"Angke","distance":4102,"line":1,"time":9,"is_transit":false,"transit":false,"station_id":"AK","i_long":106.79867,"i_lat":-6.144674},{"i_lat":-6.155215,"station_name":"Duri","station_id":"DU","line":1,"transit":false,"time":4,"is_transit":false,"i_long":106.800832,"distance":1230},{"i_lat":-6.185545,"transit":true,"is_transit":true,"time":8,"station_id":"THB","i_long":106.811091,"line":1,"station_name":"Tanah Abang","distance":3632},{"is_transit":false,"line":6,"time":6,"distance":3191,"i_long":106.79689,"station_name":"Palmerah","transit":false,"station_id":"PLM","i_lat":-6.207404},{"i_lat":-6.237242,"station_name":"Kebayoran","station_id":"KBY","i_long":106.780334,"is_transit":false,"line":6,"distance":3737,"transit":false,"time":7},{"i_long":106.74273,"distance":6218,"i_lat":-6.276362,"line":6,"transit":false,"station_id":"PDJ","station_name":"Pondokranji","is_transit":false,"time":8},{"station_name":"Jurangmangu","i_long":106.728916,"time":3,"is_transit":false,"i_lat":-6.288927,"transit":false,"distance":2179,"line":6,"station_id":"JMU"},{"i_lat":-6.296963,"distance":1994,"time":4,"transit":false,"is_transit":false,"station_name":"Sudimara","i_long":106.712277,"station_id":"SDM","line":6},{"line":6,"is_transit":false,"distance":4566,"station_id":"RU","i_lat":-6.314823,"i_long":106.675475,"station_name":"Rawa Buntu","time":6,"transit":false},{"station_id":"SRP","transit":false,"is_transit":false,"distance":2413,"i_lat":-6.319871,"time":4,"station_name":"Serpong","line":6,"i_long":106.66566},{"station_name":"Cisauk","i_long":106.640411,"line":3,"distance":1784,"transit":false,"station_id":"CSK","i_lat":-6.32484,"time":4,"is_transit":false},{"i_lat":-6.329547,"time":4,"transit":false,"station_name":"Cicayur","i_long":106.617853,"distance":2519,"line":3,"is_transit":false,"station_id":"CC"},{"distance":5968,"station_name":"Parung Panjang","time":8,"i_long":106.568863,"is_transit":false,"station_id":"PRP","transit":false,"line":6,"i_lat":-6.3441410000000005},{"is_transit":false,"i_long":106.508482,"station_id":"CJT","line":3,"station_name":"Cilejit","transit":false,"time":9,"i_lat":-6.354349,"distance":7025}]]}