{"data":[[{"time":0,"i_long":106.800016,"transit":false,"i_lat":-6.530544,"is_transit":false,"line":2,"station_id":"CLT","station_name":"Cilebut","distance":0},{"station_id":"BJD","transit":false,"i_long":106.792719,"is_transit":false,"time":5,"distance":4331,"station_name":"Bojonggede","i_lat":-6.493243,"line":2},{"i_lat":-6.448811,"i_long":106.800298,"distance":5197,"station_id":"CTA","is_transit":false,"transit":false,"station_name":"Citayam","time":5,"line":2},{"i_lat":-6.405256,"station_id":"DP","line":2,"is_transit":false,"station_name":"Depok","i_long":106.816926,"transit":false,"distance":5084,"time":6},{"time":3,"i_lat":-6.391065,"i_long":106.819451,"station_name":"Depokbaru","distance":1584,"line":2,"station_id":"DPB","transit":false,"is_transit":false},{"time":4,"i_long":106.831114,"i_lat":-6.369073,"is_transit":false,"distance":2727,"transit":false,"station_id":"POC","line":2,"station_name":"Pondok Cina"},{"transit":false,"i_long":106.831474,"line":2,"station_name":"Univ. Indonesia","is_transit":false,"time":2,"station_id":"UI","i_lat":-6.360749,"distance":1109},{"i_lat":-6.339291,"station_name":"Univ. Pancasila","transit":false,"station_id":"UP","distance":2264,"i_long":106.834175,"is_transit":false,"line":2,"time":3},{"i_lat":-6.330363,"is_transit":false,"line":2,"station_name":"Lenteng Agung","time":2,"distance":1029,"transit":false,"i_long":106.832616,"station_id":"LNA"},{"i_long":106.838896,"transit":false,"station_id":"TNT","is_transit":false,"time":3,"distance":2671,"line":2,"i_lat":-6.3080680000000005,"station_name":"Tanjung Barat"},{"time":4,"i_lat":-6.2842400000000005,"station_name":"Pasar Minggu","station_id":"PSM","line":2,"is_transit":false,"distance":2820,"transit":false,"i_long":106.843999},{"i_lat":-6.263214,"station_id":"PSMB","distance":2380,"station_name":"Pasar Minggu Baru","i_long":106.851577,"transit":false,"line":2,"time":2,"is_transit":false},{"time":2,"line":2,"station_name":"Duren Kalibata","station_id":"DRN","i_long":106.85449,"i_lat":-6.255332,"transit":false,"is_transit":false,"distance":824},{"station_name":"Cawang","i_lat":-6.242512,"i_long":106.856607,"station_id":"CW","transit":false,"distance":1546,"line":2,"is_transit":false,"time":3},{"station_name":"Tebet","time":2,"i_lat":-6.226659,"distance":1230,"station_id":"TEB","is_transit":false,"transit":false,"i_long":106.857948,"line":2},{"transit":true,"is_transit":true,"distance":2610,"station_name":"Manggarai","i_long":106.84912,"station_id":"MRI","i_lat":-6.209883,"line":2,"time":4},{"transit":false,"time":4,"i_lat":-6.202263,"i_long":106.822649,"distance":3186,"station_id":"SUD","station_name":"Sudirman","is_transit":false,"line":1},{"line":1,"transit":false,"distance":280,"station_name":"Sudirman Baru","i_lat":-6.201433,"i_long":106.819881,"time":1,"is_transit":false,"station_id":"SUDB"},{"i_long":106.816351,"line":1,"station_id":"KAT","i_lat":-6.20132,"station_name":"Karet","distance":471,"is_transit":false,"transit":false,"time":1},{"station_name":"Tanah Abang","time":5,"i_lat":-6.185545,"i_long":106.811091,"line":1,"transit":true,"is_transit":true,"distance":2029,"station_id":"THB"},{"station_id":"PLM","transit":false,"time":6,"station_name":"Palmerah","i_lat":-6.207404,"is_transit":false,"line":6,"distance":3191,"i_long":106.79689},{"i_lat":-6.237242,"line":6,"time":7,"station_name":"Kebayoran","station_id":"KBY","is_transit":false,"i_long":106.780334,"distance":3737,"transit":false},{"time":8,"distance":6218,"station_name":"Pondokranji","is_transit":false,"i_lat":-6.276362,"i_long":106.74273,"station_id":"PDJ","transit":false,"line":6},{"is_transit":false,"i_long":106.728916,"station_name":"Jurangmangu","station_id":"JMU","time":3,"line":6,"transit":false,"distance":2179,"i_lat":-6.288927},{"time":4,"station_id":"SDM","i_long":106.712277,"is_transit":false,"station_name":"Sudimara","line":6,"distance":1994,"transit":false,"i_lat":-6.296963},{"station_id":"RU","transit":false,"i_long":106.675475,"line":6,"i_lat":-6.314823,"is_transit":false,"station_name":"Rawa Buntu","distance":4566,"time":6},{"i_long":106.66566,"line":6,"transit":false,"i_lat":-6.319871,"station_name":"Serpong","station_id":"SRP","time":4,"is_transit":false,"distance":2413},{"time":4,"distance":1784,"station_name":"Cisauk","line":3,"i_lat":-6.32484,"station_id":"CSK","transit":false,"is_transit":false,"i_long":106.640411},{"i_long":106.617853,"station_id":"CC","transit":false,"station_name":"Cicayur","is_transit":false,"line":3,"i_lat":-6.329547,"distance":2519,"time":4},{"time":8,"transit":false,"station_name":"Parung Panjang","station_id":"PRP","line":6,"is_transit":false,"i_long":106.568863,"distance":5968,"i_lat":-6.3441410000000005},{"is_transit":false,"i_lat":-6.354349,"station_name":"Cilejit","i_long":106.508482,"line":3,"time":9,"station_id":"CJT","distance":7025,"transit":false}],[{"station_name":"Cilebut","transit":false,"is_transit":false,"station_id":"CLT","i_long":106.800016,"time":0,"distance":0,"i_lat":-6.530544,"line":2},{"line":2,"is_transit":false,"transit":false,"station_id":"BJD","time":5,"i_long":106.792719,"station_name":"Bojonggede","distance":4331,"i_lat":-6.493243},{"time":5,"line":2,"is_transit":false,"transit":false,"i_lat":-6.448811,"station_id":"CTA","distance":5197,"station_name":"Citayam","i_long":106.800298},{"distance":5084,"i_long":106.816926,"station_id":"DP","i_lat":-6.405256,"is_transit":false,"station_name":"Depok","time":6,"line":2,"transit":false},{"station_id":"DPB","is_transit":false,"time":3,"distance":1584,"line":2,"i_long":106.819451,"station_name":"Depokbaru","transit":false,"i_lat":-6.391065},{"transit":false,"station_name":"Pondok Cina","distance":2727,"time":4,"station_id":"POC","i_lat":-6.369073,"line":2,"is_transit":false,"i_long":106.831114},{"station_name":"Univ. Indonesia","distance":1109,"time":2,"transit":false,"i_long":106.831474,"line":2,"station_id":"UI","is_transit":false,"i_lat":-6.360749},{"time":3,"distance":2264,"station_id":"UP","is_transit":false,"i_long":106.834175,"line":2,"transit":false,"station_name":"Univ. Pancasila","i_lat":-6.339291},{"line":2,"distance":1029,"i_long":106.832616,"station_name":"Lenteng Agung","i_lat":-6.330363,"station_id":"LNA","time":2,"transit":false,"is_transit":false},{"is_transit":false,"station_name":"Tanjung Barat","line":2,"i_long":106.838896,"distance":2671,"time":3,"station_id":"TNT","i_lat":-6.3080680000000005,"transit":false},{"i_lat":-6.2842400000000005,"time":4,"is_transit":false,"distance":2820,"line":2,"station_name":"Pasar Minggu","transit":false,"station_id":"PSM","i_long":106.843999},{"distance":2380,"is_transit":false,"i_lat":-6.263214,"i_long":106.851577,"line":2,"time":2,"transit":false,"station_id":"PSMB","station_name":"Pasar Minggu Baru"},{"i_lat":-6.255332,"is_transit":false,"i_long":106.85449,"transit":false,"distance":824,"station_name":"Duren Kalibata","station_id":"DRN","line":2,"time":2},{"transit":false,"time":3,"i_long":106.856607,"station_name":"Cawang","line":2,"is_transit":false,"i_lat":-6.242512,"station_id":"CW","distance":1546},{"line":2,"transit":false,"station_name":"Tebet","station_id":"TEB","time":2,"is_transit":false,"distance":1230,"i_lat":-6.226659,"i_long":106.857948},{"station_id":"MRI","is_transit":false,"line":2,"station_name":"Manggarai","transit":false,"distance":2610,"i_long":106.84912,"time":4,"i_lat":-6.209883},{"line":2,"station_name":"Cikini","i_lat":-6.198556,"distance":1590,"i_long":106.840169,"transit":false,"time":4,"is_transit":false,"station_id":"CKI"},{"line":2,"i_long":106.832183,"is_transit":false,"i_lat":-6.186295,"station_id":"GDD","station_name":"Gondangdia","time":3,"distance":1750,"transit":false},{"i_long":106.828284,"time":4,"line":2,"station_name":"Juanda","is_transit":false,"distance":2015,"station_id":"JUA","i_lat":-6.166716,"transit":false},{"station_name":"Sawah Besar","distance":1149,"i_lat":-6.160725,"line":2,"time":2,"i_long":106.827103,"is_transit":false,"transit":false,"station_id":"SW"},{"i_lat":-6.149769,"station_name":"Manggabesar","is_transit":false,"i_long":106.82482,"transit":false,"line":2,"distance":906,"time":2,"station_id":"MGB"},{"station_id":"JAY","station_name":"Jayakarta","is_transit":false,"transit":false,"distance":1080,"time":2,"i_long":106.820901,"i_lat":-6.141205,"line":2},{"is_transit":true,"line":2,"transit":true,"time":4,"i_long":106.812439,"distance":1264,"i_lat":-6.137569,"station_name":"Jakarta Kota","station_id":"JAKK"},{"i_long":106.826365,"line":4,"station_name":"Kampung Bandan","transit":true,"time":3,"station_id":"KPB","is_transit":true,"distance":1364,"i_lat":-6.132549},{"time":9,"is_transit":false,"distance":4102,"i_long":106.79867,"line":1,"i_lat":-6.144674,"transit":false,"station_name":"Angke","station_id":"AK"},{"line":1,"distance":1230,"i_lat":-6.155215,"time":4,"station_name":"Duri","is_transit":false,"transit":false,"i_long":106.800832,"station_id":"DU"},{"line":1,"station_name":"Tanah Abang","distance":3632,"transit":true,"is_transit":true,"station_id":"THB","i_long":106.811091,"time":8,"i_lat":-6.185545},{"station_id":"PLM","transit":false,"station_name":"Palmerah","is_transit":false,"time":6,"distance":3191,"i_long":106.79689,"i_lat":-6.207404,"line":6},{"transit":false,"station_id":"KBY","time":7,"i_lat":-6.237242,"is_transit":false,"i_long":106.780334,"distance":3737,"line":6,"station_name":"Kebayoran"},{"distance":6218,"line":6,"transit":false,"station_id":"PDJ","is_transit":false,"i_long":106.74273,"i_lat":-6.276362,"station_name":"Pondokranji","time":8},{"line":6,"transit":false,"time":3,"i_lat":-6.288927,"is_transit":false,"i_long":106.728916,"distance":2179,"station_name":"Jurangmangu","station_id":"JMU"},{"i_long":106.712277,"station_name":"Sudimara","line":6,"is_transit":false,"distance":1994,"transit":false,"station_id":"SDM","time":4,"i_lat":-6.296963},{"i_long":106.675475,"line":6,"station_name":"Rawa Buntu","is_transit":false,"time":6,"distance":4566,"transit":false,"station_id":"RU","i_lat":-6.314823},{"station_name":"Serpong","station_id":"SRP","is_transit":false,"i_lat":-6.319871,"time":4,"line":6,"distance":2413,"transit":false,"i_long":106.66566},{"is_transit":false,"time":4,"i_lat":-6.32484,"station_name":"Cisauk","line":3,"station_id":"CSK","transit":false,"distance":1784,"i_long":106.640411},{"is_transit":false,"station_id":"CC","i_long":106.617853,"line":3,"time":4,"distance":2519,"transit":false,"station_name":"Cicayur","i_lat":-6.329547},{"is_transit":false,"time":8,"distance":5968,"station_name":"Parung Panjang","i_long":106.568863,"station_id":"PRP","i_lat":-6.3441410000000005,"transit":false,"line":6},{"line":3,"station_id":"CJT","i_long":106.508482,"transit":false,"station_name":"Cilejit","time":9,"i_lat":-6.354349,"is_transit":false,"distance":7025}],[{"station_id":"CLT","i_long":106.800016,"station_name":"Cilebut","distance":0,"line":2,"time":0,"is_transit":false,"transit":false,"i_lat":-6.530544},{"station_id":"BJD","station_name":"Bojonggede","i_long":106.792719,"i_lat":-6.493243,"transit":false,"is_transit":false,"time":5,"distance":4331,"line":2},{"time":5,"i_long":106.800298,"station_id":"CTA","transit":false,"line":2,"i_lat":-6.448811,"station_name":"Citayam","is_transit":false,"distance":5197},{"distance":5084,"station_id":"DP","line":2,"i_long":106.816926,"is_transit":false,"time":6,"transit":false,"station_name":"Depok","i_lat":-6.405256},{"i_long":106.819451,"station_id":"DPB","line":2,"transit":false,"distance":1584,"is_transit":false,"station_name":"Depokbaru","i_lat":-6.391065,"time":3},{"station_name":"Pondok Cina","i_lat":-6.369073,"is_transit":false,"station_id":"POC","distance":2727,"transit":false,"line":2,"i_long":106.831114,"time":4},{"time":2,"distance":1109,"transit":false,"line":2,"station_name":"Univ. Indonesia","i_lat":-6.360749,"i_long":106.831474,"station_id":"UI","is_transit":false},{"station_name":"Univ. Pancasila","line":2,"transit":false,"time":3,"i_lat":-6.339291,"station_id":"UP","is_transit":false,"i_long":106.834175,"distance":2264},{"station_name":"Lenteng Agung","is_transit":false,"transit":false,"station_id":"LNA","i_lat":-6.330363,"time":2,"line":2,"i_long":106.832616,"distance":1029},{"distance":2671,"transit":false,"station_name":"Tanjung Barat","station_id":"TNT","is_transit":false,"i_lat":-6.3080680000000005,"i_long":106.838896,"time":3,"line":2},{"transit":false,"i_lat":-6.2842400000000005,"line":2,"is_transit":false,"i_long":106.843999,"time":4,"station_name":"Pasar Minggu","distance":2820,"station_id":"PSM"},{"distance":2380,"line":2,"i_lat":-6.263214,"is_transit":false,"station_name":"Pasar Minggu Baru","transit":false,"station_id":"PSMB","time":2,"i_long":106.851577},{"station_name":"Duren Kalibata","i_lat":-6.255332,"i_long":106.85449,"distance":824,"transit":false,"line":2,"is_transit":false,"time":2,"station_id":"DRN"},{"is_transit":false,"station_name":"Cawang","time":3,"line":2,"transit":false,"distance":1546,"i_lat":-6.242512,"i_long":106.856607,"station_id":"CW"},{"i_lat":-6.226659,"distance":1230,"line":2,"is_transit":false,"station_id":"TEB","station_name":"Tebet","time":2,"i_long":106.857948,"transit":false},{"station_id":"MRI","i_lat":-6.209883,"distance":2610,"is_transit":true,"transit":true,"station_name":"Manggarai","i_long":106.84912,"line":2,"time":4},{"is_transit":false,"i_long":106.858896,"time":2,"distance":1275,"station_id":"MTR","transit":false,"station_name":"Matraman","line":1,"i_lat":-6.212485},{"is_transit":true,"station_name":"Jatinegara","time":8,"line":1,"i_long":106.86807400000001,"station_id":"JNG","transit":true,"distance":1377,"i_lat":-6.215091},{"i_long":106.861737,"line":11,"station_name":"Pondok Jati","i_lat":-6.209188,"time":2,"distance":1236,"station_id":"POK","is_transit":false,"transit":false},{"station_name":"Kramat","distance":1829,"i_lat":-6.193792,"line":11,"station_id":"KMT","time":2,"transit":false,"i_long":106.855437,"is_transit":false},{"i_long":106.850107,"distance":973,"transit":false,"line":11,"time":1,"station_name":"Gang Sentiong","station_id":"GST","is_transit":false,"i_lat":-6.185975},{"line":11,"distance":1567,"is_transit":false,"station_id":"PSE","transit":false,"i_long":106.84368,"i_lat":-6.174784,"station_name":"Pasar Senen","time":8},{"station_id":"KMO","line":11,"i_lat":-6.161728,"station_name":"Kemayoran","is_transit":false,"i_long":106.839204,"transit":false,"distance":1436,"time":4},{"is_transit":false,"station_name":"Rajawali","line":11,"transit":false,"time":5,"distance":1901,"i_lat":-6.14505,"i_long":106.836569,"station_id":"RJW"},{"station_id":"KPB","line":4,"i_long":106.826365,"is_transit":true,"transit":true,"distance":1444,"station_name":"Kampung Bandan","time":3,"i_lat":-6.132549},{"is_transit":false,"distance":4102,"station_name":"Angke","i_long":106.79867,"line":1,"i_lat":-6.144674,"transit":false,"time":9,"station_id":"AK"},{"i_long":106.800832,"line":1,"station_id":"DU","transit":false,"station_name":"Duri","distance":1230,"i_lat":-6.155215,"is_transit":false,"time":4},{"transit":true,"station_id":"THB","line":1,"i_long":106.811091,"station_name":"Tanah Abang","is_transit":true,"time":8,"distance":3632,"i_lat":-6.185545},{"is_transit":false,"distance":3191,"station_name":"Palmerah","time":6,"i_long":106.79689,"transit":false,"station_id":"PLM","line":6,"i_lat":-6.207404},{"i_lat":-6.237242,"station_id":"KBY","time":7,"distance":3737,"i_long":106.780334,"line":6,"transit":false,"station_name":"Kebayoran","is_transit":false},{"is_transit":false,"time":8,"line":6,"i_lat":-6.276362,"station_id":"PDJ","distance":6218,"station_name":"Pondokranji","transit":false,"i_long":106.74273},{"i_lat":-6.288927,"distance":2179,"transit":false,"line":6,"i_long":106.728916,"is_transit":false,"station_id":"JMU","station_name":"Jurangmangu","time":3},{"i_lat":-6.296963,"distance":1994,"station_id":"SDM","time":4,"i_long":106.712277,"station_name":"Sudimara","is_transit":false,"transit":false,"line":6},{"i_lat":-6.314823,"line":6,"station_id":"RU","station_name":"Rawa Buntu","transit":false,"is_transit":false,"time":6,"distance":4566,"i_long":106.675475},{"line":6,"station_name":"Serpong","is_transit":false,"transit":false,"distance":2413,"station_id":"SRP","i_lat":-6.319871,"time":4,"i_long":106.66566},{"time":4,"station_id":"CSK","i_long":106.640411,"transit":false,"line":3,"is_transit":false,"i_lat":-6.32484,"distance":1784,"station_name":"Cisauk"},{"i_long":106.617853,"line":3,"distance":2519,"i_lat":-6.329547,"transit":false,"station_name":"Cicayur","station_id":"CC","is_transit":false,"time":4},{"transit":false,"line":6,"i_lat":-6.3441410000000005,"station_name":"Parung Panjang","station_id":"PRP","time":8,"distance":5968,"i_long":106.568863,"is_transit":false},{"line":3,"i_long":106.508482,"station_name":"Cilejit","distance":7025,"is_transit":false,"station_id":"CJT","i_lat":-6.354349,"transit":false,"time":9}]]}