{"data":[[{"i_long":106.800016,"transit":false,"i_lat":-6.530544,"line":2,"is_transit":false,"station_id":"CLT","distance":0,"time":0,"station_name":"Cilebut"},{"is_transit":false,"i_lat":-6.493243,"station_id":"BJD","transit":false,"time":5,"i_long":106.792719,"distance":4331,"station_name":"Bojonggede","line":2},{"station_name":"Citayam","i_lat":-6.448811,"i_long":106.800298,"transit":false,"line":2,"is_transit":false,"station_id":"CTA","distance":5197,"time":5},{"station_name":"Depok","distance":5084,"i_lat":-6.405256,"i_long":106.816926,"transit":false,"time":6,"is_transit":false,"station_id":"DP","line":2},{"i_lat":-6.391065,"transit":false,"is_transit":false,"station_id":"DPB","distance":1584,"station_name":"Depokbaru","i_long":106.819451,"line":2,"time":3},{"station_name":"Pondok Cina","line":2,"is_transit":false,"i_long":106.831114,"distance":2727,"time":4,"station_id":"POC","transit":false,"i_lat":-6.369073},{"line":2,"distance":1109,"transit":false,"station_name":"Univ. Indonesia","i_lat":-6.360749,"i_long":106.831474,"is_transit":false,"time":2,"station_id":"UI"},{"i_long":106.834175,"i_lat":-6.339291,"distance":2264,"line":2,"station_id":"UP","station_name":"Univ. Pancasila","transit":false,"is_transit":false,"time":3},{"distance":1029,"time":2,"station_name":"Lenteng Agung","i_lat":-6.330363,"i_long":106.832616,"station_id":"LNA","transit":false,"is_transit":false,"line":2},{"i_long":106.838896,"line":2,"is_transit":false,"transit":false,"time":3,"station_name":"Tanjung Barat","i_lat":-6.3080680000000005,"distance":2671,"station_id":"TNT"},{"is_transit":false,"line":2,"transit":false,"station_id":"PSM","distance":2820,"station_name":"Pasar Minggu","i_lat":-6.2842400000000005,"i_long":106.843999,"time":4},{"station_name":"Pasar Minggu Baru","i_long":106.851577,"line":2,"station_id":"PSMB","is_transit":false,"time":2,"transit":false,"i_lat":-6.263214,"distance":2380},{"transit":false,"time":2,"station_id":"DRN","i_long":106.85449,"line":2,"distance":824,"i_lat":-6.255332,"is_transit":false,"station_name":"Duren Kalibata"},{"station_name":"Cawang","distance":1546,"is_transit":false,"station_id":"CW","line":2,"i_long":106.856607,"time":3,"transit":false,"i_lat":-6.242512},{"i_lat":-6.226659,"is_transit":false,"station_name":"Tebet","time":2,"station_id":"TEB","transit":false,"line":2,"i_long":106.857948,"distance":1230},{"distance":2610,"is_transit":false,"station_id":"MRI","i_lat":-6.209883,"i_long":106.84912,"station_name":"Manggarai","line":2,"time":4,"transit":false},{"i_long":106.840169,"i_lat":-6.198556,"transit":false,"line":2,"station_name":"Cikini","station_id":"CKI","is_transit":false,"distance":1590,"time":4}],[{"i_long":106.800016,"distance":0,"transit":false,"i_lat":-6.530544,"station_id":"CLT","station_name":"Cilebut","line":2,"is_transit":false,"time":0},{"distance":4331,"time":5,"i_long":106.792719,"is_transit":false,"station_name":"Bojonggede","i_lat":-6.493243,"station_id":"BJD","transit":false,"line":2},{"i_lat":-6.448811,"time":5,"station_name":"Citayam","is_transit":false,"line":2,"distance":5197,"i_long":106.800298,"station_id":"CTA","transit":false},{"i_lat":-6.405256,"line":2,"station_id":"DP","i_long":106.816926,"transit":false,"is_transit":false,"time":6,"distance":5084,"station_name":"Depok"},{"distance":1584,"station_id":"DPB","transit":false,"station_name":"Depokbaru","i_lat":-6.391065,"time":3,"line":2,"i_long":106.819451,"is_transit":false},{"i_long":106.831114,"station_id":"POC","is_transit":false,"station_name":"Pondok Cina","transit":false,"distance":2727,"time":4,"i_lat":-6.369073,"line":2},{"line":2,"i_lat":-6.360749,"time":2,"station_id":"UI","transit":false,"i_long":106.831474,"distance":1109,"station_name":"Univ. Indonesia","is_transit":false},{"station_name":"Univ. Pancasila","line":2,"is_transit":false,"station_id":"UP","i_lat":-6.339291,"i_long":106.834175,"distance":2264,"transit":false,"time":3},{"is_transit":false,"station_name":"Lenteng Agung","station_id":"LNA","i_long":106.832616,"distance":1029,"transit":false,"time":2,"line":2,"i_lat":-6.330363},{"i_long":106.838896,"distance":2671,"time":3,"station_name":"Tanjung Barat","is_transit":false,"i_lat":-6.3080680000000005,"line":2,"station_id":"TNT","transit":false},{"transit":false,"time":4,"station_name":"Pasar Minggu","station_id":"PSM","i_lat":-6.2842400000000005,"is_transit":false,"i_long":106.843999,"distance":2820,"line":2},{"transit":false,"time":2,"line":2,"is_transit":false,"station_id":"PSMB","station_name":"Pasar Minggu Baru","i_long":106.851577,"distance":2380,"i_lat":-6.263214},{"station_id":"DRN","transit":false,"distance":824,"time":2,"i_long":106.85449,"i_lat":-6.255332,"station_name":"Duren Kalibata","line":2,"is_transit":false},{"i_lat":-6.242512,"station_id":"CW","distance":1546,"line":2,"transit":false,"time":3,"is_transit":false,"station_name":"Cawang","i_long":106.856607},{"i_long":106.857948,"is_transit":false,"transit":false,"time":2,"station_name":"Tebet","i_lat":-6.226659,"line":2,"distance":1230,"station_id":"TEB"},{"station_name":"Manggarai","i_long":106.84912,"time":4,"is_transit":true,"distance":2610,"station_id":"MRI","transit":true,"line":2,"i_lat":-6.209883},{"line":1,"station_name":"Sudirman","distance":3186,"transit":false,"time":4,"i_lat":-6.202263,"is_transit":false,"station_id":"SUD","i_long":106.822649},{"station_name":"Sudirman Baru","station_id":"SUDB","transit":false,"distance":280,"time":1,"i_long":106.819881,"i_lat":-6.201433,"is_transit":false,"line":1},{"station_name":"Karet","i_lat":-6.20132,"time":1,"distance":471,"is_transit":false,"station_id":"KAT","i_long":106.816351,"line":1,"transit":false},{"station_id":"THB","station_name":"Tanah Abang","time":5,"i_lat":-6.185545,"distance":2029,"i_long":106.811091,"is_transit":false,"line":1,"transit":false},{"station_name":"Duri","distance":3632,"i_long":106.800832,"time":8,"i_lat":-6.155215,"line":1,"is_transit":false,"station_id":"DU","transit":false},{"transit":false,"distance":1230,"time":4,"i_lat":-6.144674,"line":1,"i_long":106.79867,"is_transit":false,"station_id":"AK","station_name":"Angke"},{"is_transit":true,"station_id":"KPB","distance":4102,"time":9,"i_long":106.826365,"transit":true,"station_name":"Kampung Bandan","line":4,"i_lat":-6.132549},{"line":2,"distance":1364,"is_transit":true,"i_lat":-6.137569,"station_name":"Jakarta Kota","time":3,"i_long":106.812439,"transit":true,"station_id":"JAKK"},{"line":2,"i_long":106.820901,"distance":1264,"station_id":"JAY","station_name":"Jayakarta","time":4,"transit":false,"is_transit":false,"i_lat":-6.141205},{"is_transit":false,"i_lat":-6.149769,"transit":false,"time":2,"distance":1080,"i_long":106.82482,"line":2,"station_id":"MGB","station_name":"Manggabesar"},{"station_name":"Sawah Besar","station_id":"SW","time":2,"distance":906,"i_lat":-6.160725,"is_transit":false,"line":2,"transit":false,"i_long":106.827103},{"transit":false,"time":2,"station_name":"Juanda","i_lat":-6.166716,"i_long":106.828284,"line":2,"is_transit":false,"distance":1149,"station_id":"JUA"},{"transit":false,"distance":2015,"time":4,"station_name":"Gondangdia","i_lat":-6.186295,"i_long":106.832183,"line":2,"station_id":"GDD","is_transit":false},{"line":2,"i_lat":-6.198556,"transit":false,"time":3,"distance":1750,"station_id":"CKI","station_name":"Cikini","is_transit":false,"i_long":106.840169}],[{"time":0,"i_long":106.800016,"is_transit":false,"line":2,"station_id":"CLT","i_lat":-6.530544,"station_name":"Cilebut","transit":false,"distance":0},{"transit":false,"time":5,"station_id":"BJD","line":2,"distance":4331,"i_long":106.792719,"station_name":"Bojonggede","i_lat":-6.493243,"is_transit":false},{"distance":5197,"transit":false,"time":5,"station_name":"Citayam","i_lat":-6.448811,"i_long":106.800298,"is_transit":false,"line":2,"station_id":"CTA"},{"distance":5084,"time":6,"station_name":"Depok","line":2,"station_id":"DP","i_lat":-6.405256,"transit":false,"i_long":106.816926,"is_transit":false},{"station_id":"DPB","transit":false,"distance":1584,"i_lat":-6.391065,"station_name":"Depokbaru","is_transit":false,"time":3,"line":2,"i_long":106.819451},{"i_long":106.831114,"is_transit":false,"transit":false,"station_id":"POC","line":2,"distance":2727,"time":4,"station_name":"Pondok Cina","i_lat":-6.369073},{"distance":1109,"i_lat":-6.360749,"is_transit":false,"time":2,"station_name":"Univ. Indonesia","i_long":106.831474,"transit":false,"line":2,"station_id":"UI"},{"line":2,"transit":false,"station_name":"Univ. Pancasila","is_transit":false,"distance":2264,"i_long":106.834175,"time":3,"i_lat":-6.339291,"station_id":"UP"},{"i_lat":-6.330363,"time":2,"station_name":"Lenteng Agung","station_id":"LNA","is_transit":false,"distance":1029,"transit":false,"i_long":106.832616,"line":2},{"station_id":"TNT","distance":2671,"i_lat":-6.3080680000000005,"i_long":106.838896,"is_transit":false,"transit":false,"time":3,"station_name":"Tanjung Barat","line":2},{"station_id":"PSM","time":4,"line":2,"is_transit":false,"i_lat":-6.2842400000000005,"transit":false,"distance":2820,"station_name":"Pasar Minggu","i_long":106.843999},{"time":2,"station_id":"PSMB","transit":false,"line":2,"is_transit":false,"distance":2380,"i_lat":-6.263214,"i_long":106.851577,"station_name":"Pasar Minggu Baru"},{"station_name":"Duren Kalibata","i_long":106.85449,"is_transit":false,"distance":824,"line":2,"station_id":"DRN","transit":false,"time":2,"i_lat":-6.255332},{"distance":1546,"i_long":106.856607,"time":3,"i_lat":-6.242512,"is_transit":false,"station_id":"CW","transit":false,"station_name":"Cawang","line":2},{"is_transit":false,"distance":1230,"station_id":"TEB","time":2,"station_name":"Tebet","i_long":106.857948,"transit":false,"line":2,"i_lat":-6.226659},{"i_lat":-6.209883,"time":4,"i_long":106.84912,"line":2,"distance":2610,"is_transit":true,"station_name":"Manggarai","station_id":"MRI","transit":true},{"station_id":"MTR","i_lat":-6.212485,"line":1,"station_name":"Matraman","time":2,"i_long":106.858896,"distance":1275,"transit":false,"is_transit":false},{"line":1,"i_long":106.86807400000001,"station_id":"JNG","i_lat":-6.215091,"is_transit":true,"time":8,"station_name":"Jatinegara","transit":true,"distance":1377},{"distance":1236,"i_long":106.861737,"station_id":"POK","i_lat":-6.209188,"time":2,"line":11,"transit":false,"station_name":"Pondok Jati","is_transit":false},{"station_name":"Kramat","i_lat":-6.193792,"i_long":106.855437,"distance":1829,"is_transit":false,"transit":false,"line":11,"station_id":"KMT","time":2},{"time":1,"is_transit":false,"i_long":106.850107,"distance":973,"station_name":"Gang Sentiong","i_lat":-6.185975,"line":11,"station_id":"GST","transit":false},{"station_id":"PSE","time":8,"i_lat":-6.174784,"i_long":106.84368,"is_transit":false,"line":11,"distance":1567,"station_name":"Pasar Senen","transit":false},{"line":11,"distance":1436,"is_transit":false,"time":4,"i_long":106.839204,"station_name":"Kemayoran","transit":false,"i_lat":-6.161728,"station_id":"KMO"},{"station_name":"Rajawali","line":11,"is_transit":false,"distance":1901,"station_id":"RJW","transit":false,"time":5,"i_long":106.836569,"i_lat":-6.14505},{"i_lat":-6.132549,"is_transit":true,"time":3,"line":4,"station_id":"KPB","station_name":"Kampung Bandan","i_long":106.826365,"distance":1444,"transit":true},{"transit":true,"line":2,"station_name":"Jakarta Kota","time":3,"i_lat":-6.137569,"i_long":106.812439,"station_id":"JAKK","distance":1364,"is_transit":true},{"station_name":"Jayakarta","time":4,"distance":1264,"i_lat":-6.141205,"line":2,"station_id":"JAY","is_transit":false,"i_long":106.820901,"transit":false},{"is_transit":false,"transit":false,"distance":1080,"i_lat":-6.149769,"i_long":106.82482,"line":2,"station_id":"MGB","time":2,"station_name":"Manggabesar"},{"is_transit":false,"line":2,"station_name":"Sawah Besar","transit":false,"i_long":106.827103,"station_id":"SW","i_lat":-6.160725,"distance":906,"time":2},{"is_transit":false,"line":2,"i_long":106.828284,"station_name":"Juanda","time":2,"station_id":"JUA","transit":false,"distance":1149,"i_lat":-6.166716},{"station_id":"GDD","distance":2015,"i_long":106.832183,"is_transit":false,"transit":false,"i_lat":-6.186295,"line":2,"time":4,"station_name":"Gondangdia"},{"transit":false,"station_id":"CKI","time":3,"distance":1750,"is_transit":false,"station_name":"Cikini","i_long":106.840169,"i_lat":-6.198556,"line":2}]]}