{"data":[[{"is_transit":false,"distance":0,"station_id":"CSK","station_name":"Cisauk","i_lat":-6.32484,"line":3,"time":0,"transit":false,"i_long":106.640411},{"is_transit":false,"i_lat":-6.319871,"distance":1784,"time":4,"station_name":"Serpong","line":6,"station_id":"SRP","i_long":106.66566,"transit":false},{"transit":false,"station_name":"Rawa Buntu","line":6,"i_long":106.675475,"time":4,"station_id":"RU","i_lat":-6.314823,"distance":2413,"is_transit":false},{"time":6,"station_name":"Sudimara","distance":4566,"transit":false,"is_transit":false,"i_lat":-6.296963,"i_long":106.712277,"station_id":"SDM","line":6},{"transit":false,"distance":1994,"time":4,"i_lat":-6.288927,"line":6,"station_name":"Jurangmangu","station_id":"JMU","is_transit":false,"i_long":106.728916},{"time":3,"station_name":"Pondokranji","line":6,"is_transit":false,"distance":2179,"i_lat":-6.276362,"i_long":106.74273,"transit":false,"station_id":"PDJ"},{"transit":false,"distance":6218,"is_transit":false,"time":8,"i_lat":-6.237242,"i_long":106.780334,"station_id":"KBY","line":6,"station_name":"Kebayoran"},{"station_name":"Palmerah","time":7,"distance":3737,"i_lat":-6.207404,"i_long":106.79689,"station_id":"PLM","transit":false,"is_transit":false,"line":6},{"station_id":"THB","i_lat":-6.185545,"distance":3191,"i_long":106.811091,"transit":true,"time":6,"is_transit":true,"line":1,"station_name":"Tanah Abang"},{"distance":3632,"line":1,"is_transit":false,"transit":false,"time":8,"i_lat":-6.155215,"station_name":"Duri","station_id":"DU","i_long":106.800832},{"time":4,"transit":false,"station_id":"AK","is_transit":false,"i_lat":-6.144674,"station_name":"Angke","i_long":106.79867,"line":1,"distance":1230},{"time":9,"distance":4102,"station_name":"Kampung Bandan","transit":true,"station_id":"KPB","is_transit":true,"i_long":106.826365,"line":4,"i_lat":-6.132549},{"station_name":"Rajawali","station_id":"RJW","time":3,"transit":false,"i_lat":-6.14505,"line":11,"i_long":106.836569,"distance":1444,"is_transit":false},{"i_lat":-6.161728,"i_long":106.839204,"line":11,"station_id":"KMO","station_name":"Kemayoran","time":5,"transit":false,"distance":1901,"is_transit":false}],[{"station_name":"Cisauk","transit":false,"station_id":"CSK","i_long":106.640411,"line":3,"i_lat":-6.32484,"distance":0,"is_transit":false,"time":0},{"distance":1784,"station_name":"Serpong","is_transit":false,"i_lat":-6.319871,"station_id":"SRP","transit":false,"i_long":106.66566,"line":6,"time":4},{"line":6,"distance":2413,"is_transit":false,"time":4,"transit":false,"station_name":"Rawa Buntu","i_lat":-6.314823,"station_id":"RU","i_long":106.675475},{"distance":4566,"station_name":"Sudimara","i_lat":-6.296963,"time":6,"station_id":"SDM","transit":false,"is_transit":false,"i_long":106.712277,"line":6},{"transit":false,"i_lat":-6.288927,"is_transit":false,"distance":1994,"station_id":"JMU","time":4,"i_long":106.728916,"station_name":"Jurangmangu","line":6},{"i_lat":-6.276362,"time":3,"station_name":"Pondokranji","distance":2179,"is_transit":false,"station_id":"PDJ","transit":false,"line":6,"i_long":106.74273},{"is_transit":false,"distance":6218,"transit":false,"time":8,"station_name":"Kebayoran","line":6,"i_lat":-6.237242,"station_id":"KBY","i_long":106.780334},{"station_id":"PLM","i_long":106.79689,"time":7,"distance":3737,"transit":false,"is_transit":false,"i_lat":-6.207404,"line":6,"station_name":"Palmerah"},{"i_long":106.811091,"is_transit":true,"time":6,"distance":3191,"transit":true,"line":1,"station_id":"THB","station_name":"Tanah Abang","i_lat":-6.185545},{"distance":2029,"is_transit":false,"time":5,"station_name":"Karet","transit":false,"i_long":106.816351,"i_lat":-6.20132,"station_id":"KAT","line":1},{"i_lat":-6.201433,"is_transit":false,"line":1,"station_id":"SUDB","station_name":"Sudirman Baru","time":1,"distance":471,"transit":false,"i_long":106.819881},{"time":1,"station_id":"SUD","station_name":"Sudirman","distance":280,"i_lat":-6.202263,"i_long":106.822649,"transit":false,"line":1,"is_transit":false},{"i_long":106.84912,"is_transit":false,"time":4,"line":2,"transit":false,"distance":3186,"station_name":"Manggarai","station_id":"MRI","i_lat":-6.209883},{"station_name":"Matraman","time":2,"transit":false,"line":1,"i_lat":-6.212485,"station_id":"MTR","i_long":106.858896,"is_transit":false,"distance":1275},{"distance":1377,"is_transit":true,"time":8,"station_name":"Jatinegara","transit":true,"line":1,"station_id":"JNG","i_long":106.86807400000001,"i_lat":-6.215091},{"line":11,"is_transit":false,"station_name":"Pondok Jati","i_lat":-6.209188,"i_long":106.861737,"station_id":"POK","transit":false,"distance":1236,"time":2},{"is_transit":false,"station_name":"Kramat","distance":1829,"i_long":106.855437,"i_lat":-6.193792,"station_id":"KMT","line":11,"time":2,"transit":false},{"station_name":"Gang Sentiong","i_long":106.850107,"distance":973,"is_transit":false,"transit":false,"line":11,"time":1,"i_lat":-6.185975,"station_id":"GST"},{"i_long":106.84368,"station_name":"Pasar Senen","time":8,"line":11,"station_id":"PSE","distance":1567,"transit":false,"i_lat":-6.174784,"is_transit":false},{"time":4,"distance":1436,"transit":false,"i_lat":-6.161728,"line":11,"i_long":106.839204,"station_name":"Kemayoran","is_transit":false,"station_id":"KMO"}],[{"is_transit":false,"time":0,"station_id":"CSK","i_long":106.640411,"distance":0,"line":3,"station_name":"Cisauk","i_lat":-6.32484,"transit":false},{"i_lat":-6.319871,"transit":false,"station_id":"SRP","station_name":"Serpong","i_long":106.66566,"time":4,"distance":1784,"line":6,"is_transit":false},{"station_id":"RU","is_transit":false,"time":4,"line":6,"distance":2413,"i_lat":-6.314823,"station_name":"Rawa Buntu","i_long":106.675475,"transit":false},{"station_id":"SDM","i_long":106.712277,"i_lat":-6.296963,"transit":false,"time":6,"is_transit":false,"station_name":"Sudimara","distance":4566,"line":6},{"i_long":106.728916,"distance":1994,"line":6,"transit":false,"i_lat":-6.288927,"time":4,"station_id":"JMU","station_name":"Jurangmangu","is_transit":false},{"is_transit":false,"station_id":"PDJ","station_name":"Pondokranji","transit":false,"distance":2179,"i_long":106.74273,"time":3,"line":6,"i_lat":-6.276362},{"transit":false,"line":6,"time":8,"i_long":106.780334,"station_name":"Kebayoran","station_id":"KBY","distance":6218,"is_transit":false,"i_lat":-6.237242},{"i_long":106.79689,"transit":false,"line":6,"station_id":"PLM","time":7,"distance":3737,"station_name":"Palmerah","is_transit":false,"i_lat":-6.207404},{"time":6,"i_lat":-6.185545,"station_id":"THB","i_long":106.811091,"transit":true,"is_transit":true,"station_name":"Tanah Abang","line":1,"distance":3191},{"time":5,"station_name":"Karet","distance":2029,"station_id":"KAT","is_transit":false,"i_long":106.816351,"transit":false,"i_lat":-6.20132,"line":1},{"i_long":106.819881,"station_name":"Sudirman Baru","i_lat":-6.201433,"is_transit":false,"station_id":"SUDB","distance":471,"line":1,"time":1,"transit":false},{"i_lat":-6.202263,"distance":280,"line":1,"transit":false,"i_long":106.822649,"is_transit":false,"station_id":"SUD","time":1,"station_name":"Sudirman"},{"i_lat":-6.209883,"distance":3186,"i_long":106.84912,"time":4,"transit":true,"is_transit":true,"line":2,"station_id":"MRI","station_name":"Manggarai"},{"time":4,"station_name":"Cikini","station_id":"CKI","distance":1590,"is_transit":false,"transit":false,"i_long":106.840169,"i_lat":-6.198556,"line":2},{"distance":1750,"station_name":"Gondangdia","time":3,"line":2,"transit":false,"is_transit":false,"i_lat":-6.186295,"station_id":"GDD","i_long":106.832183},{"time":4,"line":2,"station_name":"Juanda","distance":2015,"i_long":106.828284,"i_lat":-6.166716,"station_id":"JUA","transit":false,"is_transit":false},{"station_id":"SW","transit":false,"line":2,"time":2,"i_lat":-6.160725,"i_long":106.827103,"distance":1149,"is_transit":false,"station_name":"Sawah Besar"},{"time":2,"i_lat":-6.149769,"line":2,"transit":false,"station_name":"Manggabesar","distance":906,"i_long":106.82482,"station_id":"MGB","is_transit":false},{"is_transit":false,"line":2,"distance":1080,"i_long":106.820901,"station_id":"JAY","i_lat":-6.141205,"station_name":"Jayakarta","time":2,"transit":false},{"time":4,"station_id":"JAKK","station_name":"Jakarta Kota","transit":true,"i_long":106.812439,"is_transit":true,"line":2,"i_lat":-6.137569,"distance":1264},{"line":4,"station_id":"KPB","station_name":"Kampung Bandan","time":3,"i_lat":-6.132549,"transit":true,"i_long":106.826365,"is_transit":true,"distance":1364},{"station_id":"RJW","i_long":106.836569,"line":11,"distance":1444,"transit":false,"station_name":"Rajawali","time":3,"is_transit":false,"i_lat":-6.14505},{"distance":1901,"time":5,"is_transit":false,"i_long":106.839204,"line":11,"transit":false,"station_id":"KMO","i_lat":-6.161728,"station_name":"Kemayoran"}],[{"i_lat":-6.32484,"i_long":106.640411,"time":0,"line":3,"station_id":"CSK","is_transit":false,"distance":0,"station_name":"Cisauk","transit":false},{"transit":false,"station_name":"Serpong","distance":1784,"station_id":"SRP","i_lat":-6.319871,"is_transit":false,"line":6,"time":4,"i_long":106.66566},{"distance":2413,"line":6,"station_name":"Rawa Buntu","transit":false,"station_id":"RU","i_lat":-6.314823,"i_long":106.675475,"is_transit":false,"time":4},{"is_transit":false,"line":6,"time":6,"distance":4566,"i_lat":-6.296963,"station_id":"SDM","i_long":106.712277,"transit":false,"station_name":"Sudimara"},{"line":6,"i_lat":-6.288927,"station_id":"JMU","station_name":"Jurangmangu","time":4,"distance":1994,"transit":false,"i_long":106.728916,"is_transit":false},{"transit":false,"time":3,"station_name":"Pondokranji","i_lat":-6.276362,"i_long":106.74273,"distance":2179,"line":6,"is_transit":false,"station_id":"PDJ"},{"line":6,"is_transit":false,"distance":6218,"transit":false,"station_name":"Kebayoran","i_lat":-6.237242,"station_id":"KBY","time":8,"i_long":106.780334},{"transit":false,"station_name":"Palmerah","i_long":106.79689,"distance":3737,"line":6,"station_id":"PLM","time":7,"i_lat":-6.207404,"is_transit":false},{"station_name":"Tanah Abang","time":6,"i_lat":-6.185545,"i_long":106.811091,"line":1,"station_id":"THB","is_transit":true,"distance":3191,"transit":true},{"station_name":"Duri","transit":false,"i_lat":-6.155215,"is_transit":false,"line":1,"i_long":106.800832,"station_id":"DU","time":8,"distance":3632},{"i_lat":-6.144674,"time":4,"station_name":"Angke","distance":1230,"station_id":"AK","line":1,"transit":false,"is_transit":false,"i_long":106.79867},{"distance":4102,"i_long":106.826365,"line":4,"i_lat":-6.132549,"station_id":"KPB","transit":true,"station_name":"Kampung Bandan","is_transit":true,"time":9},{"i_lat":-6.137569,"distance":1364,"i_long":106.812439,"time":3,"is_transit":true,"station_id":"JAKK","transit":true,"line":2,"station_name":"Jakarta Kota"},{"station_name":"Jayakarta","transit":false,"time":4,"distance":1264,"is_transit":false,"i_lat":-6.141205,"i_long":106.820901,"line":2,"station_id":"JAY"},{"i_lat":-6.149769,"is_transit":false,"i_long":106.82482,"time":2,"transit":false,"station_id":"MGB","line":2,"station_name":"Manggabesar","distance":1080},{"line":2,"is_transit":false,"station_id":"SW","i_long":106.827103,"i_lat":-6.160725,"time":2,"distance":906,"station_name":"Sawah Besar","transit":false},{"station_name":"Juanda","time":2,"i_lat":-6.166716,"is_transit":false,"i_long":106.828284,"transit":false,"distance":1149,"station_id":"JUA","line":2},{"time":4,"station_name":"Gondangdia","is_transit":false,"distance":2015,"i_long":106.832183,"i_lat":-6.186295,"line":2,"station_id":"GDD","transit":false},{"i_lat":-6.198556,"distance":1750,"transit":false,"time":3,"is_transit":false,"station_id":"CKI","i_long":106.840169,"line":2,"station_name":"Cikini"},{"time":4,"i_long":106.84912,"is_transit":true,"i_lat":-6.209883,"transit":true,"station_name":"Manggarai","distance":1590,"line":2,"station_id":"MRI"},{"station_id":"MTR","station_name":"Matraman","i_long":106.858896,"time":2,"distance":1275,"line":1,"i_lat":-6.212485,"transit":false,"is_transit":false},{"station_name":"Jatinegara","i_lat":-6.215091,"i_long":106.86807400000001,"time":8,"distance":1377,"transit":true,"station_id":"JNG","is_transit":true,"line":1},{"station_id":"POK","distance":1236,"station_name":"Pondok Jati","i_lat":-6.209188,"i_long":106.861737,"time":2,"line":11,"transit":false,"is_transit":false},{"station_name":"Kramat","time":2,"i_long":106.855437,"i_lat":-6.193792,"station_id":"KMT","is_transit":false,"transit":false,"line":11,"distance":1829},{"i_long":106.850107,"i_lat":-6.185975,"distance":973,"line":11,"station_id":"GST","station_name":"Gang Sentiong","is_transit":false,"time":1,"transit":false},{"time":8,"line":11,"station_id":"PSE","station_name":"Pasar Senen","transit":false,"is_transit":false,"i_lat":-6.174784,"distance":1567,"i_long":106.84368},{"distance":1436,"station_name":"Kemayoran","i_long":106.839204,"transit":false,"station_id":"KMO","i_lat":-6.161728,"time":4,"is_transit":false,"line":11}]]}