{"data":[[{"distance":0,"station_id":"CSK","i_long":106.640411,"station_name":"Cisauk","transit":false,"i_lat":-6.32484,"line":3,"time":0,"is_transit":false},{"transit":false,"line":6,"time":4,"station_id":"SRP","i_lat":-6.319871,"is_transit":false,"distance":1784,"i_long":106.66566,"station_name":"Serpong"},{"is_transit":false,"transit":false,"i_long":106.675475,"station_name":"Rawa Buntu","time":4,"line":6,"station_id":"RU","i_lat":-6.314823,"distance":2413},{"distance":4566,"i_lat":-6.296963,"is_transit":false,"i_long":106.712277,"station_id":"SDM","time":6,"station_name":"Sudimara","line":6,"transit":false},{"is_transit":false,"i_long":106.728916,"station_id":"JMU","station_name":"Jurangmangu","distance":1994,"line":6,"time":4,"transit":false,"i_lat":-6.288927},{"is_transit":false,"i_lat":-6.276362,"i_long":106.74273,"transit":false,"line":6,"distance":2179,"station_id":"PDJ","time":3,"station_name":"Pondokranji"},{"station_name":"Kebayoran","time":8,"i_lat":-6.237242,"line":6,"station_id":"KBY","transit":false,"distance":6218,"i_long":106.780334,"is_transit":false},{"i_long":106.79689,"time":7,"is_transit":false,"transit":false,"station_id":"PLM","i_lat":-6.207404,"line":6,"distance":3737,"station_name":"Palmerah"},{"line":1,"i_long":106.811091,"transit":true,"distance":3191,"station_name":"Tanah Abang","is_transit":true,"time":6,"station_id":"THB","i_lat":-6.185545},{"i_long":106.816351,"is_transit":false,"line":1,"station_name":"Karet","i_lat":-6.20132,"distance":2029,"time":5,"transit":false,"station_id":"KAT"},{"is_transit":false,"transit":false,"station_id":"SUDB","i_long":106.819881,"line":1,"station_name":"Sudirman Baru","time":1,"i_lat":-6.201433,"distance":471},{"station_id":"SUD","distance":280,"i_long":106.822649,"transit":false,"is_transit":false,"station_name":"Sudirman","time":1,"i_lat":-6.202263,"line":1},{"station_id":"MRI","i_long":106.84912,"is_transit":true,"time":4,"distance":3186,"i_lat":-6.209883,"station_name":"Manggarai","transit":true,"line":2},{"i_lat":-6.226659,"i_long":106.857948,"time":4,"transit":false,"is_transit":false,"station_id":"TEB","line":2,"station_name":"Tebet","distance":2610},{"i_long":106.856607,"i_lat":-6.242512,"station_id":"CW","line":2,"distance":1230,"transit":false,"is_transit":false,"station_name":"Cawang","time":2},{"station_name":"Duren Kalibata","i_long":106.85449,"is_transit":false,"station_id":"DRN","i_lat":-6.255332,"time":3,"line":2,"distance":1546,"transit":false},{"distance":824,"transit":false,"line":2,"station_id":"PSMB","is_transit":false,"time":2,"i_lat":-6.263214,"i_long":106.851577,"station_name":"Pasar Minggu Baru"},{"i_lat":-6.2842400000000005,"transit":false,"is_transit":false,"station_id":"PSM","line":2,"station_name":"Pasar Minggu","time":2,"distance":2380,"i_long":106.843999},{"station_id":"TNT","transit":false,"time":4,"station_name":"Tanjung Barat","line":2,"i_lat":-6.3080680000000005,"is_transit":false,"distance":2820,"i_long":106.838896},{"station_id":"LNA","line":2,"distance":2671,"i_lat":-6.330363,"is_transit":false,"i_long":106.832616,"station_name":"Lenteng Agung","time":3,"transit":false},{"station_name":"Univ. Pancasila","time":2,"i_lat":-6.339291,"i_long":106.834175,"station_id":"UP","transit":false,"line":2,"is_transit":false,"distance":1029},{"transit":false,"i_long":106.831474,"station_name":"Univ. Indonesia","time":3,"distance":2264,"station_id":"UI","is_transit":false,"i_lat":-6.360749,"line":2},{"time":2,"station_id":"POC","distance":1109,"station_name":"Pondok Cina","is_transit":false,"i_long":106.831114,"line":2,"i_lat":-6.369073,"transit":false},{"transit":false,"time":4,"line":2,"i_long":106.819451,"is_transit":false,"distance":2727,"station_name":"Depokbaru","i_lat":-6.391065,"station_id":"DPB"},{"line":2,"transit":false,"is_transit":false,"station_name":"Depok","time":3,"i_lat":-6.405256,"distance":1584,"station_id":"DP","i_long":106.816926},{"station_name":"Citayam","line":2,"transit":false,"is_transit":false,"station_id":"CTA","time":6,"distance":5084,"i_lat":-6.448811,"i_long":106.800298},{"distance":5197,"transit":false,"station_id":"BJD","i_lat":-6.493243,"line":2,"is_transit":false,"station_name":"Bojonggede","i_long":106.792719,"time":5},{"is_transit":false,"station_id":"CLT","station_name":"Cilebut","time":5,"line":2,"i_lat":-6.530544,"distance":4331,"transit":false,"i_long":106.800016},{"station_name":"Bogor","time":9,"station_id":"BOO","i_lat":-6.594596,"distance":7514,"transit":false,"i_long":106.790574,"is_transit":false,"line":2}],[{"is_transit":false,"i_long":106.640411,"station_name":"Cisauk","distance":0,"transit":false,"i_lat":-6.32484,"line":3,"station_id":"CSK","time":0},{"i_long":106.66566,"line":6,"time":4,"i_lat":-6.319871,"distance":1784,"station_name":"Serpong","transit":false,"is_transit":false,"station_id":"SRP"},{"i_lat":-6.314823,"station_id":"RU","distance":2413,"is_transit":false,"i_long":106.675475,"station_name":"Rawa Buntu","time":4,"transit":false,"line":6},{"station_name":"Sudimara","time":6,"distance":4566,"transit":false,"i_long":106.712277,"i_lat":-6.296963,"line":6,"is_transit":false,"station_id":"SDM"},{"i_lat":-6.288927,"station_id":"JMU","i_long":106.728916,"transit":false,"is_transit":false,"time":4,"distance":1994,"line":6,"station_name":"Jurangmangu"},{"station_name":"Pondokranji","i_lat":-6.276362,"line":6,"is_transit":false,"i_long":106.74273,"time":3,"distance":2179,"transit":false,"station_id":"PDJ"},{"is_transit":false,"line":6,"time":8,"station_id":"KBY","station_name":"Kebayoran","distance":6218,"i_lat":-6.237242,"i_long":106.780334,"transit":false},{"is_transit":false,"i_lat":-6.207404,"time":7,"station_name":"Palmerah","transit":false,"i_long":106.79689,"distance":3737,"station_id":"PLM","line":6},{"transit":true,"i_long":106.811091,"i_lat":-6.185545,"is_transit":true,"station_name":"Tanah Abang","distance":3191,"time":6,"station_id":"THB","line":1},{"station_name":"Duri","time":8,"line":1,"is_transit":false,"i_long":106.800832,"transit":false,"station_id":"DU","i_lat":-6.155215,"distance":3632},{"is_transit":false,"transit":false,"station_name":"Angke","i_long":106.79867,"i_lat":-6.144674,"line":1,"distance":1230,"station_id":"AK","time":4},{"i_lat":-6.132549,"i_long":106.826365,"station_name":"Kampung Bandan","line":4,"time":9,"is_transit":true,"station_id":"KPB","distance":4102,"transit":true},{"time":3,"distance":1364,"transit":true,"i_long":106.812439,"i_lat":-6.137569,"line":2,"is_transit":true,"station_name":"Jakarta Kota","station_id":"JAKK"},{"time":4,"is_transit":false,"station_id":"JAY","i_long":106.820901,"line":2,"transit":false,"i_lat":-6.141205,"distance":1264,"station_name":"Jayakarta"},{"transit":false,"time":2,"is_transit":false,"distance":1080,"station_id":"MGB","i_lat":-6.149769,"i_long":106.82482,"station_name":"Manggabesar","line":2},{"is_transit":false,"transit":false,"line":2,"time":2,"i_lat":-6.160725,"distance":906,"station_name":"Sawah Besar","station_id":"SW","i_long":106.827103},{"i_lat":-6.166716,"transit":false,"station_name":"Juanda","is_transit":false,"line":2,"time":2,"distance":1149,"i_long":106.828284,"station_id":"JUA"},{"station_id":"GDD","is_transit":false,"distance":2015,"i_long":106.832183,"station_name":"Gondangdia","time":4,"line":2,"transit":false,"i_lat":-6.186295},{"distance":1750,"station_id":"CKI","line":2,"i_lat":-6.198556,"transit":false,"is_transit":false,"station_name":"Cikini","time":3,"i_long":106.840169},{"time":4,"distance":1590,"transit":false,"line":2,"station_id":"MRI","is_transit":false,"i_long":106.84912,"station_name":"Manggarai","i_lat":-6.209883},{"i_long":106.857948,"transit":false,"distance":2610,"station_id":"TEB","is_transit":false,"station_name":"Tebet","line":2,"time":4,"i_lat":-6.226659},{"is_transit":false,"distance":1230,"station_id":"CW","transit":false,"i_lat":-6.242512,"i_long":106.856607,"station_name":"Cawang","line":2,"time":2},{"i_long":106.85449,"station_name":"Duren Kalibata","i_lat":-6.255332,"time":3,"line":2,"distance":1546,"station_id":"DRN","is_transit":false,"transit":false},{"distance":824,"station_name":"Pasar Minggu Baru","is_transit":false,"line":2,"i_lat":-6.263214,"transit":false,"time":2,"station_id":"PSMB","i_long":106.851577},{"i_long":106.843999,"line":2,"i_lat":-6.2842400000000005,"time":2,"station_name":"Pasar Minggu","distance":2380,"transit":false,"is_transit":false,"station_id":"PSM"},{"distance":2820,"is_transit":false,"transit":false,"i_long":106.838896,"i_lat":-6.3080680000000005,"time":4,"line":2,"station_name":"Tanjung Barat","station_id":"TNT"},{"distance":2671,"transit":false,"line":2,"i_lat":-6.330363,"time":3,"is_transit":false,"i_long":106.832616,"station_name":"Lenteng Agung","station_id":"LNA"},{"i_long":106.834175,"station_name":"Univ. Pancasila","station_id":"UP","transit":false,"time":2,"i_lat":-6.339291,"is_transit":false,"distance":1029,"line":2},{"distance":2264,"is_transit":false,"i_lat":-6.360749,"i_long":106.831474,"line":2,"time":3,"station_id":"UI","station_name":"Univ. Indonesia","transit":false},{"distance":1109,"i_lat":-6.369073,"i_long":106.831114,"time":2,"station_id":"POC","line":2,"transit":false,"is_transit":false,"station_name":"Pondok Cina"},{"is_transit":false,"transit":false,"line":2,"station_name":"Depokbaru","time":4,"distance":2727,"station_id":"DPB","i_lat":-6.391065,"i_long":106.819451},{"time":3,"line":2,"distance":1584,"is_transit":false,"i_long":106.816926,"transit":false,"i_lat":-6.405256,"station_name":"Depok","station_id":"DP"},{"station_name":"Citayam","time":6,"line":2,"transit":false,"i_lat":-6.448811,"distance":5084,"is_transit":false,"i_long":106.800298,"station_id":"CTA"},{"station_name":"Bojonggede","time":5,"i_lat":-6.493243,"distance":5197,"station_id":"BJD","is_transit":false,"transit":false,"i_long":106.792719,"line":2},{"time":5,"i_lat":-6.530544,"i_long":106.800016,"distance":4331,"transit":false,"is_transit":false,"station_id":"CLT","line":2,"station_name":"Cilebut"},{"line":2,"time":9,"transit":false,"station_name":"Bogor","station_id":"BOO","i_lat":-6.594596,"i_long":106.790574,"is_transit":false,"distance":7514}],[{"is_transit":false,"i_long":106.640411,"transit":false,"line":3,"time":0,"i_lat":-6.32484,"station_name":"Cisauk","station_id":"CSK","distance":0},{"distance":1784,"transit":false,"i_lat":-6.319871,"station_name":"Serpong","line":6,"is_transit":false,"i_long":106.66566,"time":4,"station_id":"SRP"},{"time":4,"is_transit":false,"station_name":"Rawa Buntu","i_long":106.675475,"transit":false,"station_id":"RU","line":6,"i_lat":-6.314823,"distance":2413},{"transit":false,"is_transit":false,"i_lat":-6.296963,"i_long":106.712277,"station_id":"SDM","line":6,"time":6,"station_name":"Sudimara","distance":4566},{"time":4,"transit":false,"line":6,"station_name":"Jurangmangu","distance":1994,"i_lat":-6.288927,"is_transit":false,"i_long":106.728916,"station_id":"JMU"},{"line":6,"is_transit":false,"distance":2179,"station_id":"PDJ","i_lat":-6.276362,"i_long":106.74273,"station_name":"Pondokranji","transit":false,"time":3},{"station_name":"Kebayoran","time":8,"i_long":106.780334,"station_id":"KBY","transit":false,"is_transit":false,"distance":6218,"line":6,"i_lat":-6.237242},{"transit":false,"line":6,"is_transit":false,"station_id":"PLM","time":7,"i_long":106.79689,"station_name":"Palmerah","i_lat":-6.207404,"distance":3737},{"line":1,"distance":3191,"transit":true,"time":6,"is_transit":true,"i_lat":-6.185545,"station_name":"Tanah Abang","i_long":106.811091,"station_id":"THB"},{"station_id":"DU","i_long":106.800832,"distance":3632,"i_lat":-6.155215,"is_transit":false,"time":8,"station_name":"Duri","transit":false,"line":1},{"line":1,"is_transit":false,"time":4,"i_long":106.79867,"transit":false,"distance":1230,"station_name":"Angke","station_id":"AK","i_lat":-6.144674},{"is_transit":true,"line":4,"time":9,"i_long":106.826365,"station_name":"Kampung Bandan","transit":true,"distance":4102,"station_id":"KPB","i_lat":-6.132549},{"line":11,"time":3,"transit":false,"i_lat":-6.14505,"is_transit":false,"i_long":106.836569,"distance":1444,"station_name":"Rajawali","station_id":"RJW"},{"is_transit":false,"time":5,"station_id":"KMO","i_long":106.839204,"distance":1901,"station_name":"Kemayoran","line":11,"i_lat":-6.161728,"transit":false},{"time":4,"line":11,"station_name":"Pasar Senen","transit":false,"is_transit":false,"station_id":"PSE","i_long":106.84368,"i_lat":-6.174784,"distance":1436},{"transit":false,"i_lat":-6.185975,"distance":1567,"station_name":"Gang Sentiong","line":11,"time":8,"is_transit":false,"i_long":106.850107,"station_id":"GST"},{"is_transit":false,"distance":973,"station_name":"Kramat","i_lat":-6.193792,"i_long":106.855437,"line":11,"transit":false,"station_id":"KMT","time":1},{"station_name":"Pondok Jati","time":2,"is_transit":false,"transit":false,"station_id":"POK","distance":1829,"line":11,"i_lat":-6.209188,"i_long":106.861737},{"i_long":106.86807400000001,"i_lat":-6.215091,"station_id":"JNG","is_transit":true,"station_name":"Jatinegara","time":9,"distance":1236,"line":1,"transit":true},{"distance":1377,"transit":false,"station_id":"MTR","line":1,"time":2,"i_lat":-6.212485,"station_name":"Matraman","i_long":106.858896,"is_transit":false},{"line":2,"transit":true,"is_transit":true,"station_id":"MRI","station_name":"Manggarai","time":2,"i_lat":-6.209883,"distance":1275,"i_long":106.84912},{"i_lat":-6.226659,"is_transit":false,"i_long":106.857948,"distance":2610,"transit":false,"station_id":"TEB","station_name":"Tebet","line":2,"time":4},{"station_name":"Cawang","distance":1230,"transit":false,"i_long":106.856607,"station_id":"CW","line":2,"i_lat":-6.242512,"time":2,"is_transit":false},{"station_id":"DRN","transit":false,"i_long":106.85449,"distance":1546,"is_transit":false,"time":3,"i_lat":-6.255332,"line":2,"station_name":"Duren Kalibata"},{"is_transit":false,"distance":824,"transit":false,"station_id":"PSMB","i_long":106.851577,"line":2,"time":2,"i_lat":-6.263214,"station_name":"Pasar Minggu Baru"},{"time":2,"i_lat":-6.2842400000000005,"transit":false,"i_long":106.843999,"station_name":"Pasar Minggu","line":2,"is_transit":false,"distance":2380,"station_id":"PSM"},{"station_name":"Tanjung Barat","time":4,"transit":false,"line":2,"i_lat":-6.3080680000000005,"station_id":"TNT","distance":2820,"i_long":106.838896,"is_transit":false},{"i_long":106.832616,"line":2,"station_id":"LNA","transit":false,"i_lat":-6.330363,"station_name":"Lenteng Agung","distance":2671,"is_transit":false,"time":3},{"distance":1029,"transit":false,"is_transit":false,"time":2,"i_lat":-6.339291,"line":2,"station_name":"Univ. Pancasila","station_id":"UP","i_long":106.834175},{"line":2,"station_name":"Univ. Indonesia","is_transit":false,"station_id":"UI","transit":false,"i_lat":-6.360749,"time":3,"i_long":106.831474,"distance":2264},{"is_transit":false,"i_lat":-6.369073,"station_name":"Pondok Cina","i_long":106.831114,"distance":1109,"time":2,"station_id":"POC","transit":false,"line":2},{"station_name":"Depokbaru","station_id":"DPB","is_transit":false,"transit":false,"i_lat":-6.391065,"i_long":106.819451,"line":2,"time":4,"distance":2727},{"distance":1584,"transit":false,"is_transit":false,"station_name":"Depok","i_lat":-6.405256,"i_long":106.816926,"line":2,"time":3,"station_id":"DP"},{"line":2,"is_transit":false,"distance":5084,"transit":false,"station_name":"Citayam","station_id":"CTA","i_lat":-6.448811,"time":6,"i_long":106.800298},{"distance":5197,"line":2,"station_name":"Bojonggede","i_long":106.792719,"is_transit":false,"time":5,"transit":false,"station_id":"BJD","i_lat":-6.493243},{"transit":false,"station_name":"Cilebut","distance":4331,"i_long":106.800016,"station_id":"CLT","time":5,"is_transit":false,"i_lat":-6.530544,"line":2},{"station_name":"Bogor","station_id":"BOO","line":2,"is_transit":false,"distance":7514,"i_lat":-6.594596,"i_long":106.790574,"transit":false,"time":9}]]}