{"data":[[{"i_long":106.640411,"station_id":"CSK","i_lat":-6.32484,"distance":0,"is_transit":false,"station_name":"Cisauk","line":3,"time":0,"transit":false},{"distance":1784,"i_lat":-6.319871,"i_long":106.66566,"line":6,"station_name":"Serpong","is_transit":false,"transit":false,"time":4,"station_id":"SRP"},{"i_long":106.675475,"station_id":"RU","distance":2413,"line":6,"is_transit":false,"i_lat":-6.314823,"transit":false,"station_name":"Rawa Buntu","time":4},{"i_lat":-6.296963,"line":6,"station_name":"Sudimara","distance":4566,"transit":false,"is_transit":false,"time":6,"station_id":"SDM","i_long":106.712277},{"transit":false,"station_id":"JMU","i_lat":-6.288927,"is_transit":false,"station_name":"Jurangmangu","time":4,"distance":1994,"i_long":106.728916,"line":6},{"time":3,"distance":2179,"i_lat":-6.276362,"line":6,"station_name":"Pondokranji","i_long":106.74273,"station_id":"PDJ","is_transit":false,"transit":false},{"transit":false,"station_id":"KBY","i_lat":-6.237242,"distance":6218,"line":6,"time":8,"station_name":"Kebayoran","is_transit":false,"i_long":106.780334},{"station_id":"PLM","distance":3737,"time":7,"line":6,"transit":false,"i_long":106.79689,"is_transit":false,"station_name":"Palmerah","i_lat":-6.207404},{"i_lat":-6.185545,"station_name":"Tanah Abang","transit":true,"is_transit":true,"distance":3191,"time":6,"line":1,"station_id":"THB","i_long":106.811091},{"i_long":106.816351,"station_name":"Karet","time":5,"line":1,"station_id":"KAT","is_transit":false,"transit":false,"distance":2029,"i_lat":-6.20132},{"line":1,"station_id":"SUDB","station_name":"Sudirman Baru","i_long":106.819881,"distance":471,"transit":false,"is_transit":false,"time":1,"i_lat":-6.201433}],[{"station_name":"Cisauk","time":0,"is_transit":false,"station_id":"CSK","i_lat":-6.32484,"distance":0,"transit":false,"line":3,"i_long":106.640411},{"time":4,"distance":1784,"i_lat":-6.319871,"station_id":"SRP","transit":false,"station_name":"Serpong","is_transit":false,"i_long":106.66566,"line":6},{"i_long":106.675475,"distance":2413,"transit":false,"station_id":"RU","i_lat":-6.314823,"time":4,"line":6,"is_transit":false,"station_name":"Rawa Buntu"},{"station_id":"SDM","line":6,"station_name":"Sudimara","is_transit":false,"time":6,"distance":4566,"transit":false,"i_lat":-6.296963,"i_long":106.712277},{"transit":false,"time":4,"station_name":"Jurangmangu","is_transit":false,"i_long":106.728916,"station_id":"JMU","i_lat":-6.288927,"line":6,"distance":1994},{"station_name":"Pondokranji","line":6,"distance":2179,"transit":false,"station_id":"PDJ","is_transit":false,"time":3,"i_lat":-6.276362,"i_long":106.74273},{"time":8,"station_name":"Kebayoran","transit":false,"distance":6218,"line":6,"is_transit":false,"i_lat":-6.237242,"i_long":106.780334,"station_id":"KBY"},{"i_lat":-6.207404,"distance":3737,"line":6,"time":7,"is_transit":false,"i_long":106.79689,"station_name":"Palmerah","station_id":"PLM","transit":false},{"i_lat":-6.185545,"i_long":106.811091,"line":1,"station_name":"Tanah Abang","is_transit":true,"station_id":"THB","transit":true,"time":6,"distance":3191},{"station_id":"DU","line":1,"station_name":"Duri","time":8,"distance":3632,"i_lat":-6.155215,"i_long":106.800832,"is_transit":false,"transit":false},{"is_transit":false,"time":4,"distance":1230,"transit":false,"i_lat":-6.144674,"line":1,"station_id":"AK","i_long":106.79867,"station_name":"Angke"},{"line":4,"station_id":"KPB","station_name":"Kampung Bandan","is_transit":true,"time":9,"distance":4102,"i_lat":-6.132549,"i_long":106.826365,"transit":true},{"station_id":"JAKK","i_lat":-6.137569,"distance":1364,"station_name":"Jakarta Kota","i_long":106.812439,"line":2,"transit":true,"time":3,"is_transit":true},{"transit":false,"distance":1264,"is_transit":false,"station_id":"JAY","station_name":"Jayakarta","line":2,"i_lat":-6.141205,"i_long":106.820901,"time":4},{"is_transit":false,"distance":1080,"station_id":"MGB","i_long":106.82482,"transit":false,"station_name":"Manggabesar","time":2,"i_lat":-6.149769,"line":2},{"distance":906,"station_name":"Sawah Besar","i_lat":-6.160725,"i_long":106.827103,"line":2,"transit":false,"is_transit":false,"time":2,"station_id":"SW"},{"station_id":"JUA","is_transit":false,"i_lat":-6.166716,"station_name":"Juanda","i_long":106.828284,"line":2,"transit":false,"distance":1149,"time":2},{"i_lat":-6.186295,"line":2,"time":4,"transit":false,"distance":2015,"is_transit":false,"station_name":"Gondangdia","station_id":"GDD","i_long":106.832183},{"time":3,"station_id":"CKI","station_name":"Cikini","i_lat":-6.198556,"i_long":106.840169,"is_transit":false,"distance":1750,"line":2,"transit":false},{"station_name":"Manggarai","transit":true,"station_id":"MRI","line":2,"i_lat":-6.209883,"i_long":106.84912,"is_transit":true,"time":4,"distance":1590},{"line":1,"time":4,"i_long":106.822649,"transit":false,"is_transit":false,"station_id":"SUD","station_name":"Sudirman","i_lat":-6.202263,"distance":3186},{"station_id":"SUDB","is_transit":false,"i_lat":-6.201433,"time":1,"distance":280,"station_name":"Sudirman Baru","i_long":106.819881,"transit":false,"line":1}],[{"distance":0,"line":3,"is_transit":false,"station_id":"CSK","i_lat":-6.32484,"transit":false,"time":0,"station_name":"Cisauk","i_long":106.640411},{"transit":false,"is_transit":false,"distance":1784,"i_lat":-6.319871,"i_long":106.66566,"time":4,"line":6,"station_name":"Serpong","station_id":"SRP"},{"station_name":"Rawa Buntu","i_lat":-6.314823,"time":4,"transit":false,"is_transit":false,"distance":2413,"i_long":106.675475,"line":6,"station_id":"RU"},{"station_name":"Sudimara","i_lat":-6.296963,"distance":4566,"transit":false,"is_transit":false,"line":6,"time":6,"i_long":106.712277,"station_id":"SDM"},{"i_long":106.728916,"line":6,"distance":1994,"i_lat":-6.288927,"station_id":"JMU","transit":false,"is_transit":false,"station_name":"Jurangmangu","time":4},{"station_id":"PDJ","transit":false,"i_lat":-6.276362,"distance":2179,"station_name":"Pondokranji","time":3,"line":6,"is_transit":false,"i_long":106.74273},{"line":6,"station_name":"Kebayoran","transit":false,"station_id":"KBY","time":8,"i_lat":-6.237242,"i_long":106.780334,"distance":6218,"is_transit":false},{"is_transit":false,"transit":false,"station_name":"Palmerah","i_long":106.79689,"line":6,"station_id":"PLM","time":7,"distance":3737,"i_lat":-6.207404},{"transit":true,"i_long":106.811091,"line":1,"distance":3191,"time":6,"station_id":"THB","station_name":"Tanah Abang","is_transit":true,"i_lat":-6.185545},{"distance":3632,"station_name":"Duri","station_id":"DU","line":1,"i_long":106.800832,"time":8,"transit":false,"i_lat":-6.155215,"is_transit":false},{"station_name":"Angke","line":1,"transit":false,"i_lat":-6.144674,"station_id":"AK","i_long":106.79867,"is_transit":false,"time":4,"distance":1230},{"transit":true,"i_lat":-6.132549,"line":4,"is_transit":true,"distance":4102,"time":9,"i_long":106.826365,"station_name":"Kampung Bandan","station_id":"KPB"},{"transit":false,"i_long":106.836569,"time":3,"station_id":"RJW","i_lat":-6.14505,"line":11,"distance":1444,"is_transit":false,"station_name":"Rajawali"},{"station_name":"Kemayoran","station_id":"KMO","time":5,"is_transit":false,"i_long":106.839204,"transit":false,"distance":1901,"i_lat":-6.161728,"line":11},{"station_name":"Pasar Senen","is_transit":false,"i_long":106.84368,"station_id":"PSE","time":4,"line":11,"transit":false,"distance":1436,"i_lat":-6.174784},{"i_long":106.850107,"time":8,"i_lat":-6.185975,"line":11,"distance":1567,"station_name":"Gang Sentiong","is_transit":false,"station_id":"GST","transit":false},{"time":1,"transit":false,"station_name":"Kramat","line":11,"is_transit":false,"station_id":"KMT","i_lat":-6.193792,"i_long":106.855437,"distance":973},{"i_long":106.861737,"line":11,"is_transit":false,"distance":1829,"time":2,"station_name":"Pondok Jati","station_id":"POK","i_lat":-6.209188,"transit":false},{"time":9,"i_lat":-6.215091,"line":1,"station_id":"JNG","is_transit":true,"transit":true,"i_long":106.86807400000001,"distance":1236,"station_name":"Jatinegara"},{"time":2,"i_lat":-6.212485,"is_transit":false,"distance":1377,"i_long":106.858896,"station_name":"Matraman","station_id":"MTR","line":1,"transit":false},{"transit":false,"station_name":"Manggarai","i_lat":-6.209883,"i_long":106.84912,"is_transit":false,"time":2,"distance":1275,"station_id":"MRI","line":2},{"distance":3186,"i_lat":-6.202263,"i_long":106.822649,"line":1,"transit":false,"station_name":"Sudirman","is_transit":false,"time":4,"station_id":"SUD"},{"line":1,"i_lat":-6.201433,"station_id":"SUDB","is_transit":false,"transit":false,"distance":280,"time":1,"station_name":"Sudirman Baru","i_long":106.819881}]]}