{"data":[[{"i_lat":-6.32484,"transit":false,"station_id":"CSK","is_transit":false,"time":0,"distance":0,"i_long":106.640411,"station_name":"Cisauk","line":3},{"is_transit":false,"line":6,"distance":1784,"time":4,"station_name":"Serpong","i_lat":-6.319871,"i_long":106.66566,"transit":false,"station_id":"SRP"},{"is_transit":false,"distance":2413,"time":4,"station_name":"Rawa Buntu","station_id":"RU","transit":false,"i_long":106.675475,"i_lat":-6.314823,"line":6},{"is_transit":false,"station_id":"SDM","time":6,"i_long":106.712277,"transit":false,"distance":4566,"station_name":"Sudimara","i_lat":-6.296963,"line":6},{"i_lat":-6.288927,"distance":1994,"line":6,"is_transit":false,"transit":false,"station_id":"JMU","time":4,"station_name":"Jurangmangu","i_long":106.728916},{"i_lat":-6.276362,"i_long":106.74273,"distance":2179,"line":6,"transit":false,"is_transit":false,"station_id":"PDJ","time":3,"station_name":"Pondokranji"},{"i_long":106.780334,"transit":false,"station_id":"KBY","station_name":"Kebayoran","i_lat":-6.237242,"line":6,"distance":6218,"time":8,"is_transit":false},{"station_name":"Palmerah","i_long":106.79689,"time":7,"line":6,"station_id":"PLM","is_transit":false,"distance":3737,"transit":false,"i_lat":-6.207404},{"is_transit":true,"station_name":"Tanah Abang","transit":true,"time":6,"distance":3191,"line":1,"i_lat":-6.185545,"i_long":106.811091,"station_id":"THB"},{"i_lat":-6.20132,"distance":2029,"line":1,"time":5,"station_name":"Karet","station_id":"KAT","transit":false,"i_long":106.816351,"is_transit":false},{"i_long":106.819881,"distance":471,"transit":false,"station_name":"Sudirman Baru","line":1,"station_id":"SUDB","time":1,"i_lat":-6.201433,"is_transit":false},{"station_id":"SUD","station_name":"Sudirman","time":1,"i_long":106.822649,"line":1,"transit":false,"distance":280,"is_transit":false,"i_lat":-6.202263},{"i_lat":-6.209883,"is_transit":true,"transit":true,"distance":3186,"station_name":"Manggarai","time":4,"line":2,"station_id":"MRI","i_long":106.84912},{"station_name":"Tebet","is_transit":false,"station_id":"TEB","i_lat":-6.226659,"line":2,"transit":false,"distance":2610,"i_long":106.857948,"time":4},{"transit":false,"time":2,"station_id":"CW","i_long":106.856607,"i_lat":-6.242512,"station_name":"Cawang","distance":1230,"line":2,"is_transit":false},{"i_lat":-6.255332,"station_id":"DRN","i_long":106.85449,"is_transit":false,"line":2,"transit":false,"time":3,"distance":1546,"station_name":"Duren Kalibata"},{"transit":false,"station_name":"Pasar Minggu Baru","i_long":106.851577,"station_id":"PSMB","time":2,"line":2,"is_transit":false,"distance":824,"i_lat":-6.263214},{"distance":2380,"line":2,"is_transit":false,"transit":false,"time":2,"station_name":"Pasar Minggu","i_lat":-6.2842400000000005,"i_long":106.843999,"station_id":"PSM"},{"is_transit":false,"distance":2820,"i_long":106.838896,"line":2,"station_id":"TNT","time":4,"transit":false,"station_name":"Tanjung Barat","i_lat":-6.3080680000000005},{"line":2,"i_lat":-6.330363,"distance":2671,"i_long":106.832616,"time":3,"station_name":"Lenteng Agung","station_id":"LNA","is_transit":false,"transit":false},{"time":2,"distance":1029,"i_long":106.834175,"line":2,"station_name":"Univ. Pancasila","is_transit":false,"i_lat":-6.339291,"station_id":"UP","transit":false},{"i_long":106.831474,"line":2,"distance":2264,"station_name":"Univ. Indonesia","is_transit":false,"transit":false,"time":3,"station_id":"UI","i_lat":-6.360749},{"line":2,"i_long":106.831114,"is_transit":false,"time":2,"i_lat":-6.369073,"station_id":"POC","transit":false,"station_name":"Pondok Cina","distance":1109},{"i_lat":-6.391065,"i_long":106.819451,"station_id":"DPB","line":2,"is_transit":false,"distance":2727,"station_name":"Depokbaru","time":4,"transit":false},{"distance":1584,"i_long":106.816926,"line":2,"time":3,"station_id":"DP","is_transit":false,"i_lat":-6.405256,"transit":false,"station_name":"Depok"},{"time":6,"transit":false,"i_long":106.800298,"line":2,"station_id":"CTA","i_lat":-6.448811,"is_transit":false,"distance":5084,"station_name":"Citayam"},{"i_long":106.792719,"station_name":"Bojonggede","line":2,"is_transit":false,"transit":false,"distance":5197,"i_lat":-6.493243,"station_id":"BJD","time":5},{"line":2,"time":5,"transit":false,"i_lat":-6.530544,"station_id":"CLT","station_name":"Cilebut","distance":4331,"i_long":106.800016,"is_transit":false},{"line":2,"distance":7514,"i_long":106.790574,"time":9,"i_lat":-6.594596,"transit":false,"station_id":"BOO","station_name":"Bogor","is_transit":false}],[{"is_transit":false,"line":3,"station_id":"CSK","time":0,"transit":false,"distance":0,"station_name":"Cisauk","i_lat":-6.32484,"i_long":106.640411},{"i_lat":-6.319871,"line":6,"time":4,"i_long":106.66566,"transit":false,"station_id":"SRP","distance":1784,"is_transit":false,"station_name":"Serpong"},{"distance":2413,"i_lat":-6.314823,"i_long":106.675475,"line":6,"station_id":"RU","transit":false,"is_transit":false,"station_name":"Rawa Buntu","time":4},{"time":6,"is_transit":false,"line":6,"station_name":"Sudimara","station_id":"SDM","i_lat":-6.296963,"transit":false,"i_long":106.712277,"distance":4566},{"is_transit":false,"transit":false,"distance":1994,"station_name":"Jurangmangu","station_id":"JMU","line":6,"i_long":106.728916,"time":4,"i_lat":-6.288927},{"i_lat":-6.276362,"i_long":106.74273,"line":6,"time":3,"station_name":"Pondokranji","is_transit":false,"distance":2179,"station_id":"PDJ","transit":false},{"transit":false,"time":8,"i_lat":-6.237242,"i_long":106.780334,"station_name":"Kebayoran","is_transit":false,"station_id":"KBY","line":6,"distance":6218},{"i_lat":-6.207404,"i_long":106.79689,"time":7,"transit":false,"line":6,"station_id":"PLM","distance":3737,"station_name":"Palmerah","is_transit":false},{"time":6,"station_id":"THB","transit":true,"distance":3191,"i_lat":-6.185545,"i_long":106.811091,"is_transit":true,"station_name":"Tanah Abang","line":1},{"distance":3632,"i_long":106.800832,"line":1,"i_lat":-6.155215,"transit":false,"station_name":"Duri","time":8,"is_transit":false,"station_id":"DU"},{"station_name":"Angke","distance":1230,"i_lat":-6.144674,"station_id":"AK","time":4,"transit":false,"is_transit":false,"i_long":106.79867,"line":1},{"time":9,"station_name":"Kampung Bandan","i_lat":-6.132549,"distance":4102,"station_id":"KPB","transit":true,"is_transit":true,"i_long":106.826365,"line":4},{"station_name":"Jakarta Kota","time":3,"transit":true,"i_lat":-6.137569,"line":2,"i_long":106.812439,"station_id":"JAKK","distance":1364,"is_transit":true},{"is_transit":false,"distance":1264,"station_name":"Jayakarta","i_long":106.820901,"time":4,"transit":false,"station_id":"JAY","i_lat":-6.141205,"line":2},{"line":2,"transit":false,"distance":1080,"time":2,"i_lat":-6.149769,"station_name":"Manggabesar","i_long":106.82482,"station_id":"MGB","is_transit":false},{"is_transit":false,"distance":906,"station_name":"Sawah Besar","i_lat":-6.160725,"transit":false,"i_long":106.827103,"line":2,"time":2,"station_id":"SW"},{"line":2,"station_id":"JUA","is_transit":false,"time":2,"i_long":106.828284,"distance":1149,"station_name":"Juanda","i_lat":-6.166716,"transit":false},{"transit":false,"station_id":"GDD","is_transit":false,"station_name":"Gondangdia","i_lat":-6.186295,"i_long":106.832183,"line":2,"time":4,"distance":2015},{"line":2,"is_transit":false,"time":3,"distance":1750,"i_long":106.840169,"station_id":"CKI","station_name":"Cikini","transit":false,"i_lat":-6.198556},{"i_long":106.84912,"transit":false,"i_lat":-6.209883,"is_transit":false,"line":2,"station_id":"MRI","distance":1590,"time":4,"station_name":"Manggarai"},{"transit":false,"is_transit":false,"i_long":106.857948,"i_lat":-6.226659,"line":2,"time":4,"station_name":"Tebet","station_id":"TEB","distance":2610},{"i_long":106.856607,"station_id":"CW","distance":1230,"i_lat":-6.242512,"is_transit":false,"line":2,"transit":false,"time":2,"station_name":"Cawang"},{"distance":1546,"i_long":106.85449,"is_transit":false,"line":2,"i_lat":-6.255332,"transit":false,"station_id":"DRN","time":3,"station_name":"Duren Kalibata"},{"distance":824,"i_long":106.851577,"line":2,"i_lat":-6.263214,"time":2,"station_id":"PSMB","is_transit":false,"station_name":"Pasar Minggu Baru","transit":false},{"station_name":"Pasar Minggu","distance":2380,"i_long":106.843999,"station_id":"PSM","time":2,"is_transit":false,"line":2,"i_lat":-6.2842400000000005,"transit":false},{"station_name":"Tanjung Barat","transit":false,"station_id":"TNT","is_transit":false,"distance":2820,"time":4,"i_lat":-6.3080680000000005,"i_long":106.838896,"line":2},{"i_long":106.832616,"line":2,"distance":2671,"transit":false,"station_id":"LNA","time":3,"i_lat":-6.330363,"station_name":"Lenteng Agung","is_transit":false},{"station_id":"UP","i_long":106.834175,"line":2,"is_transit":false,"distance":1029,"transit":false,"time":2,"station_name":"Univ. Pancasila","i_lat":-6.339291},{"station_name":"Univ. Indonesia","station_id":"UI","distance":2264,"i_lat":-6.360749,"time":3,"transit":false,"i_long":106.831474,"line":2,"is_transit":false},{"distance":1109,"station_id":"POC","time":2,"is_transit":false,"i_lat":-6.369073,"station_name":"Pondok Cina","transit":false,"line":2,"i_long":106.831114},{"is_transit":false,"transit":false,"distance":2727,"station_id":"DPB","i_long":106.819451,"i_lat":-6.391065,"station_name":"Depokbaru","time":4,"line":2},{"transit":false,"i_long":106.816926,"station_name":"Depok","line":2,"station_id":"DP","is_transit":false,"i_lat":-6.405256,"time":3,"distance":1584},{"i_lat":-6.448811,"transit":false,"i_long":106.800298,"station_id":"CTA","time":6,"line":2,"station_name":"Citayam","distance":5084,"is_transit":false},{"station_id":"BJD","i_long":106.792719,"is_transit":false,"line":2,"i_lat":-6.493243,"station_name":"Bojonggede","distance":5197,"time":5,"transit":false},{"line":2,"station_name":"Cilebut","transit":false,"i_lat":-6.530544,"i_long":106.800016,"time":5,"is_transit":false,"station_id":"CLT","distance":4331},{"transit":false,"distance":7514,"i_long":106.790574,"line":2,"station_name":"Bogor","i_lat":-6.594596,"time":9,"is_transit":false,"station_id":"BOO"}],[{"line":3,"time":0,"distance":0,"station_id":"CSK","station_name":"Cisauk","transit":false,"i_lat":-6.32484,"i_long":106.640411,"is_transit":false},{"distance":1784,"transit":false,"is_transit":false,"i_lat":-6.319871,"station_name":"Serpong","station_id":"SRP","line":6,"i_long":106.66566,"time":4},{"distance":2413,"station_name":"Rawa Buntu","i_lat":-6.314823,"i_long":106.675475,"line":6,"is_transit":false,"station_id":"RU","transit":false,"time":4},{"transit":false,"distance":4566,"is_transit":false,"time":6,"i_lat":-6.296963,"station_id":"SDM","i_long":106.712277,"line":6,"station_name":"Sudimara"},{"transit":false,"i_lat":-6.288927,"is_transit":false,"time":4,"distance":1994,"line":6,"station_name":"Jurangmangu","station_id":"JMU","i_long":106.728916},{"time":3,"line":6,"i_long":106.74273,"station_id":"PDJ","transit":false,"is_transit":false,"distance":2179,"station_name":"Pondokranji","i_lat":-6.276362},{"distance":6218,"i_lat":-6.237242,"station_id":"KBY","time":8,"transit":false,"station_name":"Kebayoran","i_long":106.780334,"line":6,"is_transit":false},{"distance":3737,"station_id":"PLM","time":7,"line":6,"i_long":106.79689,"i_lat":-6.207404,"transit":false,"station_name":"Palmerah","is_transit":false},{"is_transit":true,"transit":true,"line":1,"distance":3191,"station_name":"Tanah Abang","time":6,"i_lat":-6.185545,"i_long":106.811091,"station_id":"THB"},{"station_name":"Duri","i_lat":-6.155215,"is_transit":false,"time":8,"i_long":106.800832,"line":1,"transit":false,"distance":3632,"station_id":"DU"},{"i_lat":-6.144674,"is_transit":false,"station_id":"AK","line":1,"i_long":106.79867,"station_name":"Angke","time":4,"distance":1230,"transit":false},{"i_lat":-6.132549,"line":4,"transit":true,"station_id":"KPB","is_transit":true,"time":9,"distance":4102,"i_long":106.826365,"station_name":"Kampung Bandan"},{"distance":1444,"time":3,"transit":false,"station_name":"Rajawali","i_long":106.836569,"line":11,"is_transit":false,"i_lat":-6.14505,"station_id":"RJW"},{"line":11,"station_name":"Kemayoran","transit":false,"i_long":106.839204,"station_id":"KMO","is_transit":false,"time":5,"distance":1901,"i_lat":-6.161728},{"station_id":"PSE","line":11,"station_name":"Pasar Senen","time":4,"is_transit":false,"distance":1436,"i_long":106.84368,"i_lat":-6.174784,"transit":false},{"distance":1567,"transit":false,"i_lat":-6.185975,"i_long":106.850107,"is_transit":false,"time":8,"station_name":"Gang Sentiong","line":11,"station_id":"GST"},{"i_long":106.855437,"is_transit":false,"i_lat":-6.193792,"station_id":"KMT","time":1,"distance":973,"station_name":"Kramat","line":11,"transit":false},{"station_id":"POK","time":2,"transit":false,"i_lat":-6.209188,"line":11,"station_name":"Pondok Jati","distance":1829,"is_transit":false,"i_long":106.861737},{"is_transit":true,"transit":true,"time":9,"distance":1236,"station_id":"JNG","i_lat":-6.215091,"i_long":106.86807400000001,"line":1,"station_name":"Jatinegara"},{"is_transit":false,"time":2,"line":1,"i_lat":-6.212485,"transit":false,"station_id":"MTR","distance":1377,"station_name":"Matraman","i_long":106.858896},{"transit":true,"i_lat":-6.209883,"is_transit":true,"station_id":"MRI","station_name":"Manggarai","i_long":106.84912,"time":2,"distance":1275,"line":2},{"time":4,"station_name":"Tebet","line":2,"i_lat":-6.226659,"transit":false,"i_long":106.857948,"distance":2610,"station_id":"TEB","is_transit":false},{"time":2,"i_lat":-6.242512,"is_transit":false,"station_id":"CW","line":2,"station_name":"Cawang","i_long":106.856607,"transit":false,"distance":1230},{"distance":1546,"station_id":"DRN","line":2,"i_long":106.85449,"i_lat":-6.255332,"is_transit":false,"station_name":"Duren Kalibata","transit":false,"time":3},{"station_id":"PSMB","time":2,"i_long":106.851577,"distance":824,"is_transit":false,"line":2,"i_lat":-6.263214,"station_name":"Pasar Minggu Baru","transit":false},{"i_lat":-6.2842400000000005,"transit":false,"station_id":"PSM","time":2,"distance":2380,"station_name":"Pasar Minggu","i_long":106.843999,"line":2,"is_transit":false},{"time":4,"line":2,"is_transit":false,"station_name":"Tanjung Barat","i_lat":-6.3080680000000005,"i_long":106.838896,"transit":false,"station_id":"TNT","distance":2820},{"transit":false,"time":3,"is_transit":false,"distance":2671,"station_name":"Lenteng Agung","i_long":106.832616,"i_lat":-6.330363,"station_id":"LNA","line":2},{"distance":1029,"is_transit":false,"i_lat":-6.339291,"station_id":"UP","station_name":"Univ. Pancasila","transit":false,"line":2,"time":2,"i_long":106.834175},{"i_lat":-6.360749,"is_transit":false,"transit":false,"station_id":"UI","i_long":106.831474,"time":3,"distance":2264,"line":2,"station_name":"Univ. Indonesia"},{"station_name":"Pondok Cina","transit":false,"i_long":106.831114,"station_id":"POC","time":2,"distance":1109,"i_lat":-6.369073,"line":2,"is_transit":false},{"station_name":"Depokbaru","time":4,"transit":false,"station_id":"DPB","line":2,"i_lat":-6.391065,"i_long":106.819451,"is_transit":false,"distance":2727},{"station_name":"Depok","station_id":"DP","time":3,"distance":1584,"i_lat":-6.405256,"transit":false,"is_transit":false,"line":2,"i_long":106.816926},{"is_transit":false,"station_id":"CTA","station_name":"Citayam","transit":false,"time":6,"i_lat":-6.448811,"distance":5084,"i_long":106.800298,"line":2},{"transit":false,"line":2,"station_id":"BJD","i_lat":-6.493243,"i_long":106.792719,"is_transit":false,"time":5,"distance":5197,"station_name":"Bojonggede"},{"time":5,"distance":4331,"i_long":106.800016,"station_name":"Cilebut","transit":false,"station_id":"CLT","is_transit":false,"line":2,"i_lat":-6.530544},{"transit":false,"station_id":"BOO","is_transit":false,"i_lat":-6.594596,"i_long":106.790574,"time":9,"distance":7514,"station_name":"Bogor","line":2}]]}