{"data":[[{"station_id":"CSK","time":0,"transit":false,"station_name":"Cisauk","is_transit":false,"line":0,"distance":0,"i_lat":-6.32484,"i_long":106.640411},{"transit":false,"i_lat":-6.329547,"line":0,"is_transit":false,"station_id":"CC","station_name":"Cicayur","time":4,"i_long":106.617853,"distance":2519},{"transit":false,"line":6,"i_lat":-6.3441410000000005,"is_transit":false,"time":8,"station_name":"Parung Panjang","i_long":106.568863,"station_id":"PRP","distance":5968},{"station_name":"Cilejit","is_transit":false,"station_id":"CJT","transit":false,"distance":7025,"i_long":106.508482,"line":0,"time":9,"i_lat":-6.354349},{"i_lat":-6.338021,"i_long":106.491338,"line":0,"station_name":"Daru","station_id":"DAR","distance":2675,"is_transit":false,"transit":false,"time":6},{"line":6,"i_lat":-6.327251,"station_name":"Tenjo","time":5,"is_transit":false,"transit":false,"station_id":"TEJ","distance":3902,"i_long":106.460812},{"line":6,"station_id":"TGS","station_name":"Tigaraksa","i_lat":-6.328533,"i_long":106.425991,"distance":2974,"transit":false,"is_transit":false,"time":5},{"transit":false,"time":3,"distance":2651,"is_transit":false,"line":0,"i_lat":-6.33561,"i_long":106.411216,"station_name":"Cikoya","station_id":"CKY"},{"line":6,"station_name":"Maja","time":4,"transit":false,"station_id":"MJ","i_lat":-6.332307,"i_long":106.394373,"distance":1853,"is_transit":false},{"line":0,"is_transit":false,"transit":false,"station_id":"CTR","i_lat":-6.334892,"station_name":"Citeras","time":10,"distance":7293,"i_long":106.332092}]]}