{"data":[[{"transit":false,"i_long":106.640411,"station_id":"CSK","line":3,"station_name":"Cisauk","distance":0,"i_lat":-6.32484,"time":0,"is_transit":false},{"i_lat":-6.329547,"time":4,"line":3,"i_long":106.617853,"station_name":"Cicayur","transit":false,"station_id":"CC","distance":2519,"is_transit":false},{"station_id":"PRP","i_long":106.568863,"line":6,"station_name":"Parung Panjang","time":8,"is_transit":false,"i_lat":-6.3441410000000005,"distance":5968,"transit":false},{"station_name":"Cilejit","i_lat":-6.354349,"distance":7025,"station_id":"CJT","i_long":106.508482,"line":3,"is_transit":false,"time":9,"transit":false},{"station_name":"Daru","transit":false,"is_transit":false,"station_id":"DAR","distance":2675,"i_lat":-6.338021,"time":6,"i_long":106.491338,"line":0},{"is_transit":false,"time":5,"station_name":"Tenjo","i_lat":-6.327251,"i_long":106.460812,"station_id":"TEJ","line":6,"distance":3902,"transit":false},{"i_long":106.425991,"transit":false,"line":6,"time":5,"station_id":"TGS","i_lat":-6.328533,"distance":2974,"is_transit":false,"station_name":"Tigaraksa"},{"transit":false,"time":3,"i_long":106.411216,"distance":2651,"station_name":"Cikoya","line":3,"station_id":"CKY","is_transit":false,"i_lat":-6.33561},{"distance":1853,"line":6,"is_transit":false,"time":4,"station_name":"Maja","i_long":106.394373,"station_id":"MJ","i_lat":-6.332307,"transit":false},{"i_lat":-6.334892,"i_long":106.332092,"line":3,"time":10,"station_id":"CTR","is_transit":false,"station_name":"Citeras","distance":7293,"transit":false}]]}