{"data":[[{"station_id":"CSK","transit":false,"is_transit":false,"distance":0,"i_lat":-6.32484,"i_long":106.640411,"line":3,"station_name":"Cisauk","time":0},{"time":4,"distance":2519,"is_transit":false,"i_lat":-6.329547,"station_name":"Cicayur","i_long":106.617853,"transit":false,"station_id":"CC","line":3},{"station_name":"Parung Panjang","line":6,"time":8,"i_long":106.568863,"station_id":"PRP","is_transit":false,"i_lat":-6.3441410000000005,"distance":5968,"transit":false},{"distance":7025,"time":9,"i_long":106.508482,"i_lat":-6.354349,"is_transit":false,"transit":false,"station_name":"Cilejit","station_id":"CJT","line":3},{"time":6,"i_lat":-6.338021,"transit":false,"station_name":"Daru","distance":2675,"i_long":106.491338,"line":0,"station_id":"DAR","is_transit":false}]]}