{"data":[[{"transit":false,"time":0,"line":3,"station_name":"Cisauk","distance":0,"is_transit":false,"i_long":106.640411,"station_id":"CSK","i_lat":-6.32484},{"time":4,"i_lat":-6.319871,"transit":false,"i_long":106.66566,"is_transit":false,"station_id":"SRP","distance":1784,"station_name":"Serpong","line":6},{"distance":2413,"i_lat":-6.314823,"line":6,"station_name":"Rawa Buntu","transit":false,"time":4,"station_id":"RU","is_transit":false,"i_long":106.675475},{"time":6,"i_lat":-6.296963,"i_long":106.712277,"distance":4566,"line":6,"transit":false,"station_id":"SDM","station_name":"Sudimara","is_transit":false},{"line":6,"is_transit":false,"distance":1994,"transit":false,"station_id":"JMU","i_lat":-6.288927,"station_name":"Jurangmangu","time":4,"i_long":106.728916},{"i_lat":-6.276362,"station_name":"Pondokranji","station_id":"PDJ","line":6,"distance":2179,"is_transit":false,"time":3,"transit":false,"i_long":106.74273},{"station_id":"KBY","i_lat":-6.237242,"station_name":"Kebayoran","distance":6218,"time":8,"is_transit":false,"i_long":106.780334,"transit":false,"line":6},{"station_name":"Palmerah","transit":false,"station_id":"PLM","is_transit":false,"line":6,"i_lat":-6.207404,"i_long":106.79689,"time":7,"distance":3737},{"distance":3191,"i_long":106.811091,"transit":true,"line":1,"is_transit":true,"station_id":"THB","i_lat":-6.185545,"station_name":"Tanah Abang","time":6},{"is_transit":false,"station_name":"Karet","distance":2029,"transit":false,"station_id":"KAT","i_long":106.816351,"time":5,"i_lat":-6.20132,"line":1},{"line":1,"i_long":106.819881,"station_id":"SUDB","time":1,"distance":471,"is_transit":false,"transit":false,"i_lat":-6.201433,"station_name":"Sudirman Baru"},{"time":1,"is_transit":false,"i_lat":-6.202263,"i_long":106.822649,"distance":280,"transit":false,"station_name":"Sudirman","station_id":"SUD","line":1},{"i_long":106.84912,"station_id":"MRI","transit":true,"i_lat":-6.209883,"distance":3186,"station_name":"Manggarai","is_transit":true,"time":4,"line":2},{"line":2,"i_long":106.857948,"time":4,"is_transit":false,"distance":2610,"station_name":"Tebet","transit":false,"i_lat":-6.226659,"station_id":"TEB"},{"time":2,"i_long":106.856607,"i_lat":-6.242512,"station_id":"CW","line":2,"distance":1230,"station_name":"Cawang","is_transit":false,"transit":false},{"distance":1546,"time":3,"station_id":"DRN","station_name":"Duren Kalibata","transit":false,"is_transit":false,"i_lat":-6.255332,"i_long":106.85449,"line":2},{"station_name":"Pasar Minggu Baru","is_transit":false,"line":2,"distance":824,"transit":false,"i_lat":-6.263214,"i_long":106.851577,"time":2,"station_id":"PSMB"},{"is_transit":false,"station_id":"PSM","i_lat":-6.2842400000000005,"time":2,"line":2,"transit":false,"i_long":106.843999,"distance":2380,"station_name":"Pasar Minggu"},{"transit":false,"time":4,"i_long":106.838896,"is_transit":false,"line":2,"i_lat":-6.3080680000000005,"station_name":"Tanjung Barat","distance":2820,"station_id":"TNT"},{"line":2,"time":3,"i_lat":-6.330363,"transit":false,"i_long":106.832616,"station_name":"Lenteng Agung","station_id":"LNA","distance":2671,"is_transit":false},{"transit":false,"i_lat":-6.339291,"station_name":"Univ. Pancasila","line":2,"time":2,"station_id":"UP","i_long":106.834175,"is_transit":false,"distance":1029},{"distance":2264,"is_transit":false,"line":2,"time":3,"i_long":106.831474,"station_id":"UI","i_lat":-6.360749,"transit":false,"station_name":"Univ. Indonesia"},{"i_long":106.831114,"line":2,"time":2,"is_transit":false,"transit":false,"station_name":"Pondok Cina","distance":1109,"station_id":"POC","i_lat":-6.369073},{"time":4,"station_id":"DPB","i_lat":-6.391065,"distance":2727,"i_long":106.819451,"line":2,"transit":false,"is_transit":false,"station_name":"Depokbaru"}],[{"time":0,"station_id":"CSK","is_transit":false,"transit":false,"station_name":"Cisauk","line":3,"i_lat":-6.32484,"distance":0,"i_long":106.640411},{"transit":false,"i_long":106.66566,"time":4,"station_id":"SRP","i_lat":-6.319871,"line":6,"distance":1784,"is_transit":false,"station_name":"Serpong"},{"station_id":"RU","i_lat":-6.314823,"distance":2413,"station_name":"Rawa Buntu","transit":false,"i_long":106.675475,"line":6,"is_transit":false,"time":4},{"i_long":106.712277,"transit":false,"line":6,"is_transit":false,"distance":4566,"station_name":"Sudimara","time":6,"station_id":"SDM","i_lat":-6.296963},{"time":4,"line":6,"i_long":106.728916,"transit":false,"is_transit":false,"distance":1994,"station_name":"Jurangmangu","station_id":"JMU","i_lat":-6.288927},{"is_transit":false,"i_long":106.74273,"station_name":"Pondokranji","distance":2179,"time":3,"station_id":"PDJ","line":6,"i_lat":-6.276362,"transit":false},{"i_lat":-6.237242,"i_long":106.780334,"distance":6218,"station_name":"Kebayoran","line":6,"time":8,"transit":false,"is_transit":false,"station_id":"KBY"},{"i_long":106.79689,"distance":3737,"station_name":"Palmerah","time":7,"line":6,"station_id":"PLM","transit":false,"is_transit":false,"i_lat":-6.207404},{"station_id":"THB","i_long":106.811091,"line":1,"transit":true,"distance":3191,"is_transit":true,"time":6,"i_lat":-6.185545,"station_name":"Tanah Abang"},{"station_name":"Duri","station_id":"DU","i_lat":-6.155215,"time":8,"i_long":106.800832,"distance":3632,"is_transit":false,"line":1,"transit":false},{"i_lat":-6.144674,"station_id":"AK","i_long":106.79867,"distance":1230,"is_transit":false,"time":4,"station_name":"Angke","transit":false,"line":1},{"station_id":"KPB","i_lat":-6.132549,"time":9,"is_transit":true,"line":4,"i_long":106.826365,"distance":4102,"transit":true,"station_name":"Kampung Bandan"},{"time":3,"line":2,"station_name":"Jakarta Kota","distance":1364,"i_lat":-6.137569,"transit":true,"is_transit":true,"i_long":106.812439,"station_id":"JAKK"},{"time":4,"i_lat":-6.141205,"transit":false,"station_id":"JAY","distance":1264,"line":2,"station_name":"Jayakarta","i_long":106.820901,"is_transit":false},{"distance":1080,"station_id":"MGB","transit":false,"is_transit":false,"time":2,"station_name":"Manggabesar","i_long":106.82482,"i_lat":-6.149769,"line":2},{"line":2,"i_long":106.827103,"time":2,"station_id":"SW","station_name":"Sawah Besar","transit":false,"is_transit":false,"distance":906,"i_lat":-6.160725},{"i_lat":-6.166716,"station_name":"Juanda","is_transit":false,"i_long":106.828284,"station_id":"JUA","time":2,"distance":1149,"line":2,"transit":false},{"station_id":"GDD","i_lat":-6.186295,"i_long":106.832183,"station_name":"Gondangdia","distance":2015,"time":4,"line":2,"is_transit":false,"transit":false},{"station_name":"Cikini","transit":false,"line":2,"i_long":106.840169,"time":3,"distance":1750,"station_id":"CKI","i_lat":-6.198556,"is_transit":false},{"line":2,"station_id":"MRI","i_long":106.84912,"is_transit":false,"i_lat":-6.209883,"time":4,"transit":false,"distance":1590,"station_name":"Manggarai"},{"distance":2610,"time":4,"i_lat":-6.226659,"transit":false,"is_transit":false,"station_id":"TEB","station_name":"Tebet","line":2,"i_long":106.857948},{"i_lat":-6.242512,"station_name":"Cawang","transit":false,"i_long":106.856607,"time":2,"station_id":"CW","line":2,"is_transit":false,"distance":1230},{"distance":1546,"is_transit":false,"station_name":"Duren Kalibata","i_long":106.85449,"line":2,"time":3,"i_lat":-6.255332,"station_id":"DRN","transit":false},{"is_transit":false,"station_name":"Pasar Minggu Baru","station_id":"PSMB","transit":false,"time":2,"i_long":106.851577,"line":2,"distance":824,"i_lat":-6.263214},{"station_name":"Pasar Minggu","distance":2380,"is_transit":false,"line":2,"transit":false,"time":2,"station_id":"PSM","i_lat":-6.2842400000000005,"i_long":106.843999},{"is_transit":false,"line":2,"station_name":"Tanjung Barat","i_lat":-6.3080680000000005,"transit":false,"distance":2820,"time":4,"station_id":"TNT","i_long":106.838896},{"station_name":"Lenteng Agung","i_long":106.832616,"time":3,"is_transit":false,"distance":2671,"transit":false,"i_lat":-6.330363,"station_id":"LNA","line":2},{"station_id":"UP","transit":false,"line":2,"i_long":106.834175,"i_lat":-6.339291,"distance":1029,"time":2,"is_transit":false,"station_name":"Univ. Pancasila"},{"transit":false,"is_transit":false,"time":3,"line":2,"i_long":106.831474,"i_lat":-6.360749,"distance":2264,"station_id":"UI","station_name":"Univ. Indonesia"},{"time":2,"station_name":"Pondok Cina","is_transit":false,"distance":1109,"i_lat":-6.369073,"station_id":"POC","i_long":106.831114,"line":2,"transit":false},{"line":2,"i_long":106.819451,"i_lat":-6.391065,"transit":false,"station_id":"DPB","is_transit":false,"time":4,"distance":2727,"station_name":"Depokbaru"}],[{"station_name":"Cisauk","distance":0,"station_id":"CSK","is_transit":false,"i_lat":-6.32484,"line":3,"transit":false,"time":0,"i_long":106.640411},{"i_lat":-6.319871,"is_transit":false,"line":6,"time":4,"station_id":"SRP","transit":false,"i_long":106.66566,"station_name":"Serpong","distance":1784},{"i_long":106.675475,"station_name":"Rawa Buntu","time":4,"station_id":"RU","distance":2413,"line":6,"is_transit":false,"transit":false,"i_lat":-6.314823},{"is_transit":false,"time":6,"distance":4566,"station_id":"SDM","i_long":106.712277,"transit":false,"i_lat":-6.296963,"station_name":"Sudimara","line":6},{"i_long":106.728916,"i_lat":-6.288927,"is_transit":false,"time":4,"distance":1994,"station_name":"Jurangmangu","line":6,"station_id":"JMU","transit":false},{"station_id":"PDJ","i_lat":-6.276362,"is_transit":false,"i_long":106.74273,"line":6,"station_name":"Pondokranji","time":3,"transit":false,"distance":2179},{"transit":false,"time":8,"is_transit":false,"station_id":"KBY","i_long":106.780334,"distance":6218,"station_name":"Kebayoran","line":6,"i_lat":-6.237242},{"is_transit":false,"transit":false,"time":7,"station_id":"PLM","line":6,"distance":3737,"i_long":106.79689,"i_lat":-6.207404,"station_name":"Palmerah"},{"i_lat":-6.185545,"i_long":106.811091,"time":6,"is_transit":true,"station_id":"THB","line":1,"transit":true,"station_name":"Tanah Abang","distance":3191},{"station_name":"Duri","is_transit":false,"station_id":"DU","time":8,"distance":3632,"line":1,"transit":false,"i_lat":-6.155215,"i_long":106.800832},{"station_id":"AK","line":1,"i_lat":-6.144674,"distance":1230,"time":4,"is_transit":false,"station_name":"Angke","i_long":106.79867,"transit":false},{"is_transit":true,"time":9,"i_lat":-6.132549,"distance":4102,"i_long":106.826365,"line":4,"transit":true,"station_name":"Kampung Bandan","station_id":"KPB"},{"station_name":"Rajawali","is_transit":false,"i_long":106.836569,"transit":false,"time":3,"station_id":"RJW","i_lat":-6.14505,"distance":1444,"line":11},{"station_name":"Kemayoran","i_lat":-6.161728,"transit":false,"time":5,"line":11,"station_id":"KMO","i_long":106.839204,"is_transit":false,"distance":1901},{"station_id":"PSE","station_name":"Pasar Senen","is_transit":false,"time":4,"i_long":106.84368,"line":11,"transit":false,"distance":1436,"i_lat":-6.174784},{"time":8,"station_id":"GST","i_lat":-6.185975,"distance":1567,"transit":false,"is_transit":false,"i_long":106.850107,"line":11,"station_name":"Gang Sentiong"},{"station_name":"Kramat","time":1,"is_transit":false,"station_id":"KMT","i_long":106.855437,"distance":973,"transit":false,"i_lat":-6.193792,"line":11},{"transit":false,"time":2,"distance":1829,"line":11,"i_long":106.861737,"station_id":"POK","is_transit":false,"station_name":"Pondok Jati","i_lat":-6.209188},{"line":1,"is_transit":true,"time":9,"station_name":"Jatinegara","transit":true,"i_lat":-6.215091,"station_id":"JNG","distance":1236,"i_long":106.86807400000001},{"i_long":106.858896,"distance":1377,"line":1,"station_name":"Matraman","transit":false,"time":2,"station_id":"MTR","i_lat":-6.212485,"is_transit":false},{"station_name":"Manggarai","station_id":"MRI","line":2,"i_lat":-6.209883,"time":2,"transit":true,"distance":1275,"is_transit":true,"i_long":106.84912},{"line":2,"station_name":"Tebet","transit":false,"is_transit":false,"time":4,"station_id":"TEB","i_lat":-6.226659,"distance":2610,"i_long":106.857948},{"i_long":106.856607,"transit":false,"i_lat":-6.242512,"time":2,"station_name":"Cawang","is_transit":false,"distance":1230,"line":2,"station_id":"CW"},{"i_lat":-6.255332,"transit":false,"time":3,"station_name":"Duren Kalibata","distance":1546,"i_long":106.85449,"station_id":"DRN","is_transit":false,"line":2},{"time":2,"i_lat":-6.263214,"is_transit":false,"distance":824,"line":2,"transit":false,"i_long":106.851577,"station_name":"Pasar Minggu Baru","station_id":"PSMB"},{"station_name":"Pasar Minggu","is_transit":false,"time":2,"i_long":106.843999,"line":2,"i_lat":-6.2842400000000005,"station_id":"PSM","distance":2380,"transit":false},{"distance":2820,"station_name":"Tanjung Barat","time":4,"is_transit":false,"station_id":"TNT","i_lat":-6.3080680000000005,"transit":false,"i_long":106.838896,"line":2},{"distance":2671,"transit":false,"time":3,"station_name":"Lenteng Agung","is_transit":false,"i_long":106.832616,"line":2,"i_lat":-6.330363,"station_id":"LNA"},{"i_lat":-6.339291,"is_transit":false,"line":2,"station_id":"UP","transit":false,"time":2,"distance":1029,"i_long":106.834175,"station_name":"Univ. Pancasila"},{"station_id":"UI","line":2,"i_lat":-6.360749,"transit":false,"time":3,"i_long":106.831474,"station_name":"Univ. Indonesia","is_transit":false,"distance":2264},{"i_lat":-6.369073,"i_long":106.831114,"distance":1109,"line":2,"station_name":"Pondok Cina","is_transit":false,"time":2,"station_id":"POC","transit":false},{"line":2,"transit":false,"distance":2727,"i_long":106.819451,"is_transit":false,"station_name":"Depokbaru","i_lat":-6.391065,"time":4,"station_id":"DPB"}]]}