{"data":[[{"station_id":"CSK","station_name":"Cisauk","transit":false,"line":0,"is_transit":false,"distance":0,"time":0,"i_lat":-6.32484,"i_long":106.640411},{"time":4,"distance":1784,"is_transit":false,"transit":false,"station_id":"SRP","i_lat":-6.319871,"i_long":106.66566,"line":6,"station_name":"Serpong"},{"is_transit":false,"distance":2413,"station_id":"RU","transit":false,"station_name":"Rawa Buntu","i_long":106.675475,"time":4,"i_lat":-6.314823,"line":6},{"distance":4566,"i_lat":-6.296963,"transit":false,"station_name":"Sudimara","is_transit":false,"i_long":106.712277,"line":6,"time":6,"station_id":"SDM"},{"station_name":"Jurangmangu","is_transit":false,"i_long":106.728916,"distance":1994,"i_lat":-6.288927,"line":6,"station_id":"JMU","time":4,"transit":false},{"i_lat":-6.276362,"time":3,"line":6,"is_transit":false,"distance":2179,"station_name":"Pondokranji","i_long":106.74273,"station_id":"PDJ","transit":false},{"transit":false,"distance":6218,"line":6,"station_id":"KBY","is_transit":false,"i_long":106.780334,"time":8,"i_lat":-6.237242,"station_name":"Kebayoran"},{"distance":3737,"station_name":"Palmerah","is_transit":false,"transit":false,"i_lat":-6.207404,"i_long":106.79689,"station_id":"PLM","line":6,"time":7},{"i_lat":-6.185545,"transit":true,"station_name":"Tanah Abang","station_id":"THB","time":6,"is_transit":true,"distance":3191,"line":1,"i_long":106.811091},{"is_transit":false,"time":5,"distance":2029,"transit":false,"line":1,"i_long":106.816351,"station_name":"Karet","i_lat":-6.20132,"station_id":"KAT"},{"i_lat":-6.201433,"line":1,"is_transit":false,"transit":false,"i_long":106.819881,"station_id":"SUDB","distance":471,"station_name":"Sudirman Baru","time":1},{"time":1,"transit":false,"station_name":"Sudirman","is_transit":false,"station_id":"SUD","i_lat":-6.202263,"i_long":106.822649,"distance":280,"line":1},{"station_name":"Manggarai","distance":3186,"is_transit":true,"transit":false,"line":0,"i_lat":-6.209883,"station_id":"MRI","time":4,"i_long":106.84912},{"transit":false,"line":1,"is_transit":false,"station_id":"MTR","distance":1275,"station_name":"Matraman","time":2,"i_lat":-6.212485,"i_long":106.858896},{"is_transit":true,"distance":1377,"transit":false,"i_long":106.86807400000001,"i_lat":-6.215091,"station_id":"JNG","station_name":"Jatinegara","line":0,"time":8},{"time":3,"i_long":106.899548,"transit":false,"is_transit":false,"station_id":"KLD","distance":3395,"line":1,"station_name":"Klender","i_lat":-6.2135},{"transit":false,"time":2,"i_long":106.922662,"distance":3100,"station_id":"BUA","is_transit":false,"station_name":"Buaran","i_lat":-6.215568,"line":0},{"station_id":"KLDB","i_long":106.939679,"distance":1305,"line":1,"station_name":"Klenderbaru","is_transit":false,"time":1,"i_lat":-6.217455,"transit":false},{"is_transit":false,"station_id":"CUK","i_long":106.951283,"line":0,"distance":1385,"time":8,"station_name":"Cakung","transit":false,"i_lat":-6.219053},{"i_lat":-6.224515,"line":1,"is_transit":false,"i_long":106.977657,"station_name":"Kranji","time":3,"station_id":"KRI","transit":false,"distance":3097},{"transit":false,"distance":2520,"is_transit":false,"station_name":"Bekasi","i_lat":-6.236616,"time":4,"i_long":106.997013,"line":0,"station_id":"BKS"},{"station_id":"BKST","transit":false,"i_lat":-6.248029,"distance":2368,"is_transit":false,"line":0,"time":2,"station_name":"Bekasi Timur","i_long":107.016735},{"i_long":107.055722,"station_id":"TB","is_transit":false,"distance":4460,"i_lat":-6.258864,"station_name":"Tambun","time":7,"transit":false,"line":1},{"i_lat":-6.261877,"distance":3420,"time":3,"i_long":107.083084,"is_transit":false,"transit":false,"line":0,"station_id":"CIT","station_name":"Cibitung"},{"line":1,"time":2,"distance":2800,"transit":false,"station_id":"TLM","station_name":"Metland Telaga Murni","i_lat":-6.262938,"is_transit":false,"i_long":107.093313}],[{"station_id":"CSK","distance":0,"i_lat":-6.32484,"line":0,"i_long":106.640411,"is_transit":false,"time":0,"station_name":"Cisauk","transit":false},{"station_id":"SRP","station_name":"Serpong","transit":false,"i_long":106.66566,"is_transit":false,"line":6,"i_lat":-6.319871,"distance":1784,"time":4},{"station_name":"Rawa Buntu","time":4,"distance":2413,"i_long":106.675475,"transit":false,"station_id":"RU","line":6,"i_lat":-6.314823,"is_transit":false},{"i_long":106.712277,"distance":4566,"is_transit":false,"station_id":"SDM","time":6,"station_name":"Sudimara","transit":false,"line":6,"i_lat":-6.296963},{"station_name":"Jurangmangu","line":6,"i_long":106.728916,"i_lat":-6.288927,"station_id":"JMU","is_transit":false,"time":4,"transit":false,"distance":1994},{"i_lat":-6.276362,"station_name":"Pondokranji","time":3,"distance":2179,"line":6,"transit":false,"is_transit":false,"station_id":"PDJ","i_long":106.74273},{"station_id":"KBY","distance":6218,"time":8,"station_name":"Kebayoran","i_long":106.780334,"i_lat":-6.237242,"transit":false,"line":6,"is_transit":false},{"transit":false,"station_name":"Palmerah","is_transit":false,"line":6,"i_lat":-6.207404,"time":7,"i_long":106.79689,"station_id":"PLM","distance":3737},{"is_transit":true,"time":6,"transit":true,"i_lat":-6.185545,"station_name":"Tanah Abang","station_id":"THB","i_long":106.811091,"distance":3191,"line":1},{"is_transit":true,"time":8,"station_id":"DU","station_name":"Duri","distance":3632,"i_lat":-6.155215,"i_long":106.800832,"transit":true,"line":1},{"distance":1230,"transit":false,"i_long":106.79867,"station_id":"AK","is_transit":false,"station_name":"Angke","time":4,"i_lat":-6.144674,"line":0},{"line":0,"station_name":"Kampung Bandan","i_long":106.826365,"is_transit":true,"distance":4102,"transit":true,"time":9,"i_lat":-6.132549,"station_id":"KPB"},{"i_lat":-6.14505,"distance":1444,"is_transit":false,"station_id":"RJW","time":3,"i_long":106.836569,"line":11,"station_name":"Rajawali","transit":false},{"is_transit":false,"distance":1901,"transit":false,"station_id":"KMO","i_lat":-6.161728,"line":11,"station_name":"Kemayoran","i_long":106.839204,"time":5},{"station_name":"Pasar Senen","is_transit":false,"distance":1436,"i_long":106.84368,"time":4,"i_lat":-6.174784,"line":11,"station_id":"PSE","transit":false},{"i_lat":-6.185975,"distance":1567,"station_name":"Gang Sentiong","i_long":106.850107,"station_id":"GST","time":8,"is_transit":false,"transit":false,"line":11},{"is_transit":false,"time":1,"i_long":106.855437,"station_name":"Kramat","line":11,"i_lat":-6.193792,"distance":973,"station_id":"KMT","transit":false},{"i_lat":-6.209188,"line":11,"i_long":106.861737,"is_transit":false,"time":2,"transit":false,"station_name":"Pondok Jati","distance":1829,"station_id":"POK"},{"line":0,"i_lat":-6.215091,"distance":1236,"i_long":106.86807400000001,"station_name":"Jatinegara","time":9,"station_id":"JNG","is_transit":true,"transit":true},{"transit":false,"distance":3395,"station_name":"Klender","line":1,"is_transit":false,"station_id":"KLD","i_lat":-6.2135,"time":3,"i_long":106.899548},{"distance":3100,"line":0,"i_long":106.922662,"station_name":"Buaran","time":2,"transit":false,"i_lat":-6.215568,"station_id":"BUA","is_transit":false},{"i_lat":-6.217455,"line":1,"transit":false,"station_id":"KLDB","i_long":106.939679,"time":1,"distance":1305,"station_name":"Klenderbaru","is_transit":false},{"transit":false,"station_name":"Cakung","line":0,"distance":1385,"is_transit":false,"i_lat":-6.219053,"time":8,"station_id":"CUK","i_long":106.951283},{"distance":3097,"i_long":106.977657,"i_lat":-6.224515,"is_transit":false,"line":1,"transit":false,"station_name":"Kranji","time":3,"station_id":"KRI"},{"station_name":"Bekasi","time":4,"transit":false,"i_lat":-6.236616,"station_id":"BKS","is_transit":false,"distance":2520,"line":0,"i_long":106.997013},{"transit":false,"distance":2368,"line":0,"i_lat":-6.248029,"station_id":"BKST","is_transit":false,"time":2,"station_name":"Bekasi Timur","i_long":107.016735},{"i_long":107.055722,"is_transit":false,"station_id":"TB","distance":4460,"time":7,"transit":false,"line":1,"i_lat":-6.258864,"station_name":"Tambun"},{"transit":false,"i_lat":-6.261877,"line":0,"time":3,"station_id":"CIT","distance":3420,"is_transit":false,"i_long":107.083084,"station_name":"Cibitung"},{"i_lat":-6.262938,"is_transit":false,"time":2,"transit":false,"i_long":107.093313,"line":1,"station_id":"TLM","distance":2800,"station_name":"Metland Telaga Murni"}],[{"is_transit":false,"i_long":106.640411,"station_name":"Cisauk","line":0,"station_id":"CSK","distance":0,"transit":false,"i_lat":-6.32484,"time":0},{"is_transit":false,"distance":1784,"transit":false,"line":6,"station_id":"SRP","i_long":106.66566,"i_lat":-6.319871,"time":4,"station_name":"Serpong"},{"station_id":"RU","is_transit":false,"transit":false,"time":4,"i_lat":-6.314823,"i_long":106.675475,"distance":2413,"line":6,"station_name":"Rawa Buntu"},{"time":6,"i_long":106.712277,"is_transit":false,"i_lat":-6.296963,"distance":4566,"transit":false,"line":6,"station_name":"Sudimara","station_id":"SDM"},{"time":4,"distance":1994,"i_long":106.728916,"station_name":"Jurangmangu","line":6,"transit":false,"is_transit":false,"i_lat":-6.288927,"station_id":"JMU"},{"transit":false,"is_transit":false,"time":3,"station_name":"Pondokranji","distance":2179,"station_id":"PDJ","i_long":106.74273,"i_lat":-6.276362,"line":6},{"is_transit":false,"transit":false,"i_lat":-6.237242,"time":8,"station_name":"Kebayoran","station_id":"KBY","line":6,"distance":6218,"i_long":106.780334},{"is_transit":false,"time":7,"station_id":"PLM","distance":3737,"i_lat":-6.207404,"i_long":106.79689,"line":6,"station_name":"Palmerah","transit":false},{"time":6,"transit":true,"station_id":"THB","is_transit":true,"i_lat":-6.185545,"line":1,"distance":3191,"station_name":"Tanah Abang","i_long":106.811091},{"station_name":"Duri","time":8,"transit":true,"i_lat":-6.155215,"line":1,"is_transit":true,"station_id":"DU","i_long":106.800832,"distance":3632},{"i_lat":-6.144674,"is_transit":false,"distance":1230,"line":0,"station_id":"AK","time":4,"transit":false,"i_long":106.79867,"station_name":"Angke"},{"station_id":"KPB","time":9,"transit":false,"i_lat":-6.132549,"station_name":"Kampung Bandan","is_transit":true,"distance":4102,"i_long":106.826365,"line":0},{"station_id":"JAKK","transit":true,"distance":1364,"i_long":106.812439,"i_lat":-6.137569,"time":3,"is_transit":true,"line":0,"station_name":"Jakarta Kota"},{"station_id":"JAY","distance":1264,"time":4,"line":7,"transit":false,"station_name":"Jayakarta","i_lat":-6.141205,"i_long":106.820901,"is_transit":false},{"station_id":"MGB","is_transit":false,"line":2,"i_long":106.82482,"station_name":"Manggabesar","i_lat":-6.149769,"time":2,"transit":false,"distance":1080},{"time":2,"station_name":"Sawah Besar","is_transit":false,"i_lat":-6.160725,"distance":906,"transit":false,"i_long":106.827103,"line":2,"station_id":"SW"},{"distance":1149,"is_transit":false,"i_lat":-6.166716,"time":2,"station_id":"JUA","i_long":106.828284,"line":2,"transit":false,"station_name":"Juanda"},{"i_lat":-6.186295,"line":2,"distance":2015,"station_name":"Gondangdia","transit":false,"is_transit":false,"time":4,"i_long":106.832183,"station_id":"GDD"},{"time":3,"transit":false,"station_id":"CKI","station_name":"Cikini","i_lat":-6.198556,"distance":1750,"i_long":106.840169,"is_transit":false,"line":0},{"i_lat":-6.209883,"line":0,"station_name":"Manggarai","is_transit":true,"distance":1590,"i_long":106.84912,"transit":true,"station_id":"MRI","time":4},{"transit":false,"station_id":"MTR","line":1,"i_lat":-6.212485,"time":2,"distance":1275,"station_name":"Matraman","is_transit":false,"i_long":106.858896},{"station_id":"JNG","i_long":106.86807400000001,"distance":1377,"i_lat":-6.215091,"line":0,"transit":false,"is_transit":true,"station_name":"Jatinegara","time":8},{"transit":false,"line":1,"distance":3395,"i_long":106.899548,"station_id":"KLD","station_name":"Klender","is_transit":false,"i_lat":-6.2135,"time":3},{"station_id":"BUA","transit":false,"is_transit":false,"i_lat":-6.215568,"line":0,"distance":3100,"station_name":"Buaran","time":2,"i_long":106.922662},{"station_id":"KLDB","time":1,"i_lat":-6.217455,"i_long":106.939679,"distance":1305,"station_name":"Klenderbaru","transit":false,"is_transit":false,"line":1},{"station_id":"CUK","station_name":"Cakung","distance":1385,"is_transit":false,"i_long":106.951283,"time":8,"transit":false,"i_lat":-6.219053,"line":0},{"i_long":106.977657,"station_id":"KRI","time":3,"distance":3097,"is_transit":false,"station_name":"Kranji","line":1,"transit":false,"i_lat":-6.224515},{"is_transit":false,"transit":false,"station_name":"Bekasi","time":4,"line":0,"i_lat":-6.236616,"i_long":106.997013,"station_id":"BKS","distance":2520},{"i_lat":-6.248029,"line":0,"station_id":"BKST","station_name":"Bekasi Timur","i_long":107.016735,"distance":2368,"transit":false,"is_transit":false,"time":2},{"station_id":"TB","is_transit":false,"distance":4460,"time":7,"i_long":107.055722,"station_name":"Tambun","transit":false,"i_lat":-6.258864,"line":1},{"i_long":107.083084,"i_lat":-6.261877,"time":3,"distance":3420,"transit":false,"station_id":"CIT","line":0,"station_name":"Cibitung","is_transit":false},{"station_id":"TLM","distance":2800,"line":1,"station_name":"Metland Telaga Murni","i_lat":-6.262938,"time":2,"is_transit":false,"transit":false,"i_long":107.093313}],[{"station_id":"CSK","time":0,"station_name":"Cisauk","i_long":106.640411,"distance":0,"i_lat":-6.32484,"transit":false,"is_transit":false,"line":0},{"station_name":"Serpong","line":6,"is_transit":false,"transit":false,"i_long":106.66566,"station_id":"SRP","time":4,"i_lat":-6.319871,"distance":1784},{"distance":2413,"is_transit":false,"i_lat":-6.314823,"line":6,"transit":false,"station_name":"Rawa Buntu","time":4,"station_id":"RU","i_long":106.675475},{"transit":false,"i_long":106.712277,"station_name":"Sudimara","line":6,"i_lat":-6.296963,"station_id":"SDM","is_transit":false,"time":6,"distance":4566},{"transit":false,"distance":1994,"station_id":"JMU","is_transit":false,"line":6,"station_name":"Jurangmangu","i_lat":-6.288927,"i_long":106.728916,"time":4},{"station_name":"Pondokranji","i_long":106.74273,"station_id":"PDJ","is_transit":false,"line":6,"distance":2179,"transit":false,"i_lat":-6.276362,"time":3},{"distance":6218,"station_id":"KBY","transit":false,"is_transit":false,"station_name":"Kebayoran","i_lat":-6.237242,"i_long":106.780334,"line":6,"time":8},{"line":6,"station_id":"PLM","distance":3737,"i_lat":-6.207404,"is_transit":false,"time":7,"transit":false,"station_name":"Palmerah","i_long":106.79689},{"is_transit":true,"station_id":"THB","time":6,"distance":3191,"transit":true,"i_lat":-6.185545,"station_name":"Tanah Abang","line":1,"i_long":106.811091},{"i_long":106.816351,"line":1,"is_transit":false,"time":5,"distance":2029,"i_lat":-6.20132,"station_id":"KAT","station_name":"Karet","transit":false},{"station_id":"SUDB","time":1,"i_lat":-6.201433,"line":1,"transit":false,"station_name":"Sudirman Baru","distance":471,"is_transit":false,"i_long":106.819881},{"distance":280,"transit":false,"is_transit":false,"line":1,"station_name":"Sudirman","station_id":"SUD","i_lat":-6.202263,"i_long":106.822649,"time":1},{"i_lat":-6.209883,"i_long":106.84912,"station_name":"Manggarai","station_id":"MRI","is_transit":true,"distance":3186,"time":4,"line":0,"transit":true},{"station_name":"Cikini","station_id":"CKI","distance":1590,"transit":false,"line":0,"i_lat":-6.198556,"is_transit":false,"time":4,"i_long":106.840169},{"time":3,"line":2,"station_name":"Gondangdia","transit":false,"i_long":106.832183,"station_id":"GDD","distance":1750,"i_lat":-6.186295,"is_transit":false},{"i_lat":-6.166716,"line":2,"i_long":106.828284,"is_transit":false,"station_name":"Juanda","transit":false,"distance":2015,"station_id":"JUA","time":4},{"transit":false,"station_name":"Sawah Besar","distance":1149,"i_long":106.827103,"station_id":"SW","is_transit":false,"line":2,"i_lat":-6.160725,"time":2},{"distance":906,"line":2,"i_lat":-6.149769,"station_id":"MGB","i_long":106.82482,"is_transit":false,"time":2,"transit":false,"station_name":"Manggabesar"},{"station_name":"Jayakarta","station_id":"JAY","line":7,"is_transit":false,"distance":1080,"i_lat":-6.141205,"time":2,"transit":false,"i_long":106.820901},{"distance":1264,"transit":true,"station_id":"JAKK","time":4,"line":0,"station_name":"Jakarta Kota","i_lat":-6.137569,"is_transit":true,"i_long":106.812439},{"station_id":"KPB","time":3,"i_lat":-6.132549,"i_long":106.826365,"line":0,"is_transit":true,"distance":1364,"station_name":"Kampung Bandan","transit":true},{"line":11,"time":3,"station_name":"Rajawali","transit":false,"is_transit":false,"station_id":"RJW","i_long":106.836569,"distance":1444,"i_lat":-6.14505},{"is_transit":false,"transit":false,"line":11,"distance":1901,"station_id":"KMO","station_name":"Kemayoran","i_lat":-6.161728,"i_long":106.839204,"time":5},{"line":11,"transit":false,"station_name":"Pasar Senen","distance":1436,"station_id":"PSE","is_transit":false,"time":4,"i_long":106.84368,"i_lat":-6.174784},{"line":11,"station_name":"Gang Sentiong","time":8,"is_transit":false,"distance":1567,"i_long":106.850107,"transit":false,"i_lat":-6.185975,"station_id":"GST"},{"i_lat":-6.193792,"is_transit":false,"station_id":"KMT","distance":973,"transit":false,"i_long":106.855437,"line":11,"station_name":"Kramat","time":1},{"is_transit":false,"distance":1829,"transit":false,"line":11,"i_lat":-6.209188,"i_long":106.861737,"time":2,"station_name":"Pondok Jati","station_id":"POK"},{"station_id":"JNG","i_lat":-6.215091,"time":9,"distance":1236,"line":0,"station_name":"Jatinegara","transit":true,"is_transit":true,"i_long":106.86807400000001},{"station_name":"Klender","time":3,"i_long":106.899548,"station_id":"KLD","i_lat":-6.2135,"is_transit":false,"distance":3395,"transit":false,"line":1},{"i_lat":-6.215568,"transit":false,"i_long":106.922662,"station_name":"Buaran","line":0,"station_id":"BUA","time":2,"is_transit":false,"distance":3100},{"distance":1305,"transit":false,"time":1,"is_transit":false,"i_lat":-6.217455,"station_name":"Klenderbaru","i_long":106.939679,"line":1,"station_id":"KLDB"},{"distance":1385,"station_id":"CUK","i_lat":-6.219053,"i_long":106.951283,"line":0,"time":8,"station_name":"Cakung","transit":false,"is_transit":false},{"time":3,"transit":false,"station_id":"KRI","distance":3097,"i_long":106.977657,"station_name":"Kranji","is_transit":false,"i_lat":-6.224515,"line":1},{"i_lat":-6.236616,"distance":2520,"transit":false,"time":4,"i_long":106.997013,"line":0,"is_transit":false,"station_name":"Bekasi","station_id":"BKS"},{"line":0,"i_lat":-6.248029,"is_transit":false,"transit":false,"i_long":107.016735,"station_name":"Bekasi Timur","time":2,"station_id":"BKST","distance":2368},{"time":7,"station_id":"TB","is_transit":false,"transit":false,"i_lat":-6.258864,"distance":4460,"i_long":107.055722,"station_name":"Tambun","line":1},{"distance":3420,"is_transit":false,"i_lat":-6.261877,"i_long":107.083084,"station_name":"Cibitung","time":3,"line":0,"transit":false,"station_id":"CIT"},{"line":1,"time":2,"station_name":"Metland Telaga Murni","is_transit":false,"i_lat":-6.262938,"station_id":"TLM","distance":2800,"transit":false,"i_long":107.093313}]]}