{"data":[[{"distance":0,"i_lat":-6.32484,"transit":false,"line":3,"station_name":"Cisauk","i_long":106.640411,"station_id":"CSK","time":0,"is_transit":false},{"i_lat":-6.319871,"station_name":"Serpong","station_id":"SRP","is_transit":false,"time":4,"distance":1784,"line":6,"i_long":106.66566,"transit":false},{"station_name":"Rawa Buntu","station_id":"RU","i_lat":-6.314823,"time":4,"line":6,"transit":false,"is_transit":false,"i_long":106.675475,"distance":2413},{"i_long":106.712277,"transit":false,"station_name":"Sudimara","station_id":"SDM","line":6,"is_transit":false,"time":6,"distance":4566,"i_lat":-6.296963},{"station_name":"Jurangmangu","line":6,"i_long":106.728916,"time":4,"station_id":"JMU","distance":1994,"transit":false,"is_transit":false,"i_lat":-6.288927},{"is_transit":false,"time":3,"line":6,"distance":2179,"i_lat":-6.276362,"i_long":106.74273,"transit":false,"station_name":"Pondokranji","station_id":"PDJ"},{"transit":false,"time":8,"distance":6218,"station_id":"KBY","line":6,"station_name":"Kebayoran","is_transit":false,"i_long":106.780334,"i_lat":-6.237242},{"station_name":"Palmerah","transit":false,"i_long":106.79689,"line":6,"station_id":"PLM","is_transit":false,"i_lat":-6.207404,"time":7,"distance":3737},{"station_id":"THB","is_transit":true,"time":6,"distance":3191,"line":1,"transit":true,"station_name":"Tanah Abang","i_lat":-6.185545,"i_long":106.811091},{"distance":2029,"i_lat":-6.20132,"line":1,"transit":false,"i_long":106.816351,"station_name":"Karet","station_id":"KAT","is_transit":false,"time":5},{"station_name":"Sudirman Baru","is_transit":false,"distance":471,"transit":false,"i_lat":-6.201433,"i_long":106.819881,"line":1,"time":1,"station_id":"SUDB"},{"line":1,"transit":false,"is_transit":false,"i_lat":-6.202263,"station_name":"Sudirman","station_id":"SUD","time":1,"distance":280,"i_long":106.822649},{"is_transit":false,"time":4,"station_id":"MRI","distance":3186,"line":2,"i_lat":-6.209883,"transit":false,"station_name":"Manggarai","i_long":106.84912},{"i_lat":-6.212485,"transit":false,"time":2,"station_id":"MTR","distance":1275,"station_name":"Matraman","line":1,"i_long":106.858896,"is_transit":false},{"i_long":106.86807400000001,"line":1,"distance":1377,"station_name":"Jatinegara","station_id":"JNG","transit":false,"is_transit":false,"time":8,"i_lat":-6.215091},{"transit":false,"station_id":"KLD","is_transit":false,"distance":3395,"i_lat":-6.2135,"line":1,"station_name":"Klender","time":3,"i_long":106.899548},{"transit":false,"distance":3100,"station_id":"BUA","i_lat":-6.215568,"i_long":106.922662,"line":1,"station_name":"Buaran","is_transit":false,"time":2},{"station_id":"KLDB","time":1,"distance":1305,"line":1,"i_lat":-6.217455,"i_long":106.939679,"is_transit":false,"station_name":"Klenderbaru","transit":false}],[{"i_lat":-6.32484,"transit":false,"line":3,"station_id":"CSK","is_transit":false,"time":0,"station_name":"Cisauk","distance":0,"i_long":106.640411},{"station_id":"SRP","station_name":"Serpong","is_transit":false,"i_lat":-6.319871,"transit":false,"i_long":106.66566,"line":6,"time":4,"distance":1784},{"station_name":"Rawa Buntu","i_long":106.675475,"station_id":"RU","transit":false,"is_transit":false,"distance":2413,"i_lat":-6.314823,"time":4,"line":6},{"distance":4566,"i_long":106.712277,"transit":false,"is_transit":false,"time":6,"station_id":"SDM","station_name":"Sudimara","i_lat":-6.296963,"line":6},{"transit":false,"station_name":"Jurangmangu","is_transit":false,"i_long":106.728916,"line":6,"station_id":"JMU","time":4,"distance":1994,"i_lat":-6.288927},{"distance":2179,"station_id":"PDJ","time":3,"station_name":"Pondokranji","line":6,"i_long":106.74273,"i_lat":-6.276362,"is_transit":false,"transit":false},{"station_id":"KBY","transit":false,"time":8,"is_transit":false,"line":6,"station_name":"Kebayoran","distance":6218,"i_lat":-6.237242,"i_long":106.780334},{"time":7,"transit":false,"i_long":106.79689,"station_id":"PLM","is_transit":false,"i_lat":-6.207404,"station_name":"Palmerah","distance":3737,"line":6},{"i_long":106.811091,"transit":true,"station_name":"Tanah Abang","i_lat":-6.185545,"line":1,"time":6,"station_id":"THB","distance":3191,"is_transit":true},{"i_long":106.800832,"time":8,"station_id":"DU","transit":false,"distance":3632,"station_name":"Duri","is_transit":false,"line":1,"i_lat":-6.155215},{"is_transit":false,"i_long":106.79867,"distance":1230,"station_name":"Angke","time":4,"i_lat":-6.144674,"transit":false,"line":1,"station_id":"AK"},{"i_long":106.826365,"i_lat":-6.132549,"time":9,"is_transit":true,"line":4,"distance":4102,"transit":true,"station_name":"Kampung Bandan","station_id":"KPB"},{"i_long":106.836569,"i_lat":-6.14505,"line":11,"time":3,"station_id":"RJW","distance":1444,"transit":false,"is_transit":false,"station_name":"Rajawali"},{"is_transit":false,"time":5,"station_name":"Kemayoran","i_long":106.839204,"line":11,"station_id":"KMO","i_lat":-6.161728,"transit":false,"distance":1901},{"is_transit":false,"station_name":"Pasar Senen","i_lat":-6.174784,"station_id":"PSE","distance":1436,"transit":false,"i_long":106.84368,"time":4,"line":11},{"transit":false,"time":8,"station_name":"Gang Sentiong","is_transit":false,"station_id":"GST","i_lat":-6.185975,"i_long":106.850107,"line":11,"distance":1567},{"distance":973,"station_id":"KMT","transit":false,"time":1,"is_transit":false,"i_lat":-6.193792,"i_long":106.855437,"station_name":"Kramat","line":11},{"transit":false,"i_lat":-6.209188,"i_long":106.861737,"station_name":"Pondok Jati","distance":1829,"is_transit":false,"time":2,"line":11,"station_id":"POK"},{"i_long":106.86807400000001,"line":1,"i_lat":-6.215091,"transit":true,"distance":1236,"station_name":"Jatinegara","time":9,"is_transit":true,"station_id":"JNG"},{"line":1,"time":3,"station_name":"Klender","i_long":106.899548,"is_transit":false,"station_id":"KLD","transit":false,"i_lat":-6.2135,"distance":3395},{"station_id":"BUA","is_transit":false,"i_lat":-6.215568,"i_long":106.922662,"distance":3100,"transit":false,"time":2,"station_name":"Buaran","line":1},{"station_name":"Klenderbaru","time":1,"transit":false,"i_long":106.939679,"station_id":"KLDB","line":1,"i_lat":-6.217455,"distance":1305,"is_transit":false}],[{"i_long":106.640411,"time":0,"station_name":"Cisauk","station_id":"CSK","distance":0,"is_transit":false,"i_lat":-6.32484,"transit":false,"line":3},{"i_long":106.66566,"station_id":"SRP","station_name":"Serpong","distance":1784,"line":6,"is_transit":false,"transit":false,"time":4,"i_lat":-6.319871},{"i_long":106.675475,"i_lat":-6.314823,"station_id":"RU","transit":false,"station_name":"Rawa Buntu","line":6,"is_transit":false,"time":4,"distance":2413},{"i_long":106.712277,"station_name":"Sudimara","is_transit":false,"station_id":"SDM","transit":false,"i_lat":-6.296963,"line":6,"time":6,"distance":4566},{"is_transit":false,"station_name":"Jurangmangu","station_id":"JMU","time":4,"distance":1994,"transit":false,"line":6,"i_long":106.728916,"i_lat":-6.288927},{"transit":false,"station_name":"Pondokranji","i_lat":-6.276362,"line":6,"i_long":106.74273,"is_transit":false,"station_id":"PDJ","time":3,"distance":2179},{"i_long":106.780334,"distance":6218,"time":8,"station_name":"Kebayoran","station_id":"KBY","line":6,"is_transit":false,"transit":false,"i_lat":-6.237242},{"is_transit":false,"transit":false,"station_id":"PLM","i_long":106.79689,"distance":3737,"station_name":"Palmerah","i_lat":-6.207404,"line":6,"time":7},{"time":6,"line":1,"station_id":"THB","is_transit":true,"transit":true,"station_name":"Tanah Abang","i_long":106.811091,"distance":3191,"i_lat":-6.185545},{"time":8,"distance":3632,"is_transit":false,"transit":false,"i_lat":-6.155215,"line":1,"station_id":"DU","station_name":"Duri","i_long":106.800832},{"i_long":106.79867,"distance":1230,"is_transit":false,"station_id":"AK","station_name":"Angke","transit":false,"time":4,"i_lat":-6.144674,"line":1},{"i_long":106.826365,"time":9,"transit":true,"i_lat":-6.132549,"distance":4102,"station_id":"KPB","line":4,"station_name":"Kampung Bandan","is_transit":true},{"time":3,"station_id":"JAKK","distance":1364,"station_name":"Jakarta Kota","transit":true,"i_lat":-6.137569,"is_transit":true,"i_long":106.812439,"line":2},{"distance":1264,"is_transit":false,"i_lat":-6.141205,"i_long":106.820901,"station_name":"Jayakarta","station_id":"JAY","line":2,"transit":false,"time":4},{"time":2,"station_name":"Manggabesar","i_lat":-6.149769,"station_id":"MGB","transit":false,"is_transit":false,"distance":1080,"i_long":106.82482,"line":2},{"station_name":"Sawah Besar","station_id":"SW","i_long":106.827103,"distance":906,"i_lat":-6.160725,"line":2,"time":2,"transit":false,"is_transit":false},{"time":2,"station_name":"Juanda","i_long":106.828284,"line":2,"distance":1149,"is_transit":false,"transit":false,"station_id":"JUA","i_lat":-6.166716},{"i_long":106.832183,"is_transit":false,"distance":2015,"time":4,"station_id":"GDD","transit":false,"station_name":"Gondangdia","i_lat":-6.186295,"line":2},{"transit":false,"line":2,"i_long":106.840169,"distance":1750,"is_transit":false,"station_id":"CKI","time":3,"station_name":"Cikini","i_lat":-6.198556},{"distance":1590,"station_id":"MRI","i_lat":-6.209883,"line":2,"transit":true,"station_name":"Manggarai","time":4,"is_transit":true,"i_long":106.84912},{"line":1,"time":2,"i_lat":-6.212485,"i_long":106.858896,"is_transit":false,"station_id":"MTR","distance":1275,"station_name":"Matraman","transit":false},{"i_long":106.86807400000001,"time":8,"transit":false,"station_name":"Jatinegara","station_id":"JNG","i_lat":-6.215091,"line":1,"distance":1377,"is_transit":false},{"station_id":"KLD","i_long":106.899548,"distance":3395,"is_transit":false,"transit":false,"time":3,"line":1,"i_lat":-6.2135,"station_name":"Klender"},{"transit":false,"time":2,"station_name":"Buaran","i_lat":-6.215568,"is_transit":false,"i_long":106.922662,"station_id":"BUA","line":1,"distance":3100},{"station_name":"Klenderbaru","line":1,"is_transit":false,"time":1,"distance":1305,"i_lat":-6.217455,"station_id":"KLDB","transit":false,"i_long":106.939679}],[{"is_transit":false,"station_name":"Cisauk","station_id":"CSK","distance":0,"i_lat":-6.32484,"transit":false,"i_long":106.640411,"line":3,"time":0},{"distance":1784,"is_transit":false,"station_name":"Serpong","station_id":"SRP","i_long":106.66566,"time":4,"line":6,"i_lat":-6.319871,"transit":false},{"i_lat":-6.314823,"station_id":"RU","time":4,"distance":2413,"transit":false,"i_long":106.675475,"station_name":"Rawa Buntu","is_transit":false,"line":6},{"is_transit":false,"time":6,"station_id":"SDM","i_lat":-6.296963,"i_long":106.712277,"transit":false,"distance":4566,"line":6,"station_name":"Sudimara"},{"line":6,"i_long":106.728916,"time":4,"station_name":"Jurangmangu","is_transit":false,"distance":1994,"station_id":"JMU","transit":false,"i_lat":-6.288927},{"line":6,"i_lat":-6.276362,"distance":2179,"station_id":"PDJ","i_long":106.74273,"time":3,"is_transit":false,"station_name":"Pondokranji","transit":false},{"line":6,"is_transit":false,"time":8,"station_name":"Kebayoran","station_id":"KBY","distance":6218,"transit":false,"i_lat":-6.237242,"i_long":106.780334},{"i_long":106.79689,"is_transit":false,"distance":3737,"time":7,"station_id":"PLM","i_lat":-6.207404,"station_name":"Palmerah","transit":false,"line":6},{"i_long":106.811091,"station_name":"Tanah Abang","station_id":"THB","line":1,"time":6,"transit":true,"is_transit":true,"i_lat":-6.185545,"distance":3191},{"i_long":106.816351,"distance":2029,"i_lat":-6.20132,"time":5,"is_transit":false,"line":1,"station_name":"Karet","station_id":"KAT","transit":false},{"i_long":106.819881,"station_name":"Sudirman Baru","station_id":"SUDB","time":1,"is_transit":false,"distance":471,"i_lat":-6.201433,"line":1,"transit":false},{"is_transit":false,"i_long":106.822649,"time":1,"distance":280,"station_name":"Sudirman","station_id":"SUD","transit":false,"line":1,"i_lat":-6.202263},{"station_name":"Manggarai","time":4,"i_lat":-6.209883,"station_id":"MRI","distance":3186,"is_transit":true,"transit":true,"i_long":106.84912,"line":2},{"station_name":"Cikini","time":4,"station_id":"CKI","is_transit":false,"i_long":106.840169,"transit":false,"i_lat":-6.198556,"line":2,"distance":1590},{"is_transit":false,"i_long":106.832183,"line":2,"station_id":"GDD","i_lat":-6.186295,"transit":false,"distance":1750,"time":3,"station_name":"Gondangdia"},{"i_long":106.828284,"i_lat":-6.166716,"station_id":"JUA","is_transit":false,"transit":false,"distance":2015,"line":2,"station_name":"Juanda","time":4},{"i_long":106.827103,"transit":false,"distance":1149,"station_id":"SW","time":2,"is_transit":false,"station_name":"Sawah Besar","line":2,"i_lat":-6.160725},{"i_long":106.82482,"transit":false,"time":2,"is_transit":false,"i_lat":-6.149769,"distance":906,"line":2,"station_name":"Manggabesar","station_id":"MGB"},{"i_lat":-6.141205,"line":2,"station_name":"Jayakarta","is_transit":false,"distance":1080,"time":2,"station_id":"JAY","transit":false,"i_long":106.820901},{"is_transit":true,"station_id":"JAKK","i_lat":-6.137569,"distance":1264,"line":2,"station_name":"Jakarta Kota","time":4,"transit":true,"i_long":106.812439},{"line":4,"transit":true,"i_long":106.826365,"station_name":"Kampung Bandan","is_transit":true,"distance":1364,"time":3,"station_id":"KPB","i_lat":-6.132549},{"station_name":"Rajawali","distance":1444,"time":3,"i_long":106.836569,"is_transit":false,"transit":false,"line":11,"i_lat":-6.14505,"station_id":"RJW"},{"is_transit":false,"i_lat":-6.161728,"line":11,"station_name":"Kemayoran","station_id":"KMO","transit":false,"i_long":106.839204,"time":5,"distance":1901},{"time":4,"station_name":"Pasar Senen","station_id":"PSE","distance":1436,"line":11,"transit":false,"is_transit":false,"i_lat":-6.174784,"i_long":106.84368},{"station_id":"GST","is_transit":false,"i_lat":-6.185975,"time":8,"station_name":"Gang Sentiong","line":11,"i_long":106.850107,"distance":1567,"transit":false},{"i_long":106.855437,"line":11,"i_lat":-6.193792,"station_id":"KMT","is_transit":false,"distance":973,"station_name":"Kramat","time":1,"transit":false},{"transit":false,"time":2,"line":11,"station_id":"POK","is_transit":false,"i_long":106.861737,"distance":1829,"station_name":"Pondok Jati","i_lat":-6.209188},{"station_name":"Jatinegara","line":1,"distance":1236,"i_long":106.86807400000001,"is_transit":true,"transit":true,"time":9,"i_lat":-6.215091,"station_id":"JNG"},{"line":1,"time":3,"station_id":"KLD","distance":3395,"transit":false,"i_long":106.899548,"is_transit":false,"station_name":"Klender","i_lat":-6.2135},{"is_transit":false,"transit":false,"i_lat":-6.215568,"time":2,"station_id":"BUA","line":1,"distance":3100,"station_name":"Buaran","i_long":106.922662},{"station_name":"Klenderbaru","distance":1305,"station_id":"KLDB","i_long":106.939679,"transit":false,"line":1,"time":1,"i_lat":-6.217455,"is_transit":false}]]}