{"data":[[{"line":3,"station_name":"Cisauk","transit":false,"distance":0,"i_lat":-6.32484,"i_long":106.640411,"time":0,"station_id":"CSK","is_transit":false},{"distance":2519,"time":4,"station_id":"CC","is_transit":false,"transit":false,"i_lat":-6.329547,"i_long":106.617853,"station_name":"Cicayur","line":3},{"is_transit":false,"i_long":106.568863,"distance":5968,"i_lat":-6.3441410000000005,"line":6,"time":8,"station_id":"PRP","station_name":"Parung Panjang","transit":false},{"station_id":"CJT","time":9,"distance":7025,"i_long":106.508482,"transit":false,"i_lat":-6.354349,"station_name":"Cilejit","is_transit":false,"line":3},{"distance":2675,"station_name":"Daru","i_long":106.491338,"transit":false,"i_lat":-6.338021,"station_id":"DAR","line":0,"time":6,"is_transit":false},{"station_name":"Tenjo","time":5,"distance":3902,"line":6,"is_transit":false,"station_id":"TEJ","transit":false,"i_lat":-6.327251,"i_long":106.460812},{"station_name":"Tigaraksa","distance":2974,"station_id":"TGS","i_lat":-6.328533,"transit":false,"is_transit":false,"time":5,"i_long":106.425991,"line":6}]]}