{"data":[[{"transit":false,"i_lat":-6.32484,"station_id":"CSK","distance":0,"station_name":"Cisauk","i_long":106.640411,"line":3,"time":0,"is_transit":false},{"transit":false,"station_id":"SRP","is_transit":false,"i_long":106.66566,"station_name":"Serpong","time":4,"i_lat":-6.319871,"line":6,"distance":1784},{"i_lat":-6.314823,"time":4,"station_name":"Rawa Buntu","station_id":"RU","transit":false,"is_transit":false,"i_long":106.675475,"line":6,"distance":2413},{"i_long":106.712277,"station_id":"SDM","line":6,"transit":false,"distance":4566,"time":6,"station_name":"Sudimara","i_lat":-6.296963,"is_transit":false},{"station_id":"JMU","station_name":"Jurangmangu","is_transit":false,"distance":1994,"transit":false,"i_long":106.728916,"line":6,"time":4,"i_lat":-6.288927},{"line":6,"transit":false,"is_transit":false,"i_long":106.74273,"station_name":"Pondokranji","station_id":"PDJ","distance":2179,"i_lat":-6.276362,"time":3},{"line":6,"time":8,"i_long":106.780334,"i_lat":-6.237242,"transit":false,"distance":6218,"station_id":"KBY","station_name":"Kebayoran","is_transit":false},{"i_lat":-6.207404,"i_long":106.79689,"transit":false,"distance":3737,"is_transit":false,"line":6,"station_id":"PLM","time":7,"station_name":"Palmerah"},{"is_transit":true,"time":6,"line":1,"distance":3191,"station_name":"Tanah Abang","i_lat":-6.185545,"station_id":"THB","transit":true,"i_long":106.811091},{"distance":2029,"i_lat":-6.20132,"i_long":106.816351,"transit":false,"station_id":"KAT","time":5,"line":1,"is_transit":false,"station_name":"Karet"},{"station_id":"SUDB","station_name":"Sudirman Baru","i_lat":-6.201433,"i_long":106.819881,"is_transit":false,"distance":471,"transit":false,"time":1,"line":1},{"station_id":"SUD","distance":280,"i_long":106.822649,"station_name":"Sudirman","line":1,"transit":false,"time":1,"i_lat":-6.202263,"is_transit":false},{"station_name":"Manggarai","line":2,"station_id":"MRI","is_transit":true,"time":4,"distance":3186,"transit":true,"i_lat":-6.209883,"i_long":106.84912},{"time":4,"station_id":"TEB","station_name":"Tebet","is_transit":false,"distance":2610,"transit":false,"i_long":106.857948,"line":2,"i_lat":-6.226659},{"time":2,"is_transit":false,"distance":1230,"station_name":"Cawang","station_id":"CW","i_long":106.856607,"i_lat":-6.242512,"line":2,"transit":false},{"time":3,"is_transit":false,"line":2,"station_name":"Duren Kalibata","station_id":"DRN","i_long":106.85449,"i_lat":-6.255332,"transit":false,"distance":1546},{"i_long":106.851577,"station_id":"PSMB","is_transit":false,"i_lat":-6.263214,"time":2,"station_name":"Pasar Minggu Baru","line":2,"distance":824,"transit":false}],[{"station_name":"Cisauk","transit":false,"time":0,"distance":0,"is_transit":false,"i_lat":-6.32484,"station_id":"CSK","line":3,"i_long":106.640411},{"time":4,"line":6,"station_name":"Serpong","station_id":"SRP","distance":1784,"i_lat":-6.319871,"is_transit":false,"i_long":106.66566,"transit":false},{"time":4,"i_long":106.675475,"line":6,"station_id":"RU","station_name":"Rawa Buntu","i_lat":-6.314823,"distance":2413,"is_transit":false,"transit":false},{"line":6,"time":6,"i_long":106.712277,"station_id":"SDM","is_transit":false,"distance":4566,"i_lat":-6.296963,"transit":false,"station_name":"Sudimara"},{"station_id":"JMU","transit":false,"distance":1994,"is_transit":false,"i_lat":-6.288927,"station_name":"Jurangmangu","i_long":106.728916,"time":4,"line":6},{"station_id":"PDJ","transit":false,"is_transit":false,"line":6,"distance":2179,"time":3,"i_lat":-6.276362,"i_long":106.74273,"station_name":"Pondokranji"},{"station_name":"Kebayoran","line":6,"distance":6218,"i_long":106.780334,"transit":false,"time":8,"station_id":"KBY","is_transit":false,"i_lat":-6.237242},{"transit":false,"line":6,"is_transit":false,"i_long":106.79689,"distance":3737,"station_id":"PLM","i_lat":-6.207404,"station_name":"Palmerah","time":7},{"is_transit":true,"transit":true,"distance":3191,"station_name":"Tanah Abang","line":1,"i_lat":-6.185545,"i_long":106.811091,"station_id":"THB","time":6},{"i_lat":-6.155215,"distance":3632,"time":8,"station_id":"DU","i_long":106.800832,"transit":false,"station_name":"Duri","is_transit":false,"line":1},{"is_transit":false,"station_id":"AK","station_name":"Angke","i_lat":-6.144674,"time":4,"distance":1230,"line":1,"transit":false,"i_long":106.79867},{"station_name":"Kampung Bandan","line":4,"i_lat":-6.132549,"transit":true,"station_id":"KPB","i_long":106.826365,"distance":4102,"is_transit":true,"time":9},{"station_id":"JAKK","i_lat":-6.137569,"time":3,"transit":true,"station_name":"Jakarta Kota","is_transit":true,"distance":1364,"line":2,"i_long":106.812439},{"station_id":"JAY","is_transit":false,"i_lat":-6.141205,"transit":false,"i_long":106.820901,"station_name":"Jayakarta","distance":1264,"time":4,"line":2},{"distance":1080,"is_transit":false,"i_lat":-6.149769,"line":2,"time":2,"transit":false,"station_name":"Manggabesar","i_long":106.82482,"station_id":"MGB"},{"i_lat":-6.160725,"time":2,"station_name":"Sawah Besar","line":2,"transit":false,"station_id":"SW","i_long":106.827103,"distance":906,"is_transit":false},{"station_name":"Juanda","i_lat":-6.166716,"is_transit":false,"time":2,"i_long":106.828284,"line":2,"station_id":"JUA","transit":false,"distance":1149},{"is_transit":false,"station_name":"Gondangdia","time":4,"i_lat":-6.186295,"i_long":106.832183,"line":2,"transit":false,"station_id":"GDD","distance":2015},{"time":3,"transit":false,"station_name":"Cikini","i_lat":-6.198556,"line":2,"station_id":"CKI","distance":1750,"i_long":106.840169,"is_transit":false},{"i_lat":-6.209883,"i_long":106.84912,"distance":1590,"station_name":"Manggarai","station_id":"MRI","time":4,"line":2,"transit":false,"is_transit":false},{"time":4,"i_long":106.857948,"transit":false,"station_name":"Tebet","distance":2610,"i_lat":-6.226659,"line":2,"station_id":"TEB","is_transit":false},{"station_name":"Cawang","i_long":106.856607,"line":2,"time":2,"distance":1230,"station_id":"CW","is_transit":false,"transit":false,"i_lat":-6.242512},{"i_lat":-6.255332,"distance":1546,"i_long":106.85449,"station_id":"DRN","line":2,"station_name":"Duren Kalibata","time":3,"is_transit":false,"transit":false},{"station_id":"PSMB","transit":false,"time":2,"is_transit":false,"i_long":106.851577,"distance":824,"i_lat":-6.263214,"station_name":"Pasar Minggu Baru","line":2}],[{"time":0,"distance":0,"i_lat":-6.32484,"transit":false,"is_transit":false,"i_long":106.640411,"line":3,"station_id":"CSK","station_name":"Cisauk"},{"station_id":"SRP","time":4,"i_lat":-6.319871,"transit":false,"station_name":"Serpong","is_transit":false,"i_long":106.66566,"line":6,"distance":1784},{"time":4,"i_lat":-6.314823,"line":6,"is_transit":false,"i_long":106.675475,"station_id":"RU","station_name":"Rawa Buntu","transit":false,"distance":2413},{"transit":false,"i_long":106.712277,"i_lat":-6.296963,"station_id":"SDM","is_transit":false,"station_name":"Sudimara","distance":4566,"time":6,"line":6},{"i_lat":-6.288927,"time":4,"i_long":106.728916,"is_transit":false,"station_name":"Jurangmangu","line":6,"transit":false,"station_id":"JMU","distance":1994},{"is_transit":false,"line":6,"transit":false,"distance":2179,"station_name":"Pondokranji","i_lat":-6.276362,"station_id":"PDJ","i_long":106.74273,"time":3},{"i_long":106.780334,"transit":false,"station_id":"KBY","station_name":"Kebayoran","is_transit":false,"i_lat":-6.237242,"distance":6218,"time":8,"line":6},{"distance":3737,"station_id":"PLM","is_transit":false,"i_lat":-6.207404,"station_name":"Palmerah","i_long":106.79689,"line":6,"transit":false,"time":7},{"station_name":"Tanah Abang","i_long":106.811091,"i_lat":-6.185545,"is_transit":true,"distance":3191,"line":1,"transit":true,"station_id":"THB","time":6},{"distance":3632,"transit":false,"station_id":"DU","time":8,"station_name":"Duri","i_lat":-6.155215,"i_long":106.800832,"line":1,"is_transit":false},{"transit":false,"distance":1230,"station_id":"AK","i_long":106.79867,"station_name":"Angke","i_lat":-6.144674,"is_transit":false,"line":1,"time":4},{"distance":4102,"line":4,"is_transit":true,"i_long":106.826365,"station_id":"KPB","station_name":"Kampung Bandan","i_lat":-6.132549,"time":9,"transit":true},{"station_name":"Rajawali","line":11,"time":3,"i_lat":-6.14505,"is_transit":false,"station_id":"RJW","transit":false,"distance":1444,"i_long":106.836569},{"station_id":"KMO","line":11,"station_name":"Kemayoran","transit":false,"i_long":106.839204,"distance":1901,"is_transit":false,"i_lat":-6.161728,"time":5},{"distance":1436,"line":11,"time":4,"i_lat":-6.174784,"i_long":106.84368,"station_id":"PSE","is_transit":false,"station_name":"Pasar Senen","transit":false},{"i_long":106.850107,"station_id":"GST","transit":false,"station_name":"Gang Sentiong","line":11,"time":8,"i_lat":-6.185975,"is_transit":false,"distance":1567},{"station_id":"KMT","distance":973,"i_lat":-6.193792,"time":1,"i_long":106.855437,"line":11,"transit":false,"is_transit":false,"station_name":"Kramat"},{"station_id":"POK","i_long":106.861737,"time":2,"station_name":"Pondok Jati","i_lat":-6.209188,"line":11,"distance":1829,"transit":false,"is_transit":false},{"is_transit":true,"transit":true,"i_long":106.86807400000001,"line":1,"i_lat":-6.215091,"distance":1236,"station_id":"JNG","time":9,"station_name":"Jatinegara"},{"distance":1377,"station_id":"MTR","station_name":"Matraman","transit":false,"line":1,"i_long":106.858896,"time":2,"i_lat":-6.212485,"is_transit":false},{"is_transit":true,"i_lat":-6.209883,"time":2,"transit":true,"distance":1275,"station_id":"MRI","i_long":106.84912,"line":2,"station_name":"Manggarai"},{"i_long":106.857948,"time":4,"is_transit":false,"station_name":"Tebet","transit":false,"line":2,"distance":2610,"station_id":"TEB","i_lat":-6.226659},{"i_lat":-6.242512,"i_long":106.856607,"transit":false,"distance":1230,"station_id":"CW","time":2,"station_name":"Cawang","is_transit":false,"line":2},{"line":2,"i_long":106.85449,"distance":1546,"station_name":"Duren Kalibata","transit":false,"station_id":"DRN","time":3,"is_transit":false,"i_lat":-6.255332},{"station_id":"PSMB","distance":824,"line":2,"is_transit":false,"time":2,"station_name":"Pasar Minggu Baru","i_long":106.851577,"transit":false,"i_lat":-6.263214}]]}