{"data":[[{"station_id":"CSK","station_name":"Cisauk","is_transit":false,"time":0,"i_lat":-6.32484,"i_long":106.640411,"transit":false,"line":0,"distance":0},{"station_id":"SRP","distance":1784,"station_name":"Serpong","time":4,"i_long":106.66566,"line":6,"i_lat":-6.319871,"is_transit":false,"transit":false},{"i_lat":-6.314823,"transit":false,"is_transit":false,"station_name":"Rawa Buntu","i_long":106.675475,"distance":2413,"line":6,"station_id":"RU","time":4},{"time":6,"is_transit":false,"station_id":"SDM","transit":false,"distance":4566,"i_long":106.712277,"station_name":"Sudimara","line":6,"i_lat":-6.296963},{"station_name":"Jurangmangu","is_transit":false,"i_lat":-6.288927,"line":6,"i_long":106.728916,"distance":1994,"transit":false,"time":4,"station_id":"JMU"},{"i_long":106.74273,"is_transit":false,"distance":2179,"i_lat":-6.276362,"station_id":"PDJ","transit":false,"line":6,"time":3,"station_name":"Pondokranji"},{"line":6,"time":8,"station_name":"Kebayoran","station_id":"KBY","transit":false,"i_lat":-6.237242,"is_transit":false,"distance":6218,"i_long":106.780334},{"transit":false,"i_long":106.79689,"station_id":"PLM","distance":3737,"i_lat":-6.207404,"is_transit":false,"line":6,"station_name":"Palmerah","time":7},{"transit":true,"i_lat":-6.185545,"i_long":106.811091,"line":1,"distance":3191,"station_id":"THB","station_name":"Tanah Abang","is_transit":true,"time":6},{"distance":2029,"is_transit":false,"i_lat":-6.20132,"line":1,"station_name":"Karet","transit":false,"station_id":"KAT","i_long":106.816351,"time":5},{"station_id":"SUDB","i_lat":-6.201433,"line":1,"distance":471,"station_name":"Sudirman Baru","is_transit":false,"transit":false,"i_long":106.819881,"time":1}],[{"distance":0,"is_transit":false,"station_name":"Cisauk","time":0,"station_id":"CSK","i_lat":-6.32484,"transit":false,"i_long":106.640411,"line":0},{"is_transit":false,"i_long":106.66566,"transit":false,"station_name":"Serpong","station_id":"SRP","line":6,"distance":1784,"time":4,"i_lat":-6.319871},{"station_id":"RU","station_name":"Rawa Buntu","i_lat":-6.314823,"is_transit":false,"transit":false,"time":4,"i_long":106.675475,"distance":2413,"line":6},{"transit":false,"station_name":"Sudimara","is_transit":false,"distance":4566,"i_lat":-6.296963,"station_id":"SDM","i_long":106.712277,"line":6,"time":6},{"line":6,"time":4,"i_lat":-6.288927,"station_id":"JMU","i_long":106.728916,"is_transit":false,"distance":1994,"transit":false,"station_name":"Jurangmangu"},{"is_transit":false,"i_lat":-6.276362,"time":3,"distance":2179,"transit":false,"station_name":"Pondokranji","i_long":106.74273,"line":6,"station_id":"PDJ"},{"time":8,"transit":false,"station_id":"KBY","is_transit":false,"distance":6218,"i_long":106.780334,"station_name":"Kebayoran","line":6,"i_lat":-6.237242},{"i_lat":-6.207404,"is_transit":false,"transit":false,"line":6,"station_name":"Palmerah","time":7,"distance":3737,"i_long":106.79689,"station_id":"PLM"},{"i_long":106.811091,"transit":true,"station_name":"Tanah Abang","i_lat":-6.185545,"time":6,"is_transit":true,"line":1,"station_id":"THB","distance":3191},{"i_long":106.800832,"is_transit":true,"transit":true,"time":8,"distance":3632,"station_id":"DU","i_lat":-6.155215,"station_name":"Duri","line":1},{"is_transit":false,"station_name":"Angke","distance":1230,"transit":false,"line":0,"time":4,"i_lat":-6.144674,"i_long":106.79867,"station_id":"AK"},{"transit":false,"i_long":106.826365,"is_transit":true,"station_name":"Kampung Bandan","distance":4102,"time":9,"i_lat":-6.132549,"station_id":"KPB","line":0},{"i_lat":-6.137569,"station_name":"Jakarta Kota","is_transit":true,"station_id":"JAKK","distance":1364,"transit":true,"i_long":106.812439,"line":0,"time":3},{"station_id":"JAY","transit":false,"distance":1264,"line":7,"is_transit":false,"i_lat":-6.141205,"time":4,"i_long":106.820901,"station_name":"Jayakarta"},{"station_name":"Manggabesar","station_id":"MGB","line":2,"time":2,"is_transit":false,"i_lat":-6.149769,"i_long":106.82482,"distance":1080,"transit":false},{"station_name":"Sawah Besar","transit":false,"time":2,"i_lat":-6.160725,"i_long":106.827103,"is_transit":false,"line":2,"station_id":"SW","distance":906},{"transit":false,"station_id":"JUA","line":2,"distance":1149,"i_long":106.828284,"time":2,"i_lat":-6.166716,"station_name":"Juanda","is_transit":false},{"transit":false,"i_lat":-6.186295,"station_name":"Gondangdia","line":2,"is_transit":false,"i_long":106.832183,"distance":2015,"station_id":"GDD","time":4},{"station_id":"CKI","distance":1750,"transit":false,"is_transit":false,"i_lat":-6.198556,"line":0,"time":3,"station_name":"Cikini","i_long":106.840169},{"station_id":"MRI","distance":1590,"i_lat":-6.209883,"i_long":106.84912,"time":4,"line":0,"station_name":"Manggarai","transit":true,"is_transit":true},{"time":4,"i_long":106.822649,"i_lat":-6.202263,"distance":3186,"station_id":"SUD","station_name":"Sudirman","transit":false,"line":1,"is_transit":false},{"i_long":106.819881,"i_lat":-6.201433,"is_transit":false,"time":1,"line":1,"distance":280,"station_id":"SUDB","station_name":"Sudirman Baru","transit":false}],[{"is_transit":false,"station_name":"Cisauk","time":0,"line":0,"distance":0,"i_lat":-6.32484,"station_id":"CSK","transit":false,"i_long":106.640411},{"station_name":"Serpong","distance":1784,"station_id":"SRP","i_long":106.66566,"time":4,"i_lat":-6.319871,"transit":false,"is_transit":false,"line":6},{"i_lat":-6.314823,"time":4,"station_name":"Rawa Buntu","i_long":106.675475,"is_transit":false,"line":6,"station_id":"RU","distance":2413,"transit":false},{"station_name":"Sudimara","i_lat":-6.296963,"distance":4566,"is_transit":false,"time":6,"station_id":"SDM","line":6,"transit":false,"i_long":106.712277},{"distance":1994,"station_name":"Jurangmangu","is_transit":false,"i_long":106.728916,"station_id":"JMU","i_lat":-6.288927,"time":4,"transit":false,"line":6},{"is_transit":false,"station_id":"PDJ","station_name":"Pondokranji","transit":false,"i_lat":-6.276362,"i_long":106.74273,"line":6,"distance":2179,"time":3},{"is_transit":false,"i_long":106.780334,"time":8,"transit":false,"station_name":"Kebayoran","distance":6218,"i_lat":-6.237242,"station_id":"KBY","line":6},{"transit":false,"i_lat":-6.207404,"time":7,"i_long":106.79689,"line":6,"station_name":"Palmerah","station_id":"PLM","distance":3737,"is_transit":false},{"line":1,"transit":true,"station_id":"THB","distance":3191,"is_transit":true,"i_lat":-6.185545,"station_name":"Tanah Abang","time":6,"i_long":106.811091},{"distance":3632,"transit":true,"i_long":106.800832,"line":1,"is_transit":true,"station_id":"DU","station_name":"Duri","time":8,"i_lat":-6.155215},{"i_long":106.79867,"transit":false,"station_id":"AK","station_name":"Angke","time":4,"is_transit":false,"i_lat":-6.144674,"line":0,"distance":1230},{"is_transit":true,"i_lat":-6.132549,"distance":4102,"time":9,"transit":true,"station_id":"KPB","station_name":"Kampung Bandan","i_long":106.826365,"line":0},{"time":3,"i_long":106.836569,"distance":1444,"transit":false,"station_id":"RJW","line":11,"station_name":"Rajawali","is_transit":false,"i_lat":-6.14505},{"station_id":"KMO","transit":false,"i_lat":-6.161728,"i_long":106.839204,"line":11,"is_transit":false,"station_name":"Kemayoran","distance":1901,"time":5},{"line":11,"distance":1436,"is_transit":false,"transit":false,"i_lat":-6.174784,"i_long":106.84368,"time":4,"station_id":"PSE","station_name":"Pasar Senen"},{"is_transit":false,"time":8,"transit":false,"distance":1567,"i_lat":-6.185975,"i_long":106.850107,"station_name":"Gang Sentiong","line":11,"station_id":"GST"},{"station_id":"KMT","station_name":"Kramat","distance":973,"line":11,"time":1,"transit":false,"is_transit":false,"i_long":106.855437,"i_lat":-6.193792},{"i_lat":-6.209188,"time":2,"i_long":106.861737,"distance":1829,"line":11,"station_id":"POK","is_transit":false,"transit":false,"station_name":"Pondok Jati"},{"transit":true,"i_long":106.86807400000001,"line":0,"station_id":"JNG","is_transit":true,"time":9,"distance":1236,"station_name":"Jatinegara","i_lat":-6.215091},{"station_name":"Matraman","is_transit":false,"transit":false,"i_long":106.858896,"distance":1377,"line":1,"time":2,"station_id":"MTR","i_lat":-6.212485},{"distance":1275,"i_long":106.84912,"i_lat":-6.209883,"time":2,"is_transit":true,"station_id":"MRI","line":0,"transit":false,"station_name":"Manggarai"},{"i_long":106.822649,"transit":false,"i_lat":-6.202263,"distance":3186,"line":1,"station_id":"SUD","station_name":"Sudirman","time":4,"is_transit":false},{"transit":false,"line":1,"distance":280,"station_name":"Sudirman Baru","i_long":106.819881,"i_lat":-6.201433,"is_transit":false,"station_id":"SUDB","time":1}]]}