{"data":[[{"transit":false,"time":0,"station_name":"Cisauk","i_lat":-6.32484,"is_transit":false,"distance":0,"i_long":106.640411,"line":3,"station_id":"CSK"},{"is_transit":false,"i_long":106.66566,"i_lat":-6.319871,"transit":false,"station_id":"SRP","distance":1784,"line":6,"station_name":"Serpong","time":4},{"distance":2413,"line":6,"i_long":106.675475,"station_id":"RU","station_name":"Rawa Buntu","time":4,"i_lat":-6.314823,"is_transit":false,"transit":false},{"line":6,"is_transit":false,"i_long":106.712277,"distance":4566,"transit":false,"station_id":"SDM","time":6,"i_lat":-6.296963,"station_name":"Sudimara"},{"i_long":106.728916,"distance":1994,"line":6,"station_name":"Jurangmangu","is_transit":false,"i_lat":-6.288927,"transit":false,"station_id":"JMU","time":4},{"transit":false,"station_id":"PDJ","time":3,"line":6,"station_name":"Pondokranji","i_lat":-6.276362,"i_long":106.74273,"distance":2179,"is_transit":false},{"time":8,"i_long":106.780334,"is_transit":false,"transit":false,"station_id":"KBY","station_name":"Kebayoran","line":6,"i_lat":-6.237242,"distance":6218},{"is_transit":false,"transit":false,"distance":3737,"line":6,"station_id":"PLM","i_long":106.79689,"station_name":"Palmerah","time":7,"i_lat":-6.207404},{"i_long":106.811091,"transit":true,"distance":3191,"station_name":"Tanah Abang","i_lat":-6.185545,"line":1,"station_id":"THB","is_transit":true,"time":6},{"i_long":106.816351,"is_transit":false,"time":5,"distance":2029,"transit":false,"station_name":"Karet","i_lat":-6.20132,"line":1,"station_id":"KAT"},{"i_long":106.819881,"station_id":"SUDB","time":1,"station_name":"Sudirman Baru","line":1,"is_transit":false,"transit":false,"distance":471,"i_lat":-6.201433},{"station_id":"SUD","distance":280,"i_lat":-6.202263,"i_long":106.822649,"line":1,"is_transit":false,"station_name":"Sudirman","transit":false,"time":1},{"time":4,"distance":3186,"station_name":"Manggarai","i_lat":-6.209883,"line":2,"station_id":"MRI","i_long":106.84912,"is_transit":false,"transit":false},{"line":1,"is_transit":false,"station_name":"Matraman","i_lat":-6.212485,"i_long":106.858896,"station_id":"MTR","distance":1275,"transit":false,"time":2},{"station_name":"Jatinegara","i_lat":-6.215091,"i_long":106.86807400000001,"time":8,"transit":false,"station_id":"JNG","distance":1377,"line":1,"is_transit":false}],[{"distance":0,"is_transit":false,"i_lat":-6.32484,"time":0,"i_long":106.640411,"station_id":"CSK","line":3,"transit":false,"station_name":"Cisauk"},{"distance":1784,"is_transit":false,"i_lat":-6.319871,"i_long":106.66566,"line":6,"station_id":"SRP","time":4,"transit":false,"station_name":"Serpong"},{"is_transit":false,"station_id":"RU","line":6,"time":4,"i_lat":-6.314823,"i_long":106.675475,"distance":2413,"transit":false,"station_name":"Rawa Buntu"},{"transit":false,"distance":4566,"i_long":106.712277,"station_id":"SDM","station_name":"Sudimara","line":6,"is_transit":false,"i_lat":-6.296963,"time":6},{"station_name":"Jurangmangu","transit":false,"is_transit":false,"time":4,"distance":1994,"i_long":106.728916,"i_lat":-6.288927,"line":6,"station_id":"JMU"},{"i_long":106.74273,"line":6,"is_transit":false,"station_id":"PDJ","time":3,"distance":2179,"i_lat":-6.276362,"transit":false,"station_name":"Pondokranji"},{"station_name":"Kebayoran","distance":6218,"is_transit":false,"i_lat":-6.237242,"line":6,"i_long":106.780334,"station_id":"KBY","transit":false,"time":8},{"i_lat":-6.207404,"is_transit":false,"distance":3737,"station_name":"Palmerah","transit":false,"station_id":"PLM","line":6,"i_long":106.79689,"time":7},{"is_transit":true,"transit":true,"time":6,"station_id":"THB","i_long":106.811091,"station_name":"Tanah Abang","distance":3191,"line":1,"i_lat":-6.185545},{"station_name":"Duri","is_transit":false,"line":1,"transit":false,"station_id":"DU","time":8,"i_lat":-6.155215,"distance":3632,"i_long":106.800832},{"i_lat":-6.144674,"is_transit":false,"time":4,"station_id":"AK","station_name":"Angke","line":1,"distance":1230,"i_long":106.79867,"transit":false},{"transit":true,"time":9,"station_name":"Kampung Bandan","distance":4102,"i_lat":-6.132549,"i_long":106.826365,"is_transit":true,"station_id":"KPB","line":4},{"line":11,"i_long":106.836569,"transit":false,"time":3,"distance":1444,"is_transit":false,"station_name":"Rajawali","i_lat":-6.14505,"station_id":"RJW"},{"station_name":"Kemayoran","is_transit":false,"transit":false,"station_id":"KMO","line":11,"time":5,"i_long":106.839204,"distance":1901,"i_lat":-6.161728},{"i_long":106.84368,"transit":false,"station_name":"Pasar Senen","time":4,"distance":1436,"line":11,"is_transit":false,"i_lat":-6.174784,"station_id":"PSE"},{"line":11,"station_name":"Gang Sentiong","distance":1567,"time":8,"i_long":106.850107,"i_lat":-6.185975,"station_id":"GST","is_transit":false,"transit":false},{"station_id":"KMT","distance":973,"time":1,"station_name":"Kramat","line":11,"transit":false,"is_transit":false,"i_lat":-6.193792,"i_long":106.855437},{"station_name":"Pondok Jati","transit":false,"is_transit":false,"i_lat":-6.209188,"distance":1829,"time":2,"i_long":106.861737,"line":11,"station_id":"POK"},{"time":9,"transit":false,"station_name":"Jatinegara","i_lat":-6.215091,"i_long":106.86807400000001,"line":1,"is_transit":false,"station_id":"JNG","distance":1236}],[{"distance":0,"is_transit":false,"station_id":"CSK","line":3,"transit":false,"i_lat":-6.32484,"station_name":"Cisauk","time":0,"i_long":106.640411},{"station_id":"SRP","time":4,"station_name":"Serpong","is_transit":false,"transit":false,"distance":1784,"i_long":106.66566,"i_lat":-6.319871,"line":6},{"i_lat":-6.314823,"i_long":106.675475,"is_transit":false,"station_id":"RU","line":6,"distance":2413,"transit":false,"time":4,"station_name":"Rawa Buntu"},{"station_name":"Sudimara","i_lat":-6.296963,"transit":false,"station_id":"SDM","i_long":106.712277,"distance":4566,"line":6,"is_transit":false,"time":6},{"i_long":106.728916,"is_transit":false,"station_name":"Jurangmangu","distance":1994,"line":6,"transit":false,"station_id":"JMU","time":4,"i_lat":-6.288927},{"is_transit":false,"i_lat":-6.276362,"time":3,"line":6,"i_long":106.74273,"transit":false,"station_name":"Pondokranji","distance":2179,"station_id":"PDJ"},{"distance":6218,"i_long":106.780334,"transit":false,"is_transit":false,"time":8,"station_name":"Kebayoran","line":6,"station_id":"KBY","i_lat":-6.237242},{"station_id":"PLM","is_transit":false,"i_long":106.79689,"transit":false,"time":7,"distance":3737,"line":6,"station_name":"Palmerah","i_lat":-6.207404},{"distance":3191,"is_transit":true,"time":6,"station_id":"THB","station_name":"Tanah Abang","i_long":106.811091,"line":1,"i_lat":-6.185545,"transit":true},{"distance":3632,"i_lat":-6.155215,"is_transit":false,"time":8,"line":1,"i_long":106.800832,"station_id":"DU","transit":false,"station_name":"Duri"},{"time":4,"transit":false,"line":1,"i_long":106.79867,"i_lat":-6.144674,"is_transit":false,"station_name":"Angke","distance":1230,"station_id":"AK"},{"distance":4102,"is_transit":true,"transit":true,"time":9,"line":4,"station_name":"Kampung Bandan","i_long":106.826365,"station_id":"KPB","i_lat":-6.132549},{"time":3,"station_id":"JAKK","i_lat":-6.137569,"i_long":106.812439,"is_transit":true,"transit":true,"station_name":"Jakarta Kota","distance":1364,"line":2},{"station_id":"JAY","station_name":"Jayakarta","line":2,"i_long":106.820901,"is_transit":false,"distance":1264,"i_lat":-6.141205,"time":4,"transit":false},{"station_name":"Manggabesar","transit":false,"station_id":"MGB","line":2,"i_long":106.82482,"time":2,"distance":1080,"is_transit":false,"i_lat":-6.149769},{"i_lat":-6.160725,"transit":false,"line":2,"is_transit":false,"time":2,"station_id":"SW","station_name":"Sawah Besar","i_long":106.827103,"distance":906},{"line":2,"i_lat":-6.166716,"is_transit":false,"i_long":106.828284,"transit":false,"station_name":"Juanda","station_id":"JUA","time":2,"distance":1149},{"is_transit":false,"station_id":"GDD","distance":2015,"transit":false,"i_long":106.832183,"time":4,"station_name":"Gondangdia","i_lat":-6.186295,"line":2},{"i_lat":-6.198556,"distance":1750,"transit":false,"time":3,"i_long":106.840169,"is_transit":false,"station_id":"CKI","line":2,"station_name":"Cikini"},{"station_id":"MRI","station_name":"Manggarai","i_lat":-6.209883,"is_transit":true,"transit":true,"i_long":106.84912,"line":2,"time":4,"distance":1590},{"i_lat":-6.212485,"distance":1275,"station_id":"MTR","time":2,"is_transit":false,"transit":false,"station_name":"Matraman","i_long":106.858896,"line":1},{"station_id":"JNG","distance":1377,"line":1,"station_name":"Jatinegara","time":8,"i_lat":-6.215091,"i_long":106.86807400000001,"is_transit":false,"transit":false}],[{"line":3,"i_long":106.640411,"transit":false,"i_lat":-6.32484,"is_transit":false,"time":0,"distance":0,"station_name":"Cisauk","station_id":"CSK"},{"transit":false,"i_long":106.66566,"distance":1784,"i_lat":-6.319871,"line":6,"is_transit":false,"station_id":"SRP","time":4,"station_name":"Serpong"},{"station_name":"Rawa Buntu","time":4,"i_lat":-6.314823,"i_long":106.675475,"distance":2413,"line":6,"transit":false,"is_transit":false,"station_id":"RU"},{"station_id":"SDM","transit":false,"i_lat":-6.296963,"station_name":"Sudimara","is_transit":false,"distance":4566,"i_long":106.712277,"line":6,"time":6},{"station_id":"JMU","is_transit":false,"line":6,"station_name":"Jurangmangu","i_lat":-6.288927,"transit":false,"distance":1994,"time":4,"i_long":106.728916},{"time":3,"transit":false,"station_id":"PDJ","i_lat":-6.276362,"station_name":"Pondokranji","distance":2179,"is_transit":false,"i_long":106.74273,"line":6},{"i_long":106.780334,"time":8,"transit":false,"station_name":"Kebayoran","is_transit":false,"station_id":"KBY","distance":6218,"i_lat":-6.237242,"line":6},{"line":6,"time":7,"distance":3737,"station_id":"PLM","is_transit":false,"transit":false,"i_lat":-6.207404,"station_name":"Palmerah","i_long":106.79689},{"transit":true,"time":6,"i_long":106.811091,"distance":3191,"station_id":"THB","i_lat":-6.185545,"is_transit":true,"station_name":"Tanah Abang","line":1},{"station_name":"Karet","time":5,"i_lat":-6.20132,"i_long":106.816351,"distance":2029,"station_id":"KAT","is_transit":false,"line":1,"transit":false},{"line":1,"is_transit":false,"time":1,"distance":471,"i_lat":-6.201433,"i_long":106.819881,"station_name":"Sudirman Baru","station_id":"SUDB","transit":false},{"transit":false,"i_long":106.822649,"distance":280,"station_name":"Sudirman","line":1,"is_transit":false,"station_id":"SUD","i_lat":-6.202263,"time":1},{"i_lat":-6.209883,"is_transit":true,"station_id":"MRI","line":2,"station_name":"Manggarai","i_long":106.84912,"transit":true,"time":4,"distance":3186},{"station_name":"Cikini","distance":1590,"line":2,"i_long":106.840169,"time":4,"i_lat":-6.198556,"transit":false,"is_transit":false,"station_id":"CKI"},{"station_name":"Gondangdia","distance":1750,"i_long":106.832183,"i_lat":-6.186295,"time":3,"line":2,"transit":false,"station_id":"GDD","is_transit":false},{"time":4,"i_lat":-6.166716,"station_name":"Juanda","is_transit":false,"line":2,"station_id":"JUA","i_long":106.828284,"transit":false,"distance":2015},{"is_transit":false,"i_long":106.827103,"time":2,"station_name":"Sawah Besar","i_lat":-6.160725,"line":2,"transit":false,"station_id":"SW","distance":1149},{"time":2,"is_transit":false,"i_lat":-6.149769,"distance":906,"i_long":106.82482,"line":2,"station_name":"Manggabesar","transit":false,"station_id":"MGB"},{"distance":1080,"is_transit":false,"transit":false,"line":2,"time":2,"station_name":"Jayakarta","station_id":"JAY","i_lat":-6.141205,"i_long":106.820901},{"is_transit":true,"time":4,"transit":true,"station_id":"JAKK","distance":1264,"station_name":"Jakarta Kota","i_lat":-6.137569,"line":2,"i_long":106.812439},{"station_name":"Kampung Bandan","station_id":"KPB","time":3,"i_lat":-6.132549,"line":4,"is_transit":true,"distance":1364,"transit":true,"i_long":106.826365},{"transit":false,"station_id":"RJW","time":3,"is_transit":false,"distance":1444,"i_long":106.836569,"station_name":"Rajawali","line":11,"i_lat":-6.14505},{"distance":1901,"station_name":"Kemayoran","station_id":"KMO","transit":false,"is_transit":false,"i_lat":-6.161728,"i_long":106.839204,"line":11,"time":5},{"line":11,"station_id":"PSE","station_name":"Pasar Senen","transit":false,"is_transit":false,"distance":1436,"time":4,"i_long":106.84368,"i_lat":-6.174784},{"distance":1567,"transit":false,"i_long":106.850107,"line":11,"station_name":"Gang Sentiong","time":8,"is_transit":false,"i_lat":-6.185975,"station_id":"GST"},{"transit":false,"station_id":"KMT","i_long":106.855437,"station_name":"Kramat","is_transit":false,"distance":973,"i_lat":-6.193792,"time":1,"line":11},{"station_id":"POK","transit":false,"distance":1829,"time":2,"station_name":"Pondok Jati","i_lat":-6.209188,"line":11,"i_long":106.861737,"is_transit":false},{"distance":1236,"station_id":"JNG","time":9,"is_transit":false,"station_name":"Jatinegara","line":1,"transit":false,"i_long":106.86807400000001,"i_lat":-6.215091}]]}