{"data":[[{"time":0,"station_id":"CSK","line":3,"is_transit":false,"station_name":"Cisauk","i_lat":-6.32484,"i_long":106.640411,"transit":false,"distance":0},{"transit":false,"i_lat":-6.319871,"is_transit":false,"i_long":106.66566,"time":4,"distance":1784,"line":6,"station_id":"SRP","station_name":"Serpong"},{"station_name":"Rawa Buntu","station_id":"RU","i_long":106.675475,"transit":false,"i_lat":-6.314823,"time":4,"is_transit":false,"distance":2413,"line":6},{"transit":false,"i_lat":-6.296963,"i_long":106.712277,"distance":4566,"line":6,"time":6,"station_id":"SDM","station_name":"Sudimara","is_transit":false},{"line":6,"distance":1994,"station_id":"JMU","time":4,"i_long":106.728916,"i_lat":-6.288927,"station_name":"Jurangmangu","transit":false,"is_transit":false},{"distance":2179,"i_long":106.74273,"time":3,"station_name":"Pondokranji","is_transit":false,"i_lat":-6.276362,"line":6,"station_id":"PDJ","transit":false},{"time":8,"distance":6218,"station_id":"KBY","is_transit":false,"line":6,"i_lat":-6.237242,"i_long":106.780334,"station_name":"Kebayoran","transit":false},{"transit":false,"distance":3737,"is_transit":false,"i_long":106.79689,"station_name":"Palmerah","time":7,"station_id":"PLM","i_lat":-6.207404,"line":6},{"time":6,"is_transit":true,"transit":true,"i_long":106.811091,"i_lat":-6.185545,"line":1,"distance":3191,"station_name":"Tanah Abang","station_id":"THB"},{"station_name":"Duri","distance":3632,"station_id":"DU","i_lat":-6.155215,"transit":false,"time":8,"i_long":106.800832,"line":1,"is_transit":false},{"station_id":"AK","is_transit":false,"i_long":106.79867,"transit":false,"i_lat":-6.144674,"line":1,"time":4,"distance":1230,"station_name":"Angke"},{"is_transit":true,"transit":true,"station_name":"Kampung Bandan","i_long":106.826365,"i_lat":-6.132549,"time":9,"distance":4102,"station_id":"KPB","line":4},{"is_transit":true,"i_long":106.812439,"time":3,"station_id":"JAKK","station_name":"Jakarta Kota","i_lat":-6.137569,"line":2,"distance":1364,"transit":true},{"i_lat":-6.141205,"distance":1264,"is_transit":false,"time":4,"line":2,"station_name":"Jayakarta","transit":false,"i_long":106.820901,"station_id":"JAY"}],[{"is_transit":false,"line":3,"transit":false,"time":0,"distance":0,"station_id":"CSK","i_long":106.640411,"i_lat":-6.32484,"station_name":"Cisauk"},{"station_id":"SRP","is_transit":false,"time":4,"distance":1784,"transit":false,"i_long":106.66566,"i_lat":-6.319871,"station_name":"Serpong","line":6},{"time":4,"station_id":"RU","is_transit":false,"line":6,"distance":2413,"i_long":106.675475,"station_name":"Rawa Buntu","i_lat":-6.314823,"transit":false},{"station_id":"SDM","i_long":106.712277,"line":6,"is_transit":false,"transit":false,"distance":4566,"time":6,"station_name":"Sudimara","i_lat":-6.296963},{"i_long":106.728916,"time":4,"transit":false,"line":6,"station_id":"JMU","distance":1994,"is_transit":false,"station_name":"Jurangmangu","i_lat":-6.288927},{"is_transit":false,"time":3,"i_lat":-6.276362,"station_name":"Pondokranji","station_id":"PDJ","transit":false,"i_long":106.74273,"distance":2179,"line":6},{"time":8,"transit":false,"station_name":"Kebayoran","station_id":"KBY","i_lat":-6.237242,"line":6,"distance":6218,"is_transit":false,"i_long":106.780334},{"line":6,"is_transit":false,"distance":3737,"time":7,"i_long":106.79689,"i_lat":-6.207404,"station_id":"PLM","station_name":"Palmerah","transit":false},{"station_name":"Tanah Abang","i_lat":-6.185545,"time":6,"station_id":"THB","i_long":106.811091,"is_transit":true,"transit":true,"distance":3191,"line":1},{"time":5,"distance":2029,"station_id":"KAT","station_name":"Karet","line":1,"i_lat":-6.20132,"i_long":106.816351,"transit":false,"is_transit":false},{"distance":471,"time":1,"station_id":"SUDB","station_name":"Sudirman Baru","is_transit":false,"transit":false,"i_long":106.819881,"line":1,"i_lat":-6.201433},{"station_id":"SUD","i_long":106.822649,"transit":false,"line":1,"is_transit":false,"station_name":"Sudirman","time":1,"distance":280,"i_lat":-6.202263},{"station_id":"MRI","station_name":"Manggarai","distance":3186,"line":2,"transit":true,"time":4,"i_lat":-6.209883,"i_long":106.84912,"is_transit":true},{"is_transit":false,"i_long":106.840169,"distance":1590,"time":4,"line":2,"station_id":"CKI","station_name":"Cikini","transit":false,"i_lat":-6.198556},{"line":2,"is_transit":false,"i_long":106.832183,"time":3,"station_id":"GDD","station_name":"Gondangdia","transit":false,"distance":1750,"i_lat":-6.186295},{"distance":2015,"i_lat":-6.166716,"line":2,"station_id":"JUA","time":4,"transit":false,"station_name":"Juanda","is_transit":false,"i_long":106.828284},{"transit":false,"time":2,"is_transit":false,"i_long":106.827103,"distance":1149,"station_id":"SW","station_name":"Sawah Besar","i_lat":-6.160725,"line":2},{"station_id":"MGB","distance":906,"i_long":106.82482,"time":2,"station_name":"Manggabesar","i_lat":-6.149769,"transit":false,"line":2,"is_transit":false},{"distance":1080,"i_lat":-6.141205,"time":2,"line":2,"station_name":"Jayakarta","is_transit":false,"i_long":106.820901,"station_id":"JAY","transit":false}],[{"transit":false,"station_name":"Cisauk","i_long":106.640411,"station_id":"CSK","time":0,"line":3,"is_transit":false,"i_lat":-6.32484,"distance":0},{"time":4,"i_lat":-6.319871,"distance":1784,"station_name":"Serpong","is_transit":false,"line":6,"station_id":"SRP","transit":false,"i_long":106.66566},{"distance":2413,"is_transit":false,"station_name":"Rawa Buntu","transit":false,"i_long":106.675475,"line":6,"i_lat":-6.314823,"time":4,"station_id":"RU"},{"station_name":"Sudimara","i_long":106.712277,"line":6,"time":6,"transit":false,"i_lat":-6.296963,"station_id":"SDM","distance":4566,"is_transit":false},{"is_transit":false,"time":4,"i_lat":-6.288927,"distance":1994,"i_long":106.728916,"line":6,"transit":false,"station_name":"Jurangmangu","station_id":"JMU"},{"distance":2179,"station_id":"PDJ","is_transit":false,"i_long":106.74273,"time":3,"transit":false,"line":6,"station_name":"Pondokranji","i_lat":-6.276362},{"line":6,"i_lat":-6.237242,"time":8,"transit":false,"is_transit":false,"station_id":"KBY","i_long":106.780334,"distance":6218,"station_name":"Kebayoran"},{"time":7,"i_long":106.79689,"is_transit":false,"station_name":"Palmerah","distance":3737,"station_id":"PLM","i_lat":-6.207404,"line":6,"transit":false},{"i_long":106.811091,"time":6,"line":1,"station_name":"Tanah Abang","transit":true,"is_transit":true,"distance":3191,"station_id":"THB","i_lat":-6.185545},{"transit":false,"i_lat":-6.20132,"station_name":"Karet","distance":2029,"time":5,"i_long":106.816351,"is_transit":false,"station_id":"KAT","line":1},{"time":1,"transit":false,"distance":471,"station_id":"SUDB","is_transit":false,"i_lat":-6.201433,"station_name":"Sudirman Baru","line":1,"i_long":106.819881},{"station_name":"Sudirman","is_transit":false,"station_id":"SUD","line":1,"i_long":106.822649,"distance":280,"i_lat":-6.202263,"time":1,"transit":false},{"i_long":106.84912,"transit":false,"time":4,"is_transit":false,"station_name":"Manggarai","distance":3186,"station_id":"MRI","line":2,"i_lat":-6.209883},{"distance":1275,"is_transit":false,"i_long":106.858896,"line":1,"i_lat":-6.212485,"station_name":"Matraman","station_id":"MTR","transit":false,"time":2},{"distance":1377,"line":1,"station_name":"Jatinegara","time":8,"station_id":"JNG","i_lat":-6.215091,"i_long":106.86807400000001,"transit":true,"is_transit":true},{"distance":1236,"is_transit":false,"i_long":106.861737,"station_name":"Pondok Jati","i_lat":-6.209188,"transit":false,"line":11,"time":2,"station_id":"POK"},{"line":11,"is_transit":false,"station_name":"Kramat","i_long":106.855437,"transit":false,"time":2,"station_id":"KMT","i_lat":-6.193792,"distance":1829},{"station_name":"Gang Sentiong","time":1,"i_long":106.850107,"i_lat":-6.185975,"transit":false,"station_id":"GST","distance":973,"is_transit":false,"line":11},{"i_long":106.84368,"transit":false,"station_name":"Pasar Senen","is_transit":false,"time":8,"station_id":"PSE","distance":1567,"line":11,"i_lat":-6.174784},{"i_long":106.839204,"distance":1436,"time":4,"transit":false,"line":11,"is_transit":false,"station_name":"Kemayoran","station_id":"KMO","i_lat":-6.161728},{"station_id":"RJW","time":5,"i_long":106.836569,"distance":1901,"transit":false,"station_name":"Rajawali","i_lat":-6.14505,"line":11,"is_transit":false},{"distance":1444,"station_id":"KPB","is_transit":true,"i_long":106.826365,"transit":true,"i_lat":-6.132549,"station_name":"Kampung Bandan","time":3,"line":4},{"is_transit":true,"transit":true,"i_long":106.812439,"time":3,"i_lat":-6.137569,"station_name":"Jakarta Kota","distance":1364,"station_id":"JAKK","line":2},{"i_lat":-6.141205,"distance":1264,"station_name":"Jayakarta","line":2,"time":4,"station_id":"JAY","transit":false,"is_transit":false,"i_long":106.820901}],[{"i_long":106.640411,"is_transit":false,"distance":0,"i_lat":-6.32484,"time":0,"transit":false,"station_name":"Cisauk","line":3,"station_id":"CSK"},{"is_transit":false,"transit":false,"distance":1784,"station_name":"Serpong","i_lat":-6.319871,"i_long":106.66566,"line":6,"time":4,"station_id":"SRP"},{"is_transit":false,"station_name":"Rawa Buntu","i_long":106.675475,"transit":false,"station_id":"RU","i_lat":-6.314823,"line":6,"time":4,"distance":2413},{"time":6,"distance":4566,"i_lat":-6.296963,"station_id":"SDM","line":6,"i_long":106.712277,"transit":false,"station_name":"Sudimara","is_transit":false},{"distance":1994,"i_long":106.728916,"station_id":"JMU","station_name":"Jurangmangu","time":4,"line":6,"i_lat":-6.288927,"is_transit":false,"transit":false},{"line":6,"distance":2179,"is_transit":false,"transit":false,"i_lat":-6.276362,"station_id":"PDJ","i_long":106.74273,"time":3,"station_name":"Pondokranji"},{"i_lat":-6.237242,"distance":6218,"station_id":"KBY","i_long":106.780334,"time":8,"is_transit":false,"station_name":"Kebayoran","line":6,"transit":false},{"transit":false,"i_long":106.79689,"time":7,"station_id":"PLM","i_lat":-6.207404,"station_name":"Palmerah","is_transit":false,"distance":3737,"line":6},{"time":6,"distance":3191,"station_id":"THB","is_transit":true,"i_lat":-6.185545,"line":1,"station_name":"Tanah Abang","i_long":106.811091,"transit":true},{"i_long":106.800832,"distance":3632,"station_id":"DU","is_transit":false,"i_lat":-6.155215,"time":8,"station_name":"Duri","line":1,"transit":false},{"is_transit":false,"transit":false,"station_id":"AK","line":1,"i_long":106.79867,"time":4,"distance":1230,"i_lat":-6.144674,"station_name":"Angke"},{"station_name":"Kampung Bandan","i_lat":-6.132549,"is_transit":true,"line":4,"transit":true,"distance":4102,"i_long":106.826365,"time":9,"station_id":"KPB"},{"distance":1444,"transit":false,"i_long":106.836569,"line":11,"i_lat":-6.14505,"is_transit":false,"time":3,"station_id":"RJW","station_name":"Rajawali"},{"distance":1901,"station_id":"KMO","transit":false,"station_name":"Kemayoran","is_transit":false,"line":11,"i_long":106.839204,"i_lat":-6.161728,"time":5},{"i_lat":-6.174784,"transit":false,"time":4,"distance":1436,"is_transit":false,"station_name":"Pasar Senen","i_long":106.84368,"line":11,"station_id":"PSE"},{"distance":1567,"station_id":"GST","is_transit":false,"transit":false,"station_name":"Gang Sentiong","i_lat":-6.185975,"i_long":106.850107,"line":11,"time":8},{"station_name":"Kramat","line":11,"i_lat":-6.193792,"time":1,"transit":false,"i_long":106.855437,"is_transit":false,"station_id":"KMT","distance":973},{"i_lat":-6.209188,"i_long":106.861737,"distance":1829,"line":11,"station_name":"Pondok Jati","is_transit":false,"time":2,"station_id":"POK","transit":false},{"line":1,"transit":true,"distance":1236,"i_long":106.86807400000001,"is_transit":true,"station_name":"Jatinegara","i_lat":-6.215091,"time":9,"station_id":"JNG"},{"i_lat":-6.212485,"i_long":106.858896,"station_name":"Matraman","line":1,"time":2,"station_id":"MTR","is_transit":false,"distance":1377,"transit":false},{"station_name":"Manggarai","time":2,"transit":true,"distance":1275,"i_lat":-6.209883,"line":2,"station_id":"MRI","is_transit":true,"i_long":106.84912},{"station_name":"Cikini","station_id":"CKI","i_lat":-6.198556,"time":4,"line":2,"is_transit":false,"distance":1590,"transit":false,"i_long":106.840169},{"transit":false,"station_id":"GDD","station_name":"Gondangdia","i_lat":-6.186295,"is_transit":false,"line":2,"i_long":106.832183,"distance":1750,"time":3},{"line":2,"i_long":106.828284,"distance":2015,"is_transit":false,"station_id":"JUA","transit":false,"time":4,"station_name":"Juanda","i_lat":-6.166716},{"line":2,"time":2,"i_long":106.827103,"transit":false,"station_name":"Sawah Besar","distance":1149,"station_id":"SW","is_transit":false,"i_lat":-6.160725},{"time":2,"is_transit":false,"station_name":"Manggabesar","line":2,"distance":906,"transit":false,"station_id":"MGB","i_long":106.82482,"i_lat":-6.149769},{"time":2,"station_name":"Jayakarta","distance":1080,"is_transit":false,"transit":false,"i_lat":-6.141205,"i_long":106.820901,"line":2,"station_id":"JAY"}]]}