{"data":[[{"is_transit":false,"station_name":"Cisauk","i_long":106.640411,"line":0,"distance":0,"station_id":"CSK","time":0,"transit":false,"i_lat":-6.32484},{"distance":1784,"is_transit":false,"i_long":106.66566,"i_lat":-6.319871,"line":6,"transit":false,"time":4,"station_id":"SRP","station_name":"Serpong"},{"station_id":"RU","transit":false,"i_long":106.675475,"time":4,"station_name":"Rawa Buntu","distance":2413,"is_transit":false,"line":6,"i_lat":-6.314823},{"station_name":"Sudimara","transit":false,"time":6,"is_transit":false,"i_lat":-6.296963,"distance":4566,"station_id":"SDM","line":6,"i_long":106.712277},{"i_long":106.728916,"station_name":"Jurangmangu","line":6,"distance":1994,"station_id":"JMU","transit":false,"i_lat":-6.288927,"time":4,"is_transit":false},{"i_long":106.74273,"line":6,"is_transit":false,"distance":2179,"station_id":"PDJ","station_name":"Pondokranji","i_lat":-6.276362,"transit":false,"time":3},{"distance":6218,"is_transit":false,"station_name":"Kebayoran","station_id":"KBY","transit":false,"i_long":106.780334,"line":6,"i_lat":-6.237242,"time":8},{"transit":false,"i_lat":-6.207404,"line":6,"time":7,"distance":3737,"station_id":"PLM","is_transit":false,"station_name":"Palmerah","i_long":106.79689},{"station_name":"Tanah Abang","transit":true,"i_lat":-6.185545,"time":6,"station_id":"THB","is_transit":true,"line":1,"i_long":106.811091,"distance":3191},{"station_id":"KAT","i_lat":-6.20132,"transit":false,"time":5,"is_transit":false,"station_name":"Karet","distance":2029,"i_long":106.816351,"line":1},{"station_id":"SUDB","transit":false,"i_long":106.819881,"i_lat":-6.201433,"line":1,"distance":471,"time":1,"is_transit":false,"station_name":"Sudirman Baru"},{"i_lat":-6.202263,"transit":false,"time":1,"distance":280,"line":1,"station_id":"SUD","i_long":106.822649,"is_transit":false,"station_name":"Sudirman"},{"distance":3186,"station_name":"Manggarai","station_id":"MRI","transit":true,"i_lat":-6.209883,"line":0,"is_transit":true,"i_long":106.84912,"time":4},{"i_long":106.857948,"line":2,"time":4,"i_lat":-6.226659,"station_name":"Tebet","is_transit":false,"distance":2610,"station_id":"TEB","transit":false},{"station_name":"Cawang","station_id":"CW","transit":false,"line":0,"distance":1230,"i_lat":-6.242512,"is_transit":false,"i_long":106.856607,"time":2},{"is_transit":false,"i_long":106.85449,"distance":1546,"i_lat":-6.255332,"station_id":"DRN","station_name":"Duren Kalibata","time":3,"line":0,"transit":false},{"station_name":"Pasar Minggu Baru","station_id":"PSMB","i_lat":-6.263214,"line":2,"distance":824,"is_transit":false,"time":2,"i_long":106.851577,"transit":false},{"distance":2380,"i_long":106.843999,"is_transit":false,"time":2,"i_lat":-6.2842400000000005,"line":2,"station_name":"Pasar Minggu","station_id":"PSM","transit":false},{"station_id":"TNT","transit":false,"i_long":106.838896,"distance":2820,"station_name":"Tanjung Barat","i_lat":-6.3080680000000005,"time":4,"line":2,"is_transit":false},{"station_id":"LNA","distance":2671,"time":3,"station_name":"Lenteng Agung","i_lat":-6.330363,"line":2,"transit":false,"is_transit":false,"i_long":106.832616},{"i_long":106.834175,"station_name":"Univ. Pancasila","is_transit":false,"i_lat":-6.339291,"transit":false,"distance":1029,"station_id":"UP","time":2,"line":2},{"station_name":"Univ. Indonesia","time":3,"is_transit":false,"distance":2264,"transit":false,"i_lat":-6.360749,"i_long":106.831474,"line":2,"station_id":"UI"},{"line":2,"station_name":"Pondok Cina","transit":false,"time":2,"i_long":106.831114,"station_id":"POC","is_transit":false,"i_lat":-6.369073,"distance":1109},{"i_lat":-6.391065,"i_long":106.819451,"is_transit":false,"station_name":"Depokbaru","time":4,"transit":false,"station_id":"DPB","line":0,"distance":2727}],[{"transit":false,"i_lat":-6.32484,"i_long":106.640411,"is_transit":false,"line":0,"station_id":"CSK","time":0,"station_name":"Cisauk","distance":0},{"time":4,"i_long":106.66566,"transit":false,"i_lat":-6.319871,"is_transit":false,"station_name":"Serpong","distance":1784,"line":6,"station_id":"SRP"},{"distance":2413,"i_long":106.675475,"is_transit":false,"time":4,"station_name":"Rawa Buntu","line":6,"transit":false,"i_lat":-6.314823,"station_id":"RU"},{"time":6,"i_lat":-6.296963,"station_id":"SDM","is_transit":false,"i_long":106.712277,"line":6,"distance":4566,"station_name":"Sudimara","transit":false},{"i_lat":-6.288927,"line":6,"is_transit":false,"i_long":106.728916,"time":4,"transit":false,"station_id":"JMU","station_name":"Jurangmangu","distance":1994},{"station_id":"PDJ","distance":2179,"is_transit":false,"time":3,"transit":false,"line":6,"i_long":106.74273,"station_name":"Pondokranji","i_lat":-6.276362},{"is_transit":false,"time":8,"station_name":"Kebayoran","i_long":106.780334,"distance":6218,"transit":false,"line":6,"station_id":"KBY","i_lat":-6.237242},{"station_id":"PLM","i_long":106.79689,"line":6,"station_name":"Palmerah","time":7,"transit":false,"i_lat":-6.207404,"is_transit":false,"distance":3737},{"time":6,"station_id":"THB","line":1,"is_transit":true,"station_name":"Tanah Abang","i_long":106.811091,"transit":true,"i_lat":-6.185545,"distance":3191},{"time":8,"transit":true,"station_name":"Duri","line":1,"i_lat":-6.155215,"i_long":106.800832,"is_transit":true,"station_id":"DU","distance":3632},{"time":4,"i_long":106.79867,"distance":1230,"station_name":"Angke","is_transit":false,"station_id":"AK","line":0,"transit":false,"i_lat":-6.144674},{"station_name":"Kampung Bandan","is_transit":true,"distance":4102,"station_id":"KPB","transit":false,"i_long":106.826365,"line":0,"i_lat":-6.132549,"time":9},{"time":3,"distance":1364,"i_long":106.812439,"transit":true,"line":0,"i_lat":-6.137569,"is_transit":true,"station_name":"Jakarta Kota","station_id":"JAKK"},{"time":4,"i_long":106.820901,"distance":1264,"i_lat":-6.141205,"station_id":"JAY","line":7,"is_transit":false,"station_name":"Jayakarta","transit":false},{"i_lat":-6.149769,"line":2,"time":2,"transit":false,"is_transit":false,"station_name":"Manggabesar","station_id":"MGB","distance":1080,"i_long":106.82482},{"i_long":106.827103,"station_name":"Sawah Besar","i_lat":-6.160725,"is_transit":false,"transit":false,"distance":906,"station_id":"SW","time":2,"line":2},{"i_lat":-6.166716,"i_long":106.828284,"line":2,"transit":false,"distance":1149,"time":2,"is_transit":false,"station_name":"Juanda","station_id":"JUA"},{"i_lat":-6.186295,"time":4,"station_id":"GDD","line":2,"is_transit":false,"transit":false,"station_name":"Gondangdia","distance":2015,"i_long":106.832183},{"i_long":106.840169,"transit":false,"line":0,"is_transit":false,"station_name":"Cikini","i_lat":-6.198556,"distance":1750,"time":3,"station_id":"CKI"},{"station_name":"Manggarai","distance":1590,"transit":true,"i_long":106.84912,"line":0,"is_transit":true,"i_lat":-6.209883,"station_id":"MRI","time":4},{"station_name":"Tebet","line":2,"is_transit":false,"distance":2610,"i_long":106.857948,"station_id":"TEB","time":4,"transit":false,"i_lat":-6.226659},{"i_long":106.856607,"line":0,"transit":false,"station_name":"Cawang","i_lat":-6.242512,"time":2,"distance":1230,"station_id":"CW","is_transit":false},{"distance":1546,"i_lat":-6.255332,"transit":false,"time":3,"is_transit":false,"i_long":106.85449,"station_id":"DRN","line":0,"station_name":"Duren Kalibata"},{"station_id":"PSMB","is_transit":false,"transit":false,"line":2,"time":2,"i_lat":-6.263214,"i_long":106.851577,"station_name":"Pasar Minggu Baru","distance":824},{"line":2,"is_transit":false,"time":2,"distance":2380,"transit":false,"station_id":"PSM","i_lat":-6.2842400000000005,"i_long":106.843999,"station_name":"Pasar Minggu"},{"line":2,"station_id":"TNT","is_transit":false,"time":4,"distance":2820,"transit":false,"station_name":"Tanjung Barat","i_lat":-6.3080680000000005,"i_long":106.838896},{"station_name":"Lenteng Agung","i_long":106.832616,"is_transit":false,"transit":false,"i_lat":-6.330363,"line":2,"distance":2671,"station_id":"LNA","time":3},{"i_long":106.834175,"time":2,"station_name":"Univ. Pancasila","distance":1029,"station_id":"UP","is_transit":false,"transit":false,"line":2,"i_lat":-6.339291},{"distance":2264,"station_id":"UI","transit":false,"line":2,"station_name":"Univ. Indonesia","i_long":106.831474,"i_lat":-6.360749,"time":3,"is_transit":false},{"station_name":"Pondok Cina","station_id":"POC","transit":false,"time":2,"i_lat":-6.369073,"line":2,"i_long":106.831114,"is_transit":false,"distance":1109},{"station_name":"Depokbaru","distance":2727,"line":0,"transit":false,"station_id":"DPB","i_lat":-6.391065,"i_long":106.819451,"time":4,"is_transit":false}],[{"i_long":106.640411,"transit":false,"is_transit":false,"time":0,"distance":0,"station_id":"CSK","line":0,"station_name":"Cisauk","i_lat":-6.32484},{"line":6,"is_transit":false,"distance":1784,"transit":false,"station_name":"Serpong","i_lat":-6.319871,"i_long":106.66566,"station_id":"SRP","time":4},{"station_name":"Rawa Buntu","i_long":106.675475,"line":6,"distance":2413,"transit":false,"time":4,"is_transit":false,"station_id":"RU","i_lat":-6.314823},{"i_long":106.712277,"station_name":"Sudimara","line":6,"distance":4566,"station_id":"SDM","is_transit":false,"time":6,"transit":false,"i_lat":-6.296963},{"station_id":"JMU","i_lat":-6.288927,"station_name":"Jurangmangu","transit":false,"time":4,"distance":1994,"line":6,"is_transit":false,"i_long":106.728916},{"is_transit":false,"transit":false,"i_lat":-6.276362,"distance":2179,"i_long":106.74273,"station_id":"PDJ","time":3,"station_name":"Pondokranji","line":6},{"is_transit":false,"transit":false,"line":6,"distance":6218,"station_id":"KBY","i_lat":-6.237242,"i_long":106.780334,"station_name":"Kebayoran","time":8},{"distance":3737,"i_lat":-6.207404,"time":7,"station_name":"Palmerah","transit":false,"i_long":106.79689,"line":6,"station_id":"PLM","is_transit":false},{"i_lat":-6.185545,"i_long":106.811091,"line":1,"transit":true,"station_name":"Tanah Abang","time":6,"station_id":"THB","distance":3191,"is_transit":true},{"is_transit":true,"i_long":106.800832,"transit":true,"line":1,"distance":3632,"time":8,"station_name":"Duri","i_lat":-6.155215,"station_id":"DU"},{"distance":1230,"time":4,"line":0,"is_transit":false,"i_lat":-6.144674,"station_id":"AK","station_name":"Angke","transit":false,"i_long":106.79867},{"i_long":106.826365,"line":0,"station_name":"Kampung Bandan","is_transit":true,"transit":true,"distance":4102,"station_id":"KPB","i_lat":-6.132549,"time":9},{"i_long":106.836569,"transit":false,"time":3,"is_transit":false,"i_lat":-6.14505,"station_id":"RJW","distance":1444,"line":11,"station_name":"Rajawali"},{"station_id":"KMO","i_lat":-6.161728,"transit":false,"station_name":"Kemayoran","line":11,"i_long":106.839204,"distance":1901,"time":5,"is_transit":false},{"time":4,"is_transit":false,"station_id":"PSE","i_lat":-6.174784,"distance":1436,"i_long":106.84368,"station_name":"Pasar Senen","transit":false,"line":11},{"station_name":"Gang Sentiong","is_transit":false,"i_lat":-6.185975,"distance":1567,"station_id":"GST","line":11,"transit":false,"i_long":106.850107,"time":8},{"station_id":"KMT","station_name":"Kramat","i_long":106.855437,"i_lat":-6.193792,"distance":973,"transit":false,"line":11,"is_transit":false,"time":1},{"is_transit":false,"distance":1829,"line":11,"station_name":"Pondok Jati","station_id":"POK","time":2,"transit":false,"i_long":106.861737,"i_lat":-6.209188},{"line":0,"transit":true,"distance":1236,"time":9,"i_lat":-6.215091,"is_transit":true,"station_name":"Jatinegara","station_id":"JNG","i_long":106.86807400000001},{"time":2,"is_transit":false,"distance":1377,"i_lat":-6.212485,"station_id":"MTR","transit":false,"station_name":"Matraman","i_long":106.858896,"line":1},{"distance":1275,"station_id":"MRI","transit":true,"i_lat":-6.209883,"station_name":"Manggarai","time":2,"is_transit":true,"i_long":106.84912,"line":0},{"i_lat":-6.226659,"is_transit":false,"i_long":106.857948,"distance":2610,"time":4,"station_name":"Tebet","station_id":"TEB","transit":false,"line":2},{"time":2,"station_id":"CW","i_lat":-6.242512,"station_name":"Cawang","transit":false,"line":0,"i_long":106.856607,"is_transit":false,"distance":1230},{"i_lat":-6.255332,"time":3,"station_name":"Duren Kalibata","distance":1546,"station_id":"DRN","i_long":106.85449,"is_transit":false,"transit":false,"line":0},{"station_name":"Pasar Minggu Baru","is_transit":false,"i_lat":-6.263214,"time":2,"transit":false,"i_long":106.851577,"line":2,"distance":824,"station_id":"PSMB"},{"line":2,"time":2,"station_name":"Pasar Minggu","station_id":"PSM","i_lat":-6.2842400000000005,"i_long":106.843999,"distance":2380,"is_transit":false,"transit":false},{"station_name":"Tanjung Barat","distance":2820,"i_lat":-6.3080680000000005,"i_long":106.838896,"is_transit":false,"station_id":"TNT","line":2,"transit":false,"time":4},{"station_id":"LNA","transit":false,"i_lat":-6.330363,"time":3,"i_long":106.832616,"line":2,"station_name":"Lenteng Agung","is_transit":false,"distance":2671},{"time":2,"i_lat":-6.339291,"station_id":"UP","distance":1029,"line":2,"station_name":"Univ. Pancasila","i_long":106.834175,"is_transit":false,"transit":false},{"i_lat":-6.360749,"line":2,"distance":2264,"i_long":106.831474,"is_transit":false,"station_id":"UI","time":3,"station_name":"Univ. Indonesia","transit":false},{"transit":false,"is_transit":false,"i_lat":-6.369073,"distance":1109,"i_long":106.831114,"line":2,"station_id":"POC","time":2,"station_name":"Pondok Cina"},{"station_name":"Depokbaru","distance":2727,"is_transit":false,"transit":false,"i_lat":-6.391065,"line":0,"time":4,"station_id":"DPB","i_long":106.819451}]]}