{"data":[[{"i_long":106.640411,"line":3,"transit":false,"is_transit":false,"time":0,"i_lat":-6.32484,"station_name":"Cisauk","station_id":"CSK","distance":0},{"transit":false,"is_transit":false,"i_lat":-6.319871,"i_long":106.66566,"time":4,"station_name":"Serpong","line":6,"station_id":"SRP","distance":1784},{"transit":false,"time":4,"station_name":"Rawa Buntu","station_id":"RU","is_transit":false,"i_lat":-6.314823,"line":6,"distance":2413,"i_long":106.675475},{"station_id":"SDM","time":6,"station_name":"Sudimara","distance":4566,"transit":false,"i_long":106.712277,"is_transit":false,"i_lat":-6.296963,"line":6},{"i_lat":-6.288927,"station_id":"JMU","distance":1994,"is_transit":false,"i_long":106.728916,"transit":false,"station_name":"Jurangmangu","line":6,"time":4},{"i_lat":-6.276362,"station_id":"PDJ","transit":false,"distance":2179,"station_name":"Pondokranji","i_long":106.74273,"is_transit":false,"time":3,"line":6},{"i_long":106.780334,"i_lat":-6.237242,"distance":6218,"station_id":"KBY","is_transit":false,"time":8,"transit":false,"station_name":"Kebayoran","line":6},{"i_long":106.79689,"transit":false,"station_id":"PLM","time":7,"i_lat":-6.207404,"line":6,"station_name":"Palmerah","distance":3737,"is_transit":false},{"station_name":"Tanah Abang","transit":true,"station_id":"THB","i_lat":-6.185545,"is_transit":true,"time":6,"line":1,"distance":3191,"i_long":106.811091},{"time":8,"is_transit":true,"distance":3632,"i_lat":-6.155215,"transit":true,"line":1,"station_id":"DU","i_long":106.800832,"station_name":"Duri"},{"i_long":106.788277,"station_name":"Grogol","distance":1700,"line":5,"time":3,"i_lat":-6.162021,"station_id":"GGL","transit":false,"is_transit":false},{"time":2,"station_name":"Pesing","i_long":106.771379,"line":5,"is_transit":false,"distance":2036,"i_lat":-6.161433,"transit":false,"station_id":"PSG"},{"station_id":"TKO","time":2,"transit":false,"station_name":"Taman Kota","i_lat":-6.1587309999999995,"is_transit":false,"i_long":106.756522,"distance":1614,"line":5},{"i_lat":-6.159876,"is_transit":false,"distance":2334,"transit":false,"line":5,"i_long":106.737035,"station_id":"BOI","time":2,"station_name":"Bojongindah"},{"i_long":106.723064,"station_name":"Rawa Buaya","transit":false,"station_id":"RW","line":5,"is_transit":false,"time":4,"distance":1152,"i_lat":-6.162758},{"distance":2504,"is_transit":false,"station_name":"Kalideres","i_lat":-6.166068,"transit":false,"time":3,"line":5,"i_long":106.701612,"station_id":"KDS"}],[{"i_long":106.640411,"station_name":"Cisauk","time":0,"station_id":"CSK","is_transit":false,"distance":0,"i_lat":-6.32484,"line":3,"transit":false},{"is_transit":false,"station_id":"SRP","transit":false,"i_lat":-6.319871,"time":4,"station_name":"Serpong","distance":1784,"line":6,"i_long":106.66566},{"station_name":"Rawa Buntu","is_transit":false,"i_lat":-6.314823,"distance":2413,"i_long":106.675475,"transit":false,"station_id":"RU","time":4,"line":6},{"transit":false,"time":6,"line":6,"i_long":106.712277,"station_name":"Sudimara","station_id":"SDM","is_transit":false,"distance":4566,"i_lat":-6.296963},{"distance":1994,"i_long":106.728916,"station_id":"JMU","is_transit":false,"station_name":"Jurangmangu","i_lat":-6.288927,"transit":false,"time":4,"line":6},{"distance":2179,"station_id":"PDJ","station_name":"Pondokranji","transit":false,"time":3,"line":6,"is_transit":false,"i_lat":-6.276362,"i_long":106.74273},{"i_long":106.780334,"station_name":"Kebayoran","transit":false,"time":8,"station_id":"KBY","line":6,"is_transit":false,"i_lat":-6.237242,"distance":6218},{"i_long":106.79689,"station_id":"PLM","is_transit":false,"transit":false,"line":6,"time":7,"distance":3737,"i_lat":-6.207404,"station_name":"Palmerah"},{"time":6,"i_lat":-6.185545,"transit":true,"station_name":"Tanah Abang","is_transit":true,"i_long":106.811091,"distance":3191,"line":1,"station_id":"THB"},{"i_long":106.816351,"is_transit":false,"line":1,"transit":false,"time":5,"station_id":"KAT","station_name":"Karet","i_lat":-6.20132,"distance":2029},{"transit":false,"station_name":"Sudirman Baru","station_id":"SUDB","i_lat":-6.201433,"is_transit":false,"i_long":106.819881,"distance":471,"time":1,"line":1},{"station_id":"SUD","distance":280,"i_lat":-6.202263,"transit":false,"is_transit":false,"time":1,"station_name":"Sudirman","i_long":106.822649,"line":1},{"i_long":106.84912,"line":2,"time":4,"distance":3186,"station_id":"MRI","station_name":"Manggarai","is_transit":true,"transit":true,"i_lat":-6.209883},{"station_id":"CKI","is_transit":false,"station_name":"Cikini","time":4,"transit":false,"distance":1590,"i_lat":-6.198556,"i_long":106.840169,"line":2},{"i_long":106.832183,"station_id":"GDD","line":2,"station_name":"Gondangdia","distance":1750,"time":3,"is_transit":false,"i_lat":-6.186295,"transit":false},{"distance":2015,"station_name":"Juanda","i_lat":-6.166716,"is_transit":false,"station_id":"JUA","transit":false,"line":2,"time":4,"i_long":106.828284},{"station_name":"Sawah Besar","station_id":"SW","is_transit":false,"line":2,"distance":1149,"i_lat":-6.160725,"transit":false,"time":2,"i_long":106.827103},{"distance":906,"line":2,"time":2,"i_lat":-6.149769,"i_long":106.82482,"is_transit":false,"station_id":"MGB","station_name":"Manggabesar","transit":false},{"i_long":106.820901,"is_transit":false,"time":2,"transit":false,"distance":1080,"i_lat":-6.141205,"station_name":"Jayakarta","line":2,"station_id":"JAY"},{"i_lat":-6.137569,"is_transit":true,"station_name":"Jakarta Kota","station_id":"JAKK","time":4,"transit":true,"distance":1264,"i_long":106.812439,"line":2},{"transit":true,"i_lat":-6.132549,"distance":1364,"station_id":"KPB","station_name":"Kampung Bandan","time":3,"i_long":106.826365,"is_transit":true,"line":4},{"is_transit":false,"i_long":106.79867,"transit":false,"station_id":"AK","distance":4102,"i_lat":-6.144674,"station_name":"Angke","time":9,"line":1},{"i_long":106.800832,"is_transit":true,"station_id":"DU","station_name":"Duri","transit":true,"i_lat":-6.155215,"line":1,"time":4,"distance":1230},{"transit":false,"i_long":106.788277,"station_id":"GGL","i_lat":-6.162021,"line":5,"time":3,"station_name":"Grogol","is_transit":false,"distance":1700},{"is_transit":false,"station_name":"Pesing","distance":2036,"transit":false,"line":5,"time":2,"i_lat":-6.161433,"i_long":106.771379,"station_id":"PSG"},{"is_transit":false,"distance":1614,"transit":false,"station_id":"TKO","station_name":"Taman Kota","line":5,"i_long":106.756522,"time":2,"i_lat":-6.1587309999999995},{"transit":false,"i_lat":-6.159876,"i_long":106.737035,"station_id":"BOI","time":2,"is_transit":false,"station_name":"Bojongindah","distance":2334,"line":5},{"transit":false,"i_long":106.723064,"station_id":"RW","station_name":"Rawa Buaya","line":5,"distance":1152,"i_lat":-6.162758,"is_transit":false,"time":4},{"i_long":106.701612,"i_lat":-6.166068,"is_transit":false,"distance":2504,"station_name":"Kalideres","transit":false,"station_id":"KDS","line":5,"time":3}],[{"i_long":106.640411,"is_transit":false,"i_lat":-6.32484,"station_name":"Cisauk","transit":false,"time":0,"station_id":"CSK","line":3,"distance":0},{"i_long":106.66566,"line":6,"i_lat":-6.319871,"is_transit":false,"distance":1784,"station_name":"Serpong","transit":false,"station_id":"SRP","time":4},{"i_lat":-6.314823,"is_transit":false,"line":6,"distance":2413,"station_id":"RU","transit":false,"i_long":106.675475,"station_name":"Rawa Buntu","time":4},{"time":6,"i_lat":-6.296963,"is_transit":false,"line":6,"transit":false,"station_name":"Sudimara","distance":4566,"station_id":"SDM","i_long":106.712277},{"time":4,"transit":false,"station_id":"JMU","station_name":"Jurangmangu","is_transit":false,"i_lat":-6.288927,"i_long":106.728916,"distance":1994,"line":6},{"is_transit":false,"station_name":"Pondokranji","station_id":"PDJ","distance":2179,"transit":false,"time":3,"i_lat":-6.276362,"i_long":106.74273,"line":6},{"time":8,"i_lat":-6.237242,"distance":6218,"i_long":106.780334,"station_name":"Kebayoran","is_transit":false,"station_id":"KBY","line":6,"transit":false},{"station_name":"Palmerah","time":7,"line":6,"is_transit":false,"station_id":"PLM","distance":3737,"transit":false,"i_long":106.79689,"i_lat":-6.207404},{"is_transit":true,"distance":3191,"i_lat":-6.185545,"line":1,"time":6,"station_name":"Tanah Abang","i_long":106.811091,"station_id":"THB","transit":true},{"transit":false,"distance":2029,"station_name":"Karet","i_long":106.816351,"line":1,"time":5,"is_transit":false,"i_lat":-6.20132,"station_id":"KAT"},{"station_id":"SUDB","is_transit":false,"distance":471,"line":1,"i_long":106.819881,"time":1,"transit":false,"station_name":"Sudirman Baru","i_lat":-6.201433},{"distance":280,"i_long":106.822649,"is_transit":false,"i_lat":-6.202263,"line":1,"transit":false,"station_name":"Sudirman","time":1,"station_id":"SUD"},{"station_name":"Manggarai","distance":3186,"i_lat":-6.209883,"transit":false,"station_id":"MRI","is_transit":false,"time":4,"i_long":106.84912,"line":2},{"distance":1275,"time":2,"i_lat":-6.212485,"i_long":106.858896,"station_id":"MTR","is_transit":false,"station_name":"Matraman","transit":false,"line":1},{"time":8,"distance":1377,"i_long":106.86807400000001,"line":1,"is_transit":true,"i_lat":-6.215091,"transit":true,"station_name":"Jatinegara","station_id":"JNG"},{"transit":false,"station_name":"Pondok Jati","i_lat":-6.209188,"time":2,"distance":1236,"i_long":106.861737,"is_transit":false,"line":11,"station_id":"POK"},{"distance":1829,"station_name":"Kramat","time":2,"is_transit":false,"transit":false,"station_id":"KMT","i_long":106.855437,"line":11,"i_lat":-6.193792},{"line":11,"distance":973,"transit":false,"time":1,"station_id":"GST","i_long":106.850107,"station_name":"Gang Sentiong","is_transit":false,"i_lat":-6.185975},{"station_id":"PSE","station_name":"Pasar Senen","transit":false,"i_lat":-6.174784,"i_long":106.84368,"distance":1567,"is_transit":false,"line":11,"time":8},{"i_long":106.839204,"distance":1436,"is_transit":false,"time":4,"station_id":"KMO","transit":false,"station_name":"Kemayoran","i_lat":-6.161728,"line":11},{"is_transit":false,"station_id":"RJW","transit":false,"station_name":"Rajawali","time":5,"i_long":106.836569,"line":11,"i_lat":-6.14505,"distance":1901},{"transit":true,"line":4,"station_name":"Kampung Bandan","station_id":"KPB","time":3,"i_lat":-6.132549,"i_long":106.826365,"distance":1444,"is_transit":true},{"time":9,"distance":4102,"station_name":"Angke","i_lat":-6.144674,"i_long":106.79867,"station_id":"AK","transit":false,"is_transit":false,"line":1},{"i_long":106.800832,"line":1,"transit":true,"station_name":"Duri","station_id":"DU","time":4,"distance":1230,"i_lat":-6.155215,"is_transit":true},{"distance":1700,"i_long":106.788277,"time":3,"line":5,"i_lat":-6.162021,"station_id":"GGL","transit":false,"station_name":"Grogol","is_transit":false},{"is_transit":false,"transit":false,"i_lat":-6.161433,"i_long":106.771379,"station_name":"Pesing","distance":2036,"line":5,"time":2,"station_id":"PSG"},{"line":5,"transit":false,"is_transit":false,"station_id":"TKO","station_name":"Taman Kota","i_long":106.756522,"time":2,"distance":1614,"i_lat":-6.1587309999999995},{"station_id":"BOI","is_transit":false,"i_long":106.737035,"transit":false,"distance":2334,"line":5,"i_lat":-6.159876,"station_name":"Bojongindah","time":2},{"is_transit":false,"transit":false,"distance":1152,"line":5,"i_lat":-6.162758,"i_long":106.723064,"time":4,"station_id":"RW","station_name":"Rawa Buaya"},{"station_id":"KDS","time":3,"i_lat":-6.166068,"distance":2504,"transit":false,"i_long":106.701612,"station_name":"Kalideres","is_transit":false,"line":5}]]}