{"data":[[{"station_name":"Cisauk","distance":0,"i_long":106.640411,"i_lat":-6.32484,"line":3,"station_id":"CSK","time":0,"is_transit":false,"transit":false},{"station_id":"SRP","i_lat":-6.319871,"distance":1784,"transit":false,"station_name":"Serpong","line":6,"i_long":106.66566,"is_transit":false,"time":4},{"station_id":"RU","station_name":"Rawa Buntu","line":6,"i_long":106.675475,"distance":2413,"time":4,"transit":false,"i_lat":-6.314823,"is_transit":false},{"station_name":"Sudimara","i_long":106.712277,"is_transit":false,"transit":false,"line":6,"time":6,"station_id":"SDM","distance":4566,"i_lat":-6.296963},{"distance":1994,"time":4,"station_id":"JMU","transit":false,"i_lat":-6.288927,"line":6,"station_name":"Jurangmangu","is_transit":false,"i_long":106.728916},{"station_id":"PDJ","i_lat":-6.276362,"line":6,"time":3,"is_transit":false,"transit":false,"distance":2179,"i_long":106.74273,"station_name":"Pondokranji"},{"i_lat":-6.237242,"distance":6218,"i_long":106.780334,"line":6,"station_name":"Kebayoran","is_transit":false,"time":8,"station_id":"KBY","transit":false},{"line":6,"is_transit":false,"i_lat":-6.207404,"i_long":106.79689,"station_name":"Palmerah","time":7,"transit":false,"distance":3737,"station_id":"PLM"},{"station_name":"Tanah Abang","i_lat":-6.185545,"i_long":106.811091,"is_transit":true,"time":6,"station_id":"THB","distance":3191,"transit":true,"line":1},{"station_name":"Karet","i_long":106.816351,"station_id":"KAT","distance":2029,"time":5,"is_transit":false,"i_lat":-6.20132,"transit":false,"line":1},{"is_transit":false,"distance":471,"i_long":106.819881,"station_id":"SUDB","transit":false,"station_name":"Sudirman Baru","time":1,"i_lat":-6.201433,"line":1},{"distance":280,"i_long":106.822649,"transit":false,"line":1,"is_transit":false,"time":1,"station_id":"SUD","station_name":"Sudirman","i_lat":-6.202263},{"station_name":"Manggarai","i_lat":-6.209883,"time":4,"is_transit":true,"distance":3186,"station_id":"MRI","i_long":106.84912,"line":2,"transit":true},{"line":2,"time":4,"station_name":"Tebet","transit":false,"is_transit":false,"distance":2610,"station_id":"TEB","i_lat":-6.226659,"i_long":106.857948},{"station_id":"CW","line":2,"is_transit":false,"distance":1230,"transit":false,"i_lat":-6.242512,"i_long":106.856607,"station_name":"Cawang","time":2},{"time":3,"i_long":106.85449,"line":2,"i_lat":-6.255332,"is_transit":false,"station_id":"DRN","station_name":"Duren Kalibata","distance":1546,"transit":false},{"line":2,"station_id":"PSMB","station_name":"Pasar Minggu Baru","transit":false,"i_lat":-6.263214,"i_long":106.851577,"distance":824,"is_transit":false,"time":2},{"transit":false,"distance":2380,"i_long":106.843999,"line":2,"time":2,"i_lat":-6.2842400000000005,"is_transit":false,"station_name":"Pasar Minggu","station_id":"PSM"},{"line":2,"time":4,"distance":2820,"i_long":106.838896,"station_name":"Tanjung Barat","transit":false,"is_transit":false,"i_lat":-6.3080680000000005,"station_id":"TNT"},{"time":3,"distance":2671,"station_id":"LNA","transit":false,"is_transit":false,"i_long":106.832616,"line":2,"station_name":"Lenteng Agung","i_lat":-6.330363},{"i_long":106.834175,"station_name":"Univ. Pancasila","time":2,"station_id":"UP","transit":false,"is_transit":false,"i_lat":-6.339291,"line":2,"distance":1029},{"time":3,"station_id":"UI","is_transit":false,"i_lat":-6.360749,"i_long":106.831474,"distance":2264,"transit":false,"station_name":"Univ. Indonesia","line":2},{"distance":1109,"transit":false,"station_name":"Pondok Cina","is_transit":false,"i_long":106.831114,"time":2,"i_lat":-6.369073,"station_id":"POC","line":2},{"i_lat":-6.391065,"time":4,"i_long":106.819451,"line":2,"station_name":"Depokbaru","transit":false,"is_transit":false,"distance":2727,"station_id":"DPB"}],[{"is_transit":false,"transit":false,"station_name":"Cisauk","time":0,"station_id":"CSK","i_lat":-6.32484,"line":3,"distance":0,"i_long":106.640411},{"is_transit":false,"station_id":"SRP","station_name":"Serpong","transit":false,"i_lat":-6.319871,"i_long":106.66566,"distance":1784,"time":4,"line":6},{"distance":2413,"transit":false,"i_long":106.675475,"station_id":"RU","i_lat":-6.314823,"station_name":"Rawa Buntu","time":4,"line":6,"is_transit":false},{"i_lat":-6.296963,"time":6,"station_id":"SDM","station_name":"Sudimara","is_transit":false,"line":6,"i_long":106.712277,"distance":4566,"transit":false},{"i_lat":-6.288927,"i_long":106.728916,"line":6,"station_name":"Jurangmangu","is_transit":false,"time":4,"distance":1994,"station_id":"JMU","transit":false},{"station_name":"Pondokranji","station_id":"PDJ","line":6,"transit":false,"i_long":106.74273,"i_lat":-6.276362,"time":3,"is_transit":false,"distance":2179},{"is_transit":false,"time":8,"transit":false,"distance":6218,"i_long":106.780334,"station_id":"KBY","station_name":"Kebayoran","i_lat":-6.237242,"line":6},{"is_transit":false,"station_id":"PLM","transit":false,"line":6,"i_long":106.79689,"distance":3737,"i_lat":-6.207404,"station_name":"Palmerah","time":7},{"i_long":106.811091,"station_name":"Tanah Abang","time":6,"is_transit":true,"line":1,"transit":true,"station_id":"THB","distance":3191,"i_lat":-6.185545},{"i_lat":-6.155215,"station_name":"Duri","i_long":106.800832,"time":8,"line":1,"distance":3632,"station_id":"DU","is_transit":false,"transit":false},{"i_lat":-6.144674,"time":4,"station_id":"AK","transit":false,"i_long":106.79867,"station_name":"Angke","line":1,"distance":1230,"is_transit":false},{"station_id":"KPB","i_lat":-6.132549,"line":4,"transit":true,"station_name":"Kampung Bandan","is_transit":true,"time":9,"distance":4102,"i_long":106.826365},{"distance":1364,"transit":true,"i_long":106.812439,"station_name":"Jakarta Kota","line":2,"is_transit":true,"i_lat":-6.137569,"station_id":"JAKK","time":3},{"is_transit":false,"i_lat":-6.141205,"line":2,"distance":1264,"station_id":"JAY","station_name":"Jayakarta","transit":false,"i_long":106.820901,"time":4},{"station_name":"Manggabesar","time":2,"line":2,"station_id":"MGB","is_transit":false,"i_long":106.82482,"transit":false,"i_lat":-6.149769,"distance":1080},{"time":2,"station_id":"SW","transit":false,"i_lat":-6.160725,"distance":906,"is_transit":false,"station_name":"Sawah Besar","i_long":106.827103,"line":2},{"i_lat":-6.166716,"i_long":106.828284,"is_transit":false,"distance":1149,"transit":false,"line":2,"station_name":"Juanda","station_id":"JUA","time":2},{"is_transit":false,"distance":2015,"transit":false,"time":4,"i_lat":-6.186295,"i_long":106.832183,"station_name":"Gondangdia","line":2,"station_id":"GDD"},{"i_long":106.840169,"line":2,"station_id":"CKI","is_transit":false,"station_name":"Cikini","time":3,"distance":1750,"transit":false,"i_lat":-6.198556},{"line":2,"time":4,"i_lat":-6.209883,"station_name":"Manggarai","is_transit":false,"distance":1590,"station_id":"MRI","transit":false,"i_long":106.84912},{"is_transit":false,"station_id":"TEB","transit":false,"distance":2610,"line":2,"i_long":106.857948,"time":4,"i_lat":-6.226659,"station_name":"Tebet"},{"station_name":"Cawang","transit":false,"distance":1230,"is_transit":false,"station_id":"CW","line":2,"time":2,"i_long":106.856607,"i_lat":-6.242512},{"station_id":"DRN","time":3,"is_transit":false,"i_lat":-6.255332,"i_long":106.85449,"transit":false,"line":2,"station_name":"Duren Kalibata","distance":1546},{"station_name":"Pasar Minggu Baru","i_long":106.851577,"is_transit":false,"time":2,"transit":false,"line":2,"i_lat":-6.263214,"station_id":"PSMB","distance":824},{"i_long":106.843999,"transit":false,"station_name":"Pasar Minggu","is_transit":false,"station_id":"PSM","time":2,"distance":2380,"i_lat":-6.2842400000000005,"line":2},{"station_name":"Tanjung Barat","is_transit":false,"i_lat":-6.3080680000000005,"line":2,"time":4,"station_id":"TNT","i_long":106.838896,"transit":false,"distance":2820},{"line":2,"i_long":106.832616,"station_name":"Lenteng Agung","is_transit":false,"i_lat":-6.330363,"time":3,"station_id":"LNA","transit":false,"distance":2671},{"is_transit":false,"i_long":106.834175,"distance":1029,"time":2,"i_lat":-6.339291,"line":2,"transit":false,"station_name":"Univ. Pancasila","station_id":"UP"},{"i_lat":-6.360749,"distance":2264,"is_transit":false,"time":3,"station_name":"Univ. Indonesia","station_id":"UI","transit":false,"i_long":106.831474,"line":2},{"distance":1109,"station_id":"POC","station_name":"Pondok Cina","transit":false,"time":2,"i_lat":-6.369073,"i_long":106.831114,"is_transit":false,"line":2},{"line":2,"station_id":"DPB","transit":false,"is_transit":false,"i_long":106.819451,"distance":2727,"station_name":"Depokbaru","i_lat":-6.391065,"time":4}],[{"station_name":"Cisauk","is_transit":false,"distance":0,"transit":false,"i_lat":-6.32484,"time":0,"line":3,"station_id":"CSK","i_long":106.640411},{"i_lat":-6.319871,"time":4,"i_long":106.66566,"station_id":"SRP","is_transit":false,"transit":false,"distance":1784,"station_name":"Serpong","line":6},{"i_long":106.675475,"distance":2413,"line":6,"station_name":"Rawa Buntu","i_lat":-6.314823,"time":4,"is_transit":false,"transit":false,"station_id":"RU"},{"i_long":106.712277,"station_name":"Sudimara","is_transit":false,"transit":false,"station_id":"SDM","i_lat":-6.296963,"line":6,"distance":4566,"time":6},{"i_long":106.728916,"station_id":"JMU","distance":1994,"is_transit":false,"time":4,"station_name":"Jurangmangu","line":6,"i_lat":-6.288927,"transit":false},{"time":3,"transit":false,"i_lat":-6.276362,"i_long":106.74273,"line":6,"is_transit":false,"station_id":"PDJ","distance":2179,"station_name":"Pondokranji"},{"distance":6218,"i_long":106.780334,"time":8,"station_name":"Kebayoran","line":6,"i_lat":-6.237242,"station_id":"KBY","transit":false,"is_transit":false},{"station_name":"Palmerah","distance":3737,"time":7,"station_id":"PLM","transit":false,"i_lat":-6.207404,"is_transit":false,"i_long":106.79689,"line":6},{"station_name":"Tanah Abang","i_lat":-6.185545,"distance":3191,"transit":true,"time":6,"station_id":"THB","is_transit":true,"line":1,"i_long":106.811091},{"distance":3632,"time":8,"i_lat":-6.155215,"line":1,"station_id":"DU","station_name":"Duri","i_long":106.800832,"transit":false,"is_transit":false},{"station_name":"Angke","time":4,"station_id":"AK","line":1,"i_lat":-6.144674,"is_transit":false,"distance":1230,"i_long":106.79867,"transit":false},{"i_long":106.826365,"station_name":"Kampung Bandan","is_transit":true,"i_lat":-6.132549,"line":4,"station_id":"KPB","distance":4102,"transit":true,"time":9},{"station_name":"Rajawali","station_id":"RJW","i_lat":-6.14505,"distance":1444,"transit":false,"line":11,"is_transit":false,"time":3,"i_long":106.836569},{"station_id":"KMO","time":5,"station_name":"Kemayoran","is_transit":false,"transit":false,"i_lat":-6.161728,"distance":1901,"i_long":106.839204,"line":11},{"time":4,"is_transit":false,"distance":1436,"i_long":106.84368,"station_id":"PSE","i_lat":-6.174784,"transit":false,"line":11,"station_name":"Pasar Senen"},{"distance":1567,"line":11,"is_transit":false,"station_id":"GST","transit":false,"station_name":"Gang Sentiong","time":8,"i_lat":-6.185975,"i_long":106.850107},{"is_transit":false,"i_long":106.855437,"distance":973,"transit":false,"i_lat":-6.193792,"station_id":"KMT","station_name":"Kramat","line":11,"time":1},{"transit":false,"station_id":"POK","i_long":106.861737,"distance":1829,"station_name":"Pondok Jati","time":2,"i_lat":-6.209188,"line":11,"is_transit":false},{"i_lat":-6.215091,"is_transit":true,"station_id":"JNG","i_long":106.86807400000001,"time":9,"transit":true,"distance":1236,"line":1,"station_name":"Jatinegara"},{"line":1,"i_lat":-6.212485,"time":2,"station_id":"MTR","is_transit":false,"station_name":"Matraman","transit":false,"distance":1377,"i_long":106.858896},{"i_lat":-6.209883,"is_transit":true,"station_id":"MRI","station_name":"Manggarai","transit":true,"line":2,"distance":1275,"i_long":106.84912,"time":2},{"i_lat":-6.226659,"station_id":"TEB","distance":2610,"station_name":"Tebet","transit":false,"i_long":106.857948,"line":2,"is_transit":false,"time":4},{"transit":false,"station_id":"CW","i_lat":-6.242512,"station_name":"Cawang","distance":1230,"is_transit":false,"line":2,"i_long":106.856607,"time":2},{"i_long":106.85449,"station_id":"DRN","station_name":"Duren Kalibata","time":3,"i_lat":-6.255332,"distance":1546,"transit":false,"is_transit":false,"line":2},{"i_lat":-6.263214,"line":2,"is_transit":false,"distance":824,"station_id":"PSMB","time":2,"transit":false,"i_long":106.851577,"station_name":"Pasar Minggu Baru"},{"transit":false,"station_name":"Pasar Minggu","is_transit":false,"distance":2380,"station_id":"PSM","i_lat":-6.2842400000000005,"i_long":106.843999,"line":2,"time":2},{"time":4,"i_lat":-6.3080680000000005,"station_name":"Tanjung Barat","is_transit":false,"distance":2820,"station_id":"TNT","transit":false,"i_long":106.838896,"line":2},{"i_lat":-6.330363,"time":3,"station_id":"LNA","i_long":106.832616,"line":2,"is_transit":false,"distance":2671,"station_name":"Lenteng Agung","transit":false},{"distance":1029,"i_lat":-6.339291,"is_transit":false,"transit":false,"station_name":"Univ. Pancasila","i_long":106.834175,"station_id":"UP","line":2,"time":2},{"time":3,"station_id":"UI","i_lat":-6.360749,"i_long":106.831474,"transit":false,"station_name":"Univ. Indonesia","distance":2264,"line":2,"is_transit":false},{"transit":false,"i_lat":-6.369073,"i_long":106.831114,"line":2,"time":2,"station_id":"POC","station_name":"Pondok Cina","distance":1109,"is_transit":false},{"i_lat":-6.391065,"is_transit":false,"station_name":"Depokbaru","distance":2727,"i_long":106.819451,"station_id":"DPB","line":2,"transit":false,"time":4}]]}