{"data":[[{"transit":false,"station_name":"Cisauk","station_id":"CSK","time":0,"i_lat":-6.32484,"is_transit":false,"i_long":106.640411,"distance":0,"line":3},{"station_name":"Serpong","time":4,"i_lat":-6.319871,"distance":1784,"line":6,"is_transit":false,"station_id":"SRP","transit":false,"i_long":106.66566},{"distance":2413,"is_transit":false,"station_name":"Rawa Buntu","station_id":"RU","time":4,"i_lat":-6.314823,"i_long":106.675475,"line":6,"transit":false},{"station_id":"SDM","station_name":"Sudimara","is_transit":false,"distance":4566,"i_lat":-6.296963,"transit":false,"time":6,"i_long":106.712277,"line":6},{"i_long":106.728916,"transit":false,"line":6,"station_id":"JMU","time":4,"i_lat":-6.288927,"is_transit":false,"station_name":"Jurangmangu","distance":1994},{"distance":2179,"station_id":"PDJ","line":6,"time":3,"transit":false,"station_name":"Pondokranji","i_lat":-6.276362,"is_transit":false,"i_long":106.74273},{"station_name":"Kebayoran","transit":false,"time":8,"is_transit":false,"station_id":"KBY","distance":6218,"i_lat":-6.237242,"line":6,"i_long":106.780334},{"time":7,"distance":3737,"station_name":"Palmerah","i_lat":-6.207404,"station_id":"PLM","is_transit":false,"i_long":106.79689,"line":6,"transit":false},{"i_long":106.811091,"station_id":"THB","station_name":"Tanah Abang","distance":3191,"is_transit":true,"time":6,"transit":true,"i_lat":-6.185545,"line":1},{"is_transit":false,"distance":2029,"station_name":"Karet","i_lat":-6.20132,"i_long":106.816351,"time":5,"transit":false,"station_id":"KAT","line":1},{"station_name":"Sudirman Baru","time":1,"line":1,"is_transit":false,"distance":471,"transit":false,"station_id":"SUDB","i_long":106.819881,"i_lat":-6.201433},{"station_name":"Sudirman","distance":280,"transit":false,"station_id":"SUD","line":1,"time":1,"i_lat":-6.202263,"i_long":106.822649,"is_transit":false},{"time":4,"transit":true,"station_name":"Manggarai","line":2,"is_transit":true,"station_id":"MRI","distance":3186,"i_lat":-6.209883,"i_long":106.84912},{"i_lat":-6.226659,"station_id":"TEB","is_transit":false,"i_long":106.857948,"line":2,"transit":false,"station_name":"Tebet","time":4,"distance":2610},{"station_name":"Cawang","i_long":106.856607,"i_lat":-6.242512,"station_id":"CW","transit":false,"distance":1230,"line":2,"is_transit":false,"time":2},{"i_long":106.85449,"distance":1546,"is_transit":false,"i_lat":-6.255332,"transit":false,"station_id":"DRN","time":3,"station_name":"Duren Kalibata","line":2},{"transit":false,"line":2,"station_id":"PSMB","i_long":106.851577,"station_name":"Pasar Minggu Baru","time":2,"distance":824,"is_transit":false,"i_lat":-6.263214}],[{"station_id":"CSK","i_lat":-6.32484,"transit":false,"time":0,"distance":0,"station_name":"Cisauk","is_transit":false,"i_long":106.640411,"line":3},{"i_lat":-6.319871,"i_long":106.66566,"time":4,"distance":1784,"line":6,"is_transit":false,"transit":false,"station_name":"Serpong","station_id":"SRP"},{"station_id":"RU","distance":2413,"station_name":"Rawa Buntu","transit":false,"line":6,"time":4,"is_transit":false,"i_long":106.675475,"i_lat":-6.314823},{"distance":4566,"station_id":"SDM","station_name":"Sudimara","i_lat":-6.296963,"i_long":106.712277,"is_transit":false,"time":6,"transit":false,"line":6},{"distance":1994,"i_long":106.728916,"station_id":"JMU","station_name":"Jurangmangu","is_transit":false,"line":6,"transit":false,"i_lat":-6.288927,"time":4},{"i_long":106.74273,"transit":false,"distance":2179,"i_lat":-6.276362,"station_name":"Pondokranji","time":3,"station_id":"PDJ","line":6,"is_transit":false},{"time":8,"transit":false,"distance":6218,"is_transit":false,"i_lat":-6.237242,"station_name":"Kebayoran","i_long":106.780334,"line":6,"station_id":"KBY"},{"station_id":"PLM","is_transit":false,"transit":false,"line":6,"time":7,"distance":3737,"i_lat":-6.207404,"i_long":106.79689,"station_name":"Palmerah"},{"i_long":106.811091,"time":6,"distance":3191,"station_id":"THB","transit":true,"i_lat":-6.185545,"station_name":"Tanah Abang","line":1,"is_transit":true},{"is_transit":false,"time":8,"i_lat":-6.155215,"i_long":106.800832,"line":1,"station_name":"Duri","transit":false,"station_id":"DU","distance":3632},{"i_lat":-6.144674,"distance":1230,"transit":false,"station_id":"AK","line":1,"i_long":106.79867,"time":4,"station_name":"Angke","is_transit":false},{"is_transit":true,"station_name":"Kampung Bandan","transit":true,"station_id":"KPB","distance":4102,"i_long":106.826365,"time":9,"i_lat":-6.132549,"line":4},{"station_id":"JAKK","distance":1364,"line":2,"i_lat":-6.137569,"i_long":106.812439,"transit":true,"station_name":"Jakarta Kota","time":3,"is_transit":true},{"station_name":"Jayakarta","transit":false,"i_long":106.820901,"time":4,"is_transit":false,"distance":1264,"i_lat":-6.141205,"station_id":"JAY","line":2},{"i_long":106.82482,"station_id":"MGB","station_name":"Manggabesar","is_transit":false,"i_lat":-6.149769,"time":2,"distance":1080,"line":2,"transit":false},{"i_lat":-6.160725,"station_name":"Sawah Besar","i_long":106.827103,"transit":false,"is_transit":false,"distance":906,"line":2,"station_id":"SW","time":2},{"time":2,"station_id":"JUA","line":2,"station_name":"Juanda","is_transit":false,"i_long":106.828284,"i_lat":-6.166716,"transit":false,"distance":1149},{"distance":2015,"station_id":"GDD","station_name":"Gondangdia","is_transit":false,"i_lat":-6.186295,"line":2,"transit":false,"time":4,"i_long":106.832183},{"transit":false,"line":2,"station_name":"Cikini","station_id":"CKI","distance":1750,"i_lat":-6.198556,"time":3,"i_long":106.840169,"is_transit":false},{"is_transit":false,"distance":1590,"line":2,"transit":false,"time":4,"station_id":"MRI","i_long":106.84912,"station_name":"Manggarai","i_lat":-6.209883},{"i_long":106.857948,"i_lat":-6.226659,"station_id":"TEB","time":4,"station_name":"Tebet","line":2,"is_transit":false,"transit":false,"distance":2610},{"time":2,"line":2,"i_long":106.856607,"station_name":"Cawang","is_transit":false,"distance":1230,"station_id":"CW","transit":false,"i_lat":-6.242512},{"time":3,"transit":false,"distance":1546,"line":2,"station_name":"Duren Kalibata","i_long":106.85449,"station_id":"DRN","is_transit":false,"i_lat":-6.255332},{"transit":false,"i_long":106.851577,"line":2,"distance":824,"time":2,"station_id":"PSMB","is_transit":false,"station_name":"Pasar Minggu Baru","i_lat":-6.263214}],[{"i_long":106.640411,"i_lat":-6.32484,"is_transit":false,"distance":0,"station_id":"CSK","station_name":"Cisauk","line":3,"transit":false,"time":0},{"time":4,"station_id":"SRP","transit":false,"station_name":"Serpong","i_long":106.66566,"i_lat":-6.319871,"distance":1784,"line":6,"is_transit":false},{"i_lat":-6.314823,"line":6,"transit":false,"i_long":106.675475,"station_name":"Rawa Buntu","is_transit":false,"time":4,"distance":2413,"station_id":"RU"},{"is_transit":false,"i_long":106.712277,"station_name":"Sudimara","time":6,"i_lat":-6.296963,"line":6,"station_id":"SDM","distance":4566,"transit":false},{"station_id":"JMU","i_lat":-6.288927,"station_name":"Jurangmangu","is_transit":false,"time":4,"distance":1994,"i_long":106.728916,"line":6,"transit":false},{"line":6,"distance":2179,"i_long":106.74273,"transit":false,"station_name":"Pondokranji","station_id":"PDJ","is_transit":false,"time":3,"i_lat":-6.276362},{"i_long":106.780334,"line":6,"station_name":"Kebayoran","i_lat":-6.237242,"is_transit":false,"station_id":"KBY","time":8,"transit":false,"distance":6218},{"distance":3737,"station_id":"PLM","is_transit":false,"i_lat":-6.207404,"i_long":106.79689,"time":7,"line":6,"transit":false,"station_name":"Palmerah"},{"i_long":106.811091,"time":6,"station_name":"Tanah Abang","line":1,"is_transit":true,"station_id":"THB","i_lat":-6.185545,"transit":true,"distance":3191},{"station_id":"DU","time":8,"i_lat":-6.155215,"i_long":106.800832,"line":1,"is_transit":false,"transit":false,"station_name":"Duri","distance":3632},{"distance":1230,"is_transit":false,"time":4,"station_id":"AK","line":1,"station_name":"Angke","i_long":106.79867,"i_lat":-6.144674,"transit":false},{"distance":4102,"station_id":"KPB","is_transit":true,"transit":true,"time":9,"i_lat":-6.132549,"i_long":106.826365,"station_name":"Kampung Bandan","line":4},{"i_lat":-6.14505,"station_name":"Rajawali","line":11,"is_transit":false,"time":3,"distance":1444,"i_long":106.836569,"transit":false,"station_id":"RJW"},{"station_id":"KMO","distance":1901,"time":5,"station_name":"Kemayoran","is_transit":false,"transit":false,"i_lat":-6.161728,"i_long":106.839204,"line":11},{"transit":false,"station_name":"Pasar Senen","distance":1436,"i_lat":-6.174784,"line":11,"time":4,"i_long":106.84368,"station_id":"PSE","is_transit":false},{"station_name":"Gang Sentiong","line":11,"transit":false,"distance":1567,"time":8,"station_id":"GST","is_transit":false,"i_long":106.850107,"i_lat":-6.185975},{"i_long":106.855437,"i_lat":-6.193792,"transit":false,"station_name":"Kramat","station_id":"KMT","is_transit":false,"distance":973,"line":11,"time":1},{"station_id":"POK","distance":1829,"time":2,"station_name":"Pondok Jati","i_lat":-6.209188,"is_transit":false,"transit":false,"i_long":106.861737,"line":11},{"time":9,"distance":1236,"i_long":106.86807400000001,"i_lat":-6.215091,"line":1,"is_transit":true,"station_name":"Jatinegara","station_id":"JNG","transit":true},{"is_transit":false,"station_id":"MTR","time":2,"i_lat":-6.212485,"i_long":106.858896,"station_name":"Matraman","distance":1377,"line":1,"transit":false},{"station_name":"Manggarai","transit":true,"is_transit":true,"time":2,"i_lat":-6.209883,"distance":1275,"station_id":"MRI","i_long":106.84912,"line":2},{"station_id":"TEB","time":4,"i_lat":-6.226659,"i_long":106.857948,"distance":2610,"transit":false,"is_transit":false,"station_name":"Tebet","line":2},{"distance":1230,"i_lat":-6.242512,"transit":false,"station_name":"Cawang","i_long":106.856607,"line":2,"station_id":"CW","is_transit":false,"time":2},{"i_lat":-6.255332,"time":3,"i_long":106.85449,"transit":false,"line":2,"station_id":"DRN","station_name":"Duren Kalibata","is_transit":false,"distance":1546},{"time":2,"distance":824,"station_name":"Pasar Minggu Baru","is_transit":false,"i_long":106.851577,"line":2,"station_id":"PSMB","transit":false,"i_lat":-6.263214}]]}