{"data":[[{"i_lat":-6.32484,"i_long":106.640411,"station_name":"Cisauk","distance":0,"is_transit":false,"station_id":"CSK","time":0,"transit":false,"line":3},{"i_long":106.66566,"distance":1784,"station_name":"Serpong","line":6,"time":4,"transit":false,"i_lat":-6.319871,"is_transit":false,"station_id":"SRP"},{"station_name":"Rawa Buntu","time":4,"i_long":106.675475,"station_id":"RU","distance":2413,"is_transit":false,"transit":false,"i_lat":-6.314823,"line":6},{"i_lat":-6.296963,"station_id":"SDM","i_long":106.712277,"transit":false,"line":6,"station_name":"Sudimara","time":6,"distance":4566,"is_transit":false},{"is_transit":false,"distance":1994,"station_id":"JMU","transit":false,"line":6,"station_name":"Jurangmangu","time":4,"i_long":106.728916,"i_lat":-6.288927},{"transit":false,"distance":2179,"station_id":"PDJ","station_name":"Pondokranji","i_lat":-6.276362,"line":6,"is_transit":false,"time":3,"i_long":106.74273},{"transit":false,"distance":6218,"station_id":"KBY","i_lat":-6.237242,"time":8,"line":6,"i_long":106.780334,"is_transit":false,"station_name":"Kebayoran"},{"i_lat":-6.207404,"station_name":"Palmerah","is_transit":false,"i_long":106.79689,"station_id":"PLM","distance":3737,"line":6,"transit":false,"time":7},{"station_id":"THB","time":6,"transit":true,"line":1,"i_lat":-6.185545,"distance":3191,"is_transit":true,"station_name":"Tanah Abang","i_long":106.811091},{"line":1,"i_long":106.816351,"time":5,"transit":false,"i_lat":-6.20132,"is_transit":false,"distance":2029,"station_id":"KAT","station_name":"Karet"},{"i_lat":-6.201433,"i_long":106.819881,"time":1,"distance":471,"transit":false,"station_name":"Sudirman Baru","station_id":"SUDB","line":1,"is_transit":false},{"station_id":"SUD","i_long":106.822649,"distance":280,"transit":false,"line":1,"time":1,"i_lat":-6.202263,"station_name":"Sudirman","is_transit":false},{"is_transit":false,"transit":false,"i_lat":-6.209883,"station_name":"Manggarai","line":2,"time":4,"i_long":106.84912,"station_id":"MRI","distance":3186},{"station_id":"MTR","transit":false,"station_name":"Matraman","i_lat":-6.212485,"line":1,"i_long":106.858896,"distance":1275,"is_transit":false,"time":2},{"station_name":"Jatinegara","i_lat":-6.215091,"distance":1377,"is_transit":false,"transit":false,"i_long":106.86807400000001,"line":1,"station_id":"JNG","time":8},{"station_id":"KLD","station_name":"Klender","time":3,"transit":false,"i_lat":-6.2135,"distance":3395,"i_long":106.899548,"line":1,"is_transit":false},{"time":2,"is_transit":false,"distance":3100,"station_id":"BUA","transit":false,"i_long":106.922662,"line":1,"station_name":"Buaran","i_lat":-6.215568},{"time":1,"transit":false,"line":1,"distance":1305,"is_transit":false,"i_lat":-6.217455,"station_id":"KLDB","station_name":"Klenderbaru","i_long":106.939679},{"distance":1385,"station_name":"Cakung","i_long":106.951283,"line":1,"i_lat":-6.219053,"transit":false,"station_id":"CUK","is_transit":false,"time":8},{"transit":false,"time":3,"i_long":106.977657,"line":1,"is_transit":false,"i_lat":-6.224515,"station_name":"Kranji","station_id":"KRI","distance":3097},{"i_long":106.997013,"station_id":"BKS","line":1,"transit":false,"station_name":"Bekasi","time":4,"distance":2520,"i_lat":-6.236616,"is_transit":false},{"i_lat":-6.248029,"station_id":"BKST","transit":false,"station_name":"Bekasi Timur","i_long":107.016735,"line":1,"distance":2368,"is_transit":false,"time":2},{"is_transit":false,"i_long":107.055722,"time":7,"distance":4460,"i_lat":-6.258864,"line":1,"station_id":"TB","station_name":"Tambun","transit":false},{"time":3,"i_lat":-6.261877,"station_id":"CIT","station_name":"Cibitung","distance":3420,"line":1,"is_transit":false,"i_long":107.083084,"transit":false},{"time":2,"distance":2800,"line":1,"station_name":"Metland Telaga Murni","transit":false,"station_id":"TLM","i_long":107.093313,"is_transit":false,"i_lat":-6.262938}],[{"i_lat":-6.32484,"distance":0,"line":3,"station_id":"CSK","time":0,"is_transit":false,"i_long":106.640411,"station_name":"Cisauk","transit":false},{"station_name":"Serpong","time":4,"station_id":"SRP","transit":false,"is_transit":false,"distance":1784,"i_lat":-6.319871,"i_long":106.66566,"line":6},{"i_long":106.675475,"time":4,"line":6,"transit":false,"station_name":"Rawa Buntu","station_id":"RU","is_transit":false,"distance":2413,"i_lat":-6.314823},{"station_id":"SDM","time":6,"i_long":106.712277,"station_name":"Sudimara","i_lat":-6.296963,"distance":4566,"line":6,"transit":false,"is_transit":false},{"is_transit":false,"time":4,"i_long":106.728916,"i_lat":-6.288927,"distance":1994,"station_id":"JMU","station_name":"Jurangmangu","transit":false,"line":6},{"station_name":"Pondokranji","is_transit":false,"time":3,"i_long":106.74273,"transit":false,"line":6,"station_id":"PDJ","distance":2179,"i_lat":-6.276362},{"distance":6218,"i_long":106.780334,"line":6,"transit":false,"time":8,"station_name":"Kebayoran","is_transit":false,"station_id":"KBY","i_lat":-6.237242},{"transit":false,"i_lat":-6.207404,"is_transit":false,"station_id":"PLM","i_long":106.79689,"line":6,"time":7,"distance":3737,"station_name":"Palmerah"},{"i_lat":-6.185545,"i_long":106.811091,"is_transit":true,"line":1,"station_id":"THB","transit":true,"station_name":"Tanah Abang","time":6,"distance":3191},{"time":8,"distance":3632,"is_transit":false,"i_lat":-6.155215,"station_name":"Duri","transit":false,"station_id":"DU","line":1,"i_long":106.800832},{"time":4,"is_transit":false,"distance":1230,"i_long":106.79867,"station_id":"AK","i_lat":-6.144674,"transit":false,"station_name":"Angke","line":1},{"station_name":"Kampung Bandan","distance":4102,"i_long":106.826365,"time":9,"i_lat":-6.132549,"station_id":"KPB","line":4,"transit":true,"is_transit":true},{"i_lat":-6.14505,"time":3,"distance":1444,"line":11,"station_id":"RJW","is_transit":false,"transit":false,"i_long":106.836569,"station_name":"Rajawali"},{"distance":1901,"station_name":"Kemayoran","i_lat":-6.161728,"i_long":106.839204,"station_id":"KMO","is_transit":false,"line":11,"transit":false,"time":5},{"i_long":106.84368,"transit":false,"is_transit":false,"line":11,"station_name":"Pasar Senen","station_id":"PSE","time":4,"i_lat":-6.174784,"distance":1436},{"station_name":"Gang Sentiong","is_transit":false,"time":8,"distance":1567,"station_id":"GST","i_lat":-6.185975,"line":11,"i_long":106.850107,"transit":false},{"time":1,"station_id":"KMT","i_long":106.855437,"line":11,"station_name":"Kramat","distance":973,"i_lat":-6.193792,"is_transit":false,"transit":false},{"distance":1829,"time":2,"transit":false,"i_long":106.861737,"station_id":"POK","is_transit":false,"station_name":"Pondok Jati","i_lat":-6.209188,"line":11},{"time":9,"i_long":106.86807400000001,"distance":1236,"transit":true,"station_id":"JNG","station_name":"Jatinegara","is_transit":true,"i_lat":-6.215091,"line":1},{"station_name":"Klender","transit":false,"time":3,"distance":3395,"is_transit":false,"i_long":106.899548,"station_id":"KLD","line":1,"i_lat":-6.2135},{"time":2,"i_lat":-6.215568,"distance":3100,"transit":false,"station_name":"Buaran","line":1,"is_transit":false,"station_id":"BUA","i_long":106.922662},{"station_name":"Klenderbaru","distance":1305,"i_long":106.939679,"is_transit":false,"i_lat":-6.217455,"time":1,"station_id":"KLDB","line":1,"transit":false},{"transit":false,"time":8,"distance":1385,"station_name":"Cakung","station_id":"CUK","is_transit":false,"i_lat":-6.219053,"i_long":106.951283,"line":1},{"time":3,"distance":3097,"transit":false,"station_name":"Kranji","i_lat":-6.224515,"i_long":106.977657,"station_id":"KRI","is_transit":false,"line":1},{"distance":2520,"is_transit":false,"i_long":106.997013,"transit":false,"station_name":"Bekasi","i_lat":-6.236616,"station_id":"BKS","line":1,"time":4},{"i_long":107.016735,"station_id":"BKST","station_name":"Bekasi Timur","distance":2368,"line":1,"transit":false,"time":2,"i_lat":-6.248029,"is_transit":false},{"i_lat":-6.258864,"distance":4460,"time":7,"transit":false,"station_id":"TB","line":1,"station_name":"Tambun","i_long":107.055722,"is_transit":false},{"line":1,"station_id":"CIT","is_transit":false,"distance":3420,"station_name":"Cibitung","transit":false,"i_lat":-6.261877,"i_long":107.083084,"time":3},{"time":2,"station_id":"TLM","is_transit":false,"line":1,"transit":false,"i_long":107.093313,"distance":2800,"station_name":"Metland Telaga Murni","i_lat":-6.262938}],[{"station_id":"CSK","i_lat":-6.32484,"time":0,"distance":0,"i_long":106.640411,"transit":false,"station_name":"Cisauk","is_transit":false,"line":3},{"is_transit":false,"time":4,"transit":false,"i_long":106.66566,"i_lat":-6.319871,"distance":1784,"station_id":"SRP","station_name":"Serpong","line":6},{"distance":2413,"is_transit":false,"time":4,"transit":false,"i_lat":-6.314823,"i_long":106.675475,"line":6,"station_name":"Rawa Buntu","station_id":"RU"},{"distance":4566,"transit":false,"station_name":"Sudimara","i_long":106.712277,"is_transit":false,"line":6,"time":6,"station_id":"SDM","i_lat":-6.296963},{"time":4,"transit":false,"station_id":"JMU","i_lat":-6.288927,"distance":1994,"line":6,"is_transit":false,"i_long":106.728916,"station_name":"Jurangmangu"},{"distance":2179,"station_name":"Pondokranji","station_id":"PDJ","transit":false,"line":6,"time":3,"is_transit":false,"i_long":106.74273,"i_lat":-6.276362},{"time":8,"i_lat":-6.237242,"i_long":106.780334,"station_name":"Kebayoran","transit":false,"is_transit":false,"line":6,"distance":6218,"station_id":"KBY"},{"line":6,"distance":3737,"station_id":"PLM","i_lat":-6.207404,"transit":false,"time":7,"i_long":106.79689,"is_transit":false,"station_name":"Palmerah"},{"line":1,"station_name":"Tanah Abang","i_long":106.811091,"i_lat":-6.185545,"is_transit":true,"time":6,"station_id":"THB","distance":3191,"transit":true},{"is_transit":false,"line":1,"i_lat":-6.155215,"time":8,"transit":false,"i_long":106.800832,"station_name":"Duri","station_id":"DU","distance":3632},{"i_lat":-6.144674,"i_long":106.79867,"distance":1230,"line":1,"station_name":"Angke","is_transit":false,"time":4,"station_id":"AK","transit":false},{"line":4,"transit":true,"distance":4102,"i_long":106.826365,"is_transit":true,"station_name":"Kampung Bandan","i_lat":-6.132549,"time":9,"station_id":"KPB"},{"i_lat":-6.137569,"i_long":106.812439,"station_name":"Jakarta Kota","line":2,"time":3,"station_id":"JAKK","is_transit":true,"distance":1364,"transit":true},{"station_name":"Jayakarta","time":4,"transit":false,"distance":1264,"i_lat":-6.141205,"line":2,"station_id":"JAY","is_transit":false,"i_long":106.820901},{"station_name":"Manggabesar","station_id":"MGB","i_lat":-6.149769,"time":2,"line":2,"is_transit":false,"distance":1080,"transit":false,"i_long":106.82482},{"transit":false,"station_id":"SW","station_name":"Sawah Besar","i_lat":-6.160725,"is_transit":false,"line":2,"i_long":106.827103,"distance":906,"time":2},{"line":2,"i_long":106.828284,"distance":1149,"is_transit":false,"station_id":"JUA","transit":false,"time":2,"station_name":"Juanda","i_lat":-6.166716},{"distance":2015,"i_long":106.832183,"station_id":"GDD","transit":false,"time":4,"is_transit":false,"i_lat":-6.186295,"line":2,"station_name":"Gondangdia"},{"transit":false,"station_name":"Cikini","is_transit":false,"line":2,"i_lat":-6.198556,"time":3,"station_id":"CKI","i_long":106.840169,"distance":1750},{"time":4,"i_long":106.84912,"station_name":"Manggarai","line":2,"distance":1590,"transit":true,"is_transit":true,"i_lat":-6.209883,"station_id":"MRI"},{"line":1,"time":2,"station_id":"MTR","distance":1275,"i_lat":-6.212485,"i_long":106.858896,"transit":false,"station_name":"Matraman","is_transit":false},{"is_transit":false,"transit":false,"i_long":106.86807400000001,"time":8,"station_name":"Jatinegara","i_lat":-6.215091,"distance":1377,"station_id":"JNG","line":1},{"time":3,"station_id":"KLD","transit":false,"i_lat":-6.2135,"line":1,"station_name":"Klender","i_long":106.899548,"distance":3395,"is_transit":false},{"station_name":"Buaran","distance":3100,"i_lat":-6.215568,"i_long":106.922662,"transit":false,"line":1,"time":2,"station_id":"BUA","is_transit":false},{"distance":1305,"is_transit":false,"i_long":106.939679,"transit":false,"station_id":"KLDB","i_lat":-6.217455,"time":1,"station_name":"Klenderbaru","line":1},{"i_lat":-6.219053,"i_long":106.951283,"line":1,"distance":1385,"station_id":"CUK","station_name":"Cakung","transit":false,"time":8,"is_transit":false},{"distance":3097,"is_transit":false,"transit":false,"station_id":"KRI","time":3,"station_name":"Kranji","i_lat":-6.224515,"line":1,"i_long":106.977657},{"is_transit":false,"distance":2520,"i_lat":-6.236616,"time":4,"station_id":"BKS","station_name":"Bekasi","transit":false,"i_long":106.997013,"line":1},{"i_long":107.016735,"transit":false,"distance":2368,"station_id":"BKST","time":2,"is_transit":false,"station_name":"Bekasi Timur","line":1,"i_lat":-6.248029},{"distance":4460,"station_name":"Tambun","line":1,"i_lat":-6.258864,"station_id":"TB","i_long":107.055722,"is_transit":false,"transit":false,"time":7},{"i_long":107.083084,"station_name":"Cibitung","distance":3420,"line":1,"station_id":"CIT","time":3,"transit":false,"is_transit":false,"i_lat":-6.261877},{"time":2,"station_id":"TLM","line":1,"is_transit":false,"distance":2800,"transit":false,"i_long":107.093313,"i_lat":-6.262938,"station_name":"Metland Telaga Murni"}],[{"time":0,"transit":false,"is_transit":false,"distance":0,"i_lat":-6.32484,"station_id":"CSK","station_name":"Cisauk","i_long":106.640411,"line":3},{"station_id":"SRP","distance":1784,"station_name":"Serpong","i_lat":-6.319871,"transit":false,"is_transit":false,"i_long":106.66566,"line":6,"time":4},{"i_long":106.675475,"station_name":"Rawa Buntu","distance":2413,"transit":false,"is_transit":false,"time":4,"station_id":"RU","i_lat":-6.314823,"line":6},{"time":6,"distance":4566,"transit":false,"is_transit":false,"i_lat":-6.296963,"station_id":"SDM","i_long":106.712277,"station_name":"Sudimara","line":6},{"i_long":106.728916,"time":4,"station_id":"JMU","station_name":"Jurangmangu","is_transit":false,"i_lat":-6.288927,"line":6,"transit":false,"distance":1994},{"i_lat":-6.276362,"time":3,"transit":false,"is_transit":false,"i_long":106.74273,"line":6,"station_id":"PDJ","distance":2179,"station_name":"Pondokranji"},{"station_id":"KBY","distance":6218,"i_long":106.780334,"time":8,"is_transit":false,"transit":false,"station_name":"Kebayoran","i_lat":-6.237242,"line":6},{"station_name":"Palmerah","i_lat":-6.207404,"station_id":"PLM","time":7,"line":6,"i_long":106.79689,"distance":3737,"is_transit":false,"transit":false},{"time":6,"i_lat":-6.185545,"is_transit":true,"distance":3191,"transit":true,"station_name":"Tanah Abang","station_id":"THB","i_long":106.811091,"line":1},{"is_transit":false,"line":1,"time":5,"station_id":"KAT","transit":false,"i_lat":-6.20132,"i_long":106.816351,"station_name":"Karet","distance":2029},{"i_lat":-6.201433,"is_transit":false,"i_long":106.819881,"line":1,"transit":false,"station_id":"SUDB","time":1,"station_name":"Sudirman Baru","distance":471},{"time":1,"is_transit":false,"distance":280,"i_lat":-6.202263,"station_name":"Sudirman","i_long":106.822649,"transit":false,"line":1,"station_id":"SUD"},{"is_transit":true,"station_id":"MRI","time":4,"distance":3186,"i_lat":-6.209883,"transit":true,"station_name":"Manggarai","line":2,"i_long":106.84912},{"distance":1590,"station_id":"CKI","transit":false,"station_name":"Cikini","line":2,"is_transit":false,"time":4,"i_lat":-6.198556,"i_long":106.840169},{"time":3,"i_lat":-6.186295,"is_transit":false,"transit":false,"distance":1750,"station_id":"GDD","station_name":"Gondangdia","i_long":106.832183,"line":2},{"time":4,"line":2,"station_name":"Juanda","i_long":106.828284,"transit":false,"i_lat":-6.166716,"distance":2015,"station_id":"JUA","is_transit":false},{"time":2,"distance":1149,"i_lat":-6.160725,"station_id":"SW","line":2,"is_transit":false,"i_long":106.827103,"transit":false,"station_name":"Sawah Besar"},{"i_long":106.82482,"transit":false,"is_transit":false,"station_id":"MGB","i_lat":-6.149769,"line":2,"station_name":"Manggabesar","time":2,"distance":906},{"i_lat":-6.141205,"line":2,"station_id":"JAY","transit":false,"i_long":106.820901,"distance":1080,"is_transit":false,"time":2,"station_name":"Jayakarta"},{"station_name":"Jakarta Kota","time":4,"i_lat":-6.137569,"station_id":"JAKK","line":2,"transit":true,"distance":1264,"is_transit":true,"i_long":106.812439},{"i_long":106.826365,"line":4,"transit":true,"station_name":"Kampung Bandan","time":3,"distance":1364,"is_transit":true,"station_id":"KPB","i_lat":-6.132549},{"station_name":"Rajawali","distance":1444,"i_long":106.836569,"line":11,"transit":false,"station_id":"RJW","time":3,"is_transit":false,"i_lat":-6.14505},{"distance":1901,"transit":false,"i_long":106.839204,"line":11,"station_id":"KMO","station_name":"Kemayoran","i_lat":-6.161728,"is_transit":false,"time":5},{"is_transit":false,"station_id":"PSE","i_lat":-6.174784,"time":4,"transit":false,"distance":1436,"station_name":"Pasar Senen","i_long":106.84368,"line":11},{"station_name":"Gang Sentiong","distance":1567,"i_lat":-6.185975,"station_id":"GST","is_transit":false,"transit":false,"time":8,"i_long":106.850107,"line":11},{"i_long":106.855437,"time":1,"distance":973,"line":11,"is_transit":false,"station_name":"Kramat","transit":false,"i_lat":-6.193792,"station_id":"KMT"},{"distance":1829,"transit":false,"station_name":"Pondok Jati","time":2,"station_id":"POK","is_transit":false,"i_lat":-6.209188,"line":11,"i_long":106.861737},{"line":1,"transit":true,"station_name":"Jatinegara","station_id":"JNG","distance":1236,"is_transit":true,"i_lat":-6.215091,"i_long":106.86807400000001,"time":9},{"is_transit":false,"i_long":106.899548,"line":1,"time":3,"transit":false,"station_id":"KLD","station_name":"Klender","i_lat":-6.2135,"distance":3395},{"time":2,"i_long":106.922662,"transit":false,"station_name":"Buaran","i_lat":-6.215568,"is_transit":false,"station_id":"BUA","line":1,"distance":3100},{"i_lat":-6.217455,"line":1,"distance":1305,"is_transit":false,"station_id":"KLDB","i_long":106.939679,"transit":false,"station_name":"Klenderbaru","time":1},{"station_id":"CUK","i_long":106.951283,"line":1,"i_lat":-6.219053,"distance":1385,"is_transit":false,"station_name":"Cakung","time":8,"transit":false},{"is_transit":false,"i_lat":-6.224515,"line":1,"station_id":"KRI","time":3,"station_name":"Kranji","distance":3097,"transit":false,"i_long":106.977657},{"transit":false,"time":4,"station_name":"Bekasi","is_transit":false,"i_lat":-6.236616,"line":1,"i_long":106.997013,"station_id":"BKS","distance":2520},{"distance":2368,"station_id":"BKST","transit":false,"time":2,"line":1,"is_transit":false,"station_name":"Bekasi Timur","i_lat":-6.248029,"i_long":107.016735},{"transit":false,"time":7,"station_name":"Tambun","i_lat":-6.258864,"is_transit":false,"distance":4460,"station_id":"TB","i_long":107.055722,"line":1},{"i_long":107.083084,"station_name":"Cibitung","line":1,"is_transit":false,"distance":3420,"station_id":"CIT","transit":false,"time":3,"i_lat":-6.261877},{"line":1,"distance":2800,"transit":false,"is_transit":false,"i_long":107.093313,"i_lat":-6.262938,"station_name":"Metland Telaga Murni","time":2,"station_id":"TLM"}]]}