{"data":[[{"i_long":106.640411,"time":0,"line":0,"transit":false,"is_transit":false,"station_id":"CSK","distance":0,"station_name":"Cisauk","i_lat":-6.32484},{"station_id":"CC","is_transit":false,"i_lat":-6.329547,"i_long":106.617853,"line":0,"station_name":"Cicayur","time":4,"distance":2519,"transit":false},{"line":6,"is_transit":false,"transit":false,"i_long":106.568863,"station_id":"PRP","i_lat":-6.3441410000000005,"station_name":"Parung Panjang","time":8,"distance":5968},{"time":9,"i_lat":-6.354349,"transit":false,"line":0,"i_long":106.508482,"station_id":"CJT","is_transit":false,"distance":7025,"station_name":"Cilejit"},{"transit":false,"is_transit":false,"i_long":106.491338,"distance":2675,"station_name":"Daru","line":0,"station_id":"DAR","i_lat":-6.338021,"time":6},{"distance":3902,"line":6,"station_name":"Tenjo","is_transit":false,"transit":false,"station_id":"TEJ","i_lat":-6.327251,"time":5,"i_long":106.460812},{"distance":2974,"time":5,"station_id":"TGS","i_lat":-6.328533,"station_name":"Tigaraksa","is_transit":false,"transit":false,"i_long":106.425991,"line":6}]]}