{"data":[[{"i_lat":-6.32484,"time":0,"transit":false,"distance":0,"station_name":"Cisauk","is_transit":false,"station_id":"CSK","i_long":106.640411,"line":3},{"station_name":"Serpong","station_id":"SRP","time":4,"transit":false,"distance":1784,"is_transit":false,"i_long":106.66566,"line":6,"i_lat":-6.319871},{"station_id":"RU","time":4,"transit":false,"is_transit":false,"distance":2413,"line":6,"station_name":"Rawa Buntu","i_lat":-6.314823,"i_long":106.675475},{"station_id":"SDM","distance":4566,"is_transit":false,"line":6,"i_lat":-6.296963,"i_long":106.712277,"time":6,"transit":false,"station_name":"Sudimara"},{"time":4,"transit":false,"line":6,"station_id":"JMU","i_long":106.728916,"station_name":"Jurangmangu","i_lat":-6.288927,"distance":1994,"is_transit":false},{"i_long":106.74273,"time":3,"transit":false,"station_id":"PDJ","distance":2179,"i_lat":-6.276362,"line":6,"is_transit":false,"station_name":"Pondokranji"},{"transit":false,"i_long":106.780334,"station_id":"KBY","distance":6218,"station_name":"Kebayoran","is_transit":false,"i_lat":-6.237242,"line":6,"time":8},{"line":6,"distance":3737,"time":7,"i_lat":-6.207404,"station_id":"PLM","transit":false,"is_transit":false,"station_name":"Palmerah","i_long":106.79689},{"station_name":"Tanah Abang","i_lat":-6.185545,"is_transit":true,"i_long":106.811091,"transit":true,"station_id":"THB","time":6,"line":1,"distance":3191},{"station_name":"Duri","line":1,"transit":true,"i_lat":-6.155215,"station_id":"DU","i_long":106.800832,"is_transit":true,"distance":3632,"time":8},{"station_name":"Grogol","i_long":106.788277,"line":5,"i_lat":-6.162021,"station_id":"GGL","transit":false,"time":3,"is_transit":false,"distance":1700},{"time":2,"distance":2036,"station_id":"PSG","station_name":"Pesing","transit":false,"is_transit":false,"i_lat":-6.161433,"i_long":106.771379,"line":5},{"transit":false,"distance":1614,"station_name":"Taman Kota","is_transit":false,"i_lat":-6.1587309999999995,"line":5,"station_id":"TKO","i_long":106.756522,"time":2},{"station_name":"Bojongindah","time":2,"station_id":"BOI","transit":false,"i_lat":-6.159876,"is_transit":false,"i_long":106.737035,"distance":2334,"line":5},{"line":5,"time":4,"station_id":"RW","distance":1152,"i_long":106.723064,"transit":false,"is_transit":false,"i_lat":-6.162758,"station_name":"Rawa Buaya"},{"station_name":"Kalideres","i_lat":-6.166068,"transit":false,"is_transit":false,"i_long":106.701612,"distance":2504,"time":3,"line":5,"station_id":"KDS"}],[{"line":3,"transit":false,"is_transit":false,"distance":0,"i_lat":-6.32484,"i_long":106.640411,"station_id":"CSK","time":0,"station_name":"Cisauk"},{"station_id":"SRP","i_lat":-6.319871,"i_long":106.66566,"transit":false,"station_name":"Serpong","time":4,"distance":1784,"line":6,"is_transit":false},{"i_lat":-6.314823,"line":6,"station_id":"RU","i_long":106.675475,"time":4,"transit":false,"station_name":"Rawa Buntu","is_transit":false,"distance":2413},{"station_id":"SDM","line":6,"distance":4566,"time":6,"transit":false,"i_long":106.712277,"is_transit":false,"i_lat":-6.296963,"station_name":"Sudimara"},{"transit":false,"is_transit":false,"i_lat":-6.288927,"time":4,"station_name":"Jurangmangu","i_long":106.728916,"distance":1994,"line":6,"station_id":"JMU"},{"transit":false,"station_name":"Pondokranji","time":3,"i_lat":-6.276362,"station_id":"PDJ","i_long":106.74273,"is_transit":false,"distance":2179,"line":6},{"transit":false,"i_lat":-6.237242,"distance":6218,"station_name":"Kebayoran","i_long":106.780334,"station_id":"KBY","is_transit":false,"line":6,"time":8},{"time":7,"station_name":"Palmerah","i_long":106.79689,"distance":3737,"transit":false,"i_lat":-6.207404,"line":6,"station_id":"PLM","is_transit":false},{"is_transit":true,"i_long":106.811091,"distance":3191,"time":6,"station_name":"Tanah Abang","i_lat":-6.185545,"line":1,"station_id":"THB","transit":true},{"time":5,"station_id":"KAT","i_long":106.816351,"transit":false,"distance":2029,"station_name":"Karet","i_lat":-6.20132,"line":1,"is_transit":false},{"distance":471,"i_lat":-6.201433,"station_name":"Sudirman Baru","i_long":106.819881,"line":1,"is_transit":false,"time":1,"station_id":"SUDB","transit":false},{"station_id":"SUD","transit":false,"distance":280,"station_name":"Sudirman","is_transit":false,"i_long":106.822649,"line":1,"time":1,"i_lat":-6.202263},{"distance":3186,"line":2,"time":4,"station_id":"MRI","is_transit":true,"station_name":"Manggarai","i_long":106.84912,"i_lat":-6.209883,"transit":true},{"time":4,"station_id":"CKI","is_transit":false,"i_long":106.840169,"distance":1590,"transit":false,"station_name":"Cikini","line":2,"i_lat":-6.198556},{"station_name":"Gondangdia","is_transit":false,"transit":false,"i_long":106.832183,"line":2,"i_lat":-6.186295,"time":3,"station_id":"GDD","distance":1750},{"is_transit":false,"i_lat":-6.166716,"transit":false,"line":2,"time":4,"station_name":"Juanda","station_id":"JUA","distance":2015,"i_long":106.828284},{"distance":1149,"i_long":106.827103,"station_id":"SW","time":2,"line":2,"station_name":"Sawah Besar","transit":false,"is_transit":false,"i_lat":-6.160725},{"time":2,"distance":906,"station_id":"MGB","transit":false,"station_name":"Manggabesar","i_lat":-6.149769,"is_transit":false,"line":2,"i_long":106.82482},{"distance":1080,"time":2,"transit":false,"station_name":"Jayakarta","i_long":106.820901,"line":2,"station_id":"JAY","is_transit":false,"i_lat":-6.141205},{"i_lat":-6.137569,"station_name":"Jakarta Kota","i_long":106.812439,"distance":1264,"time":4,"is_transit":true,"station_id":"JAKK","transit":true,"line":2},{"station_id":"KPB","time":3,"distance":1364,"station_name":"Kampung Bandan","is_transit":true,"i_lat":-6.132549,"transit":true,"line":4,"i_long":106.826365},{"distance":4102,"station_name":"Angke","time":9,"i_lat":-6.144674,"i_long":106.79867,"line":1,"is_transit":false,"station_id":"AK","transit":false},{"i_lat":-6.155215,"distance":1230,"is_transit":true,"transit":true,"station_name":"Duri","line":1,"time":4,"station_id":"DU","i_long":106.800832},{"i_long":106.788277,"time":3,"station_name":"Grogol","distance":1700,"station_id":"GGL","transit":false,"is_transit":false,"i_lat":-6.162021,"line":5},{"transit":false,"is_transit":false,"line":5,"i_lat":-6.161433,"station_name":"Pesing","distance":2036,"station_id":"PSG","time":2,"i_long":106.771379},{"i_long":106.756522,"i_lat":-6.1587309999999995,"transit":false,"is_transit":false,"station_name":"Taman Kota","distance":1614,"time":2,"station_id":"TKO","line":5},{"transit":false,"is_transit":false,"line":5,"distance":2334,"i_long":106.737035,"time":2,"i_lat":-6.159876,"station_id":"BOI","station_name":"Bojongindah"},{"i_lat":-6.162758,"time":4,"line":5,"is_transit":false,"i_long":106.723064,"station_id":"RW","distance":1152,"station_name":"Rawa Buaya","transit":false},{"transit":false,"distance":2504,"is_transit":false,"station_name":"Kalideres","time":3,"station_id":"KDS","i_long":106.701612,"i_lat":-6.166068,"line":5}],[{"line":3,"i_long":106.640411,"station_name":"Cisauk","is_transit":false,"transit":false,"i_lat":-6.32484,"distance":0,"time":0,"station_id":"CSK"},{"time":4,"station_name":"Serpong","i_lat":-6.319871,"station_id":"SRP","line":6,"transit":false,"i_long":106.66566,"distance":1784,"is_transit":false},{"transit":false,"station_name":"Rawa Buntu","i_long":106.675475,"time":4,"distance":2413,"is_transit":false,"i_lat":-6.314823,"line":6,"station_id":"RU"},{"time":6,"station_name":"Sudimara","distance":4566,"i_lat":-6.296963,"is_transit":false,"line":6,"transit":false,"i_long":106.712277,"station_id":"SDM"},{"time":4,"i_lat":-6.288927,"station_name":"Jurangmangu","is_transit":false,"i_long":106.728916,"line":6,"transit":false,"distance":1994,"station_id":"JMU"},{"i_long":106.74273,"time":3,"transit":false,"is_transit":false,"line":6,"station_id":"PDJ","station_name":"Pondokranji","i_lat":-6.276362,"distance":2179},{"line":6,"time":8,"i_lat":-6.237242,"distance":6218,"transit":false,"station_name":"Kebayoran","is_transit":false,"i_long":106.780334,"station_id":"KBY"},{"i_lat":-6.207404,"distance":3737,"i_long":106.79689,"station_id":"PLM","is_transit":false,"line":6,"time":7,"transit":false,"station_name":"Palmerah"},{"transit":true,"line":1,"time":6,"station_id":"THB","i_long":106.811091,"station_name":"Tanah Abang","i_lat":-6.185545,"is_transit":true,"distance":3191},{"i_lat":-6.20132,"i_long":106.816351,"time":5,"distance":2029,"transit":false,"is_transit":false,"line":1,"station_name":"Karet","station_id":"KAT"},{"station_id":"SUDB","transit":false,"is_transit":false,"i_long":106.819881,"i_lat":-6.201433,"distance":471,"time":1,"station_name":"Sudirman Baru","line":1},{"distance":280,"time":1,"station_name":"Sudirman","i_lat":-6.202263,"i_long":106.822649,"station_id":"SUD","is_transit":false,"line":1,"transit":false},{"distance":3186,"station_id":"MRI","line":2,"i_lat":-6.209883,"i_long":106.84912,"is_transit":false,"transit":false,"time":4,"station_name":"Manggarai"},{"distance":1275,"is_transit":false,"i_long":106.858896,"line":1,"station_name":"Matraman","time":2,"transit":false,"station_id":"MTR","i_lat":-6.212485},{"is_transit":true,"transit":true,"station_id":"JNG","station_name":"Jatinegara","i_lat":-6.215091,"i_long":106.86807400000001,"line":1,"distance":1377,"time":8},{"distance":1236,"is_transit":false,"station_id":"POK","line":11,"station_name":"Pondok Jati","i_lat":-6.209188,"time":2,"transit":false,"i_long":106.861737},{"distance":1829,"is_transit":false,"line":11,"transit":false,"station_name":"Kramat","time":2,"station_id":"KMT","i_long":106.855437,"i_lat":-6.193792},{"is_transit":false,"i_long":106.850107,"station_name":"Gang Sentiong","transit":false,"line":11,"distance":973,"time":1,"station_id":"GST","i_lat":-6.185975},{"transit":false,"distance":1567,"station_id":"PSE","time":8,"line":11,"station_name":"Pasar Senen","is_transit":false,"i_lat":-6.174784,"i_long":106.84368},{"distance":1436,"is_transit":false,"i_lat":-6.161728,"i_long":106.839204,"station_name":"Kemayoran","time":4,"line":11,"station_id":"KMO","transit":false},{"time":5,"i_long":106.836569,"distance":1901,"station_id":"RJW","line":11,"transit":false,"station_name":"Rajawali","is_transit":false,"i_lat":-6.14505},{"i_long":106.826365,"station_id":"KPB","distance":1444,"is_transit":true,"station_name":"Kampung Bandan","transit":true,"time":3,"i_lat":-6.132549,"line":4},{"station_name":"Angke","is_transit":false,"time":9,"transit":false,"i_lat":-6.144674,"i_long":106.79867,"distance":4102,"line":1,"station_id":"AK"},{"i_lat":-6.155215,"i_long":106.800832,"distance":1230,"station_id":"DU","time":4,"is_transit":true,"transit":true,"station_name":"Duri","line":1},{"distance":1700,"transit":false,"station_name":"Grogol","is_transit":false,"i_long":106.788277,"station_id":"GGL","i_lat":-6.162021,"time":3,"line":5},{"station_id":"PSG","transit":false,"station_name":"Pesing","is_transit":false,"i_lat":-6.161433,"line":5,"time":2,"i_long":106.771379,"distance":2036},{"line":5,"is_transit":false,"i_long":106.756522,"i_lat":-6.1587309999999995,"time":2,"station_id":"TKO","station_name":"Taman Kota","distance":1614,"transit":false},{"distance":2334,"station_id":"BOI","is_transit":false,"time":2,"line":5,"transit":false,"i_lat":-6.159876,"station_name":"Bojongindah","i_long":106.737035},{"station_name":"Rawa Buaya","i_long":106.723064,"is_transit":false,"line":5,"distance":1152,"transit":false,"station_id":"RW","time":4,"i_lat":-6.162758},{"station_name":"Kalideres","transit":false,"i_long":106.701612,"time":3,"station_id":"KDS","line":5,"is_transit":false,"i_lat":-6.166068,"distance":2504}]]}