{"data":[[{"distance":0,"i_lat":-6.32484,"station_id":"CSK","is_transit":false,"time":0,"i_long":106.640411,"station_name":"Cisauk","transit":false,"line":3},{"time":4,"i_long":106.66566,"station_id":"SRP","line":6,"is_transit":false,"station_name":"Serpong","transit":false,"distance":1784,"i_lat":-6.319871},{"time":4,"transit":false,"station_id":"RU","is_transit":false,"distance":2413,"i_lat":-6.314823,"i_long":106.675475,"line":6,"station_name":"Rawa Buntu"},{"distance":4566,"transit":false,"is_transit":false,"time":6,"station_id":"SDM","station_name":"Sudimara","line":6,"i_lat":-6.296963,"i_long":106.712277},{"transit":false,"station_id":"JMU","i_lat":-6.288927,"is_transit":false,"station_name":"Jurangmangu","time":4,"i_long":106.728916,"line":6,"distance":1994},{"time":3,"i_long":106.74273,"line":6,"distance":2179,"i_lat":-6.276362,"station_id":"PDJ","is_transit":false,"transit":false,"station_name":"Pondokranji"},{"i_long":106.780334,"i_lat":-6.237242,"station_name":"Kebayoran","distance":6218,"line":6,"is_transit":false,"station_id":"KBY","time":8,"transit":false},{"transit":false,"station_id":"PLM","i_lat":-6.207404,"station_name":"Palmerah","i_long":106.79689,"line":6,"distance":3737,"is_transit":false,"time":7},{"line":1,"is_transit":true,"distance":3191,"time":6,"station_name":"Tanah Abang","i_lat":-6.185545,"station_id":"THB","transit":true,"i_long":106.811091},{"station_id":"KAT","is_transit":false,"i_lat":-6.20132,"station_name":"Karet","time":5,"transit":false,"distance":2029,"line":1,"i_long":106.816351},{"line":1,"time":1,"station_id":"SUDB","is_transit":false,"station_name":"Sudirman Baru","i_lat":-6.201433,"distance":471,"transit":false,"i_long":106.819881},{"station_id":"SUD","line":1,"i_long":106.822649,"station_name":"Sudirman","distance":280,"is_transit":false,"i_lat":-6.202263,"transit":false,"time":1},{"time":4,"line":2,"distance":3186,"i_long":106.84912,"transit":true,"station_name":"Manggarai","station_id":"MRI","i_lat":-6.209883,"is_transit":true},{"i_lat":-6.226659,"transit":false,"station_id":"TEB","distance":2610,"time":4,"station_name":"Tebet","is_transit":false,"i_long":106.857948,"line":2},{"line":2,"is_transit":false,"transit":false,"time":2,"i_lat":-6.242512,"i_long":106.856607,"distance":1230,"station_name":"Cawang","station_id":"CW"},{"time":3,"station_id":"DRN","i_long":106.85449,"i_lat":-6.255332,"line":2,"distance":1546,"is_transit":false,"station_name":"Duren Kalibata","transit":false},{"transit":false,"distance":824,"time":2,"is_transit":false,"i_lat":-6.263214,"station_id":"PSMB","station_name":"Pasar Minggu Baru","i_long":106.851577,"line":2},{"station_id":"PSM","i_long":106.843999,"transit":false,"station_name":"Pasar Minggu","distance":2380,"i_lat":-6.2842400000000005,"line":2,"is_transit":false,"time":2},{"time":4,"line":2,"station_id":"TNT","i_lat":-6.3080680000000005,"i_long":106.838896,"distance":2820,"is_transit":false,"station_name":"Tanjung Barat","transit":false},{"distance":2671,"i_lat":-6.330363,"i_long":106.832616,"station_name":"Lenteng Agung","is_transit":false,"time":3,"line":2,"transit":false,"station_id":"LNA"},{"station_id":"UP","distance":1029,"station_name":"Univ. Pancasila","i_long":106.834175,"i_lat":-6.339291,"transit":false,"line":2,"time":2,"is_transit":false}],[{"transit":false,"station_id":"CSK","i_long":106.640411,"station_name":"Cisauk","distance":0,"time":0,"line":3,"is_transit":false,"i_lat":-6.32484},{"time":4,"i_lat":-6.319871,"is_transit":false,"station_name":"Serpong","distance":1784,"i_long":106.66566,"line":6,"transit":false,"station_id":"SRP"},{"i_long":106.675475,"distance":2413,"transit":false,"line":6,"station_name":"Rawa Buntu","time":4,"i_lat":-6.314823,"is_transit":false,"station_id":"RU"},{"i_lat":-6.296963,"line":6,"station_id":"SDM","i_long":106.712277,"is_transit":false,"transit":false,"time":6,"distance":4566,"station_name":"Sudimara"},{"i_long":106.728916,"i_lat":-6.288927,"station_id":"JMU","station_name":"Jurangmangu","is_transit":false,"transit":false,"line":6,"time":4,"distance":1994},{"distance":2179,"i_lat":-6.276362,"i_long":106.74273,"line":6,"is_transit":false,"transit":false,"time":3,"station_name":"Pondokranji","station_id":"PDJ"},{"transit":false,"station_name":"Kebayoran","line":6,"i_lat":-6.237242,"is_transit":false,"time":8,"station_id":"KBY","distance":6218,"i_long":106.780334},{"transit":false,"station_name":"Palmerah","time":7,"line":6,"is_transit":false,"i_long":106.79689,"i_lat":-6.207404,"station_id":"PLM","distance":3737},{"transit":true,"time":6,"i_long":106.811091,"distance":3191,"i_lat":-6.185545,"station_name":"Tanah Abang","station_id":"THB","line":1,"is_transit":true},{"i_lat":-6.155215,"i_long":106.800832,"is_transit":false,"line":1,"station_id":"DU","station_name":"Duri","distance":3632,"time":8,"transit":false},{"i_long":106.79867,"station_id":"AK","distance":1230,"line":1,"is_transit":false,"station_name":"Angke","time":4,"i_lat":-6.144674,"transit":false},{"is_transit":true,"i_long":106.826365,"station_name":"Kampung Bandan","time":9,"distance":4102,"transit":true,"line":4,"i_lat":-6.132549,"station_id":"KPB"},{"station_id":"JAKK","is_transit":true,"time":3,"i_lat":-6.137569,"i_long":106.812439,"line":2,"transit":true,"distance":1364,"station_name":"Jakarta Kota"},{"i_lat":-6.141205,"i_long":106.820901,"transit":false,"station_id":"JAY","distance":1264,"station_name":"Jayakarta","time":4,"is_transit":false,"line":2},{"station_id":"MGB","is_transit":false,"line":2,"i_lat":-6.149769,"station_name":"Manggabesar","time":2,"distance":1080,"transit":false,"i_long":106.82482},{"distance":906,"station_name":"Sawah Besar","is_transit":false,"time":2,"i_lat":-6.160725,"i_long":106.827103,"transit":false,"station_id":"SW","line":2},{"i_lat":-6.166716,"distance":1149,"i_long":106.828284,"line":2,"station_name":"Juanda","station_id":"JUA","time":2,"transit":false,"is_transit":false},{"transit":false,"time":4,"distance":2015,"station_name":"Gondangdia","i_lat":-6.186295,"line":2,"i_long":106.832183,"station_id":"GDD","is_transit":false},{"station_name":"Cikini","i_lat":-6.198556,"i_long":106.840169,"transit":false,"is_transit":false,"line":2,"distance":1750,"station_id":"CKI","time":3},{"line":2,"station_id":"MRI","time":4,"transit":false,"distance":1590,"i_lat":-6.209883,"is_transit":false,"station_name":"Manggarai","i_long":106.84912},{"i_long":106.857948,"i_lat":-6.226659,"line":2,"is_transit":false,"transit":false,"distance":2610,"station_name":"Tebet","time":4,"station_id":"TEB"},{"distance":1230,"line":2,"is_transit":false,"transit":false,"i_lat":-6.242512,"station_name":"Cawang","station_id":"CW","time":2,"i_long":106.856607},{"i_lat":-6.255332,"station_name":"Duren Kalibata","station_id":"DRN","distance":1546,"transit":false,"time":3,"line":2,"i_long":106.85449,"is_transit":false},{"transit":false,"distance":824,"line":2,"station_name":"Pasar Minggu Baru","i_lat":-6.263214,"i_long":106.851577,"is_transit":false,"station_id":"PSMB","time":2},{"station_id":"PSM","distance":2380,"i_lat":-6.2842400000000005,"station_name":"Pasar Minggu","line":2,"i_long":106.843999,"transit":false,"is_transit":false,"time":2},{"transit":false,"distance":2820,"time":4,"i_lat":-6.3080680000000005,"station_name":"Tanjung Barat","line":2,"station_id":"TNT","is_transit":false,"i_long":106.838896},{"station_id":"LNA","i_lat":-6.330363,"i_long":106.832616,"station_name":"Lenteng Agung","line":2,"transit":false,"time":3,"is_transit":false,"distance":2671},{"is_transit":false,"station_name":"Univ. Pancasila","i_lat":-6.339291,"i_long":106.834175,"distance":1029,"transit":false,"line":2,"time":2,"station_id":"UP"}],[{"station_id":"CSK","transit":false,"line":3,"station_name":"Cisauk","i_lat":-6.32484,"time":0,"i_long":106.640411,"is_transit":false,"distance":0},{"distance":1784,"time":4,"station_id":"SRP","i_lat":-6.319871,"is_transit":false,"line":6,"i_long":106.66566,"transit":false,"station_name":"Serpong"},{"is_transit":false,"line":6,"distance":2413,"station_id":"RU","station_name":"Rawa Buntu","time":4,"i_long":106.675475,"transit":false,"i_lat":-6.314823},{"line":6,"transit":false,"station_id":"SDM","station_name":"Sudimara","i_lat":-6.296963,"time":6,"is_transit":false,"distance":4566,"i_long":106.712277},{"i_long":106.728916,"transit":false,"station_id":"JMU","i_lat":-6.288927,"time":4,"distance":1994,"is_transit":false,"line":6,"station_name":"Jurangmangu"},{"station_id":"PDJ","transit":false,"is_transit":false,"i_long":106.74273,"line":6,"time":3,"station_name":"Pondokranji","i_lat":-6.276362,"distance":2179},{"transit":false,"distance":6218,"is_transit":false,"i_lat":-6.237242,"line":6,"station_name":"Kebayoran","station_id":"KBY","i_long":106.780334,"time":8},{"distance":3737,"i_lat":-6.207404,"i_long":106.79689,"time":7,"transit":false,"is_transit":false,"line":6,"station_id":"PLM","station_name":"Palmerah"},{"i_long":106.811091,"transit":true,"i_lat":-6.185545,"station_id":"THB","distance":3191,"is_transit":true,"time":6,"line":1,"station_name":"Tanah Abang"},{"distance":3632,"i_lat":-6.155215,"is_transit":false,"time":8,"i_long":106.800832,"line":1,"station_id":"DU","station_name":"Duri","transit":false},{"station_name":"Angke","is_transit":false,"distance":1230,"i_long":106.79867,"transit":false,"i_lat":-6.144674,"station_id":"AK","line":1,"time":4},{"time":9,"station_name":"Kampung Bandan","line":4,"transit":true,"is_transit":true,"i_lat":-6.132549,"i_long":106.826365,"station_id":"KPB","distance":4102},{"distance":1444,"line":11,"station_name":"Rajawali","station_id":"RJW","is_transit":false,"time":3,"transit":false,"i_long":106.836569,"i_lat":-6.14505},{"distance":1901,"line":11,"is_transit":false,"i_lat":-6.161728,"station_id":"KMO","time":5,"transit":false,"station_name":"Kemayoran","i_long":106.839204},{"station_id":"PSE","is_transit":false,"i_long":106.84368,"time":4,"station_name":"Pasar Senen","distance":1436,"i_lat":-6.174784,"line":11,"transit":false},{"line":11,"distance":1567,"time":8,"is_transit":false,"i_lat":-6.185975,"station_name":"Gang Sentiong","transit":false,"station_id":"GST","i_long":106.850107},{"time":1,"i_lat":-6.193792,"line":11,"transit":false,"station_id":"KMT","distance":973,"is_transit":false,"i_long":106.855437,"station_name":"Kramat"},{"time":2,"distance":1829,"line":11,"is_transit":false,"i_lat":-6.209188,"i_long":106.861737,"transit":false,"station_name":"Pondok Jati","station_id":"POK"},{"is_transit":true,"time":9,"station_name":"Jatinegara","i_long":106.86807400000001,"line":1,"station_id":"JNG","transit":true,"i_lat":-6.215091,"distance":1236},{"i_lat":-6.212485,"time":2,"i_long":106.858896,"station_name":"Matraman","transit":false,"distance":1377,"station_id":"MTR","line":1,"is_transit":false},{"station_id":"MRI","distance":1275,"i_lat":-6.209883,"station_name":"Manggarai","is_transit":true,"time":2,"transit":true,"i_long":106.84912,"line":2},{"i_long":106.857948,"distance":2610,"i_lat":-6.226659,"line":2,"time":4,"transit":false,"station_name":"Tebet","is_transit":false,"station_id":"TEB"},{"line":2,"is_transit":false,"time":2,"i_long":106.856607,"i_lat":-6.242512,"transit":false,"station_id":"CW","station_name":"Cawang","distance":1230},{"is_transit":false,"station_name":"Duren Kalibata","i_long":106.85449,"distance":1546,"line":2,"station_id":"DRN","time":3,"i_lat":-6.255332,"transit":false},{"time":2,"line":2,"station_id":"PSMB","i_lat":-6.263214,"distance":824,"i_long":106.851577,"station_name":"Pasar Minggu Baru","transit":false,"is_transit":false},{"transit":false,"is_transit":false,"time":2,"station_id":"PSM","line":2,"i_lat":-6.2842400000000005,"station_name":"Pasar Minggu","distance":2380,"i_long":106.843999},{"distance":2820,"is_transit":false,"transit":false,"station_name":"Tanjung Barat","time":4,"line":2,"station_id":"TNT","i_long":106.838896,"i_lat":-6.3080680000000005},{"distance":2671,"i_long":106.832616,"is_transit":false,"station_id":"LNA","line":2,"i_lat":-6.330363,"station_name":"Lenteng Agung","transit":false,"time":3},{"line":2,"distance":1029,"transit":false,"station_id":"UP","time":2,"i_long":106.834175,"station_name":"Univ. Pancasila","i_lat":-6.339291,"is_transit":false}]]}