{"data":[[{"i_long":106.640411,"station_name":"Cisauk","is_transit":false,"distance":0,"time":0,"line":3,"transit":false,"station_id":"CSK","i_lat":-6.32484},{"line":3,"i_lat":-6.329547,"distance":2519,"station_id":"CC","transit":false,"is_transit":false,"time":4,"station_name":"Cicayur","i_long":106.617853},{"station_id":"PRP","station_name":"Parung Panjang","is_transit":false,"i_long":106.568863,"time":8,"i_lat":-6.3441410000000005,"line":6,"distance":5968,"transit":false},{"station_name":"Cilejit","time":9,"i_long":106.508482,"i_lat":-6.354349,"is_transit":false,"station_id":"CJT","line":3,"distance":7025,"transit":false},{"line":0,"station_name":"Daru","time":6,"i_long":106.491338,"station_id":"DAR","distance":2675,"is_transit":false,"i_lat":-6.338021,"transit":false},{"time":5,"i_long":106.460812,"i_lat":-6.327251,"is_transit":false,"line":6,"distance":3902,"station_name":"Tenjo","transit":false,"station_id":"TEJ"},{"i_lat":-6.328533,"line":6,"transit":false,"i_long":106.425991,"is_transit":false,"time":5,"distance":2974,"station_id":"TGS","station_name":"Tigaraksa"}]]}