{"data":[[{"station_id":"CSK","time":0,"i_lat":-6.32484,"i_long":106.640411,"is_transit":false,"line":0,"distance":0,"station_name":"Cisauk","transit":false},{"station_id":"SRP","station_name":"Serpong","i_lat":-6.319871,"i_long":106.66566,"is_transit":false,"line":6,"distance":1784,"time":4,"transit":false},{"i_lat":-6.314823,"line":6,"transit":false,"distance":2413,"i_long":106.675475,"is_transit":false,"time":4,"station_id":"RU","station_name":"Rawa Buntu"},{"line":6,"i_long":106.712277,"time":6,"station_id":"SDM","i_lat":-6.296963,"transit":false,"distance":4566,"station_name":"Sudimara","is_transit":false},{"i_long":106.728916,"time":4,"distance":1994,"is_transit":false,"station_name":"Jurangmangu","i_lat":-6.288927,"line":6,"station_id":"JMU","transit":false},{"i_lat":-6.276362,"line":6,"time":3,"transit":false,"distance":2179,"station_name":"Pondokranji","i_long":106.74273,"is_transit":false,"station_id":"PDJ"},{"line":6,"station_id":"KBY","distance":6218,"i_lat":-6.237242,"transit":false,"time":8,"station_name":"Kebayoran","i_long":106.780334,"is_transit":false},{"is_transit":false,"i_lat":-6.207404,"distance":3737,"station_id":"PLM","station_name":"Palmerah","line":6,"time":7,"transit":false,"i_long":106.79689},{"i_lat":-6.185545,"transit":true,"station_id":"THB","station_name":"Tanah Abang","i_long":106.811091,"distance":3191,"is_transit":true,"time":6,"line":1},{"i_long":106.800832,"distance":3632,"i_lat":-6.155215,"station_name":"Duri","station_id":"DU","line":1,"time":8,"is_transit":true,"transit":true},{"i_long":106.79867,"i_lat":-6.144674,"time":4,"line":0,"is_transit":false,"station_id":"AK","distance":1230,"station_name":"Angke","transit":false},{"i_long":106.826365,"station_id":"KPB","station_name":"Kampung Bandan","i_lat":-6.132549,"distance":4102,"is_transit":true,"transit":false,"line":0,"time":9},{"line":0,"i_lat":-6.128023,"station_name":"Ancol","station_id":"AC","distance":2185,"time":4,"transit":false,"is_transit":false,"i_long":106.84464}],[{"distance":0,"transit":false,"i_long":106.640411,"is_transit":false,"line":0,"station_id":"CSK","station_name":"Cisauk","i_lat":-6.32484,"time":0},{"station_id":"SRP","station_name":"Serpong","i_long":106.66566,"is_transit":false,"transit":false,"time":4,"distance":1784,"i_lat":-6.319871,"line":6},{"i_lat":-6.314823,"is_transit":false,"time":4,"station_name":"Rawa Buntu","station_id":"RU","transit":false,"i_long":106.675475,"line":6,"distance":2413},{"line":6,"is_transit":false,"distance":4566,"station_name":"Sudimara","station_id":"SDM","time":6,"i_long":106.712277,"i_lat":-6.296963,"transit":false},{"is_transit":false,"i_long":106.728916,"line":6,"station_id":"JMU","transit":false,"time":4,"station_name":"Jurangmangu","i_lat":-6.288927,"distance":1994},{"transit":false,"station_name":"Pondokranji","time":3,"is_transit":false,"station_id":"PDJ","i_lat":-6.276362,"i_long":106.74273,"distance":2179,"line":6},{"i_long":106.780334,"distance":6218,"line":6,"station_name":"Kebayoran","station_id":"KBY","transit":false,"is_transit":false,"time":8,"i_lat":-6.237242},{"i_long":106.79689,"line":6,"distance":3737,"station_id":"PLM","station_name":"Palmerah","i_lat":-6.207404,"is_transit":false,"transit":false,"time":7},{"distance":3191,"station_name":"Tanah Abang","time":6,"line":1,"is_transit":true,"station_id":"THB","transit":true,"i_lat":-6.185545,"i_long":106.811091},{"station_id":"KAT","line":1,"i_long":106.816351,"distance":2029,"transit":false,"is_transit":false,"time":5,"i_lat":-6.20132,"station_name":"Karet"},{"is_transit":false,"time":1,"transit":false,"station_id":"SUDB","i_long":106.819881,"station_name":"Sudirman Baru","line":1,"distance":471,"i_lat":-6.201433},{"distance":280,"transit":false,"i_long":106.822649,"station_name":"Sudirman","line":1,"is_transit":false,"station_id":"SUD","i_lat":-6.202263,"time":1},{"station_name":"Manggarai","is_transit":true,"i_long":106.84912,"station_id":"MRI","transit":true,"line":0,"i_lat":-6.209883,"distance":3186,"time":4},{"time":4,"line":0,"transit":false,"i_long":106.840169,"station_id":"CKI","distance":1590,"i_lat":-6.198556,"station_name":"Cikini","is_transit":false},{"transit":false,"station_id":"GDD","time":3,"is_transit":false,"i_lat":-6.186295,"distance":1750,"i_long":106.832183,"station_name":"Gondangdia","line":2},{"time":4,"i_long":106.828284,"line":2,"station_id":"JUA","is_transit":false,"transit":false,"station_name":"Juanda","distance":2015,"i_lat":-6.166716},{"time":2,"i_long":106.827103,"station_name":"Sawah Besar","transit":false,"line":2,"station_id":"SW","i_lat":-6.160725,"is_transit":false,"distance":1149},{"i_long":106.82482,"distance":906,"transit":false,"is_transit":false,"station_id":"MGB","station_name":"Manggabesar","i_lat":-6.149769,"line":2,"time":2},{"time":2,"transit":false,"i_lat":-6.141205,"line":7,"station_id":"JAY","distance":1080,"i_long":106.820901,"is_transit":false,"station_name":"Jayakarta"},{"transit":true,"line":0,"is_transit":true,"station_id":"JAKK","station_name":"Jakarta Kota","distance":1264,"i_lat":-6.137569,"i_long":106.812439,"time":4},{"time":3,"line":0,"i_long":106.826365,"station_id":"KPB","transit":false,"i_lat":-6.132549,"distance":1364,"is_transit":true,"station_name":"Kampung Bandan"},{"line":0,"i_long":106.84464,"station_id":"AC","is_transit":false,"transit":false,"distance":2185,"station_name":"Ancol","i_lat":-6.128023,"time":4}],[{"transit":false,"i_lat":-6.32484,"distance":0,"station_name":"Cisauk","time":0,"i_long":106.640411,"is_transit":false,"station_id":"CSK","line":0},{"line":6,"is_transit":false,"station_name":"Serpong","time":4,"transit":false,"i_long":106.66566,"i_lat":-6.319871,"station_id":"SRP","distance":1784},{"is_transit":false,"transit":false,"distance":2413,"station_id":"RU","time":4,"line":6,"i_long":106.675475,"station_name":"Rawa Buntu","i_lat":-6.314823},{"line":6,"station_name":"Sudimara","station_id":"SDM","distance":4566,"is_transit":false,"time":6,"transit":false,"i_long":106.712277,"i_lat":-6.296963},{"i_long":106.728916,"is_transit":false,"distance":1994,"time":4,"station_name":"Jurangmangu","i_lat":-6.288927,"transit":false,"line":6,"station_id":"JMU"},{"line":6,"station_name":"Pondokranji","i_lat":-6.276362,"station_id":"PDJ","transit":false,"is_transit":false,"i_long":106.74273,"distance":2179,"time":3},{"transit":false,"station_name":"Kebayoran","station_id":"KBY","is_transit":false,"time":8,"distance":6218,"i_lat":-6.237242,"i_long":106.780334,"line":6},{"is_transit":false,"transit":false,"i_long":106.79689,"station_id":"PLM","distance":3737,"i_lat":-6.207404,"station_name":"Palmerah","time":7,"line":6},{"distance":3191,"time":6,"i_lat":-6.185545,"station_name":"Tanah Abang","is_transit":true,"station_id":"THB","line":1,"transit":true,"i_long":106.811091},{"distance":2029,"station_name":"Karet","line":1,"transit":false,"i_lat":-6.20132,"time":5,"is_transit":false,"station_id":"KAT","i_long":106.816351},{"is_transit":false,"transit":false,"station_id":"SUDB","i_long":106.819881,"line":1,"station_name":"Sudirman Baru","i_lat":-6.201433,"distance":471,"time":1},{"distance":280,"i_lat":-6.202263,"line":1,"transit":false,"station_id":"SUD","i_long":106.822649,"station_name":"Sudirman","time":1,"is_transit":false},{"line":0,"i_lat":-6.209883,"transit":false,"is_transit":true,"i_long":106.84912,"station_id":"MRI","station_name":"Manggarai","time":4,"distance":3186},{"i_long":106.858896,"line":1,"i_lat":-6.212485,"time":2,"is_transit":false,"transit":false,"station_id":"MTR","station_name":"Matraman","distance":1275},{"line":0,"time":8,"i_long":106.86807400000001,"transit":true,"station_name":"Jatinegara","distance":1377,"is_transit":true,"station_id":"JNG","i_lat":-6.215091},{"distance":1236,"station_id":"POK","i_lat":-6.209188,"line":11,"i_long":106.861737,"time":2,"is_transit":false,"station_name":"Pondok Jati","transit":false},{"distance":1829,"station_id":"KMT","i_long":106.855437,"i_lat":-6.193792,"time":2,"is_transit":false,"line":11,"station_name":"Kramat","transit":false},{"i_long":106.850107,"line":11,"i_lat":-6.185975,"station_name":"Gang Sentiong","time":1,"distance":973,"station_id":"GST","is_transit":false,"transit":false},{"i_lat":-6.174784,"is_transit":false,"line":11,"time":8,"station_name":"Pasar Senen","station_id":"PSE","distance":1567,"transit":false,"i_long":106.84368},{"distance":1436,"line":11,"time":4,"station_id":"KMO","station_name":"Kemayoran","transit":false,"i_long":106.839204,"i_lat":-6.161728,"is_transit":false},{"i_lat":-6.14505,"time":5,"distance":1901,"station_name":"Rajawali","i_long":106.836569,"transit":false,"line":11,"station_id":"RJW","is_transit":false},{"distance":1444,"line":0,"time":3,"transit":true,"station_id":"KPB","station_name":"Kampung Bandan","i_lat":-6.132549,"i_long":106.826365,"is_transit":true},{"transit":false,"is_transit":false,"station_id":"AC","i_long":106.84464,"line":0,"station_name":"Ancol","distance":2185,"i_lat":-6.128023,"time":4}]]}