{"data":[[{"is_transit":false,"i_lat":-6.32484,"time":0,"station_name":"Cisauk","station_id":"CSK","transit":false,"distance":0,"i_long":106.640411,"line":3},{"station_id":"CC","distance":2519,"i_lat":-6.329547,"station_name":"Cicayur","is_transit":false,"i_long":106.617853,"line":3,"time":4,"transit":false},{"station_name":"Parung Panjang","line":6,"is_transit":false,"station_id":"PRP","i_lat":-6.3441410000000005,"i_long":106.568863,"time":8,"transit":false,"distance":5968},{"station_id":"CJT","station_name":"Cilejit","time":9,"distance":7025,"i_long":106.508482,"line":3,"is_transit":false,"transit":false,"i_lat":-6.354349},{"transit":false,"station_id":"DAR","is_transit":false,"time":6,"distance":2675,"station_name":"Daru","line":0,"i_long":106.491338,"i_lat":-6.338021},{"i_lat":-6.327251,"i_long":106.460812,"station_name":"Tenjo","transit":false,"station_id":"TEJ","line":6,"distance":3902,"is_transit":false,"time":5},{"transit":false,"distance":2974,"station_name":"Tigaraksa","i_long":106.425991,"time":5,"is_transit":false,"line":6,"i_lat":-6.328533,"station_id":"TGS"},{"distance":2651,"i_lat":-6.33561,"transit":false,"is_transit":false,"line":3,"i_long":106.411216,"station_name":"Cikoya","station_id":"CKY","time":3},{"line":6,"station_id":"MJ","is_transit":false,"distance":1853,"transit":false,"station_name":"Maja","i_lat":-6.332307,"time":4,"i_long":106.394373},{"i_lat":-6.334892,"i_long":106.332092,"station_name":"Citeras","transit":false,"station_id":"CTR","time":10,"line":3,"is_transit":false,"distance":7293}]]}