{"data":[[{"station_name":"Cisauk","i_long":106.640411,"station_id":"CSK","transit":false,"distance":0,"line":0,"i_lat":-6.32484,"is_transit":false,"time":0},{"is_transit":false,"i_long":106.66566,"transit":false,"station_id":"SRP","distance":1784,"station_name":"Serpong","line":6,"i_lat":-6.319871,"time":4},{"is_transit":false,"station_id":"RU","distance":2413,"station_name":"Rawa Buntu","transit":false,"i_long":106.675475,"line":6,"time":4,"i_lat":-6.314823},{"station_name":"Sudimara","distance":4566,"i_lat":-6.296963,"i_long":106.712277,"line":6,"station_id":"SDM","is_transit":false,"transit":false,"time":6},{"time":4,"is_transit":false,"i_lat":-6.288927,"station_id":"JMU","transit":false,"i_long":106.728916,"distance":1994,"line":6,"station_name":"Jurangmangu"},{"i_lat":-6.276362,"line":6,"station_name":"Pondokranji","i_long":106.74273,"transit":false,"station_id":"PDJ","is_transit":false,"time":3,"distance":2179},{"station_name":"Kebayoran","transit":false,"line":6,"time":8,"is_transit":false,"station_id":"KBY","i_lat":-6.237242,"i_long":106.780334,"distance":6218},{"i_lat":-6.207404,"i_long":106.79689,"distance":3737,"station_id":"PLM","station_name":"Palmerah","transit":false,"line":6,"time":7,"is_transit":false},{"time":6,"is_transit":true,"i_lat":-6.185545,"transit":true,"distance":3191,"station_name":"Tanah Abang","i_long":106.811091,"station_id":"THB","line":1},{"distance":3632,"transit":true,"station_name":"Duri","i_long":106.800832,"i_lat":-6.155215,"line":1,"time":8,"is_transit":true,"station_id":"DU"},{"distance":1230,"line":0,"station_name":"Angke","station_id":"AK","i_long":106.79867,"i_lat":-6.144674,"time":4,"is_transit":false,"transit":false},{"station_id":"KPB","i_long":106.826365,"is_transit":true,"time":9,"i_lat":-6.132549,"transit":false,"station_name":"Kampung Bandan","distance":4102,"line":0},{"transit":true,"i_lat":-6.137569,"i_long":106.812439,"distance":1364,"is_transit":true,"station_id":"JAKK","line":0,"station_name":"Jakarta Kota","time":3},{"station_name":"Jayakarta","station_id":"JAY","i_lat":-6.141205,"distance":1264,"is_transit":false,"time":4,"transit":false,"i_long":106.820901,"line":7}],[{"station_name":"Cisauk","distance":0,"time":0,"station_id":"CSK","transit":false,"line":0,"is_transit":false,"i_lat":-6.32484,"i_long":106.640411},{"i_lat":-6.319871,"line":6,"station_name":"Serpong","time":4,"transit":false,"i_long":106.66566,"distance":1784,"station_id":"SRP","is_transit":false},{"transit":false,"i_lat":-6.314823,"i_long":106.675475,"time":4,"distance":2413,"line":6,"station_id":"RU","is_transit":false,"station_name":"Rawa Buntu"},{"line":6,"is_transit":false,"distance":4566,"station_name":"Sudimara","time":6,"transit":false,"i_long":106.712277,"i_lat":-6.296963,"station_id":"SDM"},{"i_long":106.728916,"line":6,"station_id":"JMU","is_transit":false,"i_lat":-6.288927,"time":4,"distance":1994,"transit":false,"station_name":"Jurangmangu"},{"station_name":"Pondokranji","line":6,"i_lat":-6.276362,"i_long":106.74273,"station_id":"PDJ","distance":2179,"time":3,"transit":false,"is_transit":false},{"is_transit":false,"line":6,"time":8,"station_id":"KBY","distance":6218,"station_name":"Kebayoran","transit":false,"i_long":106.780334,"i_lat":-6.237242},{"time":7,"is_transit":false,"station_name":"Palmerah","transit":false,"i_lat":-6.207404,"line":6,"station_id":"PLM","distance":3737,"i_long":106.79689},{"distance":3191,"station_id":"THB","transit":true,"is_transit":true,"i_lat":-6.185545,"i_long":106.811091,"line":1,"time":6,"station_name":"Tanah Abang"},{"is_transit":false,"distance":2029,"time":5,"i_long":106.816351,"station_id":"KAT","transit":false,"i_lat":-6.20132,"line":1,"station_name":"Karet"},{"line":1,"distance":471,"is_transit":false,"i_long":106.819881,"transit":false,"station_id":"SUDB","time":1,"station_name":"Sudirman Baru","i_lat":-6.201433},{"distance":280,"station_id":"SUD","station_name":"Sudirman","i_long":106.822649,"is_transit":false,"time":1,"line":1,"transit":false,"i_lat":-6.202263},{"station_id":"MRI","time":4,"station_name":"Manggarai","i_lat":-6.209883,"is_transit":true,"transit":true,"i_long":106.84912,"distance":3186,"line":0},{"station_name":"Cikini","station_id":"CKI","i_lat":-6.198556,"distance":1590,"is_transit":false,"i_long":106.840169,"transit":false,"line":0,"time":4},{"time":3,"is_transit":false,"station_id":"GDD","station_name":"Gondangdia","transit":false,"distance":1750,"i_long":106.832183,"line":2,"i_lat":-6.186295},{"time":4,"station_name":"Juanda","i_lat":-6.166716,"line":2,"is_transit":false,"distance":2015,"transit":false,"i_long":106.828284,"station_id":"JUA"},{"time":2,"line":2,"i_lat":-6.160725,"i_long":106.827103,"is_transit":false,"station_id":"SW","distance":1149,"station_name":"Sawah Besar","transit":false},{"distance":906,"transit":false,"station_name":"Manggabesar","i_lat":-6.149769,"i_long":106.82482,"is_transit":false,"line":2,"station_id":"MGB","time":2},{"line":7,"distance":1080,"station_name":"Jayakarta","transit":false,"i_lat":-6.141205,"time":2,"station_id":"JAY","i_long":106.820901,"is_transit":false}],[{"station_id":"CSK","distance":0,"transit":false,"i_long":106.640411,"is_transit":false,"line":0,"station_name":"Cisauk","i_lat":-6.32484,"time":0},{"transit":false,"line":6,"distance":1784,"station_name":"Serpong","station_id":"SRP","i_long":106.66566,"time":4,"is_transit":false,"i_lat":-6.319871},{"transit":false,"i_lat":-6.314823,"line":6,"is_transit":false,"i_long":106.675475,"distance":2413,"station_name":"Rawa Buntu","station_id":"RU","time":4},{"i_long":106.712277,"station_id":"SDM","transit":false,"time":6,"station_name":"Sudimara","distance":4566,"i_lat":-6.296963,"is_transit":false,"line":6},{"time":4,"i_lat":-6.288927,"station_name":"Jurangmangu","is_transit":false,"i_long":106.728916,"distance":1994,"transit":false,"line":6,"station_id":"JMU"},{"time":3,"station_name":"Pondokranji","i_lat":-6.276362,"line":6,"is_transit":false,"i_long":106.74273,"distance":2179,"transit":false,"station_id":"PDJ"},{"i_long":106.780334,"time":8,"is_transit":false,"transit":false,"i_lat":-6.237242,"line":6,"station_id":"KBY","distance":6218,"station_name":"Kebayoran"},{"line":6,"station_id":"PLM","distance":3737,"is_transit":false,"station_name":"Palmerah","transit":false,"i_lat":-6.207404,"time":7,"i_long":106.79689},{"is_transit":true,"line":1,"time":6,"transit":true,"i_long":106.811091,"distance":3191,"station_id":"THB","station_name":"Tanah Abang","i_lat":-6.185545},{"is_transit":false,"i_long":106.816351,"station_name":"Karet","transit":false,"time":5,"distance":2029,"line":1,"station_id":"KAT","i_lat":-6.20132},{"station_id":"SUDB","station_name":"Sudirman Baru","transit":false,"time":1,"i_long":106.819881,"line":1,"distance":471,"is_transit":false,"i_lat":-6.201433},{"time":1,"station_name":"Sudirman","transit":false,"is_transit":false,"line":1,"i_long":106.822649,"station_id":"SUD","distance":280,"i_lat":-6.202263},{"line":0,"station_id":"MRI","i_lat":-6.209883,"station_name":"Manggarai","transit":false,"time":4,"is_transit":true,"distance":3186,"i_long":106.84912},{"station_name":"Matraman","distance":1275,"is_transit":false,"transit":false,"i_lat":-6.212485,"i_long":106.858896,"time":2,"station_id":"MTR","line":1},{"distance":1377,"station_id":"JNG","time":8,"i_long":106.86807400000001,"station_name":"Jatinegara","is_transit":true,"i_lat":-6.215091,"transit":true,"line":0},{"line":11,"station_name":"Pondok Jati","i_long":106.861737,"is_transit":false,"i_lat":-6.209188,"station_id":"POK","distance":1236,"transit":false,"time":2},{"station_id":"KMT","time":2,"station_name":"Kramat","i_long":106.855437,"distance":1829,"transit":false,"i_lat":-6.193792,"is_transit":false,"line":11},{"time":1,"transit":false,"distance":973,"i_long":106.850107,"station_id":"GST","station_name":"Gang Sentiong","i_lat":-6.185975,"is_transit":false,"line":11},{"line":11,"station_name":"Pasar Senen","is_transit":false,"i_lat":-6.174784,"transit":false,"i_long":106.84368,"station_id":"PSE","time":8,"distance":1567},{"station_name":"Kemayoran","transit":false,"i_lat":-6.161728,"i_long":106.839204,"line":11,"distance":1436,"time":4,"is_transit":false,"station_id":"KMO"},{"i_long":106.836569,"i_lat":-6.14505,"station_id":"RJW","is_transit":false,"transit":false,"line":11,"time":5,"distance":1901,"station_name":"Rajawali"},{"transit":true,"is_transit":true,"line":0,"station_name":"Kampung Bandan","i_lat":-6.132549,"station_id":"KPB","distance":1444,"time":3,"i_long":106.826365},{"station_name":"Jakarta Kota","is_transit":true,"time":3,"line":0,"i_lat":-6.137569,"transit":true,"i_long":106.812439,"distance":1364,"station_id":"JAKK"},{"station_name":"Jayakarta","transit":false,"distance":1264,"time":4,"i_long":106.820901,"line":7,"i_lat":-6.141205,"station_id":"JAY","is_transit":false}],[{"line":0,"station_id":"CSK","time":0,"distance":0,"i_lat":-6.32484,"i_long":106.640411,"is_transit":false,"station_name":"Cisauk","transit":false},{"time":4,"is_transit":false,"line":6,"transit":false,"i_long":106.66566,"distance":1784,"i_lat":-6.319871,"station_name":"Serpong","station_id":"SRP"},{"distance":2413,"transit":false,"i_long":106.675475,"line":6,"station_name":"Rawa Buntu","i_lat":-6.314823,"station_id":"RU","is_transit":false,"time":4},{"line":6,"station_name":"Sudimara","distance":4566,"i_long":106.712277,"transit":false,"i_lat":-6.296963,"is_transit":false,"time":6,"station_id":"SDM"},{"station_id":"JMU","distance":1994,"transit":false,"i_long":106.728916,"line":6,"time":4,"is_transit":false,"station_name":"Jurangmangu","i_lat":-6.288927},{"i_long":106.74273,"station_name":"Pondokranji","time":3,"line":6,"station_id":"PDJ","is_transit":false,"distance":2179,"transit":false,"i_lat":-6.276362},{"station_name":"Kebayoran","time":8,"i_lat":-6.237242,"i_long":106.780334,"transit":false,"distance":6218,"line":6,"station_id":"KBY","is_transit":false},{"line":6,"station_name":"Palmerah","transit":false,"is_transit":false,"i_long":106.79689,"time":7,"station_id":"PLM","distance":3737,"i_lat":-6.207404},{"distance":3191,"i_long":106.811091,"transit":true,"station_id":"THB","station_name":"Tanah Abang","i_lat":-6.185545,"line":1,"is_transit":true,"time":6},{"i_lat":-6.155215,"station_id":"DU","transit":true,"time":8,"station_name":"Duri","i_long":106.800832,"line":1,"distance":3632,"is_transit":true},{"distance":1230,"station_name":"Angke","i_lat":-6.144674,"i_long":106.79867,"transit":false,"station_id":"AK","line":0,"is_transit":false,"time":4},{"i_lat":-6.132549,"station_id":"KPB","time":9,"transit":true,"is_transit":true,"distance":4102,"line":0,"station_name":"Kampung Bandan","i_long":106.826365},{"is_transit":false,"station_id":"RJW","time":3,"i_lat":-6.14505,"i_long":106.836569,"line":11,"station_name":"Rajawali","transit":false,"distance":1444},{"transit":false,"i_lat":-6.161728,"line":11,"station_id":"KMO","is_transit":false,"time":5,"distance":1901,"station_name":"Kemayoran","i_long":106.839204},{"is_transit":false,"time":4,"i_long":106.84368,"station_name":"Pasar Senen","transit":false,"station_id":"PSE","line":11,"distance":1436,"i_lat":-6.174784},{"line":11,"i_long":106.850107,"station_id":"GST","time":8,"distance":1567,"station_name":"Gang Sentiong","transit":false,"is_transit":false,"i_lat":-6.185975},{"station_name":"Kramat","is_transit":false,"time":1,"i_lat":-6.193792,"line":11,"i_long":106.855437,"distance":973,"station_id":"KMT","transit":false},{"distance":1829,"line":11,"transit":false,"i_lat":-6.209188,"i_long":106.861737,"station_name":"Pondok Jati","time":2,"station_id":"POK","is_transit":false},{"i_long":106.86807400000001,"station_id":"JNG","distance":1236,"time":9,"station_name":"Jatinegara","transit":true,"i_lat":-6.215091,"line":0,"is_transit":true},{"line":1,"i_long":106.858896,"is_transit":false,"station_name":"Matraman","transit":false,"time":2,"i_lat":-6.212485,"distance":1377,"station_id":"MTR"},{"line":0,"time":2,"transit":true,"is_transit":true,"i_lat":-6.209883,"station_id":"MRI","station_name":"Manggarai","i_long":106.84912,"distance":1275},{"is_transit":false,"i_long":106.840169,"line":0,"transit":false,"i_lat":-6.198556,"station_id":"CKI","time":4,"distance":1590,"station_name":"Cikini"},{"is_transit":false,"transit":false,"station_name":"Gondangdia","i_lat":-6.186295,"time":3,"distance":1750,"line":2,"i_long":106.832183,"station_id":"GDD"},{"station_id":"JUA","is_transit":false,"time":4,"distance":2015,"i_long":106.828284,"transit":false,"station_name":"Juanda","i_lat":-6.166716,"line":2},{"i_lat":-6.160725,"line":2,"distance":1149,"is_transit":false,"time":2,"i_long":106.827103,"transit":false,"station_id":"SW","station_name":"Sawah Besar"},{"is_transit":false,"i_lat":-6.149769,"time":2,"station_id":"MGB","transit":false,"i_long":106.82482,"distance":906,"line":2,"station_name":"Manggabesar"},{"station_id":"JAY","time":2,"distance":1080,"i_lat":-6.141205,"is_transit":false,"transit":false,"station_name":"Jayakarta","i_long":106.820901,"line":7}]]}