{"data":[[{"distance":0,"transit":false,"station_id":"CSK","station_name":"Cisauk","i_lat":-6.32484,"line":0,"is_transit":false,"time":0,"i_long":106.640411},{"transit":false,"line":6,"distance":1784,"i_long":106.66566,"station_name":"Serpong","time":4,"i_lat":-6.319871,"station_id":"SRP","is_transit":false},{"is_transit":false,"station_name":"Rawa Buntu","station_id":"RU","transit":false,"i_lat":-6.314823,"time":4,"distance":2413,"i_long":106.675475,"line":6},{"station_id":"SDM","time":6,"is_transit":false,"i_long":106.712277,"distance":4566,"line":6,"station_name":"Sudimara","transit":false,"i_lat":-6.296963},{"station_id":"JMU","time":4,"station_name":"Jurangmangu","distance":1994,"is_transit":false,"transit":false,"i_lat":-6.288927,"i_long":106.728916,"line":6},{"is_transit":false,"time":3,"i_long":106.74273,"distance":2179,"station_id":"PDJ","line":6,"i_lat":-6.276362,"station_name":"Pondokranji","transit":false},{"station_name":"Kebayoran","i_long":106.780334,"line":6,"station_id":"KBY","distance":6218,"time":8,"is_transit":false,"transit":false,"i_lat":-6.237242},{"is_transit":false,"distance":3737,"station_name":"Palmerah","i_lat":-6.207404,"time":7,"transit":false,"i_long":106.79689,"station_id":"PLM","line":6},{"time":6,"i_lat":-6.185545,"station_name":"Tanah Abang","distance":3191,"station_id":"THB","is_transit":true,"transit":true,"i_long":106.811091,"line":1},{"is_transit":false,"i_long":106.816351,"station_id":"KAT","distance":2029,"transit":false,"i_lat":-6.20132,"line":1,"station_name":"Karet","time":5},{"i_lat":-6.201433,"line":1,"time":1,"station_name":"Sudirman Baru","i_long":106.819881,"transit":false,"is_transit":false,"station_id":"SUDB","distance":471},{"station_name":"Sudirman","i_long":106.822649,"time":1,"station_id":"SUD","line":1,"is_transit":false,"transit":false,"distance":280,"i_lat":-6.202263},{"station_id":"MRI","distance":3186,"station_name":"Manggarai","line":0,"transit":false,"i_lat":-6.209883,"is_transit":true,"i_long":106.84912,"time":4},{"i_lat":-6.212485,"station_name":"Matraman","transit":false,"is_transit":false,"time":2,"i_long":106.858896,"station_id":"MTR","line":1,"distance":1275},{"transit":false,"time":8,"i_lat":-6.215091,"station_id":"JNG","i_long":106.86807400000001,"distance":1377,"is_transit":true,"station_name":"Jatinegara","line":0}],[{"transit":false,"distance":0,"is_transit":false,"i_lat":-6.32484,"station_id":"CSK","station_name":"Cisauk","line":0,"i_long":106.640411,"time":0},{"line":6,"station_id":"SRP","transit":false,"i_lat":-6.319871,"distance":1784,"station_name":"Serpong","is_transit":false,"i_long":106.66566,"time":4},{"station_id":"RU","transit":false,"is_transit":false,"station_name":"Rawa Buntu","i_long":106.675475,"time":4,"line":6,"i_lat":-6.314823,"distance":2413},{"i_long":106.712277,"station_name":"Sudimara","line":6,"station_id":"SDM","i_lat":-6.296963,"transit":false,"is_transit":false,"time":6,"distance":4566},{"transit":false,"station_name":"Jurangmangu","distance":1994,"i_lat":-6.288927,"line":6,"time":4,"station_id":"JMU","i_long":106.728916,"is_transit":false},{"station_id":"PDJ","station_name":"Pondokranji","i_lat":-6.276362,"line":6,"time":3,"transit":false,"distance":2179,"i_long":106.74273,"is_transit":false},{"station_id":"KBY","transit":false,"line":6,"i_long":106.780334,"time":8,"station_name":"Kebayoran","is_transit":false,"distance":6218,"i_lat":-6.237242},{"distance":3737,"time":7,"transit":false,"is_transit":false,"station_id":"PLM","station_name":"Palmerah","i_lat":-6.207404,"line":6,"i_long":106.79689},{"station_id":"THB","i_long":106.811091,"distance":3191,"line":1,"station_name":"Tanah Abang","is_transit":true,"time":6,"i_lat":-6.185545,"transit":true},{"is_transit":true,"station_id":"DU","i_long":106.800832,"line":1,"distance":3632,"time":8,"station_name":"Duri","transit":true,"i_lat":-6.155215},{"i_lat":-6.144674,"line":0,"is_transit":false,"i_long":106.79867,"station_name":"Angke","time":4,"station_id":"AK","transit":false,"distance":1230},{"transit":true,"distance":4102,"is_transit":true,"station_name":"Kampung Bandan","i_lat":-6.132549,"time":9,"i_long":106.826365,"line":0,"station_id":"KPB"},{"station_id":"RJW","transit":false,"i_lat":-6.14505,"distance":1444,"is_transit":false,"line":11,"time":3,"station_name":"Rajawali","i_long":106.836569},{"i_long":106.839204,"station_id":"KMO","is_transit":false,"distance":1901,"i_lat":-6.161728,"station_name":"Kemayoran","time":5,"transit":false,"line":11},{"i_lat":-6.174784,"distance":1436,"time":4,"i_long":106.84368,"is_transit":false,"transit":false,"line":11,"station_id":"PSE","station_name":"Pasar Senen"},{"line":11,"time":8,"distance":1567,"transit":false,"station_id":"GST","station_name":"Gang Sentiong","i_lat":-6.185975,"is_transit":false,"i_long":106.850107},{"station_id":"KMT","distance":973,"i_lat":-6.193792,"line":11,"i_long":106.855437,"is_transit":false,"time":1,"station_name":"Kramat","transit":false},{"i_lat":-6.209188,"station_name":"Pondok Jati","i_long":106.861737,"line":11,"is_transit":false,"station_id":"POK","time":2,"transit":false,"distance":1829},{"time":9,"line":0,"station_id":"JNG","distance":1236,"i_lat":-6.215091,"is_transit":true,"station_name":"Jatinegara","transit":false,"i_long":106.86807400000001}],[{"is_transit":false,"i_long":106.640411,"station_id":"CSK","station_name":"Cisauk","line":0,"transit":false,"i_lat":-6.32484,"time":0,"distance":0},{"station_name":"Serpong","i_long":106.66566,"distance":1784,"i_lat":-6.319871,"is_transit":false,"station_id":"SRP","line":6,"time":4,"transit":false},{"station_id":"RU","distance":2413,"line":6,"time":4,"transit":false,"i_lat":-6.314823,"i_long":106.675475,"is_transit":false,"station_name":"Rawa Buntu"},{"i_long":106.712277,"transit":false,"time":6,"is_transit":false,"station_id":"SDM","station_name":"Sudimara","i_lat":-6.296963,"line":6,"distance":4566},{"time":4,"i_lat":-6.288927,"station_id":"JMU","station_name":"Jurangmangu","line":6,"transit":false,"is_transit":false,"distance":1994,"i_long":106.728916},{"transit":false,"i_lat":-6.276362,"station_name":"Pondokranji","time":3,"distance":2179,"station_id":"PDJ","i_long":106.74273,"line":6,"is_transit":false},{"station_id":"KBY","transit":false,"time":8,"line":6,"i_lat":-6.237242,"distance":6218,"station_name":"Kebayoran","is_transit":false,"i_long":106.780334},{"time":7,"distance":3737,"i_lat":-6.207404,"station_id":"PLM","i_long":106.79689,"line":6,"transit":false,"station_name":"Palmerah","is_transit":false},{"station_id":"THB","distance":3191,"i_long":106.811091,"line":1,"station_name":"Tanah Abang","i_lat":-6.185545,"time":6,"transit":true,"is_transit":true},{"distance":3632,"is_transit":true,"station_name":"Duri","transit":true,"i_long":106.800832,"line":1,"station_id":"DU","time":8,"i_lat":-6.155215},{"time":4,"distance":1230,"station_name":"Angke","is_transit":false,"i_lat":-6.144674,"line":0,"transit":false,"station_id":"AK","i_long":106.79867},{"transit":false,"distance":4102,"is_transit":true,"time":9,"station_id":"KPB","station_name":"Kampung Bandan","i_long":106.826365,"line":0,"i_lat":-6.132549},{"i_lat":-6.137569,"station_id":"JAKK","line":0,"i_long":106.812439,"transit":true,"is_transit":true,"distance":1364,"station_name":"Jakarta Kota","time":3},{"i_long":106.820901,"is_transit":false,"station_id":"JAY","time":4,"distance":1264,"i_lat":-6.141205,"station_name":"Jayakarta","transit":false,"line":7},{"i_lat":-6.149769,"line":2,"i_long":106.82482,"is_transit":false,"time":2,"transit":false,"station_name":"Manggabesar","distance":1080,"station_id":"MGB"},{"line":2,"i_lat":-6.160725,"distance":906,"i_long":106.827103,"station_name":"Sawah Besar","time":2,"station_id":"SW","is_transit":false,"transit":false},{"transit":false,"distance":1149,"station_name":"Juanda","line":2,"is_transit":false,"station_id":"JUA","i_lat":-6.166716,"time":2,"i_long":106.828284},{"i_lat":-6.186295,"distance":2015,"transit":false,"i_long":106.832183,"line":2,"is_transit":false,"station_id":"GDD","time":4,"station_name":"Gondangdia"},{"distance":1750,"station_name":"Cikini","transit":false,"line":0,"i_long":106.840169,"station_id":"CKI","time":3,"i_lat":-6.198556,"is_transit":false},{"line":0,"time":4,"i_long":106.84912,"distance":1590,"transit":true,"station_name":"Manggarai","is_transit":true,"station_id":"MRI","i_lat":-6.209883},{"distance":1275,"line":1,"is_transit":false,"time":2,"i_long":106.858896,"transit":false,"station_id":"MTR","station_name":"Matraman","i_lat":-6.212485},{"line":0,"i_lat":-6.215091,"station_id":"JNG","transit":false,"distance":1377,"station_name":"Jatinegara","i_long":106.86807400000001,"time":8,"is_transit":true}],[{"line":0,"station_id":"CSK","is_transit":false,"distance":0,"station_name":"Cisauk","i_lat":-6.32484,"transit":false,"time":0,"i_long":106.640411},{"station_name":"Serpong","transit":false,"distance":1784,"i_lat":-6.319871,"is_transit":false,"line":6,"station_id":"SRP","i_long":106.66566,"time":4},{"station_name":"Rawa Buntu","transit":false,"distance":2413,"line":6,"is_transit":false,"i_lat":-6.314823,"i_long":106.675475,"time":4,"station_id":"RU"},{"time":6,"line":6,"station_name":"Sudimara","distance":4566,"is_transit":false,"i_lat":-6.296963,"transit":false,"station_id":"SDM","i_long":106.712277},{"transit":false,"is_transit":false,"station_name":"Jurangmangu","station_id":"JMU","distance":1994,"line":6,"i_lat":-6.288927,"i_long":106.728916,"time":4},{"distance":2179,"time":3,"station_id":"PDJ","i_lat":-6.276362,"station_name":"Pondokranji","transit":false,"i_long":106.74273,"is_transit":false,"line":6},{"i_lat":-6.237242,"line":6,"time":8,"i_long":106.780334,"station_name":"Kebayoran","station_id":"KBY","transit":false,"distance":6218,"is_transit":false},{"station_id":"PLM","station_name":"Palmerah","distance":3737,"time":7,"line":6,"is_transit":false,"i_lat":-6.207404,"transit":false,"i_long":106.79689},{"time":6,"station_id":"THB","line":1,"is_transit":true,"station_name":"Tanah Abang","i_lat":-6.185545,"i_long":106.811091,"distance":3191,"transit":true},{"station_id":"KAT","is_transit":false,"i_long":106.816351,"line":1,"time":5,"i_lat":-6.20132,"distance":2029,"station_name":"Karet","transit":false},{"station_name":"Sudirman Baru","is_transit":false,"time":1,"line":1,"i_lat":-6.201433,"distance":471,"i_long":106.819881,"transit":false,"station_id":"SUDB"},{"i_lat":-6.202263,"is_transit":false,"distance":280,"line":1,"i_long":106.822649,"station_id":"SUD","time":1,"transit":false,"station_name":"Sudirman"},{"station_name":"Manggarai","transit":true,"station_id":"MRI","distance":3186,"i_lat":-6.209883,"line":0,"i_long":106.84912,"is_transit":true,"time":4},{"line":0,"i_lat":-6.198556,"transit":false,"i_long":106.840169,"station_id":"CKI","distance":1590,"is_transit":false,"time":4,"station_name":"Cikini"},{"is_transit":false,"station_name":"Gondangdia","i_lat":-6.186295,"transit":false,"line":2,"distance":1750,"time":3,"i_long":106.832183,"station_id":"GDD"},{"line":2,"transit":false,"i_long":106.828284,"is_transit":false,"distance":2015,"time":4,"station_name":"Juanda","station_id":"JUA","i_lat":-6.166716},{"time":2,"i_lat":-6.160725,"is_transit":false,"distance":1149,"transit":false,"line":2,"station_name":"Sawah Besar","i_long":106.827103,"station_id":"SW"},{"distance":906,"transit":false,"i_long":106.82482,"is_transit":false,"line":2,"station_name":"Manggabesar","time":2,"station_id":"MGB","i_lat":-6.149769},{"is_transit":false,"distance":1080,"i_lat":-6.141205,"station_id":"JAY","line":7,"time":2,"station_name":"Jayakarta","transit":false,"i_long":106.820901},{"station_name":"Jakarta Kota","station_id":"JAKK","transit":true,"i_lat":-6.137569,"line":0,"time":4,"distance":1264,"i_long":106.812439,"is_transit":true},{"time":3,"transit":true,"station_id":"KPB","station_name":"Kampung Bandan","i_lat":-6.132549,"distance":1364,"is_transit":true,"i_long":106.826365,"line":0},{"station_id":"RJW","transit":false,"i_lat":-6.14505,"line":11,"i_long":106.836569,"time":3,"is_transit":false,"distance":1444,"station_name":"Rajawali"},{"station_name":"Kemayoran","station_id":"KMO","transit":false,"distance":1901,"i_long":106.839204,"line":11,"is_transit":false,"time":5,"i_lat":-6.161728},{"time":4,"is_transit":false,"distance":1436,"station_name":"Pasar Senen","i_lat":-6.174784,"i_long":106.84368,"line":11,"transit":false,"station_id":"PSE"},{"station_name":"Gang Sentiong","transit":false,"distance":1567,"i_long":106.850107,"time":8,"line":11,"is_transit":false,"i_lat":-6.185975,"station_id":"GST"},{"i_long":106.855437,"station_id":"KMT","station_name":"Kramat","transit":false,"line":11,"is_transit":false,"i_lat":-6.193792,"time":1,"distance":973},{"station_id":"POK","station_name":"Pondok Jati","transit":false,"distance":1829,"i_long":106.861737,"is_transit":false,"i_lat":-6.209188,"time":2,"line":11},{"time":9,"is_transit":true,"station_name":"Jatinegara","i_long":106.86807400000001,"transit":false,"line":0,"distance":1236,"station_id":"JNG","i_lat":-6.215091}]]}