{"data":[[{"i_long":106.640411,"station_name":"Cisauk","is_transit":false,"distance":0,"transit":false,"i_lat":-6.32484,"time":0,"line":3,"station_id":"CSK"},{"distance":1784,"station_id":"SRP","i_lat":-6.319871,"station_name":"Serpong","i_long":106.66566,"transit":false,"is_transit":false,"line":6,"time":4},{"is_transit":false,"transit":false,"time":4,"i_long":106.675475,"station_id":"RU","i_lat":-6.314823,"station_name":"Rawa Buntu","distance":2413,"line":6},{"line":6,"station_id":"SDM","i_long":106.712277,"time":6,"i_lat":-6.296963,"transit":false,"station_name":"Sudimara","distance":4566,"is_transit":false},{"time":4,"station_id":"JMU","distance":1994,"i_lat":-6.288927,"station_name":"Jurangmangu","transit":false,"is_transit":false,"i_long":106.728916,"line":6},{"line":6,"i_lat":-6.276362,"transit":false,"is_transit":false,"i_long":106.74273,"time":3,"distance":2179,"station_name":"Pondokranji","station_id":"PDJ"},{"i_lat":-6.237242,"line":6,"station_id":"KBY","distance":6218,"station_name":"Kebayoran","is_transit":false,"transit":false,"i_long":106.780334,"time":8},{"distance":3737,"line":6,"station_id":"PLM","time":7,"is_transit":false,"station_name":"Palmerah","i_lat":-6.207404,"i_long":106.79689,"transit":false},{"station_name":"Tanah Abang","is_transit":true,"transit":true,"station_id":"THB","time":6,"distance":3191,"i_lat":-6.185545,"line":1,"i_long":106.811091},{"line":1,"transit":false,"i_long":106.816351,"time":5,"is_transit":false,"station_id":"KAT","distance":2029,"i_lat":-6.20132,"station_name":"Karet"},{"i_long":106.819881,"transit":false,"is_transit":false,"i_lat":-6.201433,"time":1,"distance":471,"station_name":"Sudirman Baru","station_id":"SUDB","line":1},{"line":1,"station_id":"SUD","transit":false,"i_lat":-6.202263,"time":1,"distance":280,"station_name":"Sudirman","is_transit":false,"i_long":106.822649},{"station_id":"MRI","i_long":106.84912,"transit":true,"is_transit":true,"i_lat":-6.209883,"station_name":"Manggarai","line":2,"time":4,"distance":3186},{"line":2,"distance":2610,"station_name":"Tebet","station_id":"TEB","i_long":106.857948,"i_lat":-6.226659,"is_transit":false,"transit":false,"time":4},{"time":2,"distance":1230,"i_long":106.856607,"transit":false,"i_lat":-6.242512,"station_name":"Cawang","is_transit":false,"line":2,"station_id":"CW"},{"is_transit":false,"line":2,"station_name":"Duren Kalibata","time":3,"distance":1546,"station_id":"DRN","i_lat":-6.255332,"i_long":106.85449,"transit":false},{"distance":824,"i_long":106.851577,"station_id":"PSMB","time":2,"transit":false,"is_transit":false,"station_name":"Pasar Minggu Baru","line":2,"i_lat":-6.263214},{"is_transit":false,"i_long":106.843999,"time":2,"station_id":"PSM","line":2,"station_name":"Pasar Minggu","distance":2380,"i_lat":-6.2842400000000005,"transit":false},{"station_name":"Tanjung Barat","is_transit":false,"transit":false,"i_long":106.838896,"line":2,"time":4,"distance":2820,"station_id":"TNT","i_lat":-6.3080680000000005},{"time":3,"is_transit":false,"distance":2671,"station_name":"Lenteng Agung","line":2,"i_long":106.832616,"i_lat":-6.330363,"transit":false,"station_id":"LNA"},{"station_id":"UP","time":2,"is_transit":false,"transit":false,"line":2,"i_lat":-6.339291,"station_name":"Univ. Pancasila","distance":1029,"i_long":106.834175},{"station_id":"UI","i_long":106.831474,"station_name":"Univ. Indonesia","line":2,"i_lat":-6.360749,"transit":false,"time":3,"distance":2264,"is_transit":false},{"transit":false,"station_name":"Pondok Cina","distance":1109,"line":2,"i_long":106.831114,"station_id":"POC","is_transit":false,"time":2,"i_lat":-6.369073},{"line":2,"i_long":106.819451,"station_name":"Depokbaru","station_id":"DPB","i_lat":-6.391065,"transit":false,"time":4,"distance":2727,"is_transit":false}],[{"is_transit":false,"distance":0,"station_name":"Cisauk","transit":false,"station_id":"CSK","time":0,"i_long":106.640411,"i_lat":-6.32484,"line":3},{"station_name":"Serpong","time":4,"station_id":"SRP","transit":false,"is_transit":false,"i_long":106.66566,"line":6,"distance":1784,"i_lat":-6.319871},{"is_transit":false,"i_long":106.675475,"line":6,"station_name":"Rawa Buntu","time":4,"station_id":"RU","i_lat":-6.314823,"distance":2413,"transit":false},{"station_name":"Sudimara","time":6,"distance":4566,"i_long":106.712277,"station_id":"SDM","is_transit":false,"line":6,"i_lat":-6.296963,"transit":false},{"i_long":106.728916,"is_transit":false,"time":4,"distance":1994,"transit":false,"i_lat":-6.288927,"line":6,"station_id":"JMU","station_name":"Jurangmangu"},{"line":6,"is_transit":false,"i_lat":-6.276362,"distance":2179,"i_long":106.74273,"time":3,"station_id":"PDJ","station_name":"Pondokranji","transit":false},{"i_long":106.780334,"transit":false,"station_name":"Kebayoran","station_id":"KBY","time":8,"distance":6218,"is_transit":false,"line":6,"i_lat":-6.237242},{"i_lat":-6.207404,"time":7,"distance":3737,"i_long":106.79689,"station_id":"PLM","station_name":"Palmerah","is_transit":false,"line":6,"transit":false},{"i_long":106.811091,"i_lat":-6.185545,"station_name":"Tanah Abang","station_id":"THB","line":1,"time":6,"transit":true,"is_transit":true,"distance":3191},{"i_long":106.800832,"line":1,"transit":false,"distance":3632,"station_name":"Duri","time":8,"station_id":"DU","i_lat":-6.155215,"is_transit":false},{"is_transit":false,"station_name":"Angke","time":4,"station_id":"AK","i_lat":-6.144674,"transit":false,"i_long":106.79867,"distance":1230,"line":1},{"distance":4102,"time":9,"station_name":"Kampung Bandan","line":4,"transit":true,"i_lat":-6.132549,"station_id":"KPB","i_long":106.826365,"is_transit":true},{"i_lat":-6.137569,"is_transit":true,"station_id":"JAKK","distance":1364,"i_long":106.812439,"time":3,"line":2,"station_name":"Jakarta Kota","transit":true},{"is_transit":false,"i_long":106.820901,"line":2,"transit":false,"station_id":"JAY","time":4,"station_name":"Jayakarta","i_lat":-6.141205,"distance":1264},{"i_long":106.82482,"station_id":"MGB","is_transit":false,"transit":false,"station_name":"Manggabesar","time":2,"distance":1080,"i_lat":-6.149769,"line":2},{"transit":false,"station_id":"SW","is_transit":false,"i_lat":-6.160725,"distance":906,"time":2,"line":2,"station_name":"Sawah Besar","i_long":106.827103},{"transit":false,"is_transit":false,"distance":1149,"i_lat":-6.166716,"time":2,"i_long":106.828284,"station_id":"JUA","station_name":"Juanda","line":2},{"distance":2015,"station_id":"GDD","line":2,"time":4,"transit":false,"station_name":"Gondangdia","i_lat":-6.186295,"is_transit":false,"i_long":106.832183},{"station_name":"Cikini","transit":false,"time":3,"is_transit":false,"station_id":"CKI","distance":1750,"i_lat":-6.198556,"line":2,"i_long":106.840169},{"time":4,"distance":1590,"station_name":"Manggarai","i_lat":-6.209883,"station_id":"MRI","is_transit":false,"i_long":106.84912,"line":2,"transit":false},{"i_long":106.857948,"station_id":"TEB","station_name":"Tebet","distance":2610,"is_transit":false,"time":4,"transit":false,"i_lat":-6.226659,"line":2},{"is_transit":false,"distance":1230,"station_name":"Cawang","i_lat":-6.242512,"i_long":106.856607,"time":2,"transit":false,"station_id":"CW","line":2},{"station_name":"Duren Kalibata","time":3,"line":2,"is_transit":false,"distance":1546,"transit":false,"station_id":"DRN","i_long":106.85449,"i_lat":-6.255332},{"station_name":"Pasar Minggu Baru","distance":824,"transit":false,"station_id":"PSMB","line":2,"time":2,"i_lat":-6.263214,"i_long":106.851577,"is_transit":false},{"time":2,"transit":false,"station_name":"Pasar Minggu","line":2,"is_transit":false,"station_id":"PSM","distance":2380,"i_lat":-6.2842400000000005,"i_long":106.843999},{"i_lat":-6.3080680000000005,"station_id":"TNT","is_transit":false,"i_long":106.838896,"line":2,"transit":false,"station_name":"Tanjung Barat","time":4,"distance":2820},{"station_name":"Lenteng Agung","i_long":106.832616,"i_lat":-6.330363,"station_id":"LNA","transit":false,"distance":2671,"line":2,"is_transit":false,"time":3},{"i_long":106.834175,"distance":1029,"is_transit":false,"i_lat":-6.339291,"transit":false,"station_id":"UP","time":2,"station_name":"Univ. Pancasila","line":2},{"transit":false,"line":2,"station_id":"UI","i_long":106.831474,"station_name":"Univ. Indonesia","time":3,"distance":2264,"is_transit":false,"i_lat":-6.360749},{"line":2,"transit":false,"is_transit":false,"station_name":"Pondok Cina","distance":1109,"i_lat":-6.369073,"time":2,"i_long":106.831114,"station_id":"POC"},{"station_name":"Depokbaru","station_id":"DPB","transit":false,"distance":2727,"i_long":106.819451,"line":2,"i_lat":-6.391065,"is_transit":false,"time":4}],[{"is_transit":false,"time":0,"station_id":"CSK","line":3,"i_long":106.640411,"transit":false,"station_name":"Cisauk","i_lat":-6.32484,"distance":0},{"station_name":"Serpong","distance":1784,"is_transit":false,"time":4,"transit":false,"station_id":"SRP","i_long":106.66566,"line":6,"i_lat":-6.319871},{"i_long":106.675475,"station_name":"Rawa Buntu","is_transit":false,"transit":false,"line":6,"distance":2413,"i_lat":-6.314823,"station_id":"RU","time":4},{"distance":4566,"time":6,"is_transit":false,"station_id":"SDM","i_lat":-6.296963,"i_long":106.712277,"transit":false,"station_name":"Sudimara","line":6},{"line":6,"time":4,"station_name":"Jurangmangu","is_transit":false,"i_long":106.728916,"i_lat":-6.288927,"station_id":"JMU","distance":1994,"transit":false},{"station_name":"Pondokranji","i_lat":-6.276362,"is_transit":false,"line":6,"time":3,"distance":2179,"i_long":106.74273,"station_id":"PDJ","transit":false},{"time":8,"transit":false,"distance":6218,"station_name":"Kebayoran","i_long":106.780334,"station_id":"KBY","i_lat":-6.237242,"is_transit":false,"line":6},{"i_lat":-6.207404,"transit":false,"line":6,"distance":3737,"station_name":"Palmerah","station_id":"PLM","time":7,"is_transit":false,"i_long":106.79689},{"distance":3191,"time":6,"i_long":106.811091,"transit":true,"is_transit":true,"i_lat":-6.185545,"line":1,"station_name":"Tanah Abang","station_id":"THB"},{"time":8,"i_lat":-6.155215,"i_long":106.800832,"is_transit":false,"distance":3632,"station_name":"Duri","transit":false,"station_id":"DU","line":1},{"station_id":"AK","is_transit":false,"line":1,"time":4,"distance":1230,"transit":false,"i_lat":-6.144674,"i_long":106.79867,"station_name":"Angke"},{"distance":4102,"station_id":"KPB","time":9,"i_lat":-6.132549,"station_name":"Kampung Bandan","transit":true,"is_transit":true,"i_long":106.826365,"line":4},{"is_transit":false,"station_name":"Rajawali","time":3,"i_long":106.836569,"line":11,"i_lat":-6.14505,"station_id":"RJW","distance":1444,"transit":false},{"station_id":"KMO","line":11,"i_lat":-6.161728,"i_long":106.839204,"is_transit":false,"distance":1901,"station_name":"Kemayoran","transit":false,"time":5},{"i_long":106.84368,"time":4,"is_transit":false,"station_id":"PSE","distance":1436,"line":11,"transit":false,"station_name":"Pasar Senen","i_lat":-6.174784},{"is_transit":false,"station_name":"Gang Sentiong","line":11,"i_long":106.850107,"i_lat":-6.185975,"time":8,"distance":1567,"transit":false,"station_id":"GST"},{"i_lat":-6.193792,"i_long":106.855437,"line":11,"transit":false,"distance":973,"station_name":"Kramat","is_transit":false,"time":1,"station_id":"KMT"},{"station_name":"Pondok Jati","time":2,"station_id":"POK","distance":1829,"is_transit":false,"transit":false,"i_long":106.861737,"i_lat":-6.209188,"line":11},{"station_name":"Jatinegara","i_long":106.86807400000001,"time":9,"i_lat":-6.215091,"is_transit":true,"line":1,"station_id":"JNG","transit":true,"distance":1236},{"line":1,"time":2,"i_lat":-6.212485,"transit":false,"station_id":"MTR","distance":1377,"station_name":"Matraman","is_transit":false,"i_long":106.858896},{"distance":1275,"line":2,"transit":true,"is_transit":true,"station_id":"MRI","i_long":106.84912,"station_name":"Manggarai","time":2,"i_lat":-6.209883},{"station_id":"TEB","transit":false,"station_name":"Tebet","is_transit":false,"time":4,"line":2,"distance":2610,"i_lat":-6.226659,"i_long":106.857948},{"time":2,"transit":false,"i_long":106.856607,"distance":1230,"station_name":"Cawang","line":2,"is_transit":false,"station_id":"CW","i_lat":-6.242512},{"transit":false,"station_id":"DRN","line":2,"i_lat":-6.255332,"i_long":106.85449,"is_transit":false,"time":3,"distance":1546,"station_name":"Duren Kalibata"},{"is_transit":false,"transit":false,"station_name":"Pasar Minggu Baru","station_id":"PSMB","i_lat":-6.263214,"time":2,"i_long":106.851577,"distance":824,"line":2},{"i_long":106.843999,"transit":false,"is_transit":false,"time":2,"i_lat":-6.2842400000000005,"station_name":"Pasar Minggu","distance":2380,"station_id":"PSM","line":2},{"transit":false,"station_id":"TNT","is_transit":false,"station_name":"Tanjung Barat","distance":2820,"time":4,"i_long":106.838896,"i_lat":-6.3080680000000005,"line":2},{"transit":false,"i_lat":-6.330363,"i_long":106.832616,"time":3,"line":2,"is_transit":false,"station_id":"LNA","distance":2671,"station_name":"Lenteng Agung"},{"is_transit":false,"i_long":106.834175,"time":2,"station_id":"UP","distance":1029,"line":2,"i_lat":-6.339291,"station_name":"Univ. Pancasila","transit":false},{"line":2,"station_id":"UI","distance":2264,"station_name":"Univ. Indonesia","time":3,"i_lat":-6.360749,"is_transit":false,"i_long":106.831474,"transit":false},{"transit":false,"time":2,"station_id":"POC","is_transit":false,"line":2,"station_name":"Pondok Cina","i_lat":-6.369073,"distance":1109,"i_long":106.831114},{"time":4,"i_lat":-6.391065,"station_id":"DPB","distance":2727,"i_long":106.819451,"transit":false,"line":2,"station_name":"Depokbaru","is_transit":false}]]}