{"data":[[{"i_lat":-6.32484,"line":3,"time":0,"is_transit":false,"i_long":106.640411,"distance":0,"station_name":"Cisauk","transit":false,"station_id":"CSK"},{"is_transit":false,"i_lat":-6.319871,"line":6,"time":4,"distance":1784,"station_name":"Serpong","transit":false,"station_id":"SRP","i_long":106.66566},{"station_name":"Rawa Buntu","station_id":"RU","distance":2413,"transit":false,"line":6,"time":4,"i_lat":-6.314823,"i_long":106.675475,"is_transit":false},{"distance":4566,"station_name":"Sudimara","transit":false,"is_transit":false,"i_long":106.712277,"i_lat":-6.296963,"line":6,"time":6,"station_id":"SDM"},{"station_id":"JMU","time":4,"line":6,"station_name":"Jurangmangu","i_long":106.728916,"distance":1994,"i_lat":-6.288927,"is_transit":false,"transit":false},{"is_transit":false,"time":3,"station_name":"Pondokranji","transit":false,"distance":2179,"i_lat":-6.276362,"station_id":"PDJ","i_long":106.74273,"line":6},{"station_name":"Kebayoran","line":6,"i_lat":-6.237242,"distance":6218,"transit":false,"is_transit":false,"station_id":"KBY","time":8,"i_long":106.780334},{"i_lat":-6.207404,"line":6,"station_name":"Palmerah","i_long":106.79689,"time":7,"is_transit":false,"distance":3737,"station_id":"PLM","transit":false},{"time":6,"is_transit":true,"i_lat":-6.185545,"i_long":106.811091,"station_name":"Tanah Abang","line":1,"transit":true,"station_id":"THB","distance":3191},{"line":1,"transit":false,"distance":2029,"station_name":"Karet","is_transit":false,"i_long":106.816351,"i_lat":-6.20132,"station_id":"KAT","time":5},{"transit":false,"time":1,"station_name":"Sudirman Baru","distance":471,"is_transit":false,"i_long":106.819881,"line":1,"i_lat":-6.201433,"station_id":"SUDB"},{"transit":false,"distance":280,"is_transit":false,"station_id":"SUD","i_long":106.822649,"i_lat":-6.202263,"station_name":"Sudirman","line":1,"time":1},{"transit":true,"time":4,"i_lat":-6.209883,"i_long":106.84912,"station_id":"MRI","line":2,"distance":3186,"is_transit":true,"station_name":"Manggarai"},{"station_id":"TEB","time":4,"distance":2610,"i_lat":-6.226659,"station_name":"Tebet","transit":false,"is_transit":false,"i_long":106.857948,"line":2},{"i_long":106.856607,"time":2,"transit":false,"station_id":"CW","station_name":"Cawang","distance":1230,"is_transit":false,"i_lat":-6.242512,"line":2},{"is_transit":false,"distance":1546,"transit":false,"i_lat":-6.255332,"station_id":"DRN","i_long":106.85449,"time":3,"line":2,"station_name":"Duren Kalibata"},{"station_name":"Pasar Minggu Baru","transit":false,"is_transit":false,"i_lat":-6.263214,"i_long":106.851577,"time":2,"station_id":"PSMB","line":2,"distance":824}],[{"distance":0,"transit":false,"station_id":"CSK","is_transit":false,"station_name":"Cisauk","line":3,"time":0,"i_lat":-6.32484,"i_long":106.640411},{"time":4,"line":6,"i_lat":-6.319871,"transit":false,"distance":1784,"i_long":106.66566,"is_transit":false,"station_id":"SRP","station_name":"Serpong"},{"distance":2413,"is_transit":false,"i_lat":-6.314823,"i_long":106.675475,"station_name":"Rawa Buntu","transit":false,"line":6,"station_id":"RU","time":4},{"station_id":"SDM","distance":4566,"time":6,"i_long":106.712277,"station_name":"Sudimara","line":6,"transit":false,"is_transit":false,"i_lat":-6.296963},{"i_lat":-6.288927,"distance":1994,"i_long":106.728916,"line":6,"time":4,"is_transit":false,"station_name":"Jurangmangu","transit":false,"station_id":"JMU"},{"station_id":"PDJ","station_name":"Pondokranji","distance":2179,"is_transit":false,"time":3,"transit":false,"i_lat":-6.276362,"line":6,"i_long":106.74273},{"time":8,"i_long":106.780334,"line":6,"distance":6218,"transit":false,"station_name":"Kebayoran","station_id":"KBY","i_lat":-6.237242,"is_transit":false},{"line":6,"station_id":"PLM","is_transit":false,"time":7,"station_name":"Palmerah","transit":false,"distance":3737,"i_long":106.79689,"i_lat":-6.207404},{"time":6,"distance":3191,"is_transit":true,"station_id":"THB","line":1,"i_lat":-6.185545,"station_name":"Tanah Abang","i_long":106.811091,"transit":true},{"i_long":106.800832,"is_transit":false,"transit":false,"station_id":"DU","station_name":"Duri","distance":3632,"i_lat":-6.155215,"line":1,"time":8},{"time":4,"i_long":106.79867,"i_lat":-6.144674,"distance":1230,"line":1,"station_name":"Angke","is_transit":false,"station_id":"AK","transit":false},{"transit":true,"time":9,"i_long":106.826365,"station_name":"Kampung Bandan","distance":4102,"line":4,"is_transit":true,"i_lat":-6.132549,"station_id":"KPB"},{"distance":1364,"i_long":106.812439,"line":2,"station_id":"JAKK","time":3,"station_name":"Jakarta Kota","transit":true,"is_transit":true,"i_lat":-6.137569},{"time":4,"i_lat":-6.141205,"line":2,"station_name":"Jayakarta","is_transit":false,"station_id":"JAY","i_long":106.820901,"distance":1264,"transit":false},{"distance":1080,"transit":false,"line":2,"is_transit":false,"time":2,"station_name":"Manggabesar","i_lat":-6.149769,"i_long":106.82482,"station_id":"MGB"},{"i_lat":-6.160725,"station_id":"SW","is_transit":false,"line":2,"i_long":106.827103,"transit":false,"distance":906,"time":2,"station_name":"Sawah Besar"},{"station_id":"JUA","i_long":106.828284,"station_name":"Juanda","line":2,"distance":1149,"i_lat":-6.166716,"time":2,"transit":false,"is_transit":false},{"i_lat":-6.186295,"line":2,"is_transit":false,"time":4,"i_long":106.832183,"distance":2015,"station_id":"GDD","station_name":"Gondangdia","transit":false},{"station_id":"CKI","transit":false,"line":2,"station_name":"Cikini","is_transit":false,"time":3,"i_lat":-6.198556,"i_long":106.840169,"distance":1750},{"distance":1590,"i_long":106.84912,"station_name":"Manggarai","transit":false,"line":2,"time":4,"station_id":"MRI","i_lat":-6.209883,"is_transit":false},{"time":4,"is_transit":false,"transit":false,"line":2,"i_lat":-6.226659,"station_id":"TEB","distance":2610,"station_name":"Tebet","i_long":106.857948},{"transit":false,"station_id":"CW","i_lat":-6.242512,"i_long":106.856607,"line":2,"time":2,"is_transit":false,"station_name":"Cawang","distance":1230},{"i_long":106.85449,"time":3,"line":2,"station_name":"Duren Kalibata","transit":false,"distance":1546,"i_lat":-6.255332,"station_id":"DRN","is_transit":false},{"station_name":"Pasar Minggu Baru","transit":false,"line":2,"is_transit":false,"station_id":"PSMB","time":2,"i_lat":-6.263214,"distance":824,"i_long":106.851577}],[{"line":3,"i_lat":-6.32484,"distance":0,"time":0,"station_name":"Cisauk","transit":false,"station_id":"CSK","is_transit":false,"i_long":106.640411},{"transit":false,"i_long":106.66566,"time":4,"i_lat":-6.319871,"distance":1784,"is_transit":false,"line":6,"station_id":"SRP","station_name":"Serpong"},{"is_transit":false,"distance":2413,"i_lat":-6.314823,"line":6,"station_name":"Rawa Buntu","transit":false,"i_long":106.675475,"station_id":"RU","time":4},{"station_id":"SDM","i_long":106.712277,"is_transit":false,"i_lat":-6.296963,"distance":4566,"station_name":"Sudimara","time":6,"transit":false,"line":6},{"i_long":106.728916,"is_transit":false,"station_name":"Jurangmangu","line":6,"distance":1994,"time":4,"station_id":"JMU","i_lat":-6.288927,"transit":false},{"is_transit":false,"time":3,"line":6,"station_id":"PDJ","distance":2179,"transit":false,"i_lat":-6.276362,"i_long":106.74273,"station_name":"Pondokranji"},{"i_lat":-6.237242,"line":6,"distance":6218,"station_name":"Kebayoran","is_transit":false,"time":8,"i_long":106.780334,"station_id":"KBY","transit":false},{"is_transit":false,"i_lat":-6.207404,"i_long":106.79689,"station_name":"Palmerah","line":6,"transit":false,"station_id":"PLM","time":7,"distance":3737},{"station_id":"THB","i_lat":-6.185545,"line":1,"i_long":106.811091,"is_transit":true,"distance":3191,"time":6,"station_name":"Tanah Abang","transit":true},{"is_transit":false,"time":8,"line":1,"transit":false,"station_name":"Duri","distance":3632,"station_id":"DU","i_lat":-6.155215,"i_long":106.800832},{"i_long":106.79867,"line":1,"time":4,"station_id":"AK","is_transit":false,"station_name":"Angke","transit":false,"i_lat":-6.144674,"distance":1230},{"i_lat":-6.132549,"distance":4102,"transit":true,"i_long":106.826365,"line":4,"is_transit":true,"station_id":"KPB","time":9,"station_name":"Kampung Bandan"},{"is_transit":false,"distance":1444,"station_id":"RJW","station_name":"Rajawali","i_long":106.836569,"line":11,"transit":false,"time":3,"i_lat":-6.14505},{"is_transit":false,"transit":false,"time":5,"line":11,"i_long":106.839204,"station_name":"Kemayoran","distance":1901,"i_lat":-6.161728,"station_id":"KMO"},{"line":11,"transit":false,"is_transit":false,"i_lat":-6.174784,"time":4,"i_long":106.84368,"distance":1436,"station_id":"PSE","station_name":"Pasar Senen"},{"i_long":106.850107,"distance":1567,"station_name":"Gang Sentiong","line":11,"i_lat":-6.185975,"is_transit":false,"station_id":"GST","time":8,"transit":false},{"i_long":106.855437,"line":11,"station_name":"Kramat","is_transit":false,"distance":973,"transit":false,"i_lat":-6.193792,"time":1,"station_id":"KMT"},{"distance":1829,"line":11,"i_long":106.861737,"i_lat":-6.209188,"time":2,"station_name":"Pondok Jati","is_transit":false,"station_id":"POK","transit":false},{"station_name":"Jatinegara","transit":true,"station_id":"JNG","is_transit":true,"i_long":106.86807400000001,"line":1,"time":9,"distance":1236,"i_lat":-6.215091},{"line":1,"station_name":"Matraman","station_id":"MTR","is_transit":false,"transit":false,"time":2,"i_lat":-6.212485,"i_long":106.858896,"distance":1377},{"station_id":"MRI","station_name":"Manggarai","i_long":106.84912,"distance":1275,"is_transit":true,"i_lat":-6.209883,"line":2,"transit":true,"time":2},{"station_name":"Tebet","station_id":"TEB","distance":2610,"i_long":106.857948,"i_lat":-6.226659,"is_transit":false,"time":4,"transit":false,"line":2},{"i_lat":-6.242512,"line":2,"time":2,"transit":false,"station_id":"CW","is_transit":false,"distance":1230,"station_name":"Cawang","i_long":106.856607},{"i_long":106.85449,"station_name":"Duren Kalibata","line":2,"station_id":"DRN","time":3,"is_transit":false,"distance":1546,"transit":false,"i_lat":-6.255332},{"time":2,"transit":false,"is_transit":false,"line":2,"i_long":106.851577,"station_id":"PSMB","distance":824,"i_lat":-6.263214,"station_name":"Pasar Minggu Baru"}]]}