{"data":[[{"is_transit":false,"i_long":106.640411,"distance":0,"i_lat":-6.32484,"station_id":"CSK","line":3,"station_name":"Cisauk","transit":false,"time":0},{"time":4,"transit":false,"i_lat":-6.319871,"station_id":"SRP","distance":1784,"is_transit":false,"line":6,"i_long":106.66566,"station_name":"Serpong"},{"distance":2413,"station_id":"RU","station_name":"Rawa Buntu","is_transit":false,"time":4,"i_lat":-6.314823,"transit":false,"i_long":106.675475,"line":6},{"i_long":106.712277,"station_id":"SDM","i_lat":-6.296963,"time":6,"is_transit":false,"line":6,"station_name":"Sudimara","transit":false,"distance":4566},{"distance":1994,"i_lat":-6.288927,"transit":false,"i_long":106.728916,"line":6,"time":4,"station_id":"JMU","is_transit":false,"station_name":"Jurangmangu"},{"distance":2179,"transit":false,"time":3,"i_long":106.74273,"i_lat":-6.276362,"is_transit":false,"station_id":"PDJ","station_name":"Pondokranji","line":6},{"station_id":"KBY","distance":6218,"is_transit":false,"time":8,"station_name":"Kebayoran","i_long":106.780334,"i_lat":-6.237242,"line":6,"transit":false},{"time":7,"station_id":"PLM","station_name":"Palmerah","distance":3737,"transit":false,"i_lat":-6.207404,"is_transit":false,"i_long":106.79689,"line":6},{"is_transit":true,"line":1,"i_lat":-6.185545,"i_long":106.811091,"time":6,"transit":true,"station_id":"THB","distance":3191,"station_name":"Tanah Abang"},{"i_long":106.816351,"line":1,"station_id":"KAT","transit":false,"is_transit":false,"i_lat":-6.20132,"station_name":"Karet","distance":2029,"time":5},{"i_long":106.819881,"distance":471,"time":1,"station_id":"SUDB","transit":false,"station_name":"Sudirman Baru","i_lat":-6.201433,"line":1,"is_transit":false},{"line":1,"i_long":106.822649,"distance":280,"transit":false,"station_name":"Sudirman","is_transit":false,"time":1,"i_lat":-6.202263,"station_id":"SUD"},{"line":2,"i_long":106.84912,"transit":false,"station_name":"Manggarai","i_lat":-6.209883,"distance":3186,"time":4,"station_id":"MRI","is_transit":false},{"transit":false,"line":1,"i_lat":-6.212485,"distance":1275,"station_name":"Matraman","station_id":"MTR","is_transit":false,"i_long":106.858896,"time":2},{"time":8,"station_name":"Jatinegara","i_long":106.86807400000001,"i_lat":-6.215091,"transit":false,"distance":1377,"line":1,"station_id":"JNG","is_transit":false},{"transit":false,"time":3,"station_id":"KLD","distance":3395,"i_long":106.899548,"is_transit":false,"station_name":"Klender","i_lat":-6.2135,"line":1},{"i_lat":-6.215568,"distance":3100,"transit":false,"is_transit":false,"i_long":106.922662,"line":1,"station_name":"Buaran","time":2,"station_id":"BUA"},{"is_transit":false,"station_name":"Klenderbaru","i_lat":-6.217455,"distance":1305,"i_long":106.939679,"station_id":"KLDB","line":1,"transit":false,"time":1}],[{"transit":false,"is_transit":false,"distance":0,"station_id":"CSK","i_lat":-6.32484,"time":0,"line":3,"i_long":106.640411,"station_name":"Cisauk"},{"line":6,"station_name":"Serpong","distance":1784,"station_id":"SRP","i_long":106.66566,"transit":false,"is_transit":false,"time":4,"i_lat":-6.319871},{"time":4,"distance":2413,"transit":false,"station_id":"RU","i_lat":-6.314823,"i_long":106.675475,"line":6,"is_transit":false,"station_name":"Rawa Buntu"},{"i_long":106.712277,"time":6,"distance":4566,"station_name":"Sudimara","line":6,"transit":false,"station_id":"SDM","is_transit":false,"i_lat":-6.296963},{"line":6,"station_name":"Jurangmangu","is_transit":false,"i_lat":-6.288927,"transit":false,"i_long":106.728916,"station_id":"JMU","time":4,"distance":1994},{"i_lat":-6.276362,"is_transit":false,"station_id":"PDJ","station_name":"Pondokranji","time":3,"distance":2179,"line":6,"i_long":106.74273,"transit":false},{"station_id":"KBY","i_long":106.780334,"time":8,"transit":false,"line":6,"is_transit":false,"station_name":"Kebayoran","distance":6218,"i_lat":-6.237242},{"time":7,"i_long":106.79689,"transit":false,"i_lat":-6.207404,"line":6,"station_name":"Palmerah","distance":3737,"is_transit":false,"station_id":"PLM"},{"time":6,"station_id":"THB","station_name":"Tanah Abang","distance":3191,"line":1,"transit":true,"i_long":106.811091,"is_transit":true,"i_lat":-6.185545},{"is_transit":false,"i_lat":-6.155215,"station_id":"DU","i_long":106.800832,"line":1,"distance":3632,"station_name":"Duri","transit":false,"time":8},{"station_id":"AK","i_long":106.79867,"is_transit":false,"transit":false,"distance":1230,"station_name":"Angke","line":1,"time":4,"i_lat":-6.144674},{"is_transit":true,"station_id":"KPB","distance":4102,"i_lat":-6.132549,"line":4,"transit":true,"time":9,"i_long":106.826365,"station_name":"Kampung Bandan"},{"line":11,"is_transit":false,"time":3,"station_id":"RJW","transit":false,"distance":1444,"i_lat":-6.14505,"station_name":"Rajawali","i_long":106.836569},{"transit":false,"is_transit":false,"station_id":"KMO","distance":1901,"i_lat":-6.161728,"line":11,"i_long":106.839204,"time":5,"station_name":"Kemayoran"},{"i_long":106.84368,"station_id":"PSE","line":11,"time":4,"is_transit":false,"i_lat":-6.174784,"distance":1436,"station_name":"Pasar Senen","transit":false},{"station_id":"GST","line":11,"transit":false,"distance":1567,"is_transit":false,"time":8,"station_name":"Gang Sentiong","i_lat":-6.185975,"i_long":106.850107},{"station_name":"Kramat","is_transit":false,"time":1,"distance":973,"i_lat":-6.193792,"line":11,"station_id":"KMT","transit":false,"i_long":106.855437},{"i_lat":-6.209188,"distance":1829,"time":2,"station_name":"Pondok Jati","is_transit":false,"line":11,"transit":false,"station_id":"POK","i_long":106.861737},{"distance":1236,"transit":true,"i_lat":-6.215091,"is_transit":true,"i_long":106.86807400000001,"line":1,"station_name":"Jatinegara","station_id":"JNG","time":9},{"distance":3395,"i_lat":-6.2135,"station_id":"KLD","transit":false,"i_long":106.899548,"line":1,"is_transit":false,"station_name":"Klender","time":3},{"station_name":"Buaran","time":2,"is_transit":false,"distance":3100,"station_id":"BUA","i_long":106.922662,"line":1,"transit":false,"i_lat":-6.215568},{"station_id":"KLDB","distance":1305,"time":1,"is_transit":false,"station_name":"Klenderbaru","i_lat":-6.217455,"transit":false,"i_long":106.939679,"line":1}],[{"distance":0,"station_id":"CSK","i_long":106.640411,"is_transit":false,"time":0,"transit":false,"station_name":"Cisauk","line":3,"i_lat":-6.32484},{"distance":1784,"station_name":"Serpong","station_id":"SRP","line":6,"transit":false,"is_transit":false,"i_long":106.66566,"time":4,"i_lat":-6.319871},{"distance":2413,"station_name":"Rawa Buntu","is_transit":false,"station_id":"RU","time":4,"i_lat":-6.314823,"i_long":106.675475,"transit":false,"line":6},{"station_id":"SDM","distance":4566,"line":6,"i_lat":-6.296963,"is_transit":false,"i_long":106.712277,"station_name":"Sudimara","transit":false,"time":6},{"i_long":106.728916,"station_name":"Jurangmangu","i_lat":-6.288927,"time":4,"station_id":"JMU","is_transit":false,"distance":1994,"line":6,"transit":false},{"station_name":"Pondokranji","transit":false,"i_lat":-6.276362,"line":6,"distance":2179,"time":3,"i_long":106.74273,"station_id":"PDJ","is_transit":false},{"station_id":"KBY","station_name":"Kebayoran","distance":6218,"line":6,"i_long":106.780334,"transit":false,"time":8,"is_transit":false,"i_lat":-6.237242},{"station_name":"Palmerah","i_long":106.79689,"i_lat":-6.207404,"time":7,"line":6,"is_transit":false,"station_id":"PLM","transit":false,"distance":3737},{"distance":3191,"station_name":"Tanah Abang","i_lat":-6.185545,"transit":true,"is_transit":true,"time":6,"line":1,"i_long":106.811091,"station_id":"THB"},{"i_long":106.800832,"distance":3632,"is_transit":false,"line":1,"i_lat":-6.155215,"transit":false,"station_id":"DU","station_name":"Duri","time":8},{"is_transit":false,"transit":false,"station_name":"Angke","time":4,"i_lat":-6.144674,"i_long":106.79867,"station_id":"AK","distance":1230,"line":1},{"is_transit":true,"distance":4102,"station_name":"Kampung Bandan","line":4,"transit":true,"i_lat":-6.132549,"i_long":106.826365,"time":9,"station_id":"KPB"},{"station_id":"JAKK","i_lat":-6.137569,"is_transit":true,"transit":true,"time":3,"distance":1364,"station_name":"Jakarta Kota","line":2,"i_long":106.812439},{"is_transit":false,"station_name":"Jayakarta","station_id":"JAY","transit":false,"distance":1264,"i_lat":-6.141205,"line":2,"time":4,"i_long":106.820901},{"station_id":"MGB","station_name":"Manggabesar","transit":false,"distance":1080,"is_transit":false,"time":2,"i_long":106.82482,"line":2,"i_lat":-6.149769},{"time":2,"is_transit":false,"distance":906,"i_long":106.827103,"line":2,"transit":false,"station_name":"Sawah Besar","station_id":"SW","i_lat":-6.160725},{"transit":false,"i_lat":-6.166716,"time":2,"station_name":"Juanda","distance":1149,"line":2,"is_transit":false,"station_id":"JUA","i_long":106.828284},{"distance":2015,"time":4,"station_id":"GDD","line":2,"i_lat":-6.186295,"transit":false,"station_name":"Gondangdia","is_transit":false,"i_long":106.832183},{"transit":false,"i_lat":-6.198556,"line":2,"is_transit":false,"station_id":"CKI","time":3,"i_long":106.840169,"distance":1750,"station_name":"Cikini"},{"station_id":"MRI","i_lat":-6.209883,"i_long":106.84912,"is_transit":true,"line":2,"transit":true,"time":4,"distance":1590,"station_name":"Manggarai"},{"transit":false,"i_lat":-6.212485,"distance":1275,"line":1,"station_name":"Matraman","station_id":"MTR","time":2,"is_transit":false,"i_long":106.858896},{"is_transit":false,"time":8,"i_lat":-6.215091,"line":1,"i_long":106.86807400000001,"station_name":"Jatinegara","station_id":"JNG","distance":1377,"transit":false},{"distance":3395,"station_name":"Klender","i_long":106.899548,"line":1,"station_id":"KLD","time":3,"transit":false,"i_lat":-6.2135,"is_transit":false},{"station_name":"Buaran","time":2,"i_long":106.922662,"i_lat":-6.215568,"transit":false,"distance":3100,"station_id":"BUA","is_transit":false,"line":1},{"i_long":106.939679,"i_lat":-6.217455,"station_id":"KLDB","distance":1305,"line":1,"time":1,"transit":false,"is_transit":false,"station_name":"Klenderbaru"}],[{"distance":0,"is_transit":false,"station_id":"CSK","i_long":106.640411,"line":3,"station_name":"Cisauk","time":0,"transit":false,"i_lat":-6.32484},{"i_lat":-6.319871,"station_name":"Serpong","is_transit":false,"station_id":"SRP","time":4,"transit":false,"distance":1784,"i_long":106.66566,"line":6},{"line":6,"station_name":"Rawa Buntu","is_transit":false,"transit":false,"station_id":"RU","distance":2413,"i_long":106.675475,"i_lat":-6.314823,"time":4},{"transit":false,"i_long":106.712277,"i_lat":-6.296963,"station_id":"SDM","distance":4566,"is_transit":false,"time":6,"line":6,"station_name":"Sudimara"},{"station_name":"Jurangmangu","distance":1994,"line":6,"transit":false,"station_id":"JMU","is_transit":false,"time":4,"i_lat":-6.288927,"i_long":106.728916},{"station_id":"PDJ","distance":2179,"i_long":106.74273,"transit":false,"station_name":"Pondokranji","is_transit":false,"i_lat":-6.276362,"line":6,"time":3},{"time":8,"station_id":"KBY","distance":6218,"i_long":106.780334,"is_transit":false,"transit":false,"line":6,"station_name":"Kebayoran","i_lat":-6.237242},{"station_id":"PLM","line":6,"transit":false,"station_name":"Palmerah","i_long":106.79689,"is_transit":false,"i_lat":-6.207404,"time":7,"distance":3737},{"transit":true,"distance":3191,"station_name":"Tanah Abang","is_transit":true,"time":6,"station_id":"THB","i_lat":-6.185545,"i_long":106.811091,"line":1},{"station_id":"KAT","line":1,"is_transit":false,"time":5,"transit":false,"station_name":"Karet","i_long":106.816351,"i_lat":-6.20132,"distance":2029},{"station_name":"Sudirman Baru","time":1,"is_transit":false,"distance":471,"i_long":106.819881,"transit":false,"line":1,"station_id":"SUDB","i_lat":-6.201433},{"transit":false,"time":1,"station_name":"Sudirman","i_lat":-6.202263,"line":1,"distance":280,"i_long":106.822649,"station_id":"SUD","is_transit":false},{"time":4,"station_id":"MRI","i_long":106.84912,"distance":3186,"transit":true,"i_lat":-6.209883,"station_name":"Manggarai","is_transit":true,"line":2},{"time":4,"station_id":"CKI","line":2,"station_name":"Cikini","transit":false,"is_transit":false,"i_long":106.840169,"distance":1590,"i_lat":-6.198556},{"i_lat":-6.186295,"is_transit":false,"distance":1750,"i_long":106.832183,"transit":false,"station_name":"Gondangdia","line":2,"station_id":"GDD","time":3},{"station_id":"JUA","is_transit":false,"i_lat":-6.166716,"line":2,"transit":false,"i_long":106.828284,"station_name":"Juanda","distance":2015,"time":4},{"i_lat":-6.160725,"i_long":106.827103,"line":2,"time":2,"station_id":"SW","station_name":"Sawah Besar","distance":1149,"transit":false,"is_transit":false},{"line":2,"transit":false,"station_id":"MGB","station_name":"Manggabesar","i_long":106.82482,"is_transit":false,"time":2,"i_lat":-6.149769,"distance":906},{"line":2,"transit":false,"station_name":"Jayakarta","i_long":106.820901,"station_id":"JAY","is_transit":false,"distance":1080,"time":2,"i_lat":-6.141205},{"distance":1264,"is_transit":true,"i_lat":-6.137569,"station_name":"Jakarta Kota","i_long":106.812439,"time":4,"transit":true,"line":2,"station_id":"JAKK"},{"distance":1364,"i_long":106.826365,"is_transit":true,"time":3,"station_id":"KPB","transit":true,"i_lat":-6.132549,"line":4,"station_name":"Kampung Bandan"},{"station_name":"Rajawali","i_lat":-6.14505,"transit":false,"is_transit":false,"i_long":106.836569,"distance":1444,"station_id":"RJW","line":11,"time":3},{"distance":1901,"i_long":106.839204,"time":5,"station_id":"KMO","i_lat":-6.161728,"line":11,"station_name":"Kemayoran","is_transit":false,"transit":false},{"distance":1436,"line":11,"transit":false,"station_name":"Pasar Senen","station_id":"PSE","i_lat":-6.174784,"is_transit":false,"time":4,"i_long":106.84368},{"i_long":106.850107,"station_name":"Gang Sentiong","line":11,"is_transit":false,"transit":false,"distance":1567,"station_id":"GST","time":8,"i_lat":-6.185975},{"i_lat":-6.193792,"line":11,"i_long":106.855437,"is_transit":false,"time":1,"station_id":"KMT","transit":false,"distance":973,"station_name":"Kramat"},{"i_lat":-6.209188,"line":11,"i_long":106.861737,"is_transit":false,"station_name":"Pondok Jati","station_id":"POK","time":2,"distance":1829,"transit":false},{"is_transit":true,"transit":true,"distance":1236,"i_long":106.86807400000001,"station_id":"JNG","i_lat":-6.215091,"line":1,"time":9,"station_name":"Jatinegara"},{"i_long":106.899548,"time":3,"line":1,"transit":false,"station_id":"KLD","station_name":"Klender","is_transit":false,"distance":3395,"i_lat":-6.2135},{"station_id":"BUA","time":2,"is_transit":false,"line":1,"station_name":"Buaran","transit":false,"distance":3100,"i_lat":-6.215568,"i_long":106.922662},{"time":1,"i_lat":-6.217455,"station_id":"KLDB","is_transit":false,"i_long":106.939679,"station_name":"Klenderbaru","distance":1305,"line":1,"transit":false}]]}