{"data":[[{"station_name":"Cisauk","is_transit":false,"distance":0,"transit":false,"i_long":106.640411,"line":3,"i_lat":-6.32484,"time":0,"station_id":"CSK"},{"distance":1784,"station_name":"Serpong","i_lat":-6.319871,"station_id":"SRP","is_transit":false,"transit":false,"i_long":106.66566,"line":6,"time":4},{"distance":2413,"i_long":106.675475,"time":4,"station_name":"Rawa Buntu","is_transit":false,"i_lat":-6.314823,"line":6,"station_id":"RU","transit":false},{"station_name":"Sudimara","station_id":"SDM","i_long":106.712277,"i_lat":-6.296963,"transit":false,"line":6,"distance":4566,"time":6,"is_transit":false},{"time":4,"i_long":106.728916,"line":6,"is_transit":false,"station_id":"JMU","i_lat":-6.288927,"distance":1994,"transit":false,"station_name":"Jurangmangu"},{"station_name":"Pondokranji","i_long":106.74273,"i_lat":-6.276362,"transit":false,"line":6,"is_transit":false,"time":3,"distance":2179,"station_id":"PDJ"},{"transit":false,"is_transit":false,"i_long":106.780334,"i_lat":-6.237242,"distance":6218,"station_name":"Kebayoran","line":6,"station_id":"KBY","time":8},{"distance":3737,"time":7,"is_transit":false,"transit":false,"i_long":106.79689,"station_name":"Palmerah","i_lat":-6.207404,"line":6,"station_id":"PLM"},{"station_name":"Tanah Abang","is_transit":true,"i_long":106.811091,"distance":3191,"station_id":"THB","transit":true,"time":6,"line":1,"i_lat":-6.185545},{"time":8,"is_transit":false,"i_lat":-6.155215,"i_long":106.800832,"transit":false,"station_id":"DU","station_name":"Duri","distance":3632,"line":1},{"i_long":106.79867,"i_lat":-6.144674,"is_transit":false,"distance":1230,"station_name":"Angke","transit":false,"line":1,"time":4,"station_id":"AK"},{"distance":4102,"i_lat":-6.132549,"station_name":"Kampung Bandan","is_transit":true,"time":9,"line":4,"station_id":"KPB","transit":true,"i_long":106.826365},{"transit":false,"i_long":106.836569,"line":11,"station_id":"RJW","time":3,"distance":1444,"station_name":"Rajawali","is_transit":false,"i_lat":-6.14505},{"station_id":"KMO","transit":false,"distance":1901,"is_transit":false,"i_long":106.839204,"station_name":"Kemayoran","i_lat":-6.161728,"line":11,"time":5}],[{"i_lat":-6.32484,"i_long":106.640411,"time":0,"station_name":"Cisauk","is_transit":false,"station_id":"CSK","line":3,"transit":false,"distance":0},{"time":4,"transit":false,"is_transit":false,"line":6,"distance":1784,"i_long":106.66566,"i_lat":-6.319871,"station_id":"SRP","station_name":"Serpong"},{"station_name":"Rawa Buntu","time":4,"line":6,"is_transit":false,"station_id":"RU","i_long":106.675475,"distance":2413,"transit":false,"i_lat":-6.314823},{"station_id":"SDM","line":6,"time":6,"distance":4566,"station_name":"Sudimara","is_transit":false,"transit":false,"i_long":106.712277,"i_lat":-6.296963},{"i_lat":-6.288927,"line":6,"distance":1994,"i_long":106.728916,"station_name":"Jurangmangu","transit":false,"time":4,"station_id":"JMU","is_transit":false},{"time":3,"i_lat":-6.276362,"line":6,"station_id":"PDJ","is_transit":false,"transit":false,"distance":2179,"station_name":"Pondokranji","i_long":106.74273},{"distance":6218,"station_id":"KBY","transit":false,"line":6,"time":8,"i_lat":-6.237242,"i_long":106.780334,"is_transit":false,"station_name":"Kebayoran"},{"distance":3737,"is_transit":false,"i_lat":-6.207404,"station_name":"Palmerah","station_id":"PLM","i_long":106.79689,"transit":false,"line":6,"time":7},{"is_transit":true,"station_name":"Tanah Abang","transit":true,"i_long":106.811091,"line":1,"distance":3191,"station_id":"THB","i_lat":-6.185545,"time":6},{"time":5,"station_name":"Karet","line":1,"station_id":"KAT","is_transit":false,"distance":2029,"i_lat":-6.20132,"i_long":106.816351,"transit":false},{"transit":false,"i_lat":-6.201433,"i_long":106.819881,"line":1,"is_transit":false,"distance":471,"time":1,"station_name":"Sudirman Baru","station_id":"SUDB"},{"time":1,"distance":280,"station_name":"Sudirman","is_transit":false,"line":1,"transit":false,"i_long":106.822649,"station_id":"SUD","i_lat":-6.202263},{"distance":3186,"time":4,"line":2,"station_id":"MRI","is_transit":false,"transit":false,"i_lat":-6.209883,"i_long":106.84912,"station_name":"Manggarai"},{"transit":false,"time":2,"station_name":"Matraman","station_id":"MTR","i_lat":-6.212485,"line":1,"i_long":106.858896,"is_transit":false,"distance":1275},{"time":8,"station_name":"Jatinegara","transit":true,"i_lat":-6.215091,"line":1,"distance":1377,"is_transit":true,"i_long":106.86807400000001,"station_id":"JNG"},{"station_name":"Pondok Jati","i_long":106.861737,"station_id":"POK","time":2,"i_lat":-6.209188,"distance":1236,"transit":false,"is_transit":false,"line":11},{"line":11,"station_name":"Kramat","i_lat":-6.193792,"time":2,"is_transit":false,"station_id":"KMT","distance":1829,"transit":false,"i_long":106.855437},{"is_transit":false,"line":11,"station_name":"Gang Sentiong","i_lat":-6.185975,"transit":false,"station_id":"GST","time":1,"distance":973,"i_long":106.850107},{"station_name":"Pasar Senen","i_long":106.84368,"time":8,"is_transit":false,"distance":1567,"transit":false,"i_lat":-6.174784,"station_id":"PSE","line":11},{"station_id":"KMO","transit":false,"line":11,"i_long":106.839204,"i_lat":-6.161728,"distance":1436,"time":4,"is_transit":false,"station_name":"Kemayoran"}],[{"is_transit":false,"station_name":"Cisauk","time":0,"line":3,"i_long":106.640411,"i_lat":-6.32484,"distance":0,"station_id":"CSK","transit":false},{"time":4,"station_name":"Serpong","is_transit":false,"distance":1784,"i_lat":-6.319871,"station_id":"SRP","i_long":106.66566,"line":6,"transit":false},{"line":6,"i_long":106.675475,"i_lat":-6.314823,"transit":false,"station_id":"RU","is_transit":false,"time":4,"distance":2413,"station_name":"Rawa Buntu"},{"station_name":"Sudimara","distance":4566,"station_id":"SDM","is_transit":false,"i_lat":-6.296963,"line":6,"transit":false,"time":6,"i_long":106.712277},{"i_lat":-6.288927,"is_transit":false,"line":6,"station_id":"JMU","time":4,"transit":false,"i_long":106.728916,"station_name":"Jurangmangu","distance":1994},{"i_long":106.74273,"station_name":"Pondokranji","time":3,"station_id":"PDJ","distance":2179,"line":6,"is_transit":false,"transit":false,"i_lat":-6.276362},{"is_transit":false,"time":8,"station_id":"KBY","distance":6218,"i_long":106.780334,"transit":false,"i_lat":-6.237242,"station_name":"Kebayoran","line":6},{"i_long":106.79689,"i_lat":-6.207404,"is_transit":false,"time":7,"distance":3737,"station_name":"Palmerah","line":6,"station_id":"PLM","transit":false},{"station_id":"THB","i_lat":-6.185545,"is_transit":true,"i_long":106.811091,"line":1,"station_name":"Tanah Abang","time":6,"transit":true,"distance":3191},{"transit":false,"time":5,"station_id":"KAT","is_transit":false,"i_long":106.816351,"distance":2029,"station_name":"Karet","line":1,"i_lat":-6.20132},{"is_transit":false,"transit":false,"time":1,"station_id":"SUDB","line":1,"distance":471,"i_long":106.819881,"i_lat":-6.201433,"station_name":"Sudirman Baru"},{"i_lat":-6.202263,"i_long":106.822649,"time":1,"is_transit":false,"station_id":"SUD","line":1,"transit":false,"station_name":"Sudirman","distance":280},{"station_name":"Manggarai","is_transit":true,"station_id":"MRI","time":4,"distance":3186,"line":2,"transit":true,"i_lat":-6.209883,"i_long":106.84912},{"station_id":"CKI","line":2,"i_lat":-6.198556,"distance":1590,"time":4,"is_transit":false,"station_name":"Cikini","i_long":106.840169,"transit":false},{"is_transit":false,"time":3,"i_lat":-6.186295,"distance":1750,"i_long":106.832183,"line":2,"transit":false,"station_name":"Gondangdia","station_id":"GDD"},{"station_name":"Juanda","is_transit":false,"i_long":106.828284,"transit":false,"station_id":"JUA","time":4,"i_lat":-6.166716,"distance":2015,"line":2},{"station_name":"Sawah Besar","i_lat":-6.160725,"transit":false,"time":2,"line":2,"station_id":"SW","i_long":106.827103,"is_transit":false,"distance":1149},{"i_long":106.82482,"i_lat":-6.149769,"line":2,"station_id":"MGB","distance":906,"transit":false,"time":2,"is_transit":false,"station_name":"Manggabesar"},{"i_lat":-6.141205,"transit":false,"distance":1080,"station_id":"JAY","station_name":"Jayakarta","i_long":106.820901,"line":2,"time":2,"is_transit":false},{"transit":true,"station_name":"Jakarta Kota","time":4,"is_transit":true,"distance":1264,"i_lat":-6.137569,"i_long":106.812439,"line":2,"station_id":"JAKK"},{"transit":true,"time":3,"distance":1364,"line":4,"i_long":106.826365,"station_id":"KPB","is_transit":true,"station_name":"Kampung Bandan","i_lat":-6.132549},{"line":11,"is_transit":false,"time":3,"station_name":"Rajawali","transit":false,"i_lat":-6.14505,"station_id":"RJW","distance":1444,"i_long":106.836569},{"i_long":106.839204,"distance":1901,"line":11,"station_name":"Kemayoran","transit":false,"time":5,"station_id":"KMO","i_lat":-6.161728,"is_transit":false}],[{"station_id":"CSK","station_name":"Cisauk","line":3,"i_lat":-6.32484,"time":0,"transit":false,"distance":0,"is_transit":false,"i_long":106.640411},{"line":6,"station_id":"SRP","transit":false,"is_transit":false,"station_name":"Serpong","time":4,"i_lat":-6.319871,"distance":1784,"i_long":106.66566},{"i_long":106.675475,"transit":false,"i_lat":-6.314823,"time":4,"station_name":"Rawa Buntu","is_transit":false,"distance":2413,"line":6,"station_id":"RU"},{"i_lat":-6.296963,"transit":false,"time":6,"station_name":"Sudimara","distance":4566,"i_long":106.712277,"station_id":"SDM","is_transit":false,"line":6},{"time":4,"i_lat":-6.288927,"is_transit":false,"distance":1994,"line":6,"transit":false,"i_long":106.728916,"station_id":"JMU","station_name":"Jurangmangu"},{"is_transit":false,"station_name":"Pondokranji","time":3,"i_long":106.74273,"line":6,"i_lat":-6.276362,"station_id":"PDJ","distance":2179,"transit":false},{"distance":6218,"station_name":"Kebayoran","station_id":"KBY","is_transit":false,"time":8,"i_lat":-6.237242,"transit":false,"i_long":106.780334,"line":6},{"distance":3737,"transit":false,"time":7,"station_name":"Palmerah","is_transit":false,"i_long":106.79689,"line":6,"i_lat":-6.207404,"station_id":"PLM"},{"i_lat":-6.185545,"is_transit":true,"line":1,"station_id":"THB","transit":true,"time":6,"distance":3191,"i_long":106.811091,"station_name":"Tanah Abang"},{"distance":3632,"line":1,"i_lat":-6.155215,"transit":false,"time":8,"i_long":106.800832,"is_transit":false,"station_id":"DU","station_name":"Duri"},{"i_lat":-6.144674,"i_long":106.79867,"distance":1230,"line":1,"station_name":"Angke","is_transit":false,"time":4,"station_id":"AK","transit":false},{"line":4,"transit":true,"distance":4102,"i_long":106.826365,"is_transit":true,"station_name":"Kampung Bandan","i_lat":-6.132549,"time":9,"station_id":"KPB"},{"i_lat":-6.137569,"i_long":106.812439,"station_name":"Jakarta Kota","line":2,"station_id":"JAKK","time":3,"is_transit":true,"transit":true,"distance":1364},{"station_name":"Jayakarta","time":4,"transit":false,"distance":1264,"i_lat":-6.141205,"line":2,"station_id":"JAY","is_transit":false,"i_long":106.820901},{"station_name":"Manggabesar","station_id":"MGB","i_lat":-6.149769,"time":2,"line":2,"is_transit":false,"distance":1080,"transit":false,"i_long":106.82482},{"transit":false,"station_id":"SW","station_name":"Sawah Besar","i_lat":-6.160725,"is_transit":false,"line":2,"i_long":106.827103,"distance":906,"time":2},{"line":2,"i_long":106.828284,"is_transit":false,"distance":1149,"station_id":"JUA","transit":false,"time":2,"station_name":"Juanda","i_lat":-6.166716},{"distance":2015,"i_long":106.832183,"station_id":"GDD","transit":false,"is_transit":false,"time":4,"i_lat":-6.186295,"line":2,"station_name":"Gondangdia"},{"transit":false,"station_name":"Cikini","is_transit":false,"line":2,"i_lat":-6.198556,"time":3,"station_id":"CKI","i_long":106.840169,"distance":1750},{"time":4,"i_long":106.84912,"station_name":"Manggarai","line":2,"distance":1590,"transit":true,"is_transit":true,"i_lat":-6.209883,"station_id":"MRI"},{"line":1,"time":2,"station_id":"MTR","distance":1275,"i_lat":-6.212485,"i_long":106.858896,"transit":false,"station_name":"Matraman","is_transit":false},{"is_transit":true,"transit":true,"i_long":106.86807400000001,"station_name":"Jatinegara","time":8,"i_lat":-6.215091,"station_id":"JNG","distance":1377,"line":1},{"transit":false,"station_id":"POK","time":2,"i_lat":-6.209188,"line":11,"station_name":"Pondok Jati","i_long":106.861737,"distance":1236,"is_transit":false},{"station_name":"Kramat","distance":1829,"i_lat":-6.193792,"i_long":106.855437,"transit":false,"line":11,"station_id":"KMT","is_transit":false,"time":2},{"distance":973,"is_transit":false,"i_long":106.850107,"transit":false,"station_id":"GST","i_lat":-6.185975,"time":1,"station_name":"Gang Sentiong","line":11},{"i_lat":-6.174784,"i_long":106.84368,"line":11,"station_id":"PSE","station_name":"Pasar Senen","distance":1567,"transit":false,"time":8,"is_transit":false},{"is_transit":false,"distance":1436,"transit":false,"station_id":"KMO","station_name":"Kemayoran","time":4,"i_lat":-6.161728,"line":11,"i_long":106.839204}]]}