{"data":[[{"time":0,"transit":false,"is_transit":false,"i_long":106.640411,"station_name":"Cisauk","distance":0,"i_lat":-6.32484,"station_id":"CSK","line":0},{"is_transit":false,"transit":false,"distance":1784,"line":6,"time":4,"station_id":"SRP","i_lat":-6.319871,"station_name":"Serpong","i_long":106.66566},{"distance":2413,"transit":false,"i_long":106.675475,"is_transit":false,"time":4,"station_name":"Rawa Buntu","i_lat":-6.314823,"station_id":"RU","line":6},{"i_long":106.712277,"station_name":"Sudimara","transit":false,"is_transit":false,"i_lat":-6.296963,"time":6,"station_id":"SDM","distance":4566,"line":6},{"i_lat":-6.288927,"station_name":"Jurangmangu","i_long":106.728916,"line":6,"distance":1994,"station_id":"JMU","is_transit":false,"transit":false,"time":4},{"is_transit":false,"distance":2179,"time":3,"i_long":106.74273,"i_lat":-6.276362,"station_name":"Pondokranji","station_id":"PDJ","line":6,"transit":false},{"station_name":"Kebayoran","i_lat":-6.237242,"station_id":"KBY","is_transit":false,"distance":6218,"i_long":106.780334,"time":8,"transit":false,"line":6},{"is_transit":false,"station_id":"PLM","time":7,"i_lat":-6.207404,"i_long":106.79689,"transit":false,"distance":3737,"line":6,"station_name":"Palmerah"},{"line":1,"station_name":"Tanah Abang","i_lat":-6.185545,"time":6,"i_long":106.811091,"distance":3191,"station_id":"THB","transit":true,"is_transit":true},{"station_id":"KAT","is_transit":false,"distance":2029,"i_lat":-6.20132,"station_name":"Karet","i_long":106.816351,"line":1,"time":5,"transit":false},{"station_id":"SUDB","i_long":106.819881,"time":1,"station_name":"Sudirman Baru","transit":false,"line":1,"i_lat":-6.201433,"is_transit":false,"distance":471},{"station_name":"Sudirman","is_transit":false,"i_long":106.822649,"line":1,"transit":false,"station_id":"SUD","i_lat":-6.202263,"time":1,"distance":280},{"station_id":"MRI","is_transit":true,"i_long":106.84912,"station_name":"Manggarai","i_lat":-6.209883,"transit":true,"distance":3186,"time":4,"line":0},{"station_id":"TEB","transit":false,"line":2,"distance":2610,"time":4,"station_name":"Tebet","i_lat":-6.226659,"i_long":106.857948,"is_transit":false},{"i_long":106.856607,"is_transit":false,"time":2,"station_name":"Cawang","line":0,"station_id":"CW","transit":false,"distance":1230,"i_lat":-6.242512},{"station_name":"Duren Kalibata","line":0,"transit":false,"station_id":"DRN","i_lat":-6.255332,"is_transit":false,"distance":1546,"time":3,"i_long":106.85449},{"time":2,"station_name":"Pasar Minggu Baru","distance":824,"transit":false,"i_long":106.851577,"line":2,"station_id":"PSMB","is_transit":false,"i_lat":-6.263214},{"transit":false,"i_lat":-6.2842400000000005,"is_transit":false,"time":2,"distance":2380,"i_long":106.843999,"station_id":"PSM","station_name":"Pasar Minggu","line":2},{"line":2,"station_id":"TNT","i_long":106.838896,"transit":false,"station_name":"Tanjung Barat","time":4,"is_transit":false,"distance":2820,"i_lat":-6.3080680000000005},{"time":3,"station_id":"LNA","station_name":"Lenteng Agung","i_long":106.832616,"transit":false,"distance":2671,"i_lat":-6.330363,"line":2,"is_transit":false},{"transit":false,"station_name":"Univ. Pancasila","line":2,"time":2,"is_transit":false,"station_id":"UP","distance":1029,"i_lat":-6.339291,"i_long":106.834175}],[{"line":0,"transit":false,"i_lat":-6.32484,"station_id":"CSK","time":0,"distance":0,"station_name":"Cisauk","i_long":106.640411,"is_transit":false},{"station_id":"SRP","station_name":"Serpong","line":6,"i_lat":-6.319871,"i_long":106.66566,"distance":1784,"is_transit":false,"time":4,"transit":false},{"line":6,"i_lat":-6.314823,"is_transit":false,"distance":2413,"i_long":106.675475,"station_name":"Rawa Buntu","transit":false,"station_id":"RU","time":4},{"station_name":"Sudimara","transit":false,"i_long":106.712277,"time":6,"is_transit":false,"i_lat":-6.296963,"line":6,"distance":4566,"station_id":"SDM"},{"is_transit":false,"station_name":"Jurangmangu","station_id":"JMU","i_lat":-6.288927,"transit":false,"distance":1994,"i_long":106.728916,"line":6,"time":4},{"distance":2179,"i_lat":-6.276362,"is_transit":false,"transit":false,"i_long":106.74273,"station_id":"PDJ","line":6,"station_name":"Pondokranji","time":3},{"is_transit":false,"distance":6218,"i_long":106.780334,"line":6,"station_id":"KBY","transit":false,"time":8,"station_name":"Kebayoran","i_lat":-6.237242},{"time":7,"station_name":"Palmerah","i_lat":-6.207404,"line":6,"is_transit":false,"i_long":106.79689,"station_id":"PLM","transit":false,"distance":3737},{"i_lat":-6.185545,"i_long":106.811091,"distance":3191,"is_transit":true,"transit":true,"line":1,"station_name":"Tanah Abang","time":6,"station_id":"THB"},{"i_lat":-6.155215,"time":8,"station_id":"DU","station_name":"Duri","distance":3632,"line":1,"transit":true,"i_long":106.800832,"is_transit":true},{"line":0,"station_id":"AK","distance":1230,"is_transit":false,"station_name":"Angke","i_long":106.79867,"i_lat":-6.144674,"time":4,"transit":false},{"distance":4102,"is_transit":true,"i_long":106.826365,"i_lat":-6.132549,"station_name":"Kampung Bandan","transit":false,"line":0,"station_id":"KPB","time":9},{"line":0,"transit":true,"is_transit":true,"station_id":"JAKK","distance":1364,"station_name":"Jakarta Kota","i_lat":-6.137569,"time":3,"i_long":106.812439},{"is_transit":false,"station_name":"Jayakarta","time":4,"i_lat":-6.141205,"i_long":106.820901,"station_id":"JAY","line":7,"transit":false,"distance":1264},{"i_lat":-6.149769,"is_transit":false,"distance":1080,"station_id":"MGB","station_name":"Manggabesar","time":2,"i_long":106.82482,"line":2,"transit":false},{"time":2,"line":2,"transit":false,"i_long":106.827103,"distance":906,"station_name":"Sawah Besar","station_id":"SW","i_lat":-6.160725,"is_transit":false},{"station_name":"Juanda","distance":1149,"transit":false,"line":2,"station_id":"JUA","i_lat":-6.166716,"is_transit":false,"time":2,"i_long":106.828284},{"distance":2015,"i_long":106.832183,"station_id":"GDD","is_transit":false,"station_name":"Gondangdia","transit":false,"i_lat":-6.186295,"line":2,"time":4},{"station_id":"CKI","distance":1750,"i_lat":-6.198556,"line":0,"station_name":"Cikini","transit":false,"is_transit":false,"i_long":106.840169,"time":3},{"i_lat":-6.209883,"line":0,"station_id":"MRI","station_name":"Manggarai","is_transit":true,"time":4,"distance":1590,"transit":true,"i_long":106.84912},{"i_long":106.857948,"is_transit":false,"line":2,"time":4,"station_id":"TEB","distance":2610,"station_name":"Tebet","transit":false,"i_lat":-6.226659},{"is_transit":false,"line":0,"time":2,"distance":1230,"station_id":"CW","i_long":106.856607,"transit":false,"i_lat":-6.242512,"station_name":"Cawang"},{"i_lat":-6.255332,"distance":1546,"line":0,"is_transit":false,"time":3,"station_name":"Duren Kalibata","station_id":"DRN","i_long":106.85449,"transit":false},{"time":2,"i_long":106.851577,"line":2,"transit":false,"station_id":"PSMB","is_transit":false,"distance":824,"station_name":"Pasar Minggu Baru","i_lat":-6.263214},{"i_lat":-6.2842400000000005,"station_name":"Pasar Minggu","station_id":"PSM","line":2,"distance":2380,"i_long":106.843999,"transit":false,"time":2,"is_transit":false},{"distance":2820,"i_lat":-6.3080680000000005,"station_id":"TNT","is_transit":false,"time":4,"station_name":"Tanjung Barat","i_long":106.838896,"line":2,"transit":false},{"transit":false,"i_lat":-6.330363,"station_id":"LNA","time":3,"station_name":"Lenteng Agung","is_transit":false,"distance":2671,"i_long":106.832616,"line":2},{"line":2,"station_name":"Univ. Pancasila","time":2,"i_lat":-6.339291,"i_long":106.834175,"is_transit":false,"transit":false,"station_id":"UP","distance":1029}],[{"transit":false,"station_id":"CSK","is_transit":false,"station_name":"Cisauk","distance":0,"line":0,"time":0,"i_lat":-6.32484,"i_long":106.640411},{"is_transit":false,"i_long":106.66566,"transit":false,"line":6,"distance":1784,"station_name":"Serpong","time":4,"station_id":"SRP","i_lat":-6.319871},{"distance":2413,"station_id":"RU","transit":false,"station_name":"Rawa Buntu","line":6,"is_transit":false,"time":4,"i_lat":-6.314823,"i_long":106.675475},{"time":6,"line":6,"station_id":"SDM","is_transit":false,"i_long":106.712277,"transit":false,"distance":4566,"station_name":"Sudimara","i_lat":-6.296963},{"time":4,"i_long":106.728916,"is_transit":false,"station_name":"Jurangmangu","line":6,"transit":false,"station_id":"JMU","distance":1994,"i_lat":-6.288927},{"line":6,"i_long":106.74273,"is_transit":false,"time":3,"distance":2179,"station_id":"PDJ","station_name":"Pondokranji","transit":false,"i_lat":-6.276362},{"time":8,"line":6,"transit":false,"distance":6218,"i_long":106.780334,"station_name":"Kebayoran","station_id":"KBY","i_lat":-6.237242,"is_transit":false},{"station_name":"Palmerah","time":7,"distance":3737,"is_transit":false,"i_long":106.79689,"transit":false,"i_lat":-6.207404,"station_id":"PLM","line":6},{"time":6,"distance":3191,"station_id":"THB","line":1,"is_transit":true,"station_name":"Tanah Abang","transit":true,"i_lat":-6.185545,"i_long":106.811091},{"is_transit":true,"i_long":106.800832,"transit":true,"time":8,"station_name":"Duri","i_lat":-6.155215,"line":1,"station_id":"DU","distance":3632},{"line":0,"transit":false,"i_long":106.79867,"is_transit":false,"station_id":"AK","station_name":"Angke","time":4,"distance":1230,"i_lat":-6.144674},{"station_id":"KPB","transit":true,"line":0,"i_lat":-6.132549,"distance":4102,"time":9,"is_transit":true,"i_long":106.826365,"station_name":"Kampung Bandan"},{"station_id":"RJW","distance":1444,"transit":false,"i_lat":-6.14505,"i_long":106.836569,"station_name":"Rajawali","time":3,"line":11,"is_transit":false},{"station_id":"KMO","time":5,"i_long":106.839204,"transit":false,"station_name":"Kemayoran","i_lat":-6.161728,"is_transit":false,"distance":1901,"line":11},{"station_id":"PSE","is_transit":false,"time":4,"line":11,"i_lat":-6.174784,"transit":false,"station_name":"Pasar Senen","distance":1436,"i_long":106.84368},{"station_id":"GST","station_name":"Gang Sentiong","i_long":106.850107,"distance":1567,"transit":false,"i_lat":-6.185975,"line":11,"is_transit":false,"time":8},{"station_name":"Kramat","is_transit":false,"transit":false,"i_long":106.855437,"distance":973,"line":11,"i_lat":-6.193792,"station_id":"KMT","time":1},{"is_transit":false,"station_id":"POK","time":2,"distance":1829,"station_name":"Pondok Jati","line":11,"i_lat":-6.209188,"transit":false,"i_long":106.861737},{"is_transit":true,"distance":1236,"station_id":"JNG","i_lat":-6.215091,"station_name":"Jatinegara","line":0,"time":9,"transit":true,"i_long":106.86807400000001},{"is_transit":false,"line":1,"i_long":106.858896,"station_id":"MTR","station_name":"Matraman","transit":false,"time":2,"distance":1377,"i_lat":-6.212485},{"i_long":106.84912,"line":0,"distance":1275,"time":2,"transit":true,"station_name":"Manggarai","i_lat":-6.209883,"station_id":"MRI","is_transit":true},{"is_transit":false,"distance":2610,"station_name":"Tebet","i_long":106.857948,"transit":false,"line":2,"station_id":"TEB","i_lat":-6.226659,"time":4},{"line":0,"transit":false,"i_lat":-6.242512,"distance":1230,"station_name":"Cawang","is_transit":false,"time":2,"station_id":"CW","i_long":106.856607},{"time":3,"transit":false,"i_long":106.85449,"i_lat":-6.255332,"is_transit":false,"station_name":"Duren Kalibata","distance":1546,"station_id":"DRN","line":0},{"i_long":106.851577,"line":2,"station_id":"PSMB","time":2,"transit":false,"distance":824,"is_transit":false,"station_name":"Pasar Minggu Baru","i_lat":-6.263214},{"station_id":"PSM","distance":2380,"i_lat":-6.2842400000000005,"is_transit":false,"time":2,"transit":false,"line":2,"station_name":"Pasar Minggu","i_long":106.843999},{"time":4,"i_long":106.838896,"line":2,"i_lat":-6.3080680000000005,"station_name":"Tanjung Barat","is_transit":false,"distance":2820,"station_id":"TNT","transit":false},{"transit":false,"line":2,"time":3,"station_name":"Lenteng Agung","i_lat":-6.330363,"distance":2671,"station_id":"LNA","is_transit":false,"i_long":106.832616},{"i_lat":-6.339291,"i_long":106.834175,"line":2,"station_id":"UP","is_transit":false,"time":2,"station_name":"Univ. Pancasila","distance":1029,"transit":false}]]}