{"data":[[{"i_long":106.640411,"time":0,"station_name":"Cisauk","distance":0,"i_lat":-6.32484,"is_transit":false,"transit":false,"station_id":"CSK","line":3},{"station_id":"SRP","distance":1784,"i_lat":-6.319871,"station_name":"Serpong","is_transit":false,"transit":false,"time":4,"i_long":106.66566,"line":6},{"is_transit":false,"line":6,"time":4,"station_id":"RU","i_long":106.675475,"station_name":"Rawa Buntu","i_lat":-6.314823,"transit":false,"distance":2413},{"distance":4566,"station_name":"Sudimara","time":6,"i_long":106.712277,"i_lat":-6.296963,"station_id":"SDM","is_transit":false,"line":6,"transit":false},{"i_long":106.728916,"is_transit":false,"line":6,"station_id":"JMU","time":4,"i_lat":-6.288927,"station_name":"Jurangmangu","distance":1994,"transit":false},{"is_transit":false,"i_long":106.74273,"station_name":"Pondokranji","station_id":"PDJ","distance":2179,"transit":false,"line":6,"time":3,"i_lat":-6.276362},{"distance":6218,"is_transit":false,"station_name":"Kebayoran","time":8,"line":6,"transit":false,"station_id":"KBY","i_lat":-6.237242,"i_long":106.780334},{"distance":3737,"station_id":"PLM","station_name":"Palmerah","transit":false,"line":6,"time":7,"i_lat":-6.207404,"i_long":106.79689,"is_transit":false},{"i_long":106.811091,"line":1,"station_name":"Tanah Abang","i_lat":-6.185545,"station_id":"THB","transit":true,"time":6,"distance":3191,"is_transit":true},{"is_transit":false,"station_name":"Karet","distance":2029,"transit":false,"station_id":"KAT","line":1,"i_long":106.816351,"time":5,"i_lat":-6.20132},{"i_lat":-6.201433,"station_name":"Sudirman Baru","is_transit":false,"distance":471,"transit":false,"line":1,"i_long":106.819881,"station_id":"SUDB","time":1},{"distance":280,"i_lat":-6.202263,"time":1,"transit":false,"station_id":"SUD","is_transit":false,"station_name":"Sudirman","i_long":106.822649,"line":1},{"station_name":"Manggarai","line":2,"i_long":106.84912,"distance":3186,"transit":true,"time":4,"station_id":"MRI","i_lat":-6.209883,"is_transit":true},{"i_long":106.857948,"is_transit":false,"i_lat":-6.226659,"line":2,"distance":2610,"station_name":"Tebet","time":4,"transit":false,"station_id":"TEB"},{"station_id":"CW","line":2,"time":2,"station_name":"Cawang","i_lat":-6.242512,"is_transit":false,"transit":false,"i_long":106.856607,"distance":1230},{"transit":false,"station_id":"DRN","is_transit":false,"time":3,"i_long":106.85449,"distance":1546,"i_lat":-6.255332,"line":2,"station_name":"Duren Kalibata"},{"time":2,"transit":false,"i_long":106.851577,"is_transit":false,"line":2,"distance":824,"station_id":"PSMB","station_name":"Pasar Minggu Baru","i_lat":-6.263214},{"station_name":"Pasar Minggu","station_id":"PSM","transit":false,"i_long":106.843999,"line":2,"distance":2380,"is_transit":false,"i_lat":-6.2842400000000005,"time":2},{"station_name":"Tanjung Barat","time":4,"distance":2820,"transit":false,"i_lat":-6.3080680000000005,"station_id":"TNT","i_long":106.838896,"is_transit":false,"line":2},{"station_name":"Lenteng Agung","i_lat":-6.330363,"is_transit":false,"time":3,"i_long":106.832616,"distance":2671,"transit":false,"station_id":"LNA","line":2},{"station_name":"Univ. Pancasila","time":2,"i_lat":-6.339291,"station_id":"UP","line":2,"i_long":106.834175,"is_transit":false,"distance":1029,"transit":false}],[{"time":0,"transit":false,"is_transit":false,"distance":0,"i_lat":-6.32484,"i_long":106.640411,"station_id":"CSK","station_name":"Cisauk","line":3},{"distance":1784,"time":4,"station_id":"SRP","transit":false,"is_transit":false,"i_lat":-6.319871,"line":6,"i_long":106.66566,"station_name":"Serpong"},{"station_id":"RU","i_long":106.675475,"line":6,"time":4,"transit":false,"i_lat":-6.314823,"is_transit":false,"distance":2413,"station_name":"Rawa Buntu"},{"time":6,"distance":4566,"is_transit":false,"transit":false,"i_long":106.712277,"station_id":"SDM","station_name":"Sudimara","i_lat":-6.296963,"line":6},{"transit":false,"distance":1994,"time":4,"is_transit":false,"i_long":106.728916,"station_name":"Jurangmangu","station_id":"JMU","i_lat":-6.288927,"line":6},{"line":6,"i_long":106.74273,"station_name":"Pondokranji","station_id":"PDJ","i_lat":-6.276362,"distance":2179,"time":3,"transit":false,"is_transit":false},{"time":8,"distance":6218,"transit":false,"line":6,"is_transit":false,"i_long":106.780334,"station_id":"KBY","i_lat":-6.237242,"station_name":"Kebayoran"},{"is_transit":false,"line":6,"i_lat":-6.207404,"time":7,"transit":false,"i_long":106.79689,"station_name":"Palmerah","station_id":"PLM","distance":3737},{"i_lat":-6.185545,"i_long":106.811091,"distance":3191,"line":1,"station_name":"Tanah Abang","is_transit":true,"time":6,"station_id":"THB","transit":true},{"line":1,"transit":false,"distance":3632,"i_long":106.800832,"is_transit":false,"station_name":"Duri","i_lat":-6.155215,"time":8,"station_id":"DU"},{"i_lat":-6.144674,"i_long":106.79867,"station_name":"Angke","line":1,"time":4,"station_id":"AK","is_transit":false,"distance":1230,"transit":false},{"station_name":"Kampung Bandan","time":9,"transit":true,"distance":4102,"i_lat":-6.132549,"line":4,"station_id":"KPB","is_transit":true,"i_long":106.826365},{"station_name":"Jakarta Kota","station_id":"JAKK","i_lat":-6.137569,"time":3,"line":2,"is_transit":true,"distance":1364,"transit":true,"i_long":106.812439},{"transit":false,"station_name":"Jayakarta","station_id":"JAY","i_lat":-6.141205,"is_transit":false,"line":2,"i_long":106.820901,"distance":1264,"time":4},{"line":2,"i_long":106.82482,"distance":1080,"is_transit":false,"station_id":"MGB","transit":false,"time":2,"station_name":"Manggabesar","i_lat":-6.149769},{"line":2,"time":2,"i_long":106.827103,"station_name":"Sawah Besar","transit":false,"distance":906,"station_id":"SW","is_transit":false,"i_lat":-6.160725},{"time":2,"is_transit":false,"station_name":"Juanda","line":2,"distance":1149,"transit":false,"station_id":"JUA","i_long":106.828284,"i_lat":-6.166716},{"time":4,"i_long":106.832183,"station_name":"Gondangdia","line":2,"distance":2015,"transit":false,"is_transit":false,"i_lat":-6.186295,"station_id":"GDD"},{"line":2,"time":3,"station_id":"CKI","distance":1750,"i_lat":-6.198556,"i_long":106.840169,"station_name":"Cikini","transit":false,"is_transit":false},{"is_transit":false,"transit":false,"i_long":106.84912,"station_name":"Manggarai","time":4,"i_lat":-6.209883,"distance":1590,"station_id":"MRI","line":2},{"time":4,"station_id":"TEB","transit":false,"i_lat":-6.226659,"line":2,"station_name":"Tebet","i_long":106.857948,"distance":2610,"is_transit":false},{"station_name":"Cawang","distance":1230,"i_lat":-6.242512,"i_long":106.856607,"transit":false,"line":2,"time":2,"station_id":"CW","is_transit":false},{"distance":1546,"is_transit":false,"i_long":106.85449,"transit":false,"station_id":"DRN","i_lat":-6.255332,"time":3,"station_name":"Duren Kalibata","line":2},{"i_lat":-6.263214,"i_long":106.851577,"line":2,"distance":824,"station_name":"Pasar Minggu Baru","station_id":"PSMB","transit":false,"time":2,"is_transit":false},{"distance":2380,"is_transit":false,"transit":false,"station_id":"PSM","station_name":"Pasar Minggu","time":2,"i_lat":-6.2842400000000005,"line":2,"i_long":106.843999},{"is_transit":false,"distance":2820,"i_lat":-6.3080680000000005,"time":4,"station_id":"TNT","station_name":"Tanjung Barat","transit":false,"i_long":106.838896,"line":2},{"i_long":106.832616,"transit":false,"distance":2671,"station_id":"LNA","time":3,"is_transit":false,"station_name":"Lenteng Agung","line":2,"i_lat":-6.330363},{"time":2,"distance":1029,"line":2,"i_lat":-6.339291,"station_id":"UP","i_long":106.834175,"is_transit":false,"transit":false,"station_name":"Univ. Pancasila"}],[{"i_long":106.640411,"station_name":"Cisauk","distance":0,"line":3,"station_id":"CSK","time":0,"transit":false,"is_transit":false,"i_lat":-6.32484},{"time":4,"station_id":"SRP","line":6,"is_transit":false,"distance":1784,"transit":false,"i_long":106.66566,"i_lat":-6.319871,"station_name":"Serpong"},{"time":4,"transit":false,"is_transit":false,"distance":2413,"i_lat":-6.314823,"station_name":"Rawa Buntu","station_id":"RU","i_long":106.675475,"line":6},{"station_id":"SDM","station_name":"Sudimara","distance":4566,"i_lat":-6.296963,"transit":false,"is_transit":false,"i_long":106.712277,"line":6,"time":6},{"i_long":106.728916,"station_name":"Jurangmangu","distance":1994,"transit":false,"is_transit":false,"time":4,"station_id":"JMU","i_lat":-6.288927,"line":6},{"time":3,"distance":2179,"transit":false,"is_transit":false,"i_lat":-6.276362,"station_id":"PDJ","i_long":106.74273,"station_name":"Pondokranji","line":6},{"i_long":106.780334,"time":8,"station_id":"KBY","station_name":"Kebayoran","is_transit":false,"i_lat":-6.237242,"line":6,"transit":false,"distance":6218},{"i_lat":-6.207404,"time":7,"transit":false,"is_transit":false,"i_long":106.79689,"line":6,"station_id":"PLM","station_name":"Palmerah","distance":3737},{"station_id":"THB","distance":3191,"i_long":106.811091,"time":6,"is_transit":true,"transit":true,"station_name":"Tanah Abang","i_lat":-6.185545,"line":1},{"station_name":"Duri","i_lat":-6.155215,"station_id":"DU","time":8,"line":1,"i_long":106.800832,"distance":3632,"is_transit":false,"transit":false},{"time":4,"i_lat":-6.144674,"is_transit":false,"distance":1230,"transit":false,"station_name":"Angke","station_id":"AK","i_long":106.79867,"line":1},{"is_transit":true,"line":4,"time":9,"station_id":"KPB","transit":true,"i_lat":-6.132549,"i_long":106.826365,"station_name":"Kampung Bandan","distance":4102},{"i_lat":-6.14505,"is_transit":false,"i_long":106.836569,"line":11,"transit":false,"station_id":"RJW","station_name":"Rajawali","time":3,"distance":1444},{"time":5,"is_transit":false,"distance":1901,"i_lat":-6.161728,"station_name":"Kemayoran","i_long":106.839204,"transit":false,"line":11,"station_id":"KMO"},{"is_transit":false,"station_id":"PSE","time":4,"distance":1436,"i_lat":-6.174784,"transit":false,"station_name":"Pasar Senen","line":11,"i_long":106.84368},{"station_name":"Gang Sentiong","distance":1567,"station_id":"GST","transit":false,"line":11,"is_transit":false,"time":8,"i_lat":-6.185975,"i_long":106.850107},{"transit":false,"line":11,"is_transit":false,"distance":973,"station_id":"KMT","i_lat":-6.193792,"i_long":106.855437,"time":1,"station_name":"Kramat"},{"transit":false,"line":11,"station_name":"Pondok Jati","time":2,"is_transit":false,"i_long":106.861737,"i_lat":-6.209188,"station_id":"POK","distance":1829},{"time":9,"i_long":106.86807400000001,"distance":1236,"station_name":"Jatinegara","station_id":"JNG","i_lat":-6.215091,"transit":true,"is_transit":true,"line":1},{"transit":false,"i_long":106.858896,"i_lat":-6.212485,"distance":1377,"station_name":"Matraman","is_transit":false,"time":2,"station_id":"MTR","line":1},{"distance":1275,"station_id":"MRI","time":2,"transit":true,"line":2,"i_lat":-6.209883,"i_long":106.84912,"is_transit":true,"station_name":"Manggarai"},{"station_name":"Tebet","i_lat":-6.226659,"is_transit":false,"distance":2610,"transit":false,"time":4,"i_long":106.857948,"line":2,"station_id":"TEB"},{"line":2,"distance":1230,"is_transit":false,"station_name":"Cawang","i_lat":-6.242512,"time":2,"transit":false,"station_id":"CW","i_long":106.856607},{"distance":1546,"time":3,"station_name":"Duren Kalibata","i_long":106.85449,"line":2,"transit":false,"station_id":"DRN","i_lat":-6.255332,"is_transit":false},{"i_long":106.851577,"line":2,"transit":false,"i_lat":-6.263214,"station_id":"PSMB","distance":824,"time":2,"is_transit":false,"station_name":"Pasar Minggu Baru"},{"station_id":"PSM","transit":false,"station_name":"Pasar Minggu","i_lat":-6.2842400000000005,"i_long":106.843999,"distance":2380,"line":2,"is_transit":false,"time":2},{"distance":2820,"time":4,"line":2,"i_long":106.838896,"station_name":"Tanjung Barat","transit":false,"is_transit":false,"i_lat":-6.3080680000000005,"station_id":"TNT"},{"station_id":"LNA","transit":false,"is_transit":false,"i_lat":-6.330363,"line":2,"time":3,"distance":2671,"station_name":"Lenteng Agung","i_long":106.832616},{"station_id":"UP","i_long":106.834175,"time":2,"line":2,"distance":1029,"transit":false,"is_transit":false,"i_lat":-6.339291,"station_name":"Univ. Pancasila"}]]}