{"data":[[{"distance":0,"i_long":106.640411,"i_lat":-6.32484,"transit":false,"station_id":"CSK","is_transit":false,"time":0,"line":3,"station_name":"Cisauk"},{"i_lat":-6.329547,"station_name":"Cicayur","station_id":"CC","i_long":106.617853,"transit":false,"is_transit":false,"distance":2519,"line":3,"time":4},{"time":8,"distance":5968,"i_long":106.568863,"station_name":"Parung Panjang","is_transit":false,"i_lat":-6.3441410000000005,"line":6,"station_id":"PRP","transit":false},{"transit":false,"distance":7025,"station_id":"CJT","i_long":106.508482,"line":3,"time":9,"is_transit":false,"i_lat":-6.354349,"station_name":"Cilejit"},{"station_id":"DAR","time":6,"line":0,"transit":false,"is_transit":false,"distance":2675,"i_lat":-6.338021,"i_long":106.491338,"station_name":"Daru"}]]}