{"data":[[{"time":0,"i_long":106.640411,"is_transit":false,"station_id":"CSK","i_lat":-6.32484,"line":3,"distance":0,"transit":false,"station_name":"Cisauk"},{"i_long":106.66566,"station_id":"SRP","is_transit":false,"station_name":"Serpong","transit":false,"time":4,"line":6,"distance":1784,"i_lat":-6.319871},{"transit":false,"time":4,"station_id":"RU","i_long":106.675475,"line":6,"distance":2413,"is_transit":false,"station_name":"Rawa Buntu","i_lat":-6.314823},{"time":6,"i_long":106.712277,"i_lat":-6.296963,"distance":4566,"is_transit":false,"station_name":"Sudimara","transit":false,"line":6,"station_id":"SDM"},{"station_name":"Jurangmangu","distance":1994,"is_transit":false,"time":4,"station_id":"JMU","transit":false,"i_lat":-6.288927,"line":6,"i_long":106.728916},{"distance":2179,"time":3,"i_lat":-6.276362,"station_name":"Pondokranji","line":6,"is_transit":false,"transit":false,"i_long":106.74273,"station_id":"PDJ"},{"station_id":"KBY","distance":6218,"station_name":"Kebayoran","i_long":106.780334,"is_transit":false,"time":8,"i_lat":-6.237242,"line":6,"transit":false},{"i_lat":-6.207404,"time":7,"i_long":106.79689,"is_transit":false,"station_name":"Palmerah","station_id":"PLM","line":6,"distance":3737,"transit":false},{"i_long":106.811091,"is_transit":true,"i_lat":-6.185545,"station_name":"Tanah Abang","transit":true,"distance":3191,"time":6,"station_id":"THB","line":1},{"distance":2029,"is_transit":false,"i_long":106.816351,"transit":false,"station_name":"Karet","line":1,"station_id":"KAT","time":5,"i_lat":-6.20132},{"is_transit":false,"distance":471,"time":1,"i_long":106.819881,"i_lat":-6.201433,"station_name":"Sudirman Baru","station_id":"SUDB","transit":false,"line":1},{"transit":false,"station_id":"SUD","is_transit":false,"station_name":"Sudirman","i_long":106.822649,"line":1,"distance":280,"i_lat":-6.202263,"time":1},{"station_id":"MRI","transit":false,"station_name":"Manggarai","i_long":106.84912,"distance":3186,"time":4,"i_lat":-6.209883,"line":2,"is_transit":false},{"transit":false,"i_lat":-6.212485,"line":1,"distance":1275,"station_name":"Matraman","i_long":106.858896,"time":2,"station_id":"MTR","is_transit":false},{"i_long":106.86807400000001,"distance":1377,"time":8,"line":1,"is_transit":false,"station_name":"Jatinegara","transit":false,"station_id":"JNG","i_lat":-6.215091}],[{"distance":0,"i_lat":-6.32484,"i_long":106.640411,"time":0,"line":3,"is_transit":false,"station_name":"Cisauk","station_id":"CSK","transit":false},{"station_name":"Serpong","distance":1784,"i_long":106.66566,"time":4,"station_id":"SRP","line":6,"transit":false,"is_transit":false,"i_lat":-6.319871},{"i_long":106.675475,"is_transit":false,"line":6,"distance":2413,"time":4,"transit":false,"station_id":"RU","station_name":"Rawa Buntu","i_lat":-6.314823},{"station_name":"Sudimara","i_lat":-6.296963,"time":6,"transit":false,"station_id":"SDM","distance":4566,"is_transit":false,"i_long":106.712277,"line":6},{"is_transit":false,"line":6,"station_id":"JMU","i_lat":-6.288927,"distance":1994,"transit":false,"i_long":106.728916,"station_name":"Jurangmangu","time":4},{"i_lat":-6.276362,"i_long":106.74273,"distance":2179,"time":3,"transit":false,"station_id":"PDJ","is_transit":false,"line":6,"station_name":"Pondokranji"},{"transit":false,"i_lat":-6.237242,"i_long":106.780334,"is_transit":false,"distance":6218,"station_id":"KBY","line":6,"station_name":"Kebayoran","time":8},{"line":6,"i_long":106.79689,"transit":false,"distance":3737,"i_lat":-6.207404,"station_id":"PLM","station_name":"Palmerah","time":7,"is_transit":false},{"station_id":"THB","i_lat":-6.185545,"station_name":"Tanah Abang","transit":true,"distance":3191,"time":6,"is_transit":true,"line":1,"i_long":106.811091},{"time":8,"i_lat":-6.155215,"station_name":"Duri","i_long":106.800832,"line":1,"is_transit":false,"distance":3632,"transit":false,"station_id":"DU"},{"line":1,"time":4,"station_name":"Angke","distance":1230,"i_lat":-6.144674,"is_transit":false,"i_long":106.79867,"transit":false,"station_id":"AK"},{"line":4,"i_lat":-6.132549,"station_name":"Kampung Bandan","time":9,"transit":true,"is_transit":true,"distance":4102,"station_id":"KPB","i_long":106.826365},{"i_long":106.836569,"distance":1444,"time":3,"is_transit":false,"line":11,"transit":false,"i_lat":-6.14505,"station_id":"RJW","station_name":"Rajawali"},{"line":11,"station_id":"KMO","time":5,"transit":false,"i_long":106.839204,"i_lat":-6.161728,"station_name":"Kemayoran","is_transit":false,"distance":1901},{"time":4,"i_lat":-6.174784,"station_id":"PSE","station_name":"Pasar Senen","is_transit":false,"line":11,"transit":false,"distance":1436,"i_long":106.84368},{"transit":false,"i_long":106.850107,"time":8,"is_transit":false,"station_id":"GST","line":11,"distance":1567,"i_lat":-6.185975,"station_name":"Gang Sentiong"},{"time":1,"station_id":"KMT","station_name":"Kramat","line":11,"transit":false,"is_transit":false,"distance":973,"i_lat":-6.193792,"i_long":106.855437},{"i_lat":-6.209188,"is_transit":false,"time":2,"transit":false,"station_id":"POK","i_long":106.861737,"line":11,"distance":1829,"station_name":"Pondok Jati"},{"distance":1236,"i_lat":-6.215091,"i_long":106.86807400000001,"station_id":"JNG","line":1,"time":9,"station_name":"Jatinegara","is_transit":false,"transit":false}],[{"i_long":106.640411,"i_lat":-6.32484,"transit":false,"line":3,"distance":0,"time":0,"is_transit":false,"station_name":"Cisauk","station_id":"CSK"},{"station_name":"Serpong","is_transit":false,"station_id":"SRP","transit":false,"i_long":106.66566,"line":6,"distance":1784,"time":4,"i_lat":-6.319871},{"transit":false,"i_lat":-6.314823,"is_transit":false,"i_long":106.675475,"station_id":"RU","distance":2413,"station_name":"Rawa Buntu","time":4,"line":6},{"time":6,"distance":4566,"is_transit":false,"station_id":"SDM","i_long":106.712277,"station_name":"Sudimara","transit":false,"i_lat":-6.296963,"line":6},{"line":6,"time":4,"is_transit":false,"i_long":106.728916,"distance":1994,"i_lat":-6.288927,"station_id":"JMU","transit":false,"station_name":"Jurangmangu"},{"distance":2179,"time":3,"transit":false,"i_lat":-6.276362,"line":6,"station_name":"Pondokranji","is_transit":false,"i_long":106.74273,"station_id":"PDJ"},{"time":8,"transit":false,"station_id":"KBY","line":6,"is_transit":false,"i_lat":-6.237242,"station_name":"Kebayoran","distance":6218,"i_long":106.780334},{"transit":false,"distance":3737,"station_name":"Palmerah","station_id":"PLM","line":6,"i_lat":-6.207404,"time":7,"is_transit":false,"i_long":106.79689},{"distance":3191,"line":1,"time":6,"is_transit":true,"station_id":"THB","i_long":106.811091,"station_name":"Tanah Abang","i_lat":-6.185545,"transit":true},{"transit":false,"i_lat":-6.155215,"station_name":"Duri","station_id":"DU","i_long":106.800832,"line":1,"distance":3632,"time":8,"is_transit":false},{"is_transit":false,"station_name":"Angke","station_id":"AK","i_lat":-6.144674,"i_long":106.79867,"line":1,"time":4,"distance":1230,"transit":false},{"is_transit":true,"transit":true,"station_name":"Kampung Bandan","i_lat":-6.132549,"line":4,"distance":4102,"station_id":"KPB","time":9,"i_long":106.826365},{"line":2,"i_long":106.812439,"time":3,"station_name":"Jakarta Kota","i_lat":-6.137569,"station_id":"JAKK","transit":true,"distance":1364,"is_transit":true},{"time":4,"station_id":"JAY","transit":false,"i_long":106.820901,"line":2,"station_name":"Jayakarta","i_lat":-6.141205,"distance":1264,"is_transit":false},{"transit":false,"i_long":106.82482,"station_name":"Manggabesar","time":2,"distance":1080,"i_lat":-6.149769,"line":2,"station_id":"MGB","is_transit":false},{"i_lat":-6.160725,"station_name":"Sawah Besar","line":2,"distance":906,"transit":false,"is_transit":false,"time":2,"station_id":"SW","i_long":106.827103},{"distance":1149,"is_transit":false,"station_name":"Juanda","transit":false,"line":2,"station_id":"JUA","time":2,"i_lat":-6.166716,"i_long":106.828284},{"distance":2015,"is_transit":false,"transit":false,"line":2,"station_name":"Gondangdia","i_lat":-6.186295,"time":4,"station_id":"GDD","i_long":106.832183},{"i_long":106.840169,"transit":false,"is_transit":false,"distance":1750,"time":3,"line":2,"station_name":"Cikini","i_lat":-6.198556,"station_id":"CKI"},{"distance":1590,"is_transit":true,"station_name":"Manggarai","i_lat":-6.209883,"time":4,"transit":true,"station_id":"MRI","line":2,"i_long":106.84912},{"time":2,"station_name":"Matraman","line":1,"distance":1275,"is_transit":false,"station_id":"MTR","transit":false,"i_lat":-6.212485,"i_long":106.858896},{"line":1,"distance":1377,"station_id":"JNG","station_name":"Jatinegara","transit":false,"is_transit":false,"i_long":106.86807400000001,"time":8,"i_lat":-6.215091}],[{"distance":0,"station_id":"CSK","i_long":106.640411,"is_transit":false,"i_lat":-6.32484,"line":3,"time":0,"station_name":"Cisauk","transit":false},{"line":6,"station_name":"Serpong","is_transit":false,"distance":1784,"transit":false,"i_lat":-6.319871,"i_long":106.66566,"time":4,"station_id":"SRP"},{"i_long":106.675475,"i_lat":-6.314823,"station_id":"RU","transit":false,"station_name":"Rawa Buntu","distance":2413,"time":4,"is_transit":false,"line":6},{"station_name":"Sudimara","distance":4566,"transit":false,"station_id":"SDM","i_long":106.712277,"is_transit":false,"line":6,"i_lat":-6.296963,"time":6},{"station_name":"Jurangmangu","time":4,"station_id":"JMU","i_lat":-6.288927,"is_transit":false,"i_long":106.728916,"distance":1994,"transit":false,"line":6},{"distance":2179,"station_name":"Pondokranji","station_id":"PDJ","line":6,"time":3,"i_long":106.74273,"is_transit":false,"transit":false,"i_lat":-6.276362},{"i_lat":-6.237242,"is_transit":false,"station_name":"Kebayoran","station_id":"KBY","transit":false,"distance":6218,"line":6,"time":8,"i_long":106.780334},{"distance":3737,"line":6,"i_lat":-6.207404,"i_long":106.79689,"station_id":"PLM","station_name":"Palmerah","time":7,"transit":false,"is_transit":false},{"transit":true,"line":1,"station_name":"Tanah Abang","station_id":"THB","is_transit":true,"distance":3191,"time":6,"i_long":106.811091,"i_lat":-6.185545},{"distance":2029,"transit":false,"station_name":"Karet","i_long":106.816351,"is_transit":false,"station_id":"KAT","i_lat":-6.20132,"time":5,"line":1},{"i_lat":-6.201433,"distance":471,"transit":false,"i_long":106.819881,"is_transit":false,"time":1,"line":1,"station_name":"Sudirman Baru","station_id":"SUDB"},{"station_name":"Sudirman","line":1,"distance":280,"i_long":106.822649,"station_id":"SUD","transit":false,"i_lat":-6.202263,"is_transit":false,"time":1},{"station_id":"MRI","station_name":"Manggarai","i_long":106.84912,"is_transit":true,"i_lat":-6.209883,"line":2,"time":4,"distance":3186,"transit":true},{"line":2,"time":4,"i_long":106.840169,"distance":1590,"i_lat":-6.198556,"transit":false,"is_transit":false,"station_id":"CKI","station_name":"Cikini"},{"distance":1750,"is_transit":false,"time":3,"station_id":"GDD","i_long":106.832183,"i_lat":-6.186295,"station_name":"Gondangdia","transit":false,"line":2},{"is_transit":false,"line":2,"transit":false,"station_name":"Juanda","time":4,"station_id":"JUA","distance":2015,"i_lat":-6.166716,"i_long":106.828284},{"station_name":"Sawah Besar","transit":false,"line":2,"time":2,"i_lat":-6.160725,"is_transit":false,"station_id":"SW","i_long":106.827103,"distance":1149},{"transit":false,"i_long":106.82482,"distance":906,"line":2,"i_lat":-6.149769,"time":2,"station_name":"Manggabesar","is_transit":false,"station_id":"MGB"},{"transit":false,"line":2,"distance":1080,"i_lat":-6.141205,"is_transit":false,"station_name":"Jayakarta","i_long":106.820901,"time":2,"station_id":"JAY"},{"station_id":"JAKK","transit":true,"is_transit":true,"i_long":106.812439,"distance":1264,"line":2,"i_lat":-6.137569,"station_name":"Jakarta Kota","time":4},{"distance":1364,"transit":true,"i_long":106.826365,"station_id":"KPB","i_lat":-6.132549,"line":4,"time":3,"is_transit":true,"station_name":"Kampung Bandan"},{"station_name":"Rajawali","distance":1444,"is_transit":false,"i_lat":-6.14505,"line":11,"transit":false,"station_id":"RJW","time":3,"i_long":106.836569},{"distance":1901,"station_id":"KMO","time":5,"transit":false,"is_transit":false,"station_name":"Kemayoran","i_lat":-6.161728,"i_long":106.839204,"line":11},{"station_name":"Pasar Senen","distance":1436,"i_long":106.84368,"is_transit":false,"transit":false,"line":11,"time":4,"station_id":"PSE","i_lat":-6.174784},{"i_long":106.850107,"transit":false,"station_name":"Gang Sentiong","time":8,"station_id":"GST","i_lat":-6.185975,"distance":1567,"is_transit":false,"line":11},{"i_lat":-6.193792,"transit":false,"line":11,"station_id":"KMT","station_name":"Kramat","distance":973,"is_transit":false,"i_long":106.855437,"time":1},{"time":2,"station_id":"POK","line":11,"distance":1829,"is_transit":false,"transit":false,"i_lat":-6.209188,"i_long":106.861737,"station_name":"Pondok Jati"},{"i_lat":-6.215091,"i_long":106.86807400000001,"line":1,"distance":1236,"time":9,"is_transit":false,"station_name":"Jatinegara","station_id":"JNG","transit":false}]]}