{"data":[[{"transit":false,"line":3,"is_transit":false,"distance":0,"i_long":106.640411,"time":0,"station_name":"Cisauk","i_lat":-6.32484,"station_id":"CSK"},{"distance":1784,"is_transit":false,"i_long":106.66566,"station_id":"SRP","transit":false,"time":4,"line":6,"station_name":"Serpong","i_lat":-6.319871},{"i_lat":-6.314823,"is_transit":false,"station_name":"Rawa Buntu","distance":2413,"transit":false,"i_long":106.675475,"station_id":"RU","line":6,"time":4},{"station_id":"SDM","line":6,"is_transit":false,"transit":false,"station_name":"Sudimara","time":6,"distance":4566,"i_long":106.712277,"i_lat":-6.296963},{"time":4,"distance":1994,"line":6,"station_name":"Jurangmangu","station_id":"JMU","is_transit":false,"i_lat":-6.288927,"transit":false,"i_long":106.728916},{"distance":2179,"line":6,"i_lat":-6.276362,"i_long":106.74273,"station_id":"PDJ","transit":false,"station_name":"Pondokranji","is_transit":false,"time":3},{"line":6,"distance":6218,"is_transit":false,"station_name":"Kebayoran","transit":false,"i_long":106.780334,"station_id":"KBY","time":8,"i_lat":-6.237242},{"time":7,"i_long":106.79689,"line":6,"station_name":"Palmerah","i_lat":-6.207404,"transit":false,"station_id":"PLM","distance":3737,"is_transit":false},{"time":6,"i_lat":-6.185545,"transit":true,"i_long":106.811091,"station_id":"THB","is_transit":true,"distance":3191,"station_name":"Tanah Abang","line":1},{"station_id":"DU","distance":3632,"i_long":106.800832,"transit":false,"is_transit":false,"time":8,"station_name":"Duri","i_lat":-6.155215,"line":1},{"line":1,"station_name":"Angke","station_id":"AK","distance":1230,"transit":false,"i_lat":-6.144674,"is_transit":false,"time":4,"i_long":106.79867},{"is_transit":true,"distance":4102,"station_id":"KPB","i_lat":-6.132549,"transit":true,"i_long":106.826365,"time":9,"line":4,"station_name":"Kampung Bandan"},{"distance":2185,"line":4,"station_name":"Ancol","station_id":"AC","time":4,"i_lat":-6.128023,"i_long":106.84464,"transit":false,"is_transit":false}],[{"station_name":"Cisauk","station_id":"CSK","is_transit":false,"transit":false,"distance":0,"i_long":106.640411,"time":0,"i_lat":-6.32484,"line":3},{"i_lat":-6.319871,"i_long":106.66566,"is_transit":false,"time":4,"station_id":"SRP","station_name":"Serpong","line":6,"transit":false,"distance":1784},{"time":4,"is_transit":false,"station_id":"RU","i_lat":-6.314823,"i_long":106.675475,"transit":false,"distance":2413,"station_name":"Rawa Buntu","line":6},{"station_name":"Sudimara","line":6,"is_transit":false,"i_long":106.712277,"distance":4566,"station_id":"SDM","transit":false,"i_lat":-6.296963,"time":6},{"i_lat":-6.288927,"distance":1994,"line":6,"station_name":"Jurangmangu","i_long":106.728916,"transit":false,"is_transit":false,"station_id":"JMU","time":4},{"time":3,"distance":2179,"i_long":106.74273,"station_id":"PDJ","transit":false,"line":6,"station_name":"Pondokranji","i_lat":-6.276362,"is_transit":false},{"time":8,"distance":6218,"i_long":106.780334,"line":6,"station_id":"KBY","is_transit":false,"i_lat":-6.237242,"station_name":"Kebayoran","transit":false},{"station_id":"PLM","i_long":106.79689,"i_lat":-6.207404,"distance":3737,"station_name":"Palmerah","time":7,"line":6,"is_transit":false,"transit":false},{"line":1,"time":6,"distance":3191,"i_long":106.811091,"transit":true,"station_id":"THB","i_lat":-6.185545,"station_name":"Tanah Abang","is_transit":true},{"line":1,"transit":false,"is_transit":false,"i_long":106.816351,"i_lat":-6.20132,"station_id":"KAT","time":5,"station_name":"Karet","distance":2029},{"station_name":"Sudirman Baru","station_id":"SUDB","is_transit":false,"i_lat":-6.201433,"time":1,"i_long":106.819881,"distance":471,"transit":false,"line":1},{"station_name":"Sudirman","is_transit":false,"time":1,"i_lat":-6.202263,"transit":false,"station_id":"SUD","i_long":106.822649,"distance":280,"line":1},{"transit":true,"time":4,"is_transit":true,"station_id":"MRI","i_lat":-6.209883,"distance":3186,"line":2,"station_name":"Manggarai","i_long":106.84912},{"i_long":106.840169,"time":4,"station_name":"Cikini","transit":false,"distance":1590,"line":2,"station_id":"CKI","is_transit":false,"i_lat":-6.198556},{"is_transit":false,"i_lat":-6.186295,"station_name":"Gondangdia","time":3,"i_long":106.832183,"line":2,"transit":false,"station_id":"GDD","distance":1750},{"line":2,"is_transit":false,"station_id":"JUA","station_name":"Juanda","i_long":106.828284,"transit":false,"time":4,"distance":2015,"i_lat":-6.166716},{"is_transit":false,"line":2,"transit":false,"distance":1149,"i_long":106.827103,"time":2,"i_lat":-6.160725,"station_name":"Sawah Besar","station_id":"SW"},{"transit":false,"distance":906,"station_id":"MGB","is_transit":false,"time":2,"station_name":"Manggabesar","i_long":106.82482,"i_lat":-6.149769,"line":2},{"i_lat":-6.141205,"time":2,"station_name":"Jayakarta","i_long":106.820901,"station_id":"JAY","line":2,"is_transit":false,"distance":1080,"transit":false},{"is_transit":true,"distance":1264,"line":2,"transit":true,"i_long":106.812439,"i_lat":-6.137569,"time":4,"station_id":"JAKK","station_name":"Jakarta Kota"},{"time":3,"is_transit":true,"distance":1364,"i_long":106.826365,"station_name":"Kampung Bandan","i_lat":-6.132549,"line":4,"station_id":"KPB","transit":true},{"is_transit":false,"distance":2185,"transit":false,"time":4,"line":4,"station_id":"AC","i_long":106.84464,"i_lat":-6.128023,"station_name":"Ancol"}],[{"i_lat":-6.32484,"time":0,"distance":0,"station_name":"Cisauk","i_long":106.640411,"line":3,"station_id":"CSK","transit":false,"is_transit":false},{"station_id":"SRP","transit":false,"time":4,"i_lat":-6.319871,"i_long":106.66566,"line":6,"is_transit":false,"distance":1784,"station_name":"Serpong"},{"distance":2413,"line":6,"time":4,"station_id":"RU","transit":false,"is_transit":false,"station_name":"Rawa Buntu","i_lat":-6.314823,"i_long":106.675475},{"is_transit":false,"i_long":106.712277,"time":6,"station_name":"Sudimara","i_lat":-6.296963,"station_id":"SDM","distance":4566,"transit":false,"line":6},{"is_transit":false,"station_name":"Jurangmangu","station_id":"JMU","i_long":106.728916,"i_lat":-6.288927,"transit":false,"time":4,"line":6,"distance":1994},{"station_name":"Pondokranji","i_long":106.74273,"transit":false,"i_lat":-6.276362,"time":3,"station_id":"PDJ","line":6,"is_transit":false,"distance":2179},{"station_name":"Kebayoran","distance":6218,"is_transit":false,"transit":false,"time":8,"line":6,"station_id":"KBY","i_lat":-6.237242,"i_long":106.780334},{"distance":3737,"time":7,"station_id":"PLM","station_name":"Palmerah","i_lat":-6.207404,"i_long":106.79689,"line":6,"transit":false,"is_transit":false},{"line":1,"station_name":"Tanah Abang","i_long":106.811091,"transit":true,"distance":3191,"i_lat":-6.185545,"is_transit":true,"time":6,"station_id":"THB"},{"is_transit":false,"station_id":"KAT","time":5,"transit":false,"i_lat":-6.20132,"i_long":106.816351,"line":1,"distance":2029,"station_name":"Karet"},{"station_name":"Sudirman Baru","i_long":106.819881,"line":1,"time":1,"i_lat":-6.201433,"station_id":"SUDB","distance":471,"transit":false,"is_transit":false},{"distance":280,"i_long":106.822649,"station_name":"Sudirman","time":1,"line":1,"transit":false,"i_lat":-6.202263,"station_id":"SUD","is_transit":false},{"i_long":106.84912,"station_name":"Manggarai","i_lat":-6.209883,"line":2,"distance":3186,"transit":false,"time":4,"station_id":"MRI","is_transit":false},{"i_lat":-6.212485,"line":1,"station_id":"MTR","distance":1275,"transit":false,"station_name":"Matraman","is_transit":false,"i_long":106.858896,"time":2},{"is_transit":true,"i_long":106.86807400000001,"distance":1377,"line":1,"station_name":"Jatinegara","i_lat":-6.215091,"time":8,"transit":true,"station_id":"JNG"},{"line":11,"time":2,"i_long":106.861737,"transit":false,"distance":1236,"station_id":"POK","is_transit":false,"i_lat":-6.209188,"station_name":"Pondok Jati"},{"station_id":"KMT","transit":false,"i_lat":-6.193792,"time":2,"station_name":"Kramat","is_transit":false,"distance":1829,"i_long":106.855437,"line":11},{"line":11,"is_transit":false,"transit":false,"station_name":"Gang Sentiong","station_id":"GST","i_lat":-6.185975,"time":1,"i_long":106.850107,"distance":973},{"i_long":106.84368,"station_name":"Pasar Senen","is_transit":false,"i_lat":-6.174784,"distance":1567,"time":8,"station_id":"PSE","transit":false,"line":11},{"line":11,"transit":false,"time":4,"station_id":"KMO","is_transit":false,"i_lat":-6.161728,"i_long":106.839204,"distance":1436,"station_name":"Kemayoran"},{"transit":false,"time":5,"line":11,"is_transit":false,"distance":1901,"i_lat":-6.14505,"i_long":106.836569,"station_name":"Rajawali","station_id":"RJW"},{"transit":true,"station_id":"KPB","i_long":106.826365,"line":4,"distance":1444,"time":3,"station_name":"Kampung Bandan","is_transit":true,"i_lat":-6.132549},{"time":4,"distance":2185,"station_name":"Ancol","line":4,"transit":false,"i_lat":-6.128023,"station_id":"AC","is_transit":false,"i_long":106.84464}]]}