{"data":[[{"time":0,"station_name":"Cisauk","distance":0,"transit":false,"i_lat":-6.32484,"i_long":106.640411,"line":0,"is_transit":false,"station_id":"CSK"},{"i_lat":-6.319871,"time":4,"distance":1784,"i_long":106.66566,"is_transit":false,"transit":false,"line":6,"station_name":"Serpong","station_id":"SRP"},{"line":6,"i_lat":-6.314823,"transit":false,"distance":2413,"station_id":"RU","time":4,"station_name":"Rawa Buntu","i_long":106.675475,"is_transit":false},{"station_id":"SDM","station_name":"Sudimara","time":6,"transit":false,"is_transit":false,"i_lat":-6.296963,"line":6,"i_long":106.712277,"distance":4566},{"transit":false,"time":4,"distance":1994,"station_id":"JMU","i_long":106.728916,"line":6,"station_name":"Jurangmangu","is_transit":false,"i_lat":-6.288927},{"is_transit":false,"i_lat":-6.276362,"station_id":"PDJ","transit":false,"i_long":106.74273,"line":6,"distance":2179,"station_name":"Pondokranji","time":3},{"station_id":"KBY","is_transit":false,"station_name":"Kebayoran","line":6,"transit":false,"time":8,"i_lat":-6.237242,"i_long":106.780334,"distance":6218},{"is_transit":false,"transit":false,"time":7,"station_id":"PLM","distance":3737,"line":6,"i_long":106.79689,"station_name":"Palmerah","i_lat":-6.207404},{"station_name":"Tanah Abang","line":1,"i_lat":-6.185545,"is_transit":true,"station_id":"THB","time":6,"distance":3191,"transit":true,"i_long":106.811091},{"is_transit":false,"i_long":106.816351,"line":1,"distance":2029,"i_lat":-6.20132,"station_name":"Karet","transit":false,"time":5,"station_id":"KAT"},{"transit":false,"line":1,"distance":471,"station_id":"SUDB","station_name":"Sudirman Baru","i_long":106.819881,"i_lat":-6.201433,"is_transit":false,"time":1},{"line":1,"is_transit":false,"transit":false,"distance":280,"time":1,"i_long":106.822649,"i_lat":-6.202263,"station_name":"Sudirman","station_id":"SUD"},{"time":4,"station_id":"MRI","is_transit":true,"distance":3186,"i_long":106.84912,"station_name":"Manggarai","transit":true,"i_lat":-6.209883,"line":0},{"i_lat":-6.226659,"i_long":106.857948,"transit":false,"time":4,"distance":2610,"station_id":"TEB","line":2,"is_transit":false,"station_name":"Tebet"},{"distance":1230,"i_lat":-6.242512,"i_long":106.856607,"station_id":"CW","is_transit":false,"time":2,"station_name":"Cawang","line":0,"transit":false},{"time":3,"i_long":106.85449,"transit":false,"i_lat":-6.255332,"station_name":"Duren Kalibata","distance":1546,"station_id":"DRN","line":0,"is_transit":false},{"line":2,"transit":false,"time":2,"station_id":"PSMB","station_name":"Pasar Minggu Baru","is_transit":false,"distance":824,"i_lat":-6.263214,"i_long":106.851577},{"station_id":"PSM","is_transit":false,"station_name":"Pasar Minggu","transit":false,"i_lat":-6.2842400000000005,"i_long":106.843999,"line":2,"distance":2380,"time":2},{"distance":2820,"i_long":106.838896,"time":4,"is_transit":false,"station_id":"TNT","transit":false,"station_name":"Tanjung Barat","line":2,"i_lat":-6.3080680000000005},{"is_transit":false,"time":3,"transit":false,"distance":2671,"line":2,"station_name":"Lenteng Agung","i_lat":-6.330363,"station_id":"LNA","i_long":106.832616},{"line":2,"is_transit":false,"distance":1029,"time":2,"station_name":"Univ. Pancasila","transit":false,"i_long":106.834175,"station_id":"UP","i_lat":-6.339291},{"time":3,"i_lat":-6.360749,"is_transit":false,"i_long":106.831474,"distance":2264,"transit":false,"station_name":"Univ. Indonesia","line":2,"station_id":"UI"},{"time":2,"transit":false,"distance":1109,"line":2,"is_transit":false,"station_id":"POC","station_name":"Pondok Cina","i_lat":-6.369073,"i_long":106.831114},{"i_lat":-6.391065,"distance":2727,"station_id":"DPB","is_transit":false,"station_name":"Depokbaru","transit":false,"i_long":106.819451,"line":0,"time":4},{"i_lat":-6.405256,"line":0,"station_name":"Depok","time":3,"transit":false,"i_long":106.816926,"station_id":"DP","distance":1584,"is_transit":false},{"station_name":"Citayam","distance":5084,"line":1,"time":6,"station_id":"CTA","i_lat":-6.448811,"transit":false,"i_long":106.800298,"is_transit":true},{"transit":false,"station_id":"BJD","time":5,"i_lat":-6.493243,"i_long":106.792719,"is_transit":false,"line":0,"distance":5197,"station_name":"Bojonggede"},{"station_name":"Cilebut","line":0,"i_long":106.800016,"distance":4331,"is_transit":false,"time":5,"station_id":"CLT","transit":false,"i_lat":-6.530544},{"i_long":106.790574,"station_name":"Bogor","station_id":"BOO","time":9,"is_transit":true,"transit":false,"line":1,"distance":7514,"i_lat":-6.594596}],[{"time":0,"line":0,"i_lat":-6.32484,"station_name":"Cisauk","i_long":106.640411,"transit":false,"is_transit":false,"distance":0,"station_id":"CSK"},{"line":6,"station_name":"Serpong","is_transit":false,"time":4,"transit":false,"i_long":106.66566,"station_id":"SRP","distance":1784,"i_lat":-6.319871},{"i_long":106.675475,"line":6,"station_name":"Rawa Buntu","station_id":"RU","time":4,"is_transit":false,"distance":2413,"transit":false,"i_lat":-6.314823},{"is_transit":false,"station_name":"Sudimara","station_id":"SDM","transit":false,"i_lat":-6.296963,"distance":4566,"line":6,"time":6,"i_long":106.712277},{"distance":1994,"time":4,"station_name":"Jurangmangu","station_id":"JMU","i_lat":-6.288927,"i_long":106.728916,"transit":false,"is_transit":false,"line":6},{"is_transit":false,"i_long":106.74273,"station_id":"PDJ","time":3,"station_name":"Pondokranji","distance":2179,"i_lat":-6.276362,"line":6,"transit":false},{"i_lat":-6.237242,"transit":false,"is_transit":false,"distance":6218,"i_long":106.780334,"station_name":"Kebayoran","line":6,"time":8,"station_id":"KBY"},{"is_transit":false,"transit":false,"i_lat":-6.207404,"line":6,"time":7,"station_name":"Palmerah","station_id":"PLM","i_long":106.79689,"distance":3737},{"i_lat":-6.185545,"is_transit":true,"station_id":"THB","time":6,"distance":3191,"station_name":"Tanah Abang","i_long":106.811091,"line":1,"transit":true},{"line":1,"is_transit":true,"i_lat":-6.155215,"station_id":"DU","time":8,"station_name":"Duri","i_long":106.800832,"distance":3632,"transit":true},{"i_lat":-6.144674,"time":4,"transit":false,"is_transit":false,"station_name":"Angke","line":0,"station_id":"AK","i_long":106.79867,"distance":1230},{"time":9,"i_lat":-6.132549,"line":0,"station_id":"KPB","is_transit":true,"transit":false,"distance":4102,"i_long":106.826365,"station_name":"Kampung Bandan"},{"station_id":"JAKK","i_long":106.812439,"time":3,"distance":1364,"is_transit":true,"transit":true,"station_name":"Jakarta Kota","line":0,"i_lat":-6.137569},{"i_long":106.820901,"i_lat":-6.141205,"station_id":"JAY","is_transit":false,"station_name":"Jayakarta","time":4,"line":7,"distance":1264,"transit":false},{"time":2,"distance":1080,"is_transit":false,"transit":false,"station_id":"MGB","i_long":106.82482,"i_lat":-6.149769,"station_name":"Manggabesar","line":2},{"station_name":"Sawah Besar","time":2,"distance":906,"is_transit":false,"i_long":106.827103,"line":2,"i_lat":-6.160725,"station_id":"SW","transit":false},{"distance":1149,"line":2,"i_long":106.828284,"i_lat":-6.166716,"is_transit":false,"time":2,"station_name":"Juanda","transit":false,"station_id":"JUA"},{"station_id":"GDD","line":2,"i_lat":-6.186295,"time":4,"i_long":106.832183,"is_transit":false,"station_name":"Gondangdia","transit":false,"distance":2015},{"time":3,"distance":1750,"line":0,"transit":false,"is_transit":false,"station_id":"CKI","station_name":"Cikini","i_lat":-6.198556,"i_long":106.840169},{"i_lat":-6.209883,"is_transit":true,"time":4,"i_long":106.84912,"line":0,"station_name":"Manggarai","station_id":"MRI","transit":true,"distance":1590},{"i_long":106.857948,"time":4,"station_id":"TEB","distance":2610,"station_name":"Tebet","i_lat":-6.226659,"transit":false,"line":2,"is_transit":false},{"distance":1230,"is_transit":false,"station_id":"CW","line":0,"station_name":"Cawang","i_lat":-6.242512,"i_long":106.856607,"transit":false,"time":2},{"is_transit":false,"line":0,"station_name":"Duren Kalibata","time":3,"distance":1546,"transit":false,"station_id":"DRN","i_long":106.85449,"i_lat":-6.255332},{"is_transit":false,"i_lat":-6.263214,"i_long":106.851577,"distance":824,"transit":false,"line":2,"station_id":"PSMB","time":2,"station_name":"Pasar Minggu Baru"},{"distance":2380,"i_lat":-6.2842400000000005,"time":2,"transit":false,"i_long":106.843999,"line":2,"is_transit":false,"station_id":"PSM","station_name":"Pasar Minggu"},{"time":4,"station_id":"TNT","i_lat":-6.3080680000000005,"is_transit":false,"station_name":"Tanjung Barat","distance":2820,"i_long":106.838896,"line":2,"transit":false},{"station_id":"LNA","time":3,"station_name":"Lenteng Agung","transit":false,"i_lat":-6.330363,"distance":2671,"is_transit":false,"i_long":106.832616,"line":2},{"distance":1029,"station_name":"Univ. Pancasila","i_long":106.834175,"is_transit":false,"time":2,"transit":false,"station_id":"UP","i_lat":-6.339291,"line":2},{"i_long":106.831474,"station_name":"Univ. Indonesia","i_lat":-6.360749,"distance":2264,"station_id":"UI","transit":false,"line":2,"time":3,"is_transit":false},{"station_id":"POC","i_long":106.831114,"time":2,"station_name":"Pondok Cina","is_transit":false,"distance":1109,"transit":false,"line":2,"i_lat":-6.369073},{"distance":2727,"i_long":106.819451,"station_name":"Depokbaru","station_id":"DPB","is_transit":false,"i_lat":-6.391065,"line":0,"transit":false,"time":4},{"i_long":106.816926,"distance":1584,"i_lat":-6.405256,"station_id":"DP","line":0,"station_name":"Depok","transit":false,"is_transit":false,"time":3},{"time":6,"station_id":"CTA","i_long":106.800298,"is_transit":true,"line":1,"distance":5084,"station_name":"Citayam","i_lat":-6.448811,"transit":false},{"line":0,"station_id":"BJD","is_transit":false,"time":5,"i_lat":-6.493243,"transit":false,"i_long":106.792719,"distance":5197,"station_name":"Bojonggede"},{"transit":false,"is_transit":false,"i_lat":-6.530544,"i_long":106.800016,"station_id":"CLT","time":5,"distance":4331,"station_name":"Cilebut","line":0},{"is_transit":true,"time":9,"station_name":"Bogor","transit":false,"i_long":106.790574,"i_lat":-6.594596,"distance":7514,"station_id":"BOO","line":1}],[{"transit":false,"i_long":106.640411,"station_id":"CSK","i_lat":-6.32484,"station_name":"Cisauk","line":0,"time":0,"distance":0,"is_transit":false},{"transit":false,"i_long":106.66566,"is_transit":false,"i_lat":-6.319871,"distance":1784,"station_name":"Serpong","line":6,"station_id":"SRP","time":4},{"station_name":"Rawa Buntu","transit":false,"line":6,"time":4,"i_lat":-6.314823,"station_id":"RU","is_transit":false,"i_long":106.675475,"distance":2413},{"distance":4566,"time":6,"i_lat":-6.296963,"is_transit":false,"line":6,"station_id":"SDM","transit":false,"i_long":106.712277,"station_name":"Sudimara"},{"is_transit":false,"station_id":"JMU","transit":false,"time":4,"line":6,"station_name":"Jurangmangu","distance":1994,"i_lat":-6.288927,"i_long":106.728916},{"line":6,"station_id":"PDJ","transit":false,"i_long":106.74273,"i_lat":-6.276362,"is_transit":false,"station_name":"Pondokranji","time":3,"distance":2179},{"transit":false,"line":6,"distance":6218,"station_name":"Kebayoran","time":8,"is_transit":false,"station_id":"KBY","i_lat":-6.237242,"i_long":106.780334},{"line":6,"i_lat":-6.207404,"transit":false,"time":7,"i_long":106.79689,"station_id":"PLM","is_transit":false,"station_name":"Palmerah","distance":3737},{"transit":true,"distance":3191,"i_lat":-6.185545,"i_long":106.811091,"line":1,"station_id":"THB","time":6,"station_name":"Tanah Abang","is_transit":true},{"i_long":106.800832,"distance":3632,"is_transit":true,"line":1,"time":8,"station_id":"DU","transit":true,"i_lat":-6.155215,"station_name":"Duri"},{"is_transit":false,"time":4,"distance":1230,"station_name":"Angke","transit":false,"i_long":106.79867,"i_lat":-6.144674,"line":0,"station_id":"AK"},{"i_long":106.826365,"station_id":"KPB","time":9,"is_transit":true,"distance":4102,"i_lat":-6.132549,"station_name":"Kampung Bandan","transit":true,"line":0},{"is_transit":false,"line":11,"distance":1444,"station_id":"RJW","transit":false,"time":3,"station_name":"Rajawali","i_long":106.836569,"i_lat":-6.14505},{"time":5,"transit":false,"distance":1901,"station_id":"KMO","station_name":"Kemayoran","i_long":106.839204,"line":11,"is_transit":false,"i_lat":-6.161728},{"i_long":106.84368,"station_name":"Pasar Senen","is_transit":false,"station_id":"PSE","i_lat":-6.174784,"time":4,"transit":false,"line":11,"distance":1436},{"time":8,"line":11,"i_long":106.850107,"station_id":"GST","is_transit":false,"station_name":"Gang Sentiong","transit":false,"distance":1567,"i_lat":-6.185975},{"i_lat":-6.193792,"station_name":"Kramat","is_transit":false,"transit":false,"line":11,"station_id":"KMT","time":1,"distance":973,"i_long":106.855437},{"transit":false,"station_name":"Pondok Jati","station_id":"POK","distance":1829,"time":2,"i_lat":-6.209188,"line":11,"is_transit":false,"i_long":106.861737},{"line":0,"i_lat":-6.215091,"distance":1236,"transit":true,"time":9,"station_id":"JNG","is_transit":true,"station_name":"Jatinegara","i_long":106.86807400000001},{"i_long":106.858896,"i_lat":-6.212485,"line":1,"distance":1377,"station_name":"Matraman","transit":false,"time":2,"is_transit":false,"station_id":"MTR"},{"i_lat":-6.209883,"station_name":"Manggarai","transit":true,"station_id":"MRI","i_long":106.84912,"is_transit":true,"time":2,"line":0,"distance":1275},{"time":4,"distance":2610,"line":2,"i_long":106.857948,"transit":false,"i_lat":-6.226659,"is_transit":false,"station_name":"Tebet","station_id":"TEB"},{"transit":false,"line":0,"distance":1230,"i_long":106.856607,"i_lat":-6.242512,"time":2,"station_id":"CW","station_name":"Cawang","is_transit":false},{"i_long":106.85449,"i_lat":-6.255332,"transit":false,"station_name":"Duren Kalibata","time":3,"station_id":"DRN","is_transit":false,"distance":1546,"line":0},{"is_transit":false,"distance":824,"time":2,"station_name":"Pasar Minggu Baru","station_id":"PSMB","line":2,"i_long":106.851577,"transit":false,"i_lat":-6.263214},{"transit":false,"time":2,"is_transit":false,"distance":2380,"i_lat":-6.2842400000000005,"station_id":"PSM","i_long":106.843999,"line":2,"station_name":"Pasar Minggu"},{"i_lat":-6.3080680000000005,"is_transit":false,"i_long":106.838896,"time":4,"station_id":"TNT","transit":false,"line":2,"distance":2820,"station_name":"Tanjung Barat"},{"i_lat":-6.330363,"distance":2671,"station_id":"LNA","transit":false,"line":2,"time":3,"station_name":"Lenteng Agung","i_long":106.832616,"is_transit":false},{"is_transit":false,"distance":1029,"transit":false,"i_lat":-6.339291,"line":2,"i_long":106.834175,"station_id":"UP","time":2,"station_name":"Univ. Pancasila"},{"time":3,"line":2,"i_lat":-6.360749,"station_id":"UI","is_transit":false,"transit":false,"distance":2264,"station_name":"Univ. Indonesia","i_long":106.831474},{"time":2,"transit":false,"is_transit":false,"station_name":"Pondok Cina","station_id":"POC","distance":1109,"i_lat":-6.369073,"i_long":106.831114,"line":2},{"is_transit":false,"transit":false,"line":0,"distance":2727,"i_long":106.819451,"time":4,"station_id":"DPB","station_name":"Depokbaru","i_lat":-6.391065},{"line":0,"distance":1584,"time":3,"station_name":"Depok","is_transit":false,"i_lat":-6.405256,"i_long":106.816926,"transit":false,"station_id":"DP"},{"time":6,"station_id":"CTA","distance":5084,"is_transit":true,"i_lat":-6.448811,"i_long":106.800298,"station_name":"Citayam","transit":false,"line":1},{"line":0,"transit":false,"i_long":106.792719,"distance":5197,"time":5,"station_id":"BJD","station_name":"Bojonggede","is_transit":false,"i_lat":-6.493243},{"is_transit":false,"station_name":"Cilebut","distance":4331,"transit":false,"station_id":"CLT","time":5,"i_lat":-6.530544,"line":0,"i_long":106.800016},{"time":9,"line":1,"station_name":"Bogor","i_lat":-6.594596,"distance":7514,"i_long":106.790574,"transit":false,"station_id":"BOO","is_transit":true}]]}