{"data":[[{"transit":false,"i_lat":-6.32484,"station_name":"Cisauk","station_id":"CSK","time":0,"i_long":106.640411,"distance":0,"is_transit":false,"line":0},{"station_name":"Serpong","i_lat":-6.319871,"i_long":106.66566,"line":6,"transit":false,"station_id":"SRP","time":4,"is_transit":false,"distance":1784},{"station_name":"Rawa Buntu","is_transit":false,"station_id":"RU","time":4,"transit":false,"distance":2413,"i_lat":-6.314823,"i_long":106.675475,"line":6},{"station_name":"Sudimara","time":6,"transit":false,"i_long":106.712277,"line":6,"is_transit":false,"i_lat":-6.296963,"station_id":"SDM","distance":4566},{"distance":1994,"station_id":"JMU","time":4,"i_long":106.728916,"is_transit":false,"line":6,"transit":false,"i_lat":-6.288927,"station_name":"Jurangmangu"},{"i_long":106.74273,"station_id":"PDJ","time":3,"distance":2179,"transit":false,"is_transit":false,"station_name":"Pondokranji","i_lat":-6.276362,"line":6},{"transit":false,"distance":6218,"i_lat":-6.237242,"line":6,"i_long":106.780334,"station_id":"KBY","station_name":"Kebayoran","is_transit":false,"time":8},{"distance":3737,"i_lat":-6.207404,"time":7,"transit":false,"is_transit":false,"i_long":106.79689,"line":6,"station_name":"Palmerah","station_id":"PLM"},{"station_name":"Tanah Abang","i_long":106.811091,"line":1,"i_lat":-6.185545,"station_id":"THB","transit":true,"distance":3191,"is_transit":true,"time":6},{"distance":3632,"time":8,"line":1,"i_long":106.800832,"i_lat":-6.155215,"transit":true,"station_id":"DU","station_name":"Duri","is_transit":true},{"station_name":"Angke","i_long":106.79867,"station_id":"AK","i_lat":-6.144674,"is_transit":false,"time":4,"distance":1230,"line":0,"transit":false},{"station_name":"Kampung Bandan","station_id":"KPB","distance":4102,"i_lat":-6.132549,"transit":true,"i_long":106.826365,"is_transit":true,"line":0,"time":9},{"station_id":"RJW","station_name":"Rajawali","line":11,"is_transit":false,"distance":1444,"i_lat":-6.14505,"transit":false,"i_long":106.836569,"time":3},{"is_transit":false,"time":5,"transit":false,"station_id":"KMO","station_name":"Kemayoran","distance":1901,"i_lat":-6.161728,"line":11,"i_long":106.839204}],[{"i_long":106.640411,"distance":0,"station_name":"Cisauk","station_id":"CSK","is_transit":false,"transit":false,"time":0,"i_lat":-6.32484,"line":0},{"distance":1784,"station_name":"Serpong","station_id":"SRP","line":6,"time":4,"i_lat":-6.319871,"is_transit":false,"transit":false,"i_long":106.66566},{"station_name":"Rawa Buntu","station_id":"RU","time":4,"distance":2413,"i_long":106.675475,"is_transit":false,"transit":false,"line":6,"i_lat":-6.314823},{"i_long":106.712277,"station_id":"SDM","station_name":"Sudimara","i_lat":-6.296963,"distance":4566,"line":6,"is_transit":false,"time":6,"transit":false},{"time":4,"distance":1994,"is_transit":false,"i_long":106.728916,"line":6,"station_name":"Jurangmangu","station_id":"JMU","i_lat":-6.288927,"transit":false},{"i_long":106.74273,"line":6,"transit":false,"time":3,"i_lat":-6.276362,"is_transit":false,"station_name":"Pondokranji","station_id":"PDJ","distance":2179},{"station_id":"KBY","transit":false,"i_long":106.780334,"is_transit":false,"line":6,"time":8,"distance":6218,"station_name":"Kebayoran","i_lat":-6.237242},{"station_name":"Palmerah","transit":false,"line":6,"distance":3737,"is_transit":false,"station_id":"PLM","i_lat":-6.207404,"time":7,"i_long":106.79689},{"i_lat":-6.185545,"line":1,"station_id":"THB","time":6,"i_long":106.811091,"distance":3191,"transit":true,"is_transit":true,"station_name":"Tanah Abang"},{"station_name":"Karet","distance":2029,"i_lat":-6.20132,"is_transit":false,"time":5,"transit":false,"line":1,"i_long":106.816351,"station_id":"KAT"},{"i_lat":-6.201433,"station_name":"Sudirman Baru","station_id":"SUDB","time":1,"i_long":106.819881,"line":1,"transit":false,"is_transit":false,"distance":471},{"time":1,"i_long":106.822649,"station_name":"Sudirman","distance":280,"transit":false,"station_id":"SUD","i_lat":-6.202263,"line":1,"is_transit":false},{"time":4,"distance":3186,"station_id":"MRI","transit":false,"is_transit":true,"station_name":"Manggarai","i_lat":-6.209883,"i_long":106.84912,"line":0},{"distance":1275,"i_lat":-6.212485,"line":1,"is_transit":false,"time":2,"station_id":"MTR","station_name":"Matraman","i_long":106.858896,"transit":false},{"is_transit":true,"i_lat":-6.215091,"distance":1377,"i_long":106.86807400000001,"station_id":"JNG","transit":true,"line":0,"time":8,"station_name":"Jatinegara"},{"line":11,"station_id":"POK","i_long":106.861737,"time":2,"is_transit":false,"station_name":"Pondok Jati","transit":false,"distance":1236,"i_lat":-6.209188},{"station_name":"Kramat","is_transit":false,"i_lat":-6.193792,"transit":false,"i_long":106.855437,"distance":1829,"line":11,"station_id":"KMT","time":2},{"i_lat":-6.185975,"line":11,"transit":false,"station_name":"Gang Sentiong","distance":973,"is_transit":false,"time":1,"i_long":106.850107,"station_id":"GST"},{"is_transit":false,"time":8,"transit":false,"i_lat":-6.174784,"i_long":106.84368,"station_id":"PSE","line":11,"distance":1567,"station_name":"Pasar Senen"},{"station_name":"Kemayoran","i_lat":-6.161728,"distance":1436,"i_long":106.839204,"station_id":"KMO","time":4,"is_transit":false,"transit":false,"line":11}],[{"line":0,"station_name":"Cisauk","is_transit":false,"station_id":"CSK","i_long":106.640411,"distance":0,"transit":false,"i_lat":-6.32484,"time":0},{"time":4,"is_transit":false,"transit":false,"distance":1784,"i_lat":-6.319871,"i_long":106.66566,"station_name":"Serpong","line":6,"station_id":"SRP"},{"is_transit":false,"i_lat":-6.314823,"transit":false,"time":4,"station_name":"Rawa Buntu","i_long":106.675475,"station_id":"RU","distance":2413,"line":6},{"is_transit":false,"transit":false,"i_long":106.712277,"line":6,"i_lat":-6.296963,"distance":4566,"station_name":"Sudimara","time":6,"station_id":"SDM"},{"distance":1994,"time":4,"station_name":"Jurangmangu","transit":false,"station_id":"JMU","i_lat":-6.288927,"i_long":106.728916,"is_transit":false,"line":6},{"line":6,"time":3,"distance":2179,"is_transit":false,"i_long":106.74273,"i_lat":-6.276362,"station_name":"Pondokranji","station_id":"PDJ","transit":false},{"line":6,"is_transit":false,"station_id":"KBY","time":8,"station_name":"Kebayoran","i_long":106.780334,"transit":false,"distance":6218,"i_lat":-6.237242},{"is_transit":false,"station_name":"Palmerah","transit":false,"line":6,"i_long":106.79689,"station_id":"PLM","distance":3737,"time":7,"i_lat":-6.207404},{"line":1,"station_name":"Tanah Abang","station_id":"THB","is_transit":true,"distance":3191,"transit":true,"time":6,"i_long":106.811091,"i_lat":-6.185545},{"station_name":"Karet","distance":2029,"i_long":106.816351,"time":5,"transit":false,"i_lat":-6.20132,"line":1,"is_transit":false,"station_id":"KAT"},{"i_long":106.819881,"transit":false,"time":1,"station_name":"Sudirman Baru","line":1,"is_transit":false,"distance":471,"station_id":"SUDB","i_lat":-6.201433},{"distance":280,"station_id":"SUD","station_name":"Sudirman","transit":false,"is_transit":false,"i_lat":-6.202263,"time":1,"i_long":106.822649,"line":1},{"station_name":"Manggarai","is_transit":true,"distance":3186,"line":0,"station_id":"MRI","time":4,"transit":true,"i_long":106.84912,"i_lat":-6.209883},{"i_long":106.840169,"distance":1590,"time":4,"station_name":"Cikini","transit":false,"i_lat":-6.198556,"station_id":"CKI","is_transit":false,"line":0},{"time":3,"station_name":"Gondangdia","i_lat":-6.186295,"i_long":106.832183,"transit":false,"is_transit":false,"station_id":"GDD","distance":1750,"line":2},{"station_name":"Juanda","station_id":"JUA","is_transit":false,"i_lat":-6.166716,"time":4,"i_long":106.828284,"line":2,"transit":false,"distance":2015},{"time":2,"distance":1149,"station_id":"SW","transit":false,"i_lat":-6.160725,"station_name":"Sawah Besar","i_long":106.827103,"is_transit":false,"line":2},{"is_transit":false,"i_lat":-6.149769,"i_long":106.82482,"line":2,"time":2,"distance":906,"transit":false,"station_name":"Manggabesar","station_id":"MGB"},{"station_id":"JAY","transit":false,"is_transit":false,"station_name":"Jayakarta","distance":1080,"i_long":106.820901,"i_lat":-6.141205,"line":7,"time":2},{"station_id":"JAKK","time":4,"station_name":"Jakarta Kota","is_transit":true,"line":0,"distance":1264,"transit":true,"i_long":106.812439,"i_lat":-6.137569},{"station_id":"KPB","time":3,"is_transit":true,"line":0,"distance":1364,"i_long":106.826365,"i_lat":-6.132549,"transit":true,"station_name":"Kampung Bandan"},{"distance":1444,"i_lat":-6.14505,"i_long":106.836569,"station_id":"RJW","time":3,"station_name":"Rajawali","line":11,"is_transit":false,"transit":false},{"i_long":106.839204,"line":11,"station_id":"KMO","distance":1901,"station_name":"Kemayoran","is_transit":false,"time":5,"transit":false,"i_lat":-6.161728}],[{"line":0,"station_name":"Cisauk","distance":0,"time":0,"i_long":106.640411,"station_id":"CSK","transit":false,"i_lat":-6.32484,"is_transit":false},{"is_transit":false,"distance":1784,"station_name":"Serpong","time":4,"i_long":106.66566,"station_id":"SRP","line":6,"i_lat":-6.319871,"transit":false},{"time":4,"distance":2413,"station_name":"Rawa Buntu","line":6,"is_transit":false,"i_lat":-6.314823,"i_long":106.675475,"transit":false,"station_id":"RU"},{"is_transit":false,"distance":4566,"station_name":"Sudimara","transit":false,"i_long":106.712277,"line":6,"station_id":"SDM","time":6,"i_lat":-6.296963},{"station_name":"Jurangmangu","distance":1994,"station_id":"JMU","is_transit":false,"transit":false,"i_lat":-6.288927,"i_long":106.728916,"line":6,"time":4},{"distance":2179,"transit":false,"station_name":"Pondokranji","station_id":"PDJ","is_transit":false,"time":3,"i_long":106.74273,"i_lat":-6.276362,"line":6},{"line":6,"station_id":"KBY","station_name":"Kebayoran","time":8,"is_transit":false,"i_lat":-6.237242,"i_long":106.780334,"distance":6218,"transit":false},{"station_id":"PLM","time":7,"transit":false,"line":6,"station_name":"Palmerah","i_long":106.79689,"distance":3737,"i_lat":-6.207404,"is_transit":false},{"transit":true,"station_id":"THB","is_transit":true,"time":6,"line":1,"i_lat":-6.185545,"i_long":106.811091,"station_name":"Tanah Abang","distance":3191},{"i_long":106.800832,"is_transit":true,"distance":3632,"station_name":"Duri","station_id":"DU","time":8,"i_lat":-6.155215,"line":1,"transit":true},{"transit":false,"distance":1230,"i_lat":-6.144674,"i_long":106.79867,"station_id":"AK","time":4,"is_transit":false,"station_name":"Angke","line":0},{"is_transit":true,"station_id":"KPB","transit":false,"station_name":"Kampung Bandan","distance":4102,"i_long":106.826365,"time":9,"line":0,"i_lat":-6.132549},{"i_lat":-6.137569,"i_long":106.812439,"transit":true,"station_id":"JAKK","time":3,"distance":1364,"station_name":"Jakarta Kota","line":0,"is_transit":true},{"transit":false,"is_transit":false,"i_lat":-6.141205,"station_id":"JAY","i_long":106.820901,"line":7,"distance":1264,"station_name":"Jayakarta","time":4},{"distance":1080,"station_name":"Manggabesar","i_lat":-6.149769,"line":2,"station_id":"MGB","transit":false,"i_long":106.82482,"is_transit":false,"time":2},{"station_name":"Sawah Besar","i_long":106.827103,"is_transit":false,"transit":false,"i_lat":-6.160725,"station_id":"SW","time":2,"line":2,"distance":906},{"transit":false,"is_transit":false,"time":2,"station_name":"Juanda","line":2,"station_id":"JUA","i_lat":-6.166716,"i_long":106.828284,"distance":1149},{"transit":false,"is_transit":false,"time":4,"i_lat":-6.186295,"line":2,"station_name":"Gondangdia","i_long":106.832183,"station_id":"GDD","distance":2015},{"i_lat":-6.198556,"station_id":"CKI","distance":1750,"is_transit":false,"i_long":106.840169,"station_name":"Cikini","transit":false,"time":3,"line":0},{"station_id":"MRI","distance":1590,"i_lat":-6.209883,"time":4,"station_name":"Manggarai","line":0,"transit":true,"i_long":106.84912,"is_transit":true},{"station_name":"Matraman","time":2,"i_long":106.858896,"station_id":"MTR","i_lat":-6.212485,"line":1,"transit":false,"is_transit":false,"distance":1275},{"i_long":106.86807400000001,"transit":true,"is_transit":true,"station_id":"JNG","line":0,"distance":1377,"station_name":"Jatinegara","i_lat":-6.215091,"time":8},{"time":2,"station_id":"POK","transit":false,"i_lat":-6.209188,"distance":1236,"line":11,"station_name":"Pondok Jati","i_long":106.861737,"is_transit":false},{"i_lat":-6.193792,"is_transit":false,"i_long":106.855437,"line":11,"station_id":"KMT","distance":1829,"station_name":"Kramat","transit":false,"time":2},{"station_id":"GST","time":1,"distance":973,"line":11,"i_lat":-6.185975,"i_long":106.850107,"is_transit":false,"station_name":"Gang Sentiong","transit":false},{"station_name":"Pasar Senen","i_long":106.84368,"time":8,"is_transit":false,"transit":false,"line":11,"station_id":"PSE","i_lat":-6.174784,"distance":1567},{"station_name":"Kemayoran","i_long":106.839204,"station_id":"KMO","is_transit":false,"time":4,"distance":1436,"transit":false,"i_lat":-6.161728,"line":11}]]}