{"data":[[{"i_long":106.640411,"time":0,"is_transit":false,"transit":false,"station_name":"Cisauk","i_lat":-6.32484,"distance":0,"station_id":"CSK","line":3},{"i_lat":-6.319871,"station_id":"SRP","station_name":"Serpong","time":4,"line":6,"transit":false,"is_transit":false,"distance":1784,"i_long":106.66566},{"station_name":"Rawa Buntu","i_long":106.675475,"station_id":"RU","transit":false,"time":4,"distance":2413,"i_lat":-6.314823,"line":6,"is_transit":false},{"i_lat":-6.296963,"station_id":"SDM","station_name":"Sudimara","time":6,"distance":4566,"is_transit":false,"transit":false,"line":6,"i_long":106.712277},{"station_name":"Jurangmangu","line":6,"transit":false,"i_lat":-6.288927,"time":4,"is_transit":false,"station_id":"JMU","i_long":106.728916,"distance":1994},{"transit":false,"station_id":"PDJ","station_name":"Pondokranji","is_transit":false,"time":3,"i_lat":-6.276362,"i_long":106.74273,"distance":2179,"line":6},{"time":8,"i_lat":-6.237242,"distance":6218,"line":6,"station_id":"KBY","transit":false,"i_long":106.780334,"station_name":"Kebayoran","is_transit":false},{"distance":3737,"transit":false,"i_long":106.79689,"i_lat":-6.207404,"station_name":"Palmerah","station_id":"PLM","line":6,"is_transit":false,"time":7},{"distance":3191,"station_name":"Tanah Abang","i_long":106.811091,"i_lat":-6.185545,"is_transit":true,"transit":true,"line":1,"station_id":"THB","time":6},{"line":1,"is_transit":false,"i_long":106.816351,"station_id":"KAT","station_name":"Karet","i_lat":-6.20132,"transit":false,"time":5,"distance":2029},{"i_lat":-6.201433,"transit":false,"station_name":"Sudirman Baru","time":1,"distance":471,"line":1,"station_id":"SUDB","is_transit":false,"i_long":106.819881},{"station_id":"SUD","station_name":"Sudirman","is_transit":false,"transit":false,"time":1,"i_lat":-6.202263,"distance":280,"i_long":106.822649,"line":1},{"station_name":"Manggarai","i_long":106.84912,"time":4,"i_lat":-6.209883,"is_transit":false,"distance":3186,"station_id":"MRI","line":2,"transit":false},{"station_id":"MTR","i_long":106.858896,"line":1,"is_transit":false,"station_name":"Matraman","transit":false,"distance":1275,"time":2,"i_lat":-6.212485},{"time":8,"line":1,"is_transit":false,"i_long":106.86807400000001,"i_lat":-6.215091,"station_id":"JNG","station_name":"Jatinegara","transit":false,"distance":1377},{"i_long":106.899548,"distance":3395,"transit":false,"line":1,"i_lat":-6.2135,"station_id":"KLD","station_name":"Klender","time":3,"is_transit":false},{"transit":false,"line":1,"i_long":106.922662,"is_transit":false,"station_name":"Buaran","time":2,"distance":3100,"station_id":"BUA","i_lat":-6.215568},{"time":1,"transit":false,"i_lat":-6.217455,"i_long":106.939679,"distance":1305,"is_transit":false,"station_id":"KLDB","line":1,"station_name":"Klenderbaru"},{"station_name":"Cakung","line":1,"time":8,"distance":1385,"i_long":106.951283,"i_lat":-6.219053,"is_transit":false,"transit":false,"station_id":"CUK"},{"is_transit":false,"station_id":"KRI","transit":false,"i_long":106.977657,"distance":3097,"time":3,"station_name":"Kranji","i_lat":-6.224515,"line":1},{"distance":2520,"time":4,"i_long":106.997013,"line":1,"is_transit":false,"station_name":"Bekasi","i_lat":-6.236616,"transit":false,"station_id":"BKS"},{"time":2,"i_long":107.016735,"is_transit":false,"distance":2368,"transit":false,"i_lat":-6.248029,"line":1,"station_name":"Bekasi Timur","station_id":"BKST"},{"transit":false,"station_id":"TB","is_transit":false,"i_lat":-6.258864,"time":7,"i_long":107.055722,"distance":4460,"station_name":"Tambun","line":1},{"station_id":"CIT","is_transit":false,"line":1,"distance":3420,"i_long":107.083084,"transit":false,"station_name":"Cibitung","i_lat":-6.261877,"time":3},{"transit":false,"line":1,"i_lat":-6.262938,"station_name":"Metland Telaga Murni","time":2,"is_transit":false,"i_long":107.093313,"station_id":"TLM","distance":2800}],[{"line":3,"transit":false,"time":0,"station_id":"CSK","distance":0,"i_lat":-6.32484,"i_long":106.640411,"is_transit":false,"station_name":"Cisauk"},{"distance":1784,"station_name":"Serpong","line":6,"time":4,"station_id":"SRP","i_long":106.66566,"transit":false,"is_transit":false,"i_lat":-6.319871},{"line":6,"distance":2413,"station_id":"RU","transit":false,"station_name":"Rawa Buntu","i_long":106.675475,"i_lat":-6.314823,"is_transit":false,"time":4},{"is_transit":false,"station_name":"Sudimara","time":6,"transit":false,"distance":4566,"line":6,"i_lat":-6.296963,"station_id":"SDM","i_long":106.712277},{"station_name":"Jurangmangu","i_long":106.728916,"transit":false,"station_id":"JMU","is_transit":false,"distance":1994,"i_lat":-6.288927,"time":4,"line":6},{"line":6,"i_lat":-6.276362,"time":3,"station_id":"PDJ","distance":2179,"i_long":106.74273,"station_name":"Pondokranji","is_transit":false,"transit":false},{"station_name":"Kebayoran","i_long":106.780334,"station_id":"KBY","transit":false,"i_lat":-6.237242,"is_transit":false,"time":8,"line":6,"distance":6218},{"transit":false,"distance":3737,"station_id":"PLM","i_lat":-6.207404,"time":7,"is_transit":false,"station_name":"Palmerah","i_long":106.79689,"line":6},{"is_transit":true,"i_lat":-6.185545,"time":6,"station_id":"THB","station_name":"Tanah Abang","distance":3191,"i_long":106.811091,"transit":true,"line":1},{"line":1,"time":8,"transit":false,"station_name":"Duri","i_lat":-6.155215,"is_transit":false,"i_long":106.800832,"station_id":"DU","distance":3632},{"station_id":"AK","station_name":"Angke","distance":1230,"is_transit":false,"transit":false,"line":1,"i_long":106.79867,"time":4,"i_lat":-6.144674},{"station_id":"KPB","is_transit":true,"transit":true,"station_name":"Kampung Bandan","line":4,"distance":4102,"i_long":106.826365,"i_lat":-6.132549,"time":9},{"time":3,"station_id":"RJW","is_transit":false,"distance":1444,"station_name":"Rajawali","transit":false,"i_lat":-6.14505,"i_long":106.836569,"line":11},{"station_id":"KMO","i_long":106.839204,"is_transit":false,"line":11,"distance":1901,"i_lat":-6.161728,"time":5,"station_name":"Kemayoran","transit":false},{"station_name":"Pasar Senen","i_long":106.84368,"time":4,"distance":1436,"is_transit":false,"station_id":"PSE","i_lat":-6.174784,"transit":false,"line":11},{"time":8,"station_id":"GST","transit":false,"i_lat":-6.185975,"i_long":106.850107,"distance":1567,"line":11,"station_name":"Gang Sentiong","is_transit":false},{"i_lat":-6.193792,"transit":false,"line":11,"station_name":"Kramat","distance":973,"i_long":106.855437,"is_transit":false,"time":1,"station_id":"KMT"},{"station_name":"Pondok Jati","transit":false,"i_lat":-6.209188,"i_long":106.861737,"is_transit":false,"distance":1829,"line":11,"time":2,"station_id":"POK"},{"line":1,"is_transit":true,"transit":true,"distance":1236,"i_lat":-6.215091,"station_name":"Jatinegara","time":9,"i_long":106.86807400000001,"station_id":"JNG"},{"station_name":"Klender","i_lat":-6.2135,"distance":3395,"station_id":"KLD","transit":false,"is_transit":false,"i_long":106.899548,"line":1,"time":3},{"transit":false,"station_id":"BUA","station_name":"Buaran","time":2,"i_long":106.922662,"i_lat":-6.215568,"distance":3100,"line":1,"is_transit":false},{"i_lat":-6.217455,"transit":false,"distance":1305,"i_long":106.939679,"time":1,"station_id":"KLDB","line":1,"station_name":"Klenderbaru","is_transit":false},{"station_id":"CUK","time":8,"i_long":106.951283,"is_transit":false,"i_lat":-6.219053,"station_name":"Cakung","transit":false,"line":1,"distance":1385},{"is_transit":false,"i_long":106.977657,"distance":3097,"transit":false,"time":3,"station_id":"KRI","i_lat":-6.224515,"station_name":"Kranji","line":1},{"time":4,"station_name":"Bekasi","distance":2520,"station_id":"BKS","i_lat":-6.236616,"i_long":106.997013,"line":1,"transit":false,"is_transit":false},{"distance":2368,"time":2,"is_transit":false,"i_lat":-6.248029,"station_name":"Bekasi Timur","station_id":"BKST","transit":false,"line":1,"i_long":107.016735},{"i_long":107.055722,"line":1,"time":7,"is_transit":false,"transit":false,"station_name":"Tambun","distance":4460,"i_lat":-6.258864,"station_id":"TB"},{"i_lat":-6.261877,"transit":false,"line":1,"station_id":"CIT","time":3,"i_long":107.083084,"is_transit":false,"station_name":"Cibitung","distance":3420},{"transit":false,"time":2,"line":1,"station_name":"Metland Telaga Murni","station_id":"TLM","is_transit":false,"distance":2800,"i_lat":-6.262938,"i_long":107.093313}],[{"time":0,"is_transit":false,"station_name":"Cisauk","transit":false,"station_id":"CSK","i_lat":-6.32484,"i_long":106.640411,"line":3,"distance":0},{"transit":false,"time":4,"station_name":"Serpong","i_lat":-6.319871,"line":6,"is_transit":false,"distance":1784,"i_long":106.66566,"station_id":"SRP"},{"station_id":"RU","time":4,"i_long":106.675475,"line":6,"station_name":"Rawa Buntu","distance":2413,"i_lat":-6.314823,"transit":false,"is_transit":false},{"station_id":"SDM","is_transit":false,"time":6,"distance":4566,"station_name":"Sudimara","transit":false,"line":6,"i_long":106.712277,"i_lat":-6.296963},{"i_long":106.728916,"station_name":"Jurangmangu","distance":1994,"time":4,"transit":false,"line":6,"is_transit":false,"i_lat":-6.288927,"station_id":"JMU"},{"time":3,"i_lat":-6.276362,"station_id":"PDJ","station_name":"Pondokranji","is_transit":false,"transit":false,"i_long":106.74273,"line":6,"distance":2179},{"line":6,"is_transit":false,"i_long":106.780334,"distance":6218,"station_id":"KBY","i_lat":-6.237242,"station_name":"Kebayoran","transit":false,"time":8},{"i_long":106.79689,"time":7,"is_transit":false,"distance":3737,"i_lat":-6.207404,"station_name":"Palmerah","station_id":"PLM","line":6,"transit":false},{"i_long":106.811091,"station_name":"Tanah Abang","is_transit":true,"time":6,"i_lat":-6.185545,"distance":3191,"transit":true,"station_id":"THB","line":1},{"transit":false,"i_lat":-6.155215,"line":1,"time":8,"station_id":"DU","distance":3632,"i_long":106.800832,"is_transit":false,"station_name":"Duri"},{"i_long":106.79867,"line":1,"transit":false,"station_id":"AK","time":4,"i_lat":-6.144674,"is_transit":false,"distance":1230,"station_name":"Angke"},{"i_long":106.826365,"station_id":"KPB","is_transit":true,"i_lat":-6.132549,"distance":4102,"line":4,"time":9,"transit":true,"station_name":"Kampung Bandan"},{"time":3,"i_long":106.812439,"station_id":"JAKK","station_name":"Jakarta Kota","is_transit":true,"line":2,"distance":1364,"transit":true,"i_lat":-6.137569},{"i_lat":-6.141205,"station_id":"JAY","is_transit":false,"time":4,"i_long":106.820901,"line":2,"transit":false,"distance":1264,"station_name":"Jayakarta"},{"time":2,"distance":1080,"i_lat":-6.149769,"is_transit":false,"i_long":106.82482,"transit":false,"station_id":"MGB","line":2,"station_name":"Manggabesar"},{"distance":906,"i_long":106.827103,"is_transit":false,"transit":false,"station_id":"SW","station_name":"Sawah Besar","time":2,"i_lat":-6.160725,"line":2},{"is_transit":false,"station_id":"JUA","station_name":"Juanda","transit":false,"time":2,"i_lat":-6.166716,"i_long":106.828284,"line":2,"distance":1149},{"station_name":"Gondangdia","i_lat":-6.186295,"distance":2015,"line":2,"i_long":106.832183,"time":4,"transit":false,"is_transit":false,"station_id":"GDD"},{"i_long":106.840169,"station_id":"CKI","station_name":"Cikini","distance":1750,"time":3,"is_transit":false,"i_lat":-6.198556,"line":2,"transit":false},{"time":4,"station_id":"MRI","is_transit":true,"transit":true,"line":2,"distance":1590,"station_name":"Manggarai","i_lat":-6.209883,"i_long":106.84912},{"line":1,"i_long":106.858896,"distance":1275,"is_transit":false,"transit":false,"station_id":"MTR","time":2,"i_lat":-6.212485,"station_name":"Matraman"},{"is_transit":false,"station_name":"Jatinegara","time":8,"station_id":"JNG","line":1,"transit":false,"i_long":106.86807400000001,"distance":1377,"i_lat":-6.215091},{"i_lat":-6.2135,"station_name":"Klender","distance":3395,"i_long":106.899548,"line":1,"station_id":"KLD","transit":false,"is_transit":false,"time":3},{"distance":3100,"is_transit":false,"i_lat":-6.215568,"station_id":"BUA","i_long":106.922662,"line":1,"transit":false,"station_name":"Buaran","time":2},{"is_transit":false,"time":1,"i_lat":-6.217455,"i_long":106.939679,"line":1,"distance":1305,"station_name":"Klenderbaru","station_id":"KLDB","transit":false},{"transit":false,"time":8,"i_lat":-6.219053,"i_long":106.951283,"station_id":"CUK","is_transit":false,"station_name":"Cakung","line":1,"distance":1385},{"station_id":"KRI","i_long":106.977657,"line":1,"station_name":"Kranji","distance":3097,"time":3,"i_lat":-6.224515,"is_transit":false,"transit":false},{"distance":2520,"transit":false,"is_transit":false,"station_name":"Bekasi","time":4,"i_lat":-6.236616,"station_id":"BKS","i_long":106.997013,"line":1},{"time":2,"i_long":107.016735,"transit":false,"line":1,"is_transit":false,"station_name":"Bekasi Timur","distance":2368,"i_lat":-6.248029,"station_id":"BKST"},{"line":1,"i_long":107.055722,"is_transit":false,"station_id":"TB","transit":false,"distance":4460,"station_name":"Tambun","i_lat":-6.258864,"time":7},{"station_name":"Cibitung","station_id":"CIT","distance":3420,"is_transit":false,"time":3,"i_lat":-6.261877,"transit":false,"i_long":107.083084,"line":1},{"transit":false,"time":2,"i_lat":-6.262938,"is_transit":false,"station_id":"TLM","i_long":107.093313,"station_name":"Metland Telaga Murni","line":1,"distance":2800}],[{"i_lat":-6.32484,"is_transit":false,"station_id":"CSK","time":0,"distance":0,"station_name":"Cisauk","i_long":106.640411,"transit":false,"line":3},{"distance":1784,"time":4,"i_lat":-6.319871,"is_transit":false,"line":6,"transit":false,"station_id":"SRP","station_name":"Serpong","i_long":106.66566},{"station_id":"RU","i_lat":-6.314823,"time":4,"line":6,"distance":2413,"station_name":"Rawa Buntu","transit":false,"i_long":106.675475,"is_transit":false},{"is_transit":false,"station_name":"Sudimara","line":6,"transit":false,"station_id":"SDM","distance":4566,"time":6,"i_lat":-6.296963,"i_long":106.712277},{"i_lat":-6.288927,"distance":1994,"is_transit":false,"i_long":106.728916,"line":6,"station_name":"Jurangmangu","transit":false,"time":4,"station_id":"JMU"},{"transit":false,"i_long":106.74273,"station_id":"PDJ","is_transit":false,"time":3,"distance":2179,"line":6,"station_name":"Pondokranji","i_lat":-6.276362},{"transit":false,"station_id":"KBY","is_transit":false,"time":8,"distance":6218,"station_name":"Kebayoran","i_long":106.780334,"line":6,"i_lat":-6.237242},{"is_transit":false,"i_long":106.79689,"station_id":"PLM","distance":3737,"station_name":"Palmerah","line":6,"i_lat":-6.207404,"time":7,"transit":false},{"station_id":"THB","i_lat":-6.185545,"i_long":106.811091,"transit":true,"station_name":"Tanah Abang","is_transit":true,"time":6,"distance":3191,"line":1},{"i_lat":-6.20132,"transit":false,"line":1,"station_name":"Karet","time":5,"i_long":106.816351,"station_id":"KAT","is_transit":false,"distance":2029},{"i_long":106.819881,"line":1,"station_name":"Sudirman Baru","station_id":"SUDB","time":1,"is_transit":false,"distance":471,"i_lat":-6.201433,"transit":false},{"distance":280,"i_lat":-6.202263,"station_id":"SUD","station_name":"Sudirman","time":1,"is_transit":false,"i_long":106.822649,"transit":false,"line":1},{"i_lat":-6.209883,"transit":true,"is_transit":true,"station_name":"Manggarai","distance":3186,"station_id":"MRI","time":4,"i_long":106.84912,"line":2},{"time":4,"line":2,"is_transit":false,"distance":1590,"i_lat":-6.198556,"station_name":"Cikini","station_id":"CKI","transit":false,"i_long":106.840169},{"station_name":"Gondangdia","time":3,"distance":1750,"i_lat":-6.186295,"line":2,"transit":false,"i_long":106.832183,"station_id":"GDD","is_transit":false},{"station_name":"Juanda","time":4,"transit":false,"distance":2015,"i_lat":-6.166716,"station_id":"JUA","i_long":106.828284,"is_transit":false,"line":2},{"transit":false,"station_name":"Sawah Besar","time":2,"i_long":106.827103,"distance":1149,"is_transit":false,"line":2,"station_id":"SW","i_lat":-6.160725},{"transit":false,"i_long":106.82482,"station_id":"MGB","distance":906,"is_transit":false,"time":2,"i_lat":-6.149769,"line":2,"station_name":"Manggabesar"},{"time":2,"i_lat":-6.141205,"i_long":106.820901,"line":2,"station_id":"JAY","is_transit":false,"station_name":"Jayakarta","transit":false,"distance":1080},{"station_id":"JAKK","station_name":"Jakarta Kota","i_long":106.812439,"transit":true,"distance":1264,"i_lat":-6.137569,"line":2,"is_transit":true,"time":4},{"station_id":"KPB","is_transit":true,"station_name":"Kampung Bandan","i_lat":-6.132549,"transit":true,"time":3,"distance":1364,"line":4,"i_long":106.826365},{"station_name":"Rajawali","i_long":106.836569,"distance":1444,"line":11,"i_lat":-6.14505,"time":3,"transit":false,"station_id":"RJW","is_transit":false},{"station_name":"Kemayoran","i_lat":-6.161728,"i_long":106.839204,"line":11,"station_id":"KMO","transit":false,"is_transit":false,"time":5,"distance":1901},{"time":4,"i_long":106.84368,"i_lat":-6.174784,"station_name":"Pasar Senen","line":11,"station_id":"PSE","is_transit":false,"distance":1436,"transit":false},{"time":8,"station_id":"GST","distance":1567,"station_name":"Gang Sentiong","i_lat":-6.185975,"i_long":106.850107,"is_transit":false,"line":11,"transit":false},{"transit":false,"time":1,"i_long":106.855437,"is_transit":false,"i_lat":-6.193792,"station_name":"Kramat","distance":973,"line":11,"station_id":"KMT"},{"line":11,"distance":1829,"is_transit":false,"time":2,"i_long":106.861737,"transit":false,"station_id":"POK","station_name":"Pondok Jati","i_lat":-6.209188},{"station_id":"JNG","distance":1236,"i_long":106.86807400000001,"is_transit":true,"transit":true,"line":1,"station_name":"Jatinegara","time":9,"i_lat":-6.215091},{"i_lat":-6.2135,"i_long":106.899548,"station_name":"Klender","transit":false,"line":1,"is_transit":false,"distance":3395,"station_id":"KLD","time":3},{"line":1,"station_id":"BUA","is_transit":false,"time":2,"transit":false,"i_long":106.922662,"station_name":"Buaran","i_lat":-6.215568,"distance":3100},{"i_long":106.939679,"distance":1305,"station_name":"Klenderbaru","line":1,"station_id":"KLDB","transit":false,"i_lat":-6.217455,"is_transit":false,"time":1},{"i_long":106.951283,"station_name":"Cakung","transit":false,"station_id":"CUK","time":8,"distance":1385,"line":1,"is_transit":false,"i_lat":-6.219053},{"i_long":106.977657,"station_name":"Kranji","time":3,"station_id":"KRI","i_lat":-6.224515,"is_transit":false,"line":1,"transit":false,"distance":3097},{"time":4,"distance":2520,"i_lat":-6.236616,"i_long":106.997013,"line":1,"station_id":"BKS","station_name":"Bekasi","transit":false,"is_transit":false},{"line":1,"is_transit":false,"distance":2368,"i_long":107.016735,"time":2,"station_id":"BKST","station_name":"Bekasi Timur","transit":false,"i_lat":-6.248029},{"station_id":"TB","is_transit":false,"i_lat":-6.258864,"transit":false,"station_name":"Tambun","time":7,"distance":4460,"i_long":107.055722,"line":1},{"i_long":107.083084,"station_name":"Cibitung","distance":3420,"time":3,"line":1,"is_transit":false,"transit":false,"i_lat":-6.261877,"station_id":"CIT"},{"distance":2800,"i_long":107.093313,"time":2,"i_lat":-6.262938,"station_id":"TLM","station_name":"Metland Telaga Murni","line":1,"is_transit":false,"transit":false}]]}