{"data":[[{"i_long":106.640411,"station_name":"Cisauk","is_transit":false,"i_lat":-6.32484,"time":0,"station_id":"CSK","distance":0,"transit":false,"line":3},{"line":6,"transit":false,"station_id":"SRP","is_transit":false,"time":4,"i_lat":-6.319871,"i_long":106.66566,"distance":1784,"station_name":"Serpong"},{"transit":false,"time":4,"line":6,"is_transit":false,"distance":2413,"i_lat":-6.314823,"i_long":106.675475,"station_name":"Rawa Buntu","station_id":"RU"},{"transit":false,"station_id":"SDM","i_long":106.712277,"line":6,"distance":4566,"time":6,"is_transit":false,"station_name":"Sudimara","i_lat":-6.296963},{"time":4,"distance":1994,"station_name":"Jurangmangu","line":6,"transit":false,"i_lat":-6.288927,"station_id":"JMU","is_transit":false,"i_long":106.728916},{"i_long":106.74273,"line":6,"is_transit":false,"transit":false,"time":3,"distance":2179,"i_lat":-6.276362,"station_id":"PDJ","station_name":"Pondokranji"},{"time":8,"station_id":"KBY","line":6,"station_name":"Kebayoran","distance":6218,"transit":false,"i_lat":-6.237242,"i_long":106.780334,"is_transit":false},{"is_transit":false,"station_name":"Palmerah","line":6,"transit":false,"station_id":"PLM","time":7,"i_lat":-6.207404,"i_long":106.79689,"distance":3737},{"time":6,"station_id":"THB","distance":3191,"station_name":"Tanah Abang","transit":true,"line":1,"is_transit":true,"i_lat":-6.185545,"i_long":106.811091},{"line":1,"station_name":"Duri","station_id":"DU","i_lat":-6.155215,"i_long":106.800832,"distance":3632,"transit":false,"time":8,"is_transit":false},{"i_long":106.79867,"is_transit":false,"i_lat":-6.144674,"line":1,"transit":false,"distance":1230,"time":4,"station_name":"Angke","station_id":"AK"},{"i_lat":-6.132549,"line":4,"i_long":106.826365,"distance":4102,"station_name":"Kampung Bandan","station_id":"KPB","is_transit":true,"transit":true,"time":9},{"time":3,"distance":1444,"i_lat":-6.14505,"station_name":"Rajawali","i_long":106.836569,"line":11,"is_transit":false,"station_id":"RJW","transit":false},{"i_lat":-6.161728,"line":11,"station_name":"Kemayoran","i_long":106.839204,"is_transit":false,"station_id":"KMO","distance":1901,"time":5,"transit":false}],[{"station_id":"CSK","line":3,"i_long":106.640411,"station_name":"Cisauk","i_lat":-6.32484,"time":0,"transit":false,"distance":0,"is_transit":false},{"is_transit":false,"transit":false,"line":6,"distance":1784,"i_long":106.66566,"station_id":"SRP","time":4,"i_lat":-6.319871,"station_name":"Serpong"},{"is_transit":false,"i_lat":-6.314823,"time":4,"transit":false,"i_long":106.675475,"distance":2413,"station_id":"RU","station_name":"Rawa Buntu","line":6},{"distance":4566,"i_lat":-6.296963,"line":6,"i_long":106.712277,"is_transit":false,"station_id":"SDM","station_name":"Sudimara","transit":false,"time":6},{"transit":false,"is_transit":false,"station_name":"Jurangmangu","line":6,"station_id":"JMU","distance":1994,"i_long":106.728916,"i_lat":-6.288927,"time":4},{"transit":false,"time":3,"i_long":106.74273,"line":6,"station_id":"PDJ","i_lat":-6.276362,"is_transit":false,"distance":2179,"station_name":"Pondokranji"},{"distance":6218,"transit":false,"i_long":106.780334,"line":6,"time":8,"is_transit":false,"station_id":"KBY","i_lat":-6.237242,"station_name":"Kebayoran"},{"station_id":"PLM","is_transit":false,"time":7,"distance":3737,"transit":false,"i_lat":-6.207404,"i_long":106.79689,"station_name":"Palmerah","line":6},{"i_lat":-6.185545,"is_transit":true,"i_long":106.811091,"time":6,"line":1,"station_id":"THB","distance":3191,"station_name":"Tanah Abang","transit":true},{"time":5,"distance":2029,"station_id":"KAT","is_transit":false,"i_lat":-6.20132,"line":1,"i_long":106.816351,"station_name":"Karet","transit":false},{"distance":471,"i_long":106.819881,"station_id":"SUDB","i_lat":-6.201433,"line":1,"is_transit":false,"time":1,"station_name":"Sudirman Baru","transit":false},{"time":1,"line":1,"station_name":"Sudirman","i_long":106.822649,"i_lat":-6.202263,"station_id":"SUD","is_transit":false,"transit":false,"distance":280},{"is_transit":false,"time":4,"station_id":"MRI","i_long":106.84912,"i_lat":-6.209883,"line":2,"distance":3186,"transit":false,"station_name":"Manggarai"},{"time":2,"is_transit":false,"station_name":"Matraman","distance":1275,"i_lat":-6.212485,"transit":false,"line":1,"i_long":106.858896,"station_id":"MTR"},{"i_lat":-6.215091,"station_name":"Jatinegara","transit":true,"time":8,"i_long":106.86807400000001,"is_transit":true,"line":1,"distance":1377,"station_id":"JNG"},{"line":11,"transit":false,"station_name":"Pondok Jati","i_long":106.861737,"i_lat":-6.209188,"time":2,"station_id":"POK","distance":1236,"is_transit":false},{"station_id":"KMT","distance":1829,"transit":false,"line":11,"i_long":106.855437,"time":2,"is_transit":false,"station_name":"Kramat","i_lat":-6.193792},{"is_transit":false,"time":1,"i_lat":-6.185975,"i_long":106.850107,"distance":973,"transit":false,"station_id":"GST","station_name":"Gang Sentiong","line":11},{"is_transit":false,"line":11,"station_name":"Pasar Senen","distance":1567,"i_lat":-6.174784,"time":8,"station_id":"PSE","i_long":106.84368,"transit":false},{"line":11,"transit":false,"time":4,"distance":1436,"is_transit":false,"i_long":106.839204,"station_id":"KMO","i_lat":-6.161728,"station_name":"Kemayoran"}],[{"distance":0,"i_long":106.640411,"station_id":"CSK","time":0,"station_name":"Cisauk","is_transit":false,"line":3,"transit":false,"i_lat":-6.32484},{"transit":false,"distance":1784,"i_long":106.66566,"station_id":"SRP","is_transit":false,"time":4,"station_name":"Serpong","i_lat":-6.319871,"line":6},{"transit":false,"station_id":"RU","is_transit":false,"time":4,"i_long":106.675475,"distance":2413,"station_name":"Rawa Buntu","line":6,"i_lat":-6.314823},{"station_id":"SDM","transit":false,"is_transit":false,"line":6,"station_name":"Sudimara","i_long":106.712277,"distance":4566,"time":6,"i_lat":-6.296963},{"i_lat":-6.288927,"is_transit":false,"station_name":"Jurangmangu","time":4,"distance":1994,"transit":false,"line":6,"station_id":"JMU","i_long":106.728916},{"distance":2179,"station_id":"PDJ","i_long":106.74273,"transit":false,"line":6,"i_lat":-6.276362,"station_name":"Pondokranji","time":3,"is_transit":false},{"i_lat":-6.237242,"i_long":106.780334,"is_transit":false,"line":6,"distance":6218,"station_name":"Kebayoran","transit":false,"time":8,"station_id":"KBY"},{"transit":false,"station_id":"PLM","station_name":"Palmerah","is_transit":false,"i_long":106.79689,"line":6,"i_lat":-6.207404,"time":7,"distance":3737},{"transit":true,"i_long":106.811091,"time":6,"station_id":"THB","is_transit":true,"i_lat":-6.185545,"station_name":"Tanah Abang","line":1,"distance":3191},{"i_lat":-6.20132,"distance":2029,"station_name":"Karet","station_id":"KAT","time":5,"transit":false,"is_transit":false,"line":1,"i_long":106.816351},{"i_long":106.819881,"distance":471,"station_id":"SUDB","i_lat":-6.201433,"is_transit":false,"line":1,"transit":false,"time":1,"station_name":"Sudirman Baru"},{"i_long":106.822649,"station_id":"SUD","distance":280,"i_lat":-6.202263,"line":1,"transit":false,"station_name":"Sudirman","time":1,"is_transit":false},{"transit":true,"i_long":106.84912,"i_lat":-6.209883,"is_transit":true,"distance":3186,"station_id":"MRI","station_name":"Manggarai","line":2,"time":4},{"i_long":106.840169,"time":4,"station_name":"Cikini","i_lat":-6.198556,"station_id":"CKI","is_transit":false,"distance":1590,"line":2,"transit":false},{"station_name":"Gondangdia","station_id":"GDD","time":3,"transit":false,"i_long":106.832183,"is_transit":false,"distance":1750,"i_lat":-6.186295,"line":2},{"transit":false,"is_transit":false,"line":2,"station_id":"JUA","i_lat":-6.166716,"station_name":"Juanda","time":4,"distance":2015,"i_long":106.828284},{"station_id":"SW","transit":false,"is_transit":false,"i_long":106.827103,"time":2,"line":2,"distance":1149,"station_name":"Sawah Besar","i_lat":-6.160725},{"line":2,"i_long":106.82482,"station_name":"Manggabesar","is_transit":false,"station_id":"MGB","transit":false,"time":2,"i_lat":-6.149769,"distance":906},{"transit":false,"station_id":"JAY","time":2,"i_lat":-6.141205,"i_long":106.820901,"station_name":"Jayakarta","is_transit":false,"distance":1080,"line":2},{"transit":true,"i_lat":-6.137569,"is_transit":true,"line":2,"distance":1264,"station_name":"Jakarta Kota","i_long":106.812439,"time":4,"station_id":"JAKK"},{"station_id":"KPB","time":3,"distance":1364,"transit":true,"i_lat":-6.132549,"station_name":"Kampung Bandan","i_long":106.826365,"is_transit":true,"line":4},{"i_long":106.836569,"transit":false,"time":3,"station_name":"Rajawali","is_transit":false,"distance":1444,"station_id":"RJW","i_lat":-6.14505,"line":11},{"is_transit":false,"i_lat":-6.161728,"i_long":106.839204,"line":11,"transit":false,"distance":1901,"time":5,"station_id":"KMO","station_name":"Kemayoran"}],[{"line":3,"transit":false,"time":0,"is_transit":false,"distance":0,"i_lat":-6.32484,"station_id":"CSK","station_name":"Cisauk","i_long":106.640411},{"transit":false,"line":6,"station_id":"SRP","i_lat":-6.319871,"distance":1784,"station_name":"Serpong","i_long":106.66566,"is_transit":false,"time":4},{"i_long":106.675475,"distance":2413,"station_id":"RU","transit":false,"station_name":"Rawa Buntu","is_transit":false,"line":6,"i_lat":-6.314823,"time":4},{"station_name":"Sudimara","is_transit":false,"time":6,"i_lat":-6.296963,"transit":false,"distance":4566,"line":6,"station_id":"SDM","i_long":106.712277},{"line":6,"is_transit":false,"station_id":"JMU","distance":1994,"time":4,"transit":false,"station_name":"Jurangmangu","i_lat":-6.288927,"i_long":106.728916},{"i_lat":-6.276362,"station_name":"Pondokranji","i_long":106.74273,"is_transit":false,"distance":2179,"transit":false,"line":6,"station_id":"PDJ","time":3},{"time":8,"i_lat":-6.237242,"station_id":"KBY","distance":6218,"station_name":"Kebayoran","is_transit":false,"line":6,"i_long":106.780334,"transit":false},{"transit":false,"is_transit":false,"station_name":"Palmerah","i_lat":-6.207404,"line":6,"station_id":"PLM","time":7,"distance":3737,"i_long":106.79689},{"station_id":"THB","is_transit":true,"station_name":"Tanah Abang","time":6,"distance":3191,"i_long":106.811091,"transit":true,"i_lat":-6.185545,"line":1},{"station_id":"DU","is_transit":false,"station_name":"Duri","line":1,"distance":3632,"i_lat":-6.155215,"time":8,"transit":false,"i_long":106.800832},{"i_long":106.79867,"i_lat":-6.144674,"line":1,"station_id":"AK","is_transit":false,"distance":1230,"time":4,"station_name":"Angke","transit":false},{"transit":true,"distance":4102,"time":9,"is_transit":true,"station_id":"KPB","station_name":"Kampung Bandan","i_lat":-6.132549,"i_long":106.826365,"line":4},{"i_lat":-6.137569,"is_transit":true,"distance":1364,"line":2,"station_id":"JAKK","time":3,"transit":true,"station_name":"Jakarta Kota","i_long":106.812439},{"time":4,"station_name":"Jayakarta","station_id":"JAY","distance":1264,"i_lat":-6.141205,"i_long":106.820901,"line":2,"is_transit":false,"transit":false},{"i_lat":-6.149769,"transit":false,"i_long":106.82482,"station_name":"Manggabesar","distance":1080,"is_transit":false,"line":2,"time":2,"station_id":"MGB"},{"transit":false,"i_lat":-6.160725,"line":2,"i_long":106.827103,"time":2,"station_id":"SW","station_name":"Sawah Besar","distance":906,"is_transit":false},{"distance":1149,"line":2,"i_lat":-6.166716,"time":2,"i_long":106.828284,"station_name":"Juanda","transit":false,"station_id":"JUA","is_transit":false},{"i_lat":-6.186295,"distance":2015,"station_id":"GDD","transit":false,"line":2,"i_long":106.832183,"station_name":"Gondangdia","time":4,"is_transit":false},{"distance":1750,"transit":false,"is_transit":false,"time":3,"i_long":106.840169,"station_name":"Cikini","i_lat":-6.198556,"station_id":"CKI","line":2},{"transit":true,"station_name":"Manggarai","is_transit":true,"i_lat":-6.209883,"time":4,"i_long":106.84912,"line":2,"distance":1590,"station_id":"MRI"},{"is_transit":false,"station_id":"MTR","distance":1275,"line":1,"i_long":106.858896,"station_name":"Matraman","i_lat":-6.212485,"transit":false,"time":2},{"line":1,"station_name":"Jatinegara","station_id":"JNG","is_transit":true,"i_lat":-6.215091,"time":8,"transit":true,"i_long":106.86807400000001,"distance":1377},{"i_long":106.861737,"transit":false,"line":11,"is_transit":false,"distance":1236,"station_id":"POK","i_lat":-6.209188,"time":2,"station_name":"Pondok Jati"},{"line":11,"time":2,"i_long":106.855437,"transit":false,"distance":1829,"station_name":"Kramat","i_lat":-6.193792,"station_id":"KMT","is_transit":false},{"station_id":"GST","time":1,"line":11,"transit":false,"station_name":"Gang Sentiong","distance":973,"is_transit":false,"i_lat":-6.185975,"i_long":106.850107},{"transit":false,"is_transit":false,"i_lat":-6.174784,"distance":1567,"time":8,"station_name":"Pasar Senen","i_long":106.84368,"station_id":"PSE","line":11},{"distance":1436,"time":4,"i_long":106.839204,"i_lat":-6.161728,"transit":false,"station_name":"Kemayoran","station_id":"KMO","is_transit":false,"line":11}]]}