{"data":[[{"station_id":"CSK","i_long":106.640411,"transit":false,"is_transit":false,"station_name":"Cisauk","line":3,"distance":0,"i_lat":-6.32484,"time":0},{"time":4,"i_lat":-6.319871,"distance":1784,"is_transit":false,"station_name":"Serpong","i_long":106.66566,"line":6,"station_id":"SRP","transit":false},{"i_lat":-6.314823,"i_long":106.675475,"station_name":"Rawa Buntu","station_id":"RU","is_transit":false,"distance":2413,"transit":false,"time":4,"line":6},{"station_name":"Sudimara","i_lat":-6.296963,"i_long":106.712277,"line":6,"transit":false,"station_id":"SDM","distance":4566,"is_transit":false,"time":6},{"line":6,"distance":1994,"transit":false,"station_id":"JMU","time":4,"is_transit":false,"i_long":106.728916,"i_lat":-6.288927,"station_name":"Jurangmangu"},{"time":3,"i_long":106.74273,"i_lat":-6.276362,"line":6,"is_transit":false,"transit":false,"station_name":"Pondokranji","distance":2179,"station_id":"PDJ"},{"line":6,"i_lat":-6.237242,"is_transit":false,"station_id":"KBY","station_name":"Kebayoran","transit":false,"distance":6218,"time":8,"i_long":106.780334},{"station_id":"PLM","transit":false,"distance":3737,"i_lat":-6.207404,"time":7,"i_long":106.79689,"line":6,"station_name":"Palmerah","is_transit":false},{"time":6,"i_long":106.811091,"station_id":"THB","distance":3191,"transit":true,"i_lat":-6.185545,"station_name":"Tanah Abang","line":1,"is_transit":true},{"i_long":106.816351,"distance":2029,"transit":false,"station_id":"KAT","line":1,"is_transit":false,"i_lat":-6.20132,"station_name":"Karet","time":5},{"station_name":"Sudirman Baru","line":1,"transit":false,"i_long":106.819881,"distance":471,"time":1,"is_transit":false,"i_lat":-6.201433,"station_id":"SUDB"},{"station_id":"SUD","station_name":"Sudirman","is_transit":false,"i_long":106.822649,"distance":280,"line":1,"time":1,"transit":false,"i_lat":-6.202263},{"station_id":"MRI","line":2,"is_transit":true,"time":4,"i_lat":-6.209883,"distance":3186,"i_long":106.84912,"station_name":"Manggarai","transit":true},{"transit":false,"i_long":106.857948,"station_id":"TEB","line":2,"is_transit":false,"station_name":"Tebet","time":4,"i_lat":-6.226659,"distance":2610},{"station_name":"Cawang","line":2,"time":2,"transit":false,"distance":1230,"station_id":"CW","i_lat":-6.242512,"i_long":106.856607,"is_transit":false},{"transit":false,"time":3,"distance":1546,"i_lat":-6.255332,"i_long":106.85449,"line":2,"station_name":"Duren Kalibata","station_id":"DRN","is_transit":false},{"station_id":"PSMB","station_name":"Pasar Minggu Baru","time":2,"i_lat":-6.263214,"line":2,"i_long":106.851577,"transit":false,"is_transit":false,"distance":824},{"station_name":"Pasar Minggu","distance":2380,"station_id":"PSM","time":2,"i_lat":-6.2842400000000005,"transit":false,"i_long":106.843999,"is_transit":false,"line":2},{"i_long":106.838896,"station_name":"Tanjung Barat","is_transit":false,"distance":2820,"transit":false,"i_lat":-6.3080680000000005,"time":4,"line":2,"station_id":"TNT"},{"distance":2671,"station_id":"LNA","i_lat":-6.330363,"station_name":"Lenteng Agung","i_long":106.832616,"transit":false,"is_transit":false,"line":2,"time":3},{"is_transit":false,"transit":false,"time":2,"i_long":106.834175,"station_id":"UP","i_lat":-6.339291,"station_name":"Univ. Pancasila","distance":1029,"line":2},{"line":2,"station_id":"UI","i_long":106.831474,"time":3,"i_lat":-6.360749,"transit":false,"station_name":"Univ. Indonesia","distance":2264,"is_transit":false},{"time":2,"station_id":"POC","distance":1109,"i_lat":-6.369073,"station_name":"Pondok Cina","transit":false,"is_transit":false,"i_long":106.831114,"line":2},{"line":2,"i_lat":-6.391065,"transit":false,"is_transit":false,"i_long":106.819451,"time":4,"distance":2727,"station_name":"Depokbaru","station_id":"DPB"},{"i_lat":-6.405256,"line":2,"station_id":"DP","distance":1584,"station_name":"Depok","is_transit":false,"transit":false,"i_long":106.816926,"time":3},{"distance":5084,"line":2,"station_id":"CTA","time":6,"is_transit":false,"station_name":"Citayam","i_lat":-6.448811,"i_long":106.800298,"transit":false},{"station_name":"Bojonggede","is_transit":false,"transit":false,"station_id":"BJD","time":5,"distance":5197,"i_lat":-6.493243,"line":2,"i_long":106.792719},{"line":2,"transit":false,"i_long":106.800016,"time":5,"is_transit":false,"station_id":"CLT","distance":4331,"i_lat":-6.530544,"station_name":"Cilebut"},{"i_long":106.790574,"transit":false,"is_transit":false,"i_lat":-6.594596,"time":9,"distance":7514,"station_name":"Bogor","station_id":"BOO","line":2}],[{"line":3,"station_id":"CSK","transit":false,"i_lat":-6.32484,"time":0,"distance":0,"station_name":"Cisauk","is_transit":false,"i_long":106.640411},{"station_id":"SRP","i_long":106.66566,"transit":false,"is_transit":false,"i_lat":-6.319871,"station_name":"Serpong","line":6,"time":4,"distance":1784},{"line":6,"distance":2413,"station_name":"Rawa Buntu","station_id":"RU","i_long":106.675475,"i_lat":-6.314823,"is_transit":false,"transit":false,"time":4},{"time":6,"distance":4566,"i_long":106.712277,"transit":false,"i_lat":-6.296963,"station_name":"Sudimara","is_transit":false,"line":6,"station_id":"SDM"},{"is_transit":false,"line":6,"station_name":"Jurangmangu","time":4,"distance":1994,"station_id":"JMU","i_lat":-6.288927,"i_long":106.728916,"transit":false},{"distance":2179,"i_long":106.74273,"station_id":"PDJ","time":3,"transit":false,"is_transit":false,"station_name":"Pondokranji","line":6,"i_lat":-6.276362},{"i_lat":-6.237242,"is_transit":false,"time":8,"i_long":106.780334,"station_name":"Kebayoran","station_id":"KBY","line":6,"distance":6218,"transit":false},{"transit":false,"is_transit":false,"i_lat":-6.207404,"i_long":106.79689,"line":6,"station_name":"Palmerah","station_id":"PLM","distance":3737,"time":7},{"i_long":106.811091,"distance":3191,"time":6,"line":1,"station_name":"Tanah Abang","station_id":"THB","is_transit":true,"i_lat":-6.185545,"transit":true},{"is_transit":false,"i_long":106.800832,"station_name":"Duri","time":8,"transit":false,"distance":3632,"i_lat":-6.155215,"line":1,"station_id":"DU"},{"line":1,"station_id":"AK","i_long":106.79867,"time":4,"transit":false,"is_transit":false,"station_name":"Angke","i_lat":-6.144674,"distance":1230},{"is_transit":true,"distance":4102,"i_lat":-6.132549,"time":9,"i_long":106.826365,"line":4,"station_name":"Kampung Bandan","transit":true,"station_id":"KPB"},{"station_name":"Jakarta Kota","station_id":"JAKK","line":2,"distance":1364,"is_transit":true,"i_lat":-6.137569,"transit":true,"i_long":106.812439,"time":3},{"station_name":"Jayakarta","distance":1264,"i_long":106.820901,"is_transit":false,"line":2,"station_id":"JAY","transit":false,"time":4,"i_lat":-6.141205},{"station_id":"MGB","is_transit":false,"time":2,"line":2,"i_lat":-6.149769,"transit":false,"distance":1080,"i_long":106.82482,"station_name":"Manggabesar"},{"line":2,"is_transit":false,"transit":false,"i_long":106.827103,"station_id":"SW","station_name":"Sawah Besar","time":2,"i_lat":-6.160725,"distance":906},{"i_long":106.828284,"station_name":"Juanda","distance":1149,"i_lat":-6.166716,"transit":false,"line":2,"is_transit":false,"time":2,"station_id":"JUA"},{"i_long":106.832183,"is_transit":false,"time":4,"distance":2015,"transit":false,"i_lat":-6.186295,"line":2,"station_id":"GDD","station_name":"Gondangdia"},{"line":2,"is_transit":false,"i_lat":-6.198556,"distance":1750,"i_long":106.840169,"time":3,"station_id":"CKI","station_name":"Cikini","transit":false},{"i_long":106.84912,"transit":false,"station_name":"Manggarai","station_id":"MRI","time":4,"distance":1590,"is_transit":false,"line":2,"i_lat":-6.209883},{"i_lat":-6.226659,"time":4,"distance":2610,"i_long":106.857948,"station_id":"TEB","station_name":"Tebet","is_transit":false,"line":2,"transit":false},{"i_long":106.856607,"i_lat":-6.242512,"station_name":"Cawang","station_id":"CW","line":2,"time":2,"transit":false,"is_transit":false,"distance":1230},{"i_long":106.85449,"line":2,"transit":false,"distance":1546,"station_name":"Duren Kalibata","time":3,"station_id":"DRN","i_lat":-6.255332,"is_transit":false},{"is_transit":false,"station_name":"Pasar Minggu Baru","time":2,"station_id":"PSMB","i_lat":-6.263214,"transit":false,"i_long":106.851577,"distance":824,"line":2},{"distance":2380,"time":2,"station_name":"Pasar Minggu","line":2,"transit":false,"i_lat":-6.2842400000000005,"station_id":"PSM","i_long":106.843999,"is_transit":false},{"i_lat":-6.3080680000000005,"is_transit":false,"station_id":"TNT","distance":2820,"i_long":106.838896,"time":4,"line":2,"station_name":"Tanjung Barat","transit":false},{"is_transit":false,"i_long":106.832616,"line":2,"transit":false,"station_id":"LNA","time":3,"station_name":"Lenteng Agung","i_lat":-6.330363,"distance":2671},{"i_long":106.834175,"station_id":"UP","is_transit":false,"transit":false,"station_name":"Univ. Pancasila","time":2,"distance":1029,"i_lat":-6.339291,"line":2},{"transit":false,"station_id":"UI","is_transit":false,"i_lat":-6.360749,"distance":2264,"time":3,"line":2,"station_name":"Univ. Indonesia","i_long":106.831474},{"transit":false,"is_transit":false,"distance":1109,"i_lat":-6.369073,"time":2,"i_long":106.831114,"station_id":"POC","station_name":"Pondok Cina","line":2},{"time":4,"station_name":"Depokbaru","line":2,"station_id":"DPB","distance":2727,"transit":false,"is_transit":false,"i_long":106.819451,"i_lat":-6.391065},{"i_long":106.816926,"i_lat":-6.405256,"transit":false,"station_id":"DP","line":2,"distance":1584,"is_transit":false,"time":3,"station_name":"Depok"},{"is_transit":false,"time":6,"line":2,"i_lat":-6.448811,"transit":false,"distance":5084,"i_long":106.800298,"station_name":"Citayam","station_id":"CTA"},{"is_transit":false,"time":5,"line":2,"i_long":106.792719,"distance":5197,"i_lat":-6.493243,"station_id":"BJD","transit":false,"station_name":"Bojonggede"},{"transit":false,"station_id":"CLT","time":5,"line":2,"i_lat":-6.530544,"is_transit":false,"station_name":"Cilebut","i_long":106.800016,"distance":4331},{"station_id":"BOO","station_name":"Bogor","time":9,"transit":false,"i_lat":-6.594596,"line":2,"i_long":106.790574,"is_transit":false,"distance":7514}],[{"i_lat":-6.32484,"transit":false,"station_name":"Cisauk","time":0,"line":3,"distance":0,"i_long":106.640411,"is_transit":false,"station_id":"CSK"},{"distance":1784,"transit":false,"station_name":"Serpong","line":6,"station_id":"SRP","is_transit":false,"i_lat":-6.319871,"time":4,"i_long":106.66566},{"station_id":"RU","distance":2413,"is_transit":false,"i_long":106.675475,"line":6,"station_name":"Rawa Buntu","transit":false,"time":4,"i_lat":-6.314823},{"i_long":106.712277,"time":6,"is_transit":false,"distance":4566,"transit":false,"station_name":"Sudimara","station_id":"SDM","line":6,"i_lat":-6.296963},{"line":6,"station_name":"Jurangmangu","is_transit":false,"time":4,"station_id":"JMU","i_lat":-6.288927,"i_long":106.728916,"distance":1994,"transit":false},{"line":6,"i_lat":-6.276362,"transit":false,"is_transit":false,"i_long":106.74273,"station_name":"Pondokranji","station_id":"PDJ","time":3,"distance":2179},{"i_long":106.780334,"station_id":"KBY","i_lat":-6.237242,"time":8,"line":6,"transit":false,"is_transit":false,"distance":6218,"station_name":"Kebayoran"},{"time":7,"station_id":"PLM","transit":false,"i_lat":-6.207404,"is_transit":false,"i_long":106.79689,"distance":3737,"station_name":"Palmerah","line":6},{"i_long":106.811091,"distance":3191,"is_transit":true,"i_lat":-6.185545,"station_id":"THB","station_name":"Tanah Abang","transit":true,"time":6,"line":1},{"is_transit":false,"line":1,"station_name":"Duri","station_id":"DU","i_lat":-6.155215,"i_long":106.800832,"transit":false,"distance":3632,"time":8},{"i_long":106.79867,"i_lat":-6.144674,"station_id":"AK","line":1,"distance":1230,"station_name":"Angke","transit":false,"is_transit":false,"time":4},{"distance":4102,"i_long":106.826365,"is_transit":true,"transit":true,"station_name":"Kampung Bandan","time":9,"i_lat":-6.132549,"line":4,"station_id":"KPB"},{"is_transit":false,"i_lat":-6.14505,"time":3,"distance":1444,"transit":false,"station_id":"RJW","i_long":106.836569,"line":11,"station_name":"Rajawali"},{"station_id":"KMO","station_name":"Kemayoran","is_transit":false,"i_long":106.839204,"transit":false,"distance":1901,"i_lat":-6.161728,"line":11,"time":5},{"transit":false,"distance":1436,"i_lat":-6.174784,"station_name":"Pasar Senen","line":11,"station_id":"PSE","time":4,"is_transit":false,"i_long":106.84368},{"i_lat":-6.185975,"station_id":"GST","line":11,"transit":false,"station_name":"Gang Sentiong","is_transit":false,"time":8,"i_long":106.850107,"distance":1567},{"station_id":"KMT","distance":973,"i_long":106.855437,"is_transit":false,"time":1,"station_name":"Kramat","line":11,"i_lat":-6.193792,"transit":false},{"line":11,"station_id":"POK","i_long":106.861737,"distance":1829,"is_transit":false,"station_name":"Pondok Jati","i_lat":-6.209188,"transit":false,"time":2},{"distance":1236,"transit":true,"is_transit":true,"line":1,"time":9,"i_long":106.86807400000001,"station_name":"Jatinegara","station_id":"JNG","i_lat":-6.215091},{"time":2,"station_name":"Matraman","is_transit":false,"i_lat":-6.212485,"i_long":106.858896,"distance":1377,"transit":false,"station_id":"MTR","line":1},{"is_transit":true,"i_lat":-6.209883,"i_long":106.84912,"time":2,"station_id":"MRI","distance":1275,"transit":true,"station_name":"Manggarai","line":2},{"station_id":"TEB","transit":false,"time":4,"i_long":106.857948,"distance":2610,"is_transit":false,"i_lat":-6.226659,"line":2,"station_name":"Tebet"},{"line":2,"distance":1230,"i_long":106.856607,"transit":false,"i_lat":-6.242512,"is_transit":false,"time":2,"station_name":"Cawang","station_id":"CW"},{"i_long":106.85449,"time":3,"transit":false,"station_id":"DRN","station_name":"Duren Kalibata","is_transit":false,"distance":1546,"i_lat":-6.255332,"line":2},{"line":2,"time":2,"transit":false,"i_long":106.851577,"station_name":"Pasar Minggu Baru","station_id":"PSMB","distance":824,"is_transit":false,"i_lat":-6.263214},{"transit":false,"station_name":"Pasar Minggu","distance":2380,"station_id":"PSM","is_transit":false,"time":2,"i_lat":-6.2842400000000005,"i_long":106.843999,"line":2},{"is_transit":false,"station_name":"Tanjung Barat","time":4,"station_id":"TNT","i_long":106.838896,"transit":false,"distance":2820,"i_lat":-6.3080680000000005,"line":2},{"time":3,"i_long":106.832616,"station_id":"LNA","line":2,"distance":2671,"station_name":"Lenteng Agung","i_lat":-6.330363,"transit":false,"is_transit":false},{"i_lat":-6.339291,"time":2,"is_transit":false,"line":2,"station_id":"UP","transit":false,"station_name":"Univ. Pancasila","i_long":106.834175,"distance":1029},{"transit":false,"station_name":"Univ. Indonesia","time":3,"i_lat":-6.360749,"station_id":"UI","distance":2264,"line":2,"i_long":106.831474,"is_transit":false},{"station_name":"Pondok Cina","station_id":"POC","i_long":106.831114,"line":2,"transit":false,"is_transit":false,"i_lat":-6.369073,"time":2,"distance":1109},{"distance":2727,"is_transit":false,"station_name":"Depokbaru","transit":false,"station_id":"DPB","time":4,"i_lat":-6.391065,"i_long":106.819451,"line":2},{"i_long":106.816926,"is_transit":false,"line":2,"transit":false,"station_id":"DP","i_lat":-6.405256,"station_name":"Depok","distance":1584,"time":3},{"is_transit":false,"line":2,"station_name":"Citayam","station_id":"CTA","transit":false,"time":6,"distance":5084,"i_lat":-6.448811,"i_long":106.800298},{"transit":false,"time":5,"station_id":"BJD","station_name":"Bojonggede","i_lat":-6.493243,"line":2,"distance":5197,"is_transit":false,"i_long":106.792719},{"distance":4331,"station_id":"CLT","is_transit":false,"i_lat":-6.530544,"i_long":106.800016,"transit":false,"line":2,"time":5,"station_name":"Cilebut"},{"station_name":"Bogor","i_long":106.790574,"time":9,"transit":false,"i_lat":-6.594596,"line":2,"distance":7514,"is_transit":false,"station_id":"BOO"}]]}