{"data":[[{"i_lat":-6.32484,"distance":0,"i_long":106.640411,"line":3,"time":0,"is_transit":false,"transit":false,"station_id":"CSK","station_name":"Cisauk"},{"i_lat":-6.319871,"station_id":"SRP","line":6,"time":4,"is_transit":false,"distance":1784,"i_long":106.66566,"station_name":"Serpong","transit":false},{"station_name":"Rawa Buntu","line":6,"station_id":"RU","transit":false,"time":4,"is_transit":false,"i_lat":-6.314823,"distance":2413,"i_long":106.675475},{"time":6,"line":6,"station_name":"Sudimara","station_id":"SDM","is_transit":false,"transit":false,"distance":4566,"i_lat":-6.296963,"i_long":106.712277},{"distance":1994,"station_name":"Jurangmangu","transit":false,"time":4,"is_transit":false,"station_id":"JMU","i_lat":-6.288927,"i_long":106.728916,"line":6},{"time":3,"is_transit":false,"i_long":106.74273,"station_id":"PDJ","distance":2179,"i_lat":-6.276362,"line":6,"station_name":"Pondokranji","transit":false},{"i_lat":-6.237242,"distance":6218,"station_id":"KBY","station_name":"Kebayoran","time":8,"is_transit":false,"transit":false,"i_long":106.780334,"line":6},{"i_long":106.79689,"distance":3737,"transit":false,"i_lat":-6.207404,"station_name":"Palmerah","is_transit":false,"line":6,"time":7,"station_id":"PLM"},{"i_long":106.811091,"distance":3191,"station_id":"THB","is_transit":true,"time":6,"transit":true,"i_lat":-6.185545,"station_name":"Tanah Abang","line":1},{"i_long":106.816351,"time":5,"distance":2029,"station_id":"KAT","is_transit":false,"transit":false,"line":1,"station_name":"Karet","i_lat":-6.20132},{"line":1,"i_lat":-6.201433,"time":1,"station_name":"Sudirman Baru","transit":false,"i_long":106.819881,"station_id":"SUDB","is_transit":false,"distance":471},{"distance":280,"transit":false,"line":1,"i_lat":-6.202263,"i_long":106.822649,"time":1,"station_name":"Sudirman","station_id":"SUD","is_transit":false},{"transit":false,"i_lat":-6.209883,"line":2,"distance":3186,"station_id":"MRI","time":4,"is_transit":false,"i_long":106.84912,"station_name":"Manggarai"},{"i_lat":-6.212485,"distance":1275,"station_name":"Matraman","i_long":106.858896,"line":1,"station_id":"MTR","is_transit":false,"transit":false,"time":2},{"transit":false,"is_transit":false,"time":8,"i_long":106.86807400000001,"line":1,"station_id":"JNG","i_lat":-6.215091,"distance":1377,"station_name":"Jatinegara"},{"i_long":106.899548,"i_lat":-6.2135,"distance":3395,"station_id":"KLD","line":1,"time":3,"station_name":"Klender","transit":false,"is_transit":false},{"line":1,"station_name":"Buaran","i_long":106.922662,"is_transit":false,"transit":false,"i_lat":-6.215568,"distance":3100,"station_id":"BUA","time":2},{"i_lat":-6.217455,"line":1,"station_id":"KLDB","i_long":106.939679,"station_name":"Klenderbaru","distance":1305,"is_transit":false,"transit":false,"time":1}],[{"i_long":106.640411,"is_transit":false,"distance":0,"time":0,"i_lat":-6.32484,"line":3,"station_name":"Cisauk","station_id":"CSK","transit":false},{"station_id":"SRP","is_transit":false,"i_lat":-6.319871,"distance":1784,"line":6,"transit":false,"i_long":106.66566,"time":4,"station_name":"Serpong"},{"station_id":"RU","transit":false,"station_name":"Rawa Buntu","i_long":106.675475,"time":4,"line":6,"distance":2413,"is_transit":false,"i_lat":-6.314823},{"station_name":"Sudimara","i_lat":-6.296963,"distance":4566,"i_long":106.712277,"is_transit":false,"transit":false,"station_id":"SDM","line":6,"time":6},{"transit":false,"i_lat":-6.288927,"i_long":106.728916,"distance":1994,"station_name":"Jurangmangu","time":4,"is_transit":false,"station_id":"JMU","line":6},{"i_long":106.74273,"is_transit":false,"line":6,"transit":false,"time":3,"distance":2179,"station_id":"PDJ","i_lat":-6.276362,"station_name":"Pondokranji"},{"line":6,"i_long":106.780334,"time":8,"i_lat":-6.237242,"station_name":"Kebayoran","transit":false,"station_id":"KBY","is_transit":false,"distance":6218},{"station_name":"Palmerah","distance":3737,"i_lat":-6.207404,"station_id":"PLM","is_transit":false,"i_long":106.79689,"line":6,"transit":false,"time":7},{"is_transit":true,"transit":true,"i_long":106.811091,"time":6,"distance":3191,"station_name":"Tanah Abang","station_id":"THB","i_lat":-6.185545,"line":1},{"i_long":106.800832,"station_name":"Duri","station_id":"DU","line":1,"i_lat":-6.155215,"is_transit":false,"transit":false,"time":8,"distance":3632},{"transit":false,"i_lat":-6.144674,"is_transit":false,"i_long":106.79867,"station_name":"Angke","station_id":"AK","line":1,"time":4,"distance":1230},{"i_long":106.826365,"line":4,"station_name":"Kampung Bandan","is_transit":true,"time":9,"transit":true,"distance":4102,"i_lat":-6.132549,"station_id":"KPB"},{"transit":false,"i_long":106.836569,"i_lat":-6.14505,"station_id":"RJW","is_transit":false,"time":3,"station_name":"Rajawali","distance":1444,"line":11},{"is_transit":false,"station_id":"KMO","station_name":"Kemayoran","i_long":106.839204,"distance":1901,"i_lat":-6.161728,"transit":false,"line":11,"time":5},{"i_lat":-6.174784,"distance":1436,"transit":false,"line":11,"is_transit":false,"station_id":"PSE","station_name":"Pasar Senen","time":4,"i_long":106.84368},{"distance":1567,"station_name":"Gang Sentiong","time":8,"line":11,"i_lat":-6.185975,"i_long":106.850107,"transit":false,"is_transit":false,"station_id":"GST"},{"transit":false,"i_lat":-6.193792,"is_transit":false,"distance":973,"station_name":"Kramat","line":11,"station_id":"KMT","i_long":106.855437,"time":1},{"distance":1829,"i_lat":-6.209188,"transit":false,"station_name":"Pondok Jati","is_transit":false,"i_long":106.861737,"time":2,"line":11,"station_id":"POK"},{"station_name":"Jatinegara","station_id":"JNG","time":9,"i_lat":-6.215091,"i_long":106.86807400000001,"is_transit":true,"line":1,"distance":1236,"transit":true},{"station_id":"KLD","transit":false,"distance":3395,"i_long":106.899548,"time":3,"station_name":"Klender","is_transit":false,"i_lat":-6.2135,"line":1},{"line":1,"station_id":"BUA","i_long":106.922662,"transit":false,"station_name":"Buaran","is_transit":false,"time":2,"distance":3100,"i_lat":-6.215568},{"station_name":"Klenderbaru","time":1,"is_transit":false,"i_long":106.939679,"i_lat":-6.217455,"line":1,"distance":1305,"transit":false,"station_id":"KLDB"}],[{"is_transit":false,"station_id":"CSK","time":0,"line":3,"transit":false,"station_name":"Cisauk","i_long":106.640411,"distance":0,"i_lat":-6.32484},{"i_long":106.66566,"time":4,"station_name":"Serpong","is_transit":false,"station_id":"SRP","transit":false,"i_lat":-6.319871,"distance":1784,"line":6},{"line":6,"station_id":"RU","i_long":106.675475,"time":4,"transit":false,"station_name":"Rawa Buntu","distance":2413,"i_lat":-6.314823,"is_transit":false},{"station_name":"Sudimara","line":6,"distance":4566,"is_transit":false,"i_long":106.712277,"time":6,"i_lat":-6.296963,"transit":false,"station_id":"SDM"},{"station_name":"Jurangmangu","i_long":106.728916,"is_transit":false,"i_lat":-6.288927,"distance":1994,"line":6,"station_id":"JMU","time":4,"transit":false},{"distance":2179,"station_id":"PDJ","i_long":106.74273,"station_name":"Pondokranji","is_transit":false,"time":3,"i_lat":-6.276362,"transit":false,"line":6},{"station_name":"Kebayoran","is_transit":false,"transit":false,"station_id":"KBY","i_lat":-6.237242,"time":8,"i_long":106.780334,"distance":6218,"line":6},{"time":7,"i_long":106.79689,"is_transit":false,"transit":false,"distance":3737,"station_name":"Palmerah","line":6,"station_id":"PLM","i_lat":-6.207404},{"time":6,"distance":3191,"line":1,"is_transit":true,"station_id":"THB","i_long":106.811091,"transit":true,"station_name":"Tanah Abang","i_lat":-6.185545},{"i_lat":-6.155215,"transit":false,"time":8,"distance":3632,"i_long":106.800832,"station_name":"Duri","is_transit":false,"line":1,"station_id":"DU"},{"time":4,"distance":1230,"station_id":"AK","is_transit":false,"line":1,"transit":false,"i_long":106.79867,"station_name":"Angke","i_lat":-6.144674},{"distance":4102,"transit":true,"time":9,"i_lat":-6.132549,"i_long":106.826365,"is_transit":true,"station_name":"Kampung Bandan","station_id":"KPB","line":4},{"station_name":"Jakarta Kota","distance":1364,"i_long":106.812439,"station_id":"JAKK","transit":true,"is_transit":true,"i_lat":-6.137569,"time":3,"line":2},{"line":2,"station_name":"Jayakarta","transit":false,"i_lat":-6.141205,"distance":1264,"station_id":"JAY","time":4,"is_transit":false,"i_long":106.820901},{"distance":1080,"station_name":"Manggabesar","line":2,"transit":false,"i_long":106.82482,"time":2,"i_lat":-6.149769,"station_id":"MGB","is_transit":false},{"transit":false,"line":2,"i_lat":-6.160725,"time":2,"station_name":"Sawah Besar","station_id":"SW","distance":906,"i_long":106.827103,"is_transit":false},{"station_name":"Juanda","distance":1149,"station_id":"JUA","is_transit":false,"line":2,"i_lat":-6.166716,"i_long":106.828284,"transit":false,"time":2},{"transit":false,"line":2,"station_id":"GDD","i_lat":-6.186295,"distance":2015,"station_name":"Gondangdia","is_transit":false,"time":4,"i_long":106.832183},{"station_name":"Cikini","station_id":"CKI","i_lat":-6.198556,"is_transit":false,"transit":false,"time":3,"distance":1750,"i_long":106.840169,"line":2},{"i_long":106.84912,"line":2,"distance":1590,"station_id":"MRI","i_lat":-6.209883,"station_name":"Manggarai","transit":true,"is_transit":true,"time":4},{"line":1,"station_name":"Matraman","time":2,"distance":1275,"i_lat":-6.212485,"is_transit":false,"i_long":106.858896,"station_id":"MTR","transit":false},{"is_transit":false,"station_id":"JNG","i_lat":-6.215091,"transit":false,"distance":1377,"station_name":"Jatinegara","i_long":106.86807400000001,"time":8,"line":1},{"distance":3395,"i_long":106.899548,"transit":false,"is_transit":false,"station_name":"Klender","line":1,"time":3,"i_lat":-6.2135,"station_id":"KLD"},{"station_id":"BUA","i_lat":-6.215568,"is_transit":false,"transit":false,"station_name":"Buaran","time":2,"distance":3100,"line":1,"i_long":106.922662},{"station_name":"Klenderbaru","station_id":"KLDB","distance":1305,"transit":false,"is_transit":false,"time":1,"i_lat":-6.217455,"i_long":106.939679,"line":1}],[{"station_name":"Cisauk","time":0,"distance":0,"i_lat":-6.32484,"line":3,"station_id":"CSK","transit":false,"is_transit":false,"i_long":106.640411},{"line":6,"i_lat":-6.319871,"distance":1784,"time":4,"station_name":"Serpong","is_transit":false,"transit":false,"station_id":"SRP","i_long":106.66566},{"station_id":"RU","line":6,"i_lat":-6.314823,"transit":false,"time":4,"i_long":106.675475,"station_name":"Rawa Buntu","is_transit":false,"distance":2413},{"i_lat":-6.296963,"i_long":106.712277,"distance":4566,"line":6,"station_name":"Sudimara","is_transit":false,"time":6,"station_id":"SDM","transit":false},{"line":6,"transit":false,"distance":1994,"i_long":106.728916,"is_transit":false,"station_name":"Jurangmangu","i_lat":-6.288927,"time":4,"station_id":"JMU"},{"i_lat":-6.276362,"i_long":106.74273,"station_name":"Pondokranji","line":6,"time":3,"station_id":"PDJ","is_transit":false,"transit":false,"distance":2179},{"station_name":"Kebayoran","time":8,"transit":false,"distance":6218,"i_lat":-6.237242,"line":6,"station_id":"KBY","is_transit":false,"i_long":106.780334},{"station_name":"Palmerah","station_id":"PLM","i_lat":-6.207404,"time":7,"line":6,"is_transit":false,"distance":3737,"transit":false,"i_long":106.79689},{"transit":true,"station_name":"Tanah Abang","station_id":"THB","i_lat":-6.185545,"is_transit":true,"line":1,"i_long":106.811091,"distance":3191,"time":6},{"line":1,"i_long":106.816351,"is_transit":false,"distance":2029,"station_id":"KAT","transit":false,"time":5,"station_name":"Karet","i_lat":-6.20132},{"line":1,"time":1,"i_long":106.819881,"station_name":"Sudirman Baru","transit":false,"distance":471,"is_transit":false,"station_id":"SUDB","i_lat":-6.201433},{"time":1,"is_transit":false,"station_name":"Sudirman","line":1,"distance":280,"transit":false,"station_id":"SUD","i_long":106.822649,"i_lat":-6.202263},{"time":4,"station_name":"Manggarai","distance":3186,"is_transit":true,"transit":true,"i_lat":-6.209883,"i_long":106.84912,"line":2,"station_id":"MRI"},{"is_transit":false,"i_long":106.840169,"station_name":"Cikini","time":4,"line":2,"distance":1590,"transit":false,"i_lat":-6.198556,"station_id":"CKI"},{"station_name":"Gondangdia","i_lat":-6.186295,"transit":false,"time":3,"is_transit":false,"distance":1750,"i_long":106.832183,"station_id":"GDD","line":2},{"i_lat":-6.166716,"station_name":"Juanda","time":4,"transit":false,"is_transit":false,"i_long":106.828284,"station_id":"JUA","line":2,"distance":2015},{"transit":false,"i_lat":-6.160725,"is_transit":false,"time":2,"station_name":"Sawah Besar","station_id":"SW","distance":1149,"line":2,"i_long":106.827103},{"distance":906,"is_transit":false,"i_long":106.82482,"transit":false,"station_id":"MGB","i_lat":-6.149769,"time":2,"station_name":"Manggabesar","line":2},{"i_lat":-6.141205,"i_long":106.820901,"line":2,"distance":1080,"station_name":"Jayakarta","station_id":"JAY","transit":false,"time":2,"is_transit":false},{"is_transit":true,"distance":1264,"transit":true,"station_id":"JAKK","station_name":"Jakarta Kota","time":4,"i_lat":-6.137569,"line":2,"i_long":106.812439},{"is_transit":true,"distance":1364,"i_lat":-6.132549,"time":3,"station_id":"KPB","station_name":"Kampung Bandan","transit":true,"i_long":106.826365,"line":4},{"i_long":106.836569,"transit":false,"distance":1444,"station_id":"RJW","is_transit":false,"time":3,"station_name":"Rajawali","line":11,"i_lat":-6.14505},{"time":5,"distance":1901,"line":11,"i_lat":-6.161728,"station_id":"KMO","i_long":106.839204,"is_transit":false,"transit":false,"station_name":"Kemayoran"},{"i_long":106.84368,"station_name":"Pasar Senen","distance":1436,"line":11,"station_id":"PSE","time":4,"transit":false,"is_transit":false,"i_lat":-6.174784},{"time":8,"station_id":"GST","line":11,"is_transit":false,"transit":false,"distance":1567,"i_long":106.850107,"i_lat":-6.185975,"station_name":"Gang Sentiong"},{"transit":false,"is_transit":false,"time":1,"distance":973,"i_lat":-6.193792,"station_name":"Kramat","station_id":"KMT","i_long":106.855437,"line":11},{"station_id":"POK","station_name":"Pondok Jati","distance":1829,"i_lat":-6.209188,"transit":false,"is_transit":false,"i_long":106.861737,"line":11,"time":2},{"i_long":106.86807400000001,"station_name":"Jatinegara","transit":true,"is_transit":true,"distance":1236,"time":9,"station_id":"JNG","i_lat":-6.215091,"line":1},{"time":3,"distance":3395,"transit":false,"is_transit":false,"i_lat":-6.2135,"station_id":"KLD","i_long":106.899548,"station_name":"Klender","line":1},{"i_long":106.922662,"time":2,"station_id":"BUA","station_name":"Buaran","is_transit":false,"i_lat":-6.215568,"line":1,"transit":false,"distance":3100},{"i_lat":-6.217455,"time":1,"transit":false,"is_transit":false,"i_long":106.939679,"line":1,"station_id":"KLDB","station_name":"Klenderbaru","distance":1305}]]}