{"data":[[{"distance":0,"i_long":106.640411,"station_id":"CSK","station_name":"Cisauk","i_lat":-6.32484,"line":3,"is_transit":false,"transit":false,"time":0},{"i_long":106.617853,"station_id":"CC","time":4,"station_name":"Cicayur","is_transit":false,"line":3,"transit":false,"distance":2519,"i_lat":-6.329547},{"station_name":"Parung Panjang","station_id":"PRP","transit":false,"distance":5968,"i_lat":-6.3441410000000005,"i_long":106.568863,"time":8,"is_transit":false,"line":6},{"is_transit":false,"time":9,"i_lat":-6.354349,"distance":7025,"i_long":106.508482,"station_id":"CJT","station_name":"Cilejit","line":3,"transit":false},{"distance":2675,"i_long":106.491338,"time":6,"line":0,"i_lat":-6.338021,"station_id":"DAR","is_transit":false,"station_name":"Daru","transit":false},{"i_long":106.460812,"i_lat":-6.327251,"is_transit":false,"line":6,"station_name":"Tenjo","distance":3902,"transit":false,"time":5,"station_id":"TEJ"},{"i_lat":-6.328533,"time":5,"i_long":106.425991,"station_id":"TGS","distance":2974,"transit":false,"line":6,"is_transit":false,"station_name":"Tigaraksa"},{"line":3,"time":3,"is_transit":false,"transit":false,"i_lat":-6.33561,"station_name":"Cikoya","i_long":106.411216,"station_id":"CKY","distance":2651},{"station_name":"Maja","time":4,"transit":false,"i_lat":-6.332307,"station_id":"MJ","line":6,"distance":1853,"is_transit":false,"i_long":106.394373},{"transit":false,"i_long":106.332092,"time":10,"station_name":"Citeras","is_transit":false,"distance":7293,"station_id":"CTR","i_lat":-6.334892,"line":3}]]}