{"data":[[{"i_long":106.640411,"station_name":"Cisauk","i_lat":-6.32484,"distance":0,"station_id":"CSK","is_transit":false,"line":3,"time":0,"transit":false},{"i_long":106.66566,"transit":false,"time":4,"line":6,"distance":1784,"station_name":"Serpong","i_lat":-6.319871,"is_transit":false,"station_id":"SRP"},{"distance":2413,"is_transit":false,"line":6,"station_id":"RU","station_name":"Rawa Buntu","i_lat":-6.314823,"i_long":106.675475,"time":4,"transit":false},{"line":6,"i_long":106.712277,"distance":4566,"i_lat":-6.296963,"station_id":"SDM","station_name":"Sudimara","time":6,"transit":false,"is_transit":false},{"i_long":106.728916,"station_id":"JMU","line":6,"station_name":"Jurangmangu","transit":false,"i_lat":-6.288927,"is_transit":false,"distance":1994,"time":4},{"i_long":106.74273,"station_id":"PDJ","transit":false,"time":3,"distance":2179,"is_transit":false,"i_lat":-6.276362,"line":6,"station_name":"Pondokranji"},{"transit":false,"distance":6218,"station_id":"KBY","is_transit":false,"line":6,"i_long":106.780334,"station_name":"Kebayoran","time":8,"i_lat":-6.237242},{"station_id":"PLM","is_transit":false,"time":7,"distance":3737,"transit":false,"line":6,"i_lat":-6.207404,"i_long":106.79689,"station_name":"Palmerah"},{"i_long":106.811091,"i_lat":-6.185545,"line":1,"transit":true,"time":6,"station_id":"THB","station_name":"Tanah Abang","distance":3191,"is_transit":true},{"time":8,"i_lat":-6.155215,"is_transit":false,"station_id":"DU","station_name":"Duri","line":1,"transit":false,"distance":3632,"i_long":106.800832},{"line":1,"distance":1230,"i_long":106.79867,"transit":false,"station_id":"AK","time":4,"is_transit":false,"i_lat":-6.144674,"station_name":"Angke"},{"line":4,"distance":4102,"i_long":106.826365,"station_name":"Kampung Bandan","is_transit":true,"time":9,"transit":true,"station_id":"KPB","i_lat":-6.132549},{"station_name":"Ancol","i_lat":-6.128023,"i_long":106.84464,"transit":false,"time":4,"distance":2185,"is_transit":false,"line":4,"station_id":"AC"}],[{"station_name":"Cisauk","i_lat":-6.32484,"line":3,"i_long":106.640411,"transit":false,"time":0,"distance":0,"station_id":"CSK","is_transit":false},{"station_name":"Serpong","time":4,"line":6,"transit":false,"distance":1784,"station_id":"SRP","is_transit":false,"i_long":106.66566,"i_lat":-6.319871},{"i_long":106.675475,"i_lat":-6.314823,"distance":2413,"is_transit":false,"transit":false,"line":6,"time":4,"station_name":"Rawa Buntu","station_id":"RU"},{"station_name":"Sudimara","is_transit":false,"transit":false,"i_long":106.712277,"line":6,"distance":4566,"i_lat":-6.296963,"time":6,"station_id":"SDM"},{"station_id":"JMU","is_transit":false,"transit":false,"distance":1994,"i_lat":-6.288927,"time":4,"station_name":"Jurangmangu","line":6,"i_long":106.728916},{"is_transit":false,"line":6,"i_lat":-6.276362,"time":3,"distance":2179,"station_id":"PDJ","station_name":"Pondokranji","transit":false,"i_long":106.74273},{"station_id":"KBY","transit":false,"station_name":"Kebayoran","distance":6218,"i_long":106.780334,"line":6,"is_transit":false,"time":8,"i_lat":-6.237242},{"distance":3737,"time":7,"i_lat":-6.207404,"is_transit":false,"transit":false,"station_name":"Palmerah","line":6,"station_id":"PLM","i_long":106.79689},{"i_lat":-6.185545,"station_name":"Tanah Abang","time":6,"distance":3191,"station_id":"THB","is_transit":true,"transit":true,"i_long":106.811091,"line":1},{"station_name":"Karet","is_transit":false,"i_long":106.816351,"time":5,"distance":2029,"transit":false,"line":1,"i_lat":-6.20132,"station_id":"KAT"},{"distance":471,"is_transit":false,"station_id":"SUDB","i_lat":-6.201433,"time":1,"station_name":"Sudirman Baru","line":1,"transit":false,"i_long":106.819881},{"i_lat":-6.202263,"is_transit":false,"time":1,"distance":280,"station_id":"SUD","transit":false,"i_long":106.822649,"line":1,"station_name":"Sudirman"},{"station_id":"MRI","distance":3186,"station_name":"Manggarai","transit":true,"i_lat":-6.209883,"i_long":106.84912,"is_transit":true,"time":4,"line":2},{"station_name":"Cikini","i_lat":-6.198556,"transit":false,"distance":1590,"i_long":106.840169,"is_transit":false,"time":4,"line":2,"station_id":"CKI"},{"is_transit":false,"station_id":"GDD","time":3,"station_name":"Gondangdia","transit":false,"distance":1750,"i_lat":-6.186295,"line":2,"i_long":106.832183},{"i_long":106.828284,"distance":2015,"is_transit":false,"station_name":"Juanda","transit":false,"i_lat":-6.166716,"station_id":"JUA","time":4,"line":2},{"time":2,"station_name":"Sawah Besar","i_lat":-6.160725,"station_id":"SW","is_transit":false,"i_long":106.827103,"transit":false,"distance":1149,"line":2},{"transit":false,"station_id":"MGB","station_name":"Manggabesar","distance":906,"line":2,"i_lat":-6.149769,"i_long":106.82482,"time":2,"is_transit":false},{"line":2,"distance":1080,"i_lat":-6.141205,"station_id":"JAY","is_transit":false,"transit":false,"station_name":"Jayakarta","i_long":106.820901,"time":2},{"line":2,"is_transit":true,"station_name":"Jakarta Kota","i_lat":-6.137569,"transit":true,"time":4,"i_long":106.812439,"distance":1264,"station_id":"JAKK"},{"time":3,"station_name":"Kampung Bandan","transit":true,"i_lat":-6.132549,"is_transit":true,"distance":1364,"line":4,"i_long":106.826365,"station_id":"KPB"},{"station_id":"AC","i_long":106.84464,"time":4,"is_transit":false,"transit":false,"station_name":"Ancol","distance":2185,"line":4,"i_lat":-6.128023}],[{"distance":0,"transit":false,"time":0,"i_long":106.640411,"station_id":"CSK","i_lat":-6.32484,"station_name":"Cisauk","is_transit":false,"line":3},{"distance":1784,"i_lat":-6.319871,"station_id":"SRP","transit":false,"time":4,"station_name":"Serpong","is_transit":false,"i_long":106.66566,"line":6},{"i_lat":-6.314823,"is_transit":false,"i_long":106.675475,"line":6,"time":4,"transit":false,"station_name":"Rawa Buntu","distance":2413,"station_id":"RU"},{"station_id":"SDM","time":6,"i_long":106.712277,"station_name":"Sudimara","is_transit":false,"i_lat":-6.296963,"distance":4566,"transit":false,"line":6},{"station_name":"Jurangmangu","is_transit":false,"i_lat":-6.288927,"station_id":"JMU","time":4,"i_long":106.728916,"transit":false,"line":6,"distance":1994},{"station_name":"Pondokranji","time":3,"i_long":106.74273,"i_lat":-6.276362,"is_transit":false,"line":6,"distance":2179,"station_id":"PDJ","transit":false},{"distance":6218,"line":6,"transit":false,"i_long":106.780334,"station_id":"KBY","station_name":"Kebayoran","is_transit":false,"time":8,"i_lat":-6.237242},{"i_long":106.79689,"distance":3737,"station_id":"PLM","i_lat":-6.207404,"line":6,"transit":false,"station_name":"Palmerah","time":7,"is_transit":false},{"station_name":"Tanah Abang","i_lat":-6.185545,"line":1,"distance":3191,"is_transit":true,"time":6,"station_id":"THB","i_long":106.811091,"transit":true},{"transit":false,"i_lat":-6.20132,"distance":2029,"i_long":106.816351,"time":5,"station_id":"KAT","line":1,"is_transit":false,"station_name":"Karet"},{"line":1,"station_id":"SUDB","transit":false,"i_long":106.819881,"time":1,"is_transit":false,"station_name":"Sudirman Baru","distance":471,"i_lat":-6.201433},{"distance":280,"line":1,"station_id":"SUD","time":1,"i_lat":-6.202263,"i_long":106.822649,"station_name":"Sudirman","transit":false,"is_transit":false},{"station_name":"Manggarai","transit":false,"station_id":"MRI","is_transit":false,"time":4,"line":2,"distance":3186,"i_lat":-6.209883,"i_long":106.84912},{"i_lat":-6.212485,"line":1,"station_name":"Matraman","time":2,"station_id":"MTR","distance":1275,"is_transit":false,"i_long":106.858896,"transit":false},{"is_transit":true,"transit":true,"time":8,"i_long":106.86807400000001,"station_id":"JNG","distance":1377,"station_name":"Jatinegara","i_lat":-6.215091,"line":1},{"station_id":"POK","is_transit":false,"station_name":"Pondok Jati","i_long":106.861737,"line":11,"time":2,"distance":1236,"transit":false,"i_lat":-6.209188},{"time":2,"line":11,"station_name":"Kramat","is_transit":false,"distance":1829,"station_id":"KMT","i_lat":-6.193792,"transit":false,"i_long":106.855437},{"station_id":"GST","time":1,"distance":973,"i_long":106.850107,"is_transit":false,"i_lat":-6.185975,"transit":false,"station_name":"Gang Sentiong","line":11},{"station_id":"PSE","i_lat":-6.174784,"distance":1567,"transit":false,"station_name":"Pasar Senen","time":8,"is_transit":false,"i_long":106.84368,"line":11},{"station_name":"Kemayoran","line":11,"i_long":106.839204,"i_lat":-6.161728,"transit":false,"time":4,"distance":1436,"station_id":"KMO","is_transit":false},{"transit":false,"distance":1901,"station_name":"Rajawali","station_id":"RJW","is_transit":false,"i_lat":-6.14505,"i_long":106.836569,"time":5,"line":11},{"time":3,"i_long":106.826365,"is_transit":true,"i_lat":-6.132549,"line":4,"station_id":"KPB","transit":true,"distance":1444,"station_name":"Kampung Bandan"},{"i_long":106.84464,"station_id":"AC","time":4,"transit":false,"station_name":"Ancol","is_transit":false,"i_lat":-6.128023,"line":4,"distance":2185}]]}