{"data":[[{"distance":0,"i_lat":-6.32484,"is_transit":false,"line":3,"i_long":106.640411,"station_name":"Cisauk","time":0,"transit":false,"station_id":"CSK"},{"distance":1784,"i_long":106.66566,"station_id":"SRP","time":4,"line":6,"is_transit":false,"i_lat":-6.319871,"transit":false,"station_name":"Serpong"},{"transit":false,"distance":2413,"line":6,"i_long":106.675475,"station_name":"Rawa Buntu","station_id":"RU","time":4,"is_transit":false,"i_lat":-6.314823},{"time":6,"station_id":"SDM","i_long":106.712277,"distance":4566,"transit":false,"station_name":"Sudimara","is_transit":false,"i_lat":-6.296963,"line":6},{"is_transit":false,"time":4,"line":6,"distance":1994,"i_lat":-6.288927,"station_id":"JMU","station_name":"Jurangmangu","i_long":106.728916,"transit":false},{"i_long":106.74273,"distance":2179,"i_lat":-6.276362,"station_name":"Pondokranji","is_transit":false,"line":6,"station_id":"PDJ","time":3,"transit":false},{"station_name":"Kebayoran","i_long":106.780334,"line":6,"transit":false,"station_id":"KBY","is_transit":false,"distance":6218,"i_lat":-6.237242,"time":8},{"station_id":"PLM","time":7,"station_name":"Palmerah","distance":3737,"line":6,"transit":false,"i_long":106.79689,"i_lat":-6.207404,"is_transit":false},{"i_long":106.811091,"transit":true,"station_name":"Tanah Abang","time":6,"station_id":"THB","distance":3191,"line":1,"i_lat":-6.185545,"is_transit":true},{"line":1,"time":5,"i_lat":-6.20132,"station_id":"KAT","transit":false,"station_name":"Karet","i_long":106.816351,"is_transit":false,"distance":2029},{"station_id":"SUDB","line":1,"i_long":106.819881,"transit":false,"time":1,"station_name":"Sudirman Baru","distance":471,"is_transit":false,"i_lat":-6.201433},{"i_long":106.822649,"line":1,"is_transit":false,"station_name":"Sudirman","station_id":"SUD","transit":false,"time":1,"i_lat":-6.202263,"distance":280},{"distance":3186,"station_name":"Manggarai","i_lat":-6.209883,"time":4,"is_transit":false,"i_long":106.84912,"transit":false,"station_id":"MRI","line":2},{"time":2,"transit":false,"is_transit":false,"i_long":106.858896,"line":1,"station_name":"Matraman","distance":1275,"i_lat":-6.212485,"station_id":"MTR"},{"station_id":"JNG","i_long":106.86807400000001,"line":1,"is_transit":false,"station_name":"Jatinegara","transit":false,"distance":1377,"i_lat":-6.215091,"time":8}],[{"time":0,"distance":0,"station_name":"Cisauk","is_transit":false,"transit":false,"i_lat":-6.32484,"i_long":106.640411,"line":3,"station_id":"CSK"},{"distance":1784,"i_lat":-6.319871,"line":6,"station_id":"SRP","is_transit":false,"time":4,"i_long":106.66566,"station_name":"Serpong","transit":false},{"distance":2413,"i_lat":-6.314823,"time":4,"line":6,"station_name":"Rawa Buntu","station_id":"RU","is_transit":false,"i_long":106.675475,"transit":false},{"distance":4566,"transit":false,"line":6,"is_transit":false,"i_lat":-6.296963,"station_name":"Sudimara","time":6,"i_long":106.712277,"station_id":"SDM"},{"i_lat":-6.288927,"line":6,"i_long":106.728916,"is_transit":false,"time":4,"station_id":"JMU","distance":1994,"transit":false,"station_name":"Jurangmangu"},{"station_name":"Pondokranji","is_transit":false,"line":6,"distance":2179,"time":3,"i_lat":-6.276362,"station_id":"PDJ","transit":false,"i_long":106.74273},{"station_name":"Kebayoran","i_lat":-6.237242,"line":6,"station_id":"KBY","i_long":106.780334,"distance":6218,"is_transit":false,"time":8,"transit":false},{"line":6,"station_id":"PLM","is_transit":false,"transit":false,"time":7,"i_lat":-6.207404,"distance":3737,"i_long":106.79689,"station_name":"Palmerah"},{"time":6,"i_long":106.811091,"station_id":"THB","distance":3191,"i_lat":-6.185545,"transit":true,"line":1,"station_name":"Tanah Abang","is_transit":true},{"transit":false,"station_id":"DU","distance":3632,"i_lat":-6.155215,"i_long":106.800832,"line":1,"is_transit":false,"time":8,"station_name":"Duri"},{"line":1,"distance":1230,"i_lat":-6.144674,"station_name":"Angke","time":4,"i_long":106.79867,"station_id":"AK","transit":false,"is_transit":false},{"station_id":"KPB","line":4,"i_lat":-6.132549,"is_transit":true,"time":9,"transit":true,"station_name":"Kampung Bandan","distance":4102,"i_long":106.826365},{"is_transit":false,"transit":false,"time":3,"distance":1444,"i_lat":-6.14505,"line":11,"station_name":"Rajawali","station_id":"RJW","i_long":106.836569},{"i_long":106.839204,"station_id":"KMO","line":11,"i_lat":-6.161728,"time":5,"transit":false,"distance":1901,"station_name":"Kemayoran","is_transit":false},{"i_long":106.84368,"distance":1436,"line":11,"station_name":"Pasar Senen","transit":false,"time":4,"station_id":"PSE","i_lat":-6.174784,"is_transit":false},{"line":11,"transit":false,"i_long":106.850107,"time":8,"is_transit":false,"i_lat":-6.185975,"station_id":"GST","distance":1567,"station_name":"Gang Sentiong"},{"station_id":"KMT","time":1,"transit":false,"line":11,"is_transit":false,"station_name":"Kramat","i_lat":-6.193792,"distance":973,"i_long":106.855437},{"i_lat":-6.209188,"time":2,"distance":1829,"transit":false,"i_long":106.861737,"station_name":"Pondok Jati","line":11,"is_transit":false,"station_id":"POK"},{"transit":false,"station_id":"JNG","is_transit":false,"i_long":106.86807400000001,"line":1,"station_name":"Jatinegara","time":9,"distance":1236,"i_lat":-6.215091}],[{"i_long":106.640411,"time":0,"transit":false,"is_transit":false,"i_lat":-6.32484,"station_id":"CSK","distance":0,"line":3,"station_name":"Cisauk"},{"distance":1784,"line":6,"i_lat":-6.319871,"station_name":"Serpong","i_long":106.66566,"station_id":"SRP","transit":false,"is_transit":false,"time":4},{"station_name":"Rawa Buntu","i_long":106.675475,"i_lat":-6.314823,"line":6,"station_id":"RU","time":4,"transit":false,"is_transit":false,"distance":2413},{"station_name":"Sudimara","i_long":106.712277,"station_id":"SDM","i_lat":-6.296963,"is_transit":false,"time":6,"distance":4566,"line":6,"transit":false},{"distance":1994,"i_lat":-6.288927,"time":4,"i_long":106.728916,"line":6,"station_name":"Jurangmangu","station_id":"JMU","is_transit":false,"transit":false},{"transit":false,"i_lat":-6.276362,"station_id":"PDJ","line":6,"station_name":"Pondokranji","is_transit":false,"i_long":106.74273,"time":3,"distance":2179},{"distance":6218,"station_id":"KBY","time":8,"line":6,"transit":false,"is_transit":false,"i_lat":-6.237242,"station_name":"Kebayoran","i_long":106.780334},{"is_transit":false,"transit":false,"station_name":"Palmerah","time":7,"distance":3737,"station_id":"PLM","i_long":106.79689,"i_lat":-6.207404,"line":6},{"i_lat":-6.185545,"station_id":"THB","i_long":106.811091,"transit":true,"is_transit":true,"time":6,"distance":3191,"station_name":"Tanah Abang","line":1},{"time":8,"line":1,"i_lat":-6.155215,"transit":false,"station_id":"DU","i_long":106.800832,"distance":3632,"station_name":"Duri","is_transit":false},{"distance":1230,"transit":false,"station_id":"AK","station_name":"Angke","i_lat":-6.144674,"i_long":106.79867,"is_transit":false,"line":1,"time":4},{"i_long":106.826365,"distance":4102,"transit":true,"is_transit":true,"i_lat":-6.132549,"station_name":"Kampung Bandan","time":9,"line":4,"station_id":"KPB"},{"distance":1364,"i_lat":-6.137569,"station_id":"JAKK","is_transit":true,"station_name":"Jakarta Kota","transit":true,"i_long":106.812439,"time":3,"line":2},{"transit":false,"time":4,"station_id":"JAY","line":2,"i_lat":-6.141205,"i_long":106.820901,"station_name":"Jayakarta","is_transit":false,"distance":1264},{"line":2,"i_long":106.82482,"station_name":"Manggabesar","time":2,"distance":1080,"i_lat":-6.149769,"is_transit":false,"transit":false,"station_id":"MGB"},{"i_long":106.827103,"line":2,"is_transit":false,"station_id":"SW","distance":906,"station_name":"Sawah Besar","i_lat":-6.160725,"time":2,"transit":false},{"distance":1149,"line":2,"station_name":"Juanda","i_long":106.828284,"transit":false,"station_id":"JUA","is_transit":false,"time":2,"i_lat":-6.166716},{"station_id":"GDD","time":4,"line":2,"distance":2015,"transit":false,"station_name":"Gondangdia","i_long":106.832183,"is_transit":false,"i_lat":-6.186295},{"distance":1750,"time":3,"i_lat":-6.198556,"line":2,"station_id":"CKI","i_long":106.840169,"station_name":"Cikini","transit":false,"is_transit":false},{"line":2,"transit":true,"station_name":"Manggarai","station_id":"MRI","i_long":106.84912,"distance":1590,"is_transit":true,"time":4,"i_lat":-6.209883},{"time":2,"transit":false,"i_long":106.858896,"is_transit":false,"station_name":"Matraman","line":1,"distance":1275,"station_id":"MTR","i_lat":-6.212485},{"is_transit":false,"transit":false,"station_name":"Jatinegara","station_id":"JNG","distance":1377,"i_lat":-6.215091,"time":8,"i_long":106.86807400000001,"line":1}],[{"is_transit":false,"station_name":"Cisauk","station_id":"CSK","transit":false,"line":3,"i_lat":-6.32484,"i_long":106.640411,"distance":0,"time":0},{"station_name":"Serpong","station_id":"SRP","time":4,"transit":false,"is_transit":false,"i_lat":-6.319871,"i_long":106.66566,"line":6,"distance":1784},{"transit":false,"i_long":106.675475,"station_id":"RU","is_transit":false,"distance":2413,"time":4,"i_lat":-6.314823,"station_name":"Rawa Buntu","line":6},{"time":6,"is_transit":false,"i_long":106.712277,"transit":false,"station_name":"Sudimara","station_id":"SDM","line":6,"i_lat":-6.296963,"distance":4566},{"station_id":"JMU","distance":1994,"transit":false,"is_transit":false,"i_lat":-6.288927,"time":4,"station_name":"Jurangmangu","i_long":106.728916,"line":6},{"line":6,"station_name":"Pondokranji","station_id":"PDJ","i_lat":-6.276362,"i_long":106.74273,"transit":false,"is_transit":false,"time":3,"distance":2179},{"line":6,"is_transit":false,"transit":false,"station_name":"Kebayoran","time":8,"i_long":106.780334,"station_id":"KBY","distance":6218,"i_lat":-6.237242},{"line":6,"i_long":106.79689,"station_id":"PLM","station_name":"Palmerah","i_lat":-6.207404,"time":7,"distance":3737,"transit":false,"is_transit":false},{"distance":3191,"station_name":"Tanah Abang","station_id":"THB","i_lat":-6.185545,"line":1,"transit":true,"time":6,"is_transit":true,"i_long":106.811091},{"station_id":"KAT","station_name":"Karet","distance":2029,"i_lat":-6.20132,"transit":false,"i_long":106.816351,"line":1,"is_transit":false,"time":5},{"i_long":106.819881,"station_name":"Sudirman Baru","distance":471,"line":1,"i_lat":-6.201433,"time":1,"transit":false,"is_transit":false,"station_id":"SUDB"},{"station_id":"SUD","i_lat":-6.202263,"is_transit":false,"distance":280,"i_long":106.822649,"station_name":"Sudirman","time":1,"line":1,"transit":false},{"line":2,"station_id":"MRI","station_name":"Manggarai","distance":3186,"time":4,"is_transit":true,"i_long":106.84912,"i_lat":-6.209883,"transit":true},{"i_lat":-6.198556,"station_name":"Cikini","station_id":"CKI","transit":false,"distance":1590,"i_long":106.840169,"is_transit":false,"line":2,"time":4},{"is_transit":false,"line":2,"distance":1750,"i_lat":-6.186295,"transit":false,"station_id":"GDD","time":3,"station_name":"Gondangdia","i_long":106.832183},{"time":4,"distance":2015,"i_lat":-6.166716,"is_transit":false,"station_name":"Juanda","i_long":106.828284,"line":2,"transit":false,"station_id":"JUA"},{"i_lat":-6.160725,"is_transit":false,"station_id":"SW","station_name":"Sawah Besar","time":2,"distance":1149,"i_long":106.827103,"transit":false,"line":2},{"distance":906,"station_id":"MGB","transit":false,"station_name":"Manggabesar","line":2,"i_long":106.82482,"time":2,"is_transit":false,"i_lat":-6.149769},{"transit":false,"line":2,"time":2,"station_id":"JAY","station_name":"Jayakarta","i_long":106.820901,"distance":1080,"is_transit":false,"i_lat":-6.141205},{"time":4,"transit":true,"distance":1264,"i_lat":-6.137569,"is_transit":true,"i_long":106.812439,"line":2,"station_name":"Jakarta Kota","station_id":"JAKK"},{"time":3,"distance":1364,"station_id":"KPB","i_lat":-6.132549,"line":4,"transit":true,"i_long":106.826365,"is_transit":true,"station_name":"Kampung Bandan"},{"distance":1444,"transit":false,"is_transit":false,"time":3,"i_long":106.836569,"station_id":"RJW","station_name":"Rajawali","i_lat":-6.14505,"line":11},{"is_transit":false,"line":11,"station_id":"KMO","time":5,"distance":1901,"i_long":106.839204,"i_lat":-6.161728,"transit":false,"station_name":"Kemayoran"},{"time":4,"station_name":"Pasar Senen","station_id":"PSE","distance":1436,"is_transit":false,"transit":false,"line":11,"i_long":106.84368,"i_lat":-6.174784},{"station_id":"GST","transit":false,"time":8,"station_name":"Gang Sentiong","i_lat":-6.185975,"line":11,"is_transit":false,"i_long":106.850107,"distance":1567},{"station_name":"Kramat","is_transit":false,"i_lat":-6.193792,"i_long":106.855437,"line":11,"transit":false,"time":1,"station_id":"KMT","distance":973},{"distance":1829,"time":2,"transit":false,"is_transit":false,"i_lat":-6.209188,"line":11,"station_id":"POK","i_long":106.861737,"station_name":"Pondok Jati"},{"transit":false,"time":9,"line":1,"station_id":"JNG","distance":1236,"i_lat":-6.215091,"station_name":"Jatinegara","i_long":106.86807400000001,"is_transit":false}]]}