{"data":[[{"transit":false,"distance":0,"i_long":106.640411,"station_name":"Cisauk","i_lat":-6.32484,"line":3,"time":0,"is_transit":false,"station_id":"CSK"},{"distance":2519,"station_id":"CC","line":3,"time":4,"transit":false,"station_name":"Cicayur","i_lat":-6.329547,"i_long":106.617853,"is_transit":false},{"distance":5968,"time":8,"is_transit":false,"transit":false,"i_long":106.568863,"i_lat":-6.3441410000000005,"line":6,"station_id":"PRP","station_name":"Parung Panjang"},{"transit":false,"time":9,"station_id":"CJT","distance":7025,"is_transit":false,"i_lat":-6.354349,"station_name":"Cilejit","i_long":106.508482,"line":3},{"station_name":"Daru","i_lat":-6.338021,"line":0,"station_id":"DAR","distance":2675,"time":6,"is_transit":false,"transit":false,"i_long":106.491338}]]}