{"data":[[{"line":0,"time":0,"transit":false,"station_id":"CSK","i_long":106.640411,"distance":0,"is_transit":false,"station_name":"Cisauk","i_lat":-6.32484},{"line":6,"is_transit":false,"i_long":106.66566,"distance":1784,"time":4,"station_name":"Serpong","i_lat":-6.319871,"transit":false,"station_id":"SRP"},{"i_long":106.675475,"transit":false,"i_lat":-6.314823,"time":4,"distance":2413,"line":6,"is_transit":false,"station_id":"RU","station_name":"Rawa Buntu"},{"i_long":106.712277,"station_id":"SDM","station_name":"Sudimara","i_lat":-6.296963,"transit":false,"distance":4566,"is_transit":false,"time":6,"line":6},{"transit":false,"station_id":"JMU","is_transit":false,"distance":1994,"i_long":106.728916,"station_name":"Jurangmangu","line":6,"i_lat":-6.288927,"time":4},{"i_lat":-6.276362,"station_name":"Pondokranji","distance":2179,"time":3,"i_long":106.74273,"line":6,"transit":false,"station_id":"PDJ","is_transit":false},{"i_lat":-6.237242,"i_long":106.780334,"is_transit":false,"station_name":"Kebayoran","transit":false,"time":8,"line":6,"distance":6218,"station_id":"KBY"},{"time":7,"i_long":106.79689,"i_lat":-6.207404,"station_name":"Palmerah","station_id":"PLM","line":6,"distance":3737,"transit":false,"is_transit":false},{"time":6,"is_transit":true,"station_id":"THB","transit":true,"station_name":"Tanah Abang","distance":3191,"i_long":106.811091,"i_lat":-6.185545,"line":1},{"line":1,"station_id":"DU","i_lat":-6.155215,"is_transit":true,"distance":3632,"i_long":106.800832,"station_name":"Duri","transit":true,"time":8},{"distance":1230,"transit":false,"station_id":"AK","is_transit":false,"time":4,"station_name":"Angke","line":0,"i_lat":-6.144674,"i_long":106.79867},{"is_transit":true,"time":9,"distance":4102,"station_name":"Kampung Bandan","i_lat":-6.132549,"station_id":"KPB","i_long":106.826365,"line":0,"transit":true},{"transit":false,"distance":1444,"i_long":106.836569,"is_transit":false,"station_id":"RJW","i_lat":-6.14505,"time":3,"line":11,"station_name":"Rajawali"},{"i_lat":-6.161728,"distance":1901,"transit":false,"station_id":"KMO","is_transit":false,"i_long":106.839204,"line":11,"time":5,"station_name":"Kemayoran"},{"station_id":"PSE","distance":1436,"time":4,"is_transit":false,"station_name":"Pasar Senen","i_long":106.84368,"line":11,"i_lat":-6.174784,"transit":false},{"i_long":106.850107,"is_transit":false,"station_id":"GST","i_lat":-6.185975,"line":11,"time":8,"distance":1567,"transit":false,"station_name":"Gang Sentiong"},{"time":1,"is_transit":false,"distance":973,"station_name":"Kramat","station_id":"KMT","transit":false,"line":11,"i_long":106.855437,"i_lat":-6.193792}],[{"station_id":"CSK","station_name":"Cisauk","i_lat":-6.32484,"line":0,"is_transit":false,"time":0,"transit":false,"distance":0,"i_long":106.640411},{"station_name":"Serpong","transit":false,"time":4,"i_long":106.66566,"is_transit":false,"distance":1784,"i_lat":-6.319871,"line":6,"station_id":"SRP"},{"time":4,"distance":2413,"is_transit":false,"station_id":"RU","i_long":106.675475,"transit":false,"line":6,"station_name":"Rawa Buntu","i_lat":-6.314823},{"is_transit":false,"transit":false,"i_lat":-6.296963,"line":6,"station_id":"SDM","i_long":106.712277,"time":6,"distance":4566,"station_name":"Sudimara"},{"distance":1994,"i_lat":-6.288927,"time":4,"line":6,"station_id":"JMU","station_name":"Jurangmangu","is_transit":false,"i_long":106.728916,"transit":false},{"station_id":"PDJ","station_name":"Pondokranji","distance":2179,"is_transit":false,"time":3,"transit":false,"i_lat":-6.276362,"line":6,"i_long":106.74273},{"distance":6218,"i_lat":-6.237242,"station_name":"Kebayoran","i_long":106.780334,"line":6,"is_transit":false,"time":8,"station_id":"KBY","transit":false},{"transit":false,"i_lat":-6.207404,"station_name":"Palmerah","distance":3737,"i_long":106.79689,"line":6,"is_transit":false,"time":7,"station_id":"PLM"},{"distance":3191,"station_id":"THB","time":6,"i_lat":-6.185545,"i_long":106.811091,"is_transit":true,"station_name":"Tanah Abang","transit":true,"line":1},{"is_transit":false,"i_long":106.816351,"transit":false,"distance":2029,"i_lat":-6.20132,"time":5,"station_id":"KAT","station_name":"Karet","line":1},{"i_lat":-6.201433,"station_id":"SUDB","is_transit":false,"transit":false,"line":1,"distance":471,"i_long":106.819881,"station_name":"Sudirman Baru","time":1},{"time":1,"transit":false,"is_transit":false,"i_long":106.822649,"station_id":"SUD","i_lat":-6.202263,"line":1,"station_name":"Sudirman","distance":280},{"i_long":106.84912,"station_id":"MRI","distance":3186,"i_lat":-6.209883,"transit":false,"station_name":"Manggarai","time":4,"is_transit":true,"line":0},{"i_lat":-6.212485,"distance":1275,"transit":false,"i_long":106.858896,"line":1,"time":2,"is_transit":false,"station_id":"MTR","station_name":"Matraman"},{"is_transit":true,"station_name":"Jatinegara","station_id":"JNG","line":0,"distance":1377,"i_lat":-6.215091,"time":8,"transit":true,"i_long":106.86807400000001},{"time":2,"station_name":"Pondok Jati","station_id":"POK","transit":false,"line":11,"i_lat":-6.209188,"i_long":106.861737,"distance":1236,"is_transit":false},{"transit":false,"i_lat":-6.193792,"is_transit":false,"time":2,"station_name":"Kramat","line":11,"distance":1829,"station_id":"KMT","i_long":106.855437}],[{"station_name":"Cisauk","transit":false,"time":0,"distance":0,"station_id":"CSK","line":0,"is_transit":false,"i_long":106.640411,"i_lat":-6.32484},{"transit":false,"time":4,"i_lat":-6.319871,"i_long":106.66566,"line":6,"distance":1784,"is_transit":false,"station_name":"Serpong","station_id":"SRP"},{"station_name":"Rawa Buntu","transit":false,"line":6,"distance":2413,"i_long":106.675475,"i_lat":-6.314823,"is_transit":false,"time":4,"station_id":"RU"},{"time":6,"i_lat":-6.296963,"i_long":106.712277,"transit":false,"line":6,"distance":4566,"station_id":"SDM","station_name":"Sudimara","is_transit":false},{"station_name":"Jurangmangu","time":4,"transit":false,"is_transit":false,"distance":1994,"line":6,"i_long":106.728916,"station_id":"JMU","i_lat":-6.288927},{"distance":2179,"line":6,"transit":false,"i_lat":-6.276362,"is_transit":false,"station_id":"PDJ","i_long":106.74273,"station_name":"Pondokranji","time":3},{"i_lat":-6.237242,"is_transit":false,"station_name":"Kebayoran","line":6,"distance":6218,"time":8,"station_id":"KBY","i_long":106.780334,"transit":false},{"station_id":"PLM","line":6,"transit":false,"i_lat":-6.207404,"distance":3737,"i_long":106.79689,"station_name":"Palmerah","is_transit":false,"time":7},{"i_long":106.811091,"line":1,"station_name":"Tanah Abang","is_transit":true,"time":6,"i_lat":-6.185545,"transit":true,"station_id":"THB","distance":3191},{"transit":true,"i_lat":-6.155215,"line":1,"station_name":"Duri","station_id":"DU","distance":3632,"is_transit":true,"time":8,"i_long":106.800832},{"line":0,"station_id":"AK","i_long":106.79867,"distance":1230,"i_lat":-6.144674,"time":4,"transit":false,"is_transit":false,"station_name":"Angke"},{"station_name":"Kampung Bandan","line":0,"time":9,"is_transit":true,"i_long":106.826365,"i_lat":-6.132549,"transit":false,"distance":4102,"station_id":"KPB"},{"i_lat":-6.137569,"time":3,"transit":true,"distance":1364,"line":0,"station_id":"JAKK","station_name":"Jakarta Kota","i_long":106.812439,"is_transit":true},{"i_long":106.820901,"transit":false,"i_lat":-6.141205,"time":4,"line":7,"distance":1264,"station_id":"JAY","station_name":"Jayakarta","is_transit":false},{"station_id":"MGB","line":2,"time":2,"transit":false,"station_name":"Manggabesar","distance":1080,"i_lat":-6.149769,"i_long":106.82482,"is_transit":false},{"time":2,"station_id":"SW","distance":906,"transit":false,"i_lat":-6.160725,"is_transit":false,"line":2,"station_name":"Sawah Besar","i_long":106.827103},{"station_id":"JUA","station_name":"Juanda","distance":1149,"time":2,"i_long":106.828284,"is_transit":false,"line":2,"transit":false,"i_lat":-6.166716},{"i_long":106.832183,"transit":false,"line":2,"is_transit":false,"time":4,"distance":2015,"i_lat":-6.186295,"station_id":"GDD","station_name":"Gondangdia"},{"i_lat":-6.198556,"line":0,"time":3,"station_id":"CKI","transit":false,"is_transit":false,"station_name":"Cikini","i_long":106.840169,"distance":1750},{"station_id":"MRI","i_lat":-6.209883,"i_long":106.84912,"transit":true,"time":4,"station_name":"Manggarai","is_transit":true,"line":0,"distance":1590},{"distance":1275,"line":1,"station_name":"Matraman","is_transit":false,"i_long":106.858896,"transit":false,"time":2,"station_id":"MTR","i_lat":-6.212485},{"station_id":"JNG","transit":true,"distance":1377,"line":0,"i_lat":-6.215091,"i_long":106.86807400000001,"is_transit":true,"time":8,"station_name":"Jatinegara"},{"transit":false,"distance":1236,"station_id":"POK","i_long":106.861737,"time":2,"i_lat":-6.209188,"is_transit":false,"line":11,"station_name":"Pondok Jati"},{"station_name":"Kramat","distance":1829,"i_long":106.855437,"transit":false,"i_lat":-6.193792,"line":11,"is_transit":false,"time":2,"station_id":"KMT"}],[{"is_transit":false,"time":0,"station_name":"Cisauk","distance":0,"transit":false,"i_long":106.640411,"station_id":"CSK","line":0,"i_lat":-6.32484},{"time":4,"station_name":"Serpong","transit":false,"i_long":106.66566,"is_transit":false,"station_id":"SRP","i_lat":-6.319871,"line":6,"distance":1784},{"transit":false,"is_transit":false,"distance":2413,"time":4,"station_id":"RU","i_lat":-6.314823,"line":6,"station_name":"Rawa Buntu","i_long":106.675475},{"transit":false,"time":6,"i_lat":-6.296963,"line":6,"is_transit":false,"distance":4566,"station_id":"SDM","station_name":"Sudimara","i_long":106.712277},{"station_id":"JMU","distance":1994,"i_long":106.728916,"station_name":"Jurangmangu","line":6,"i_lat":-6.288927,"time":4,"transit":false,"is_transit":false},{"station_name":"Pondokranji","i_long":106.74273,"is_transit":false,"distance":2179,"station_id":"PDJ","transit":false,"line":6,"time":3,"i_lat":-6.276362},{"i_long":106.780334,"distance":6218,"line":6,"is_transit":false,"time":8,"station_name":"Kebayoran","station_id":"KBY","transit":false,"i_lat":-6.237242},{"station_name":"Palmerah","station_id":"PLM","time":7,"is_transit":false,"distance":3737,"transit":false,"i_long":106.79689,"line":6,"i_lat":-6.207404},{"line":1,"transit":true,"distance":3191,"i_lat":-6.185545,"time":6,"station_id":"THB","is_transit":true,"station_name":"Tanah Abang","i_long":106.811091},{"station_id":"KAT","i_long":106.816351,"is_transit":false,"i_lat":-6.20132,"station_name":"Karet","transit":false,"time":5,"distance":2029,"line":1},{"transit":false,"i_lat":-6.201433,"line":1,"is_transit":false,"distance":471,"time":1,"station_id":"SUDB","i_long":106.819881,"station_name":"Sudirman Baru"},{"station_id":"SUD","station_name":"Sudirman","i_lat":-6.202263,"is_transit":false,"distance":280,"transit":false,"line":1,"i_long":106.822649,"time":1},{"distance":3186,"is_transit":true,"line":0,"transit":true,"time":4,"station_name":"Manggarai","i_lat":-6.209883,"i_long":106.84912,"station_id":"MRI"},{"time":4,"is_transit":false,"station_id":"CKI","line":0,"transit":false,"i_lat":-6.198556,"station_name":"Cikini","i_long":106.840169,"distance":1590},{"transit":false,"i_lat":-6.186295,"i_long":106.832183,"line":2,"distance":1750,"station_name":"Gondangdia","time":3,"is_transit":false,"station_id":"GDD"},{"station_id":"JUA","station_name":"Juanda","i_long":106.828284,"line":2,"transit":false,"time":4,"i_lat":-6.166716,"is_transit":false,"distance":2015},{"time":2,"distance":1149,"transit":false,"line":2,"station_id":"SW","station_name":"Sawah Besar","i_lat":-6.160725,"i_long":106.827103,"is_transit":false},{"time":2,"station_name":"Manggabesar","is_transit":false,"transit":false,"distance":906,"i_lat":-6.149769,"i_long":106.82482,"line":2,"station_id":"MGB"},{"distance":1080,"line":7,"station_id":"JAY","time":2,"transit":false,"is_transit":false,"i_long":106.820901,"station_name":"Jayakarta","i_lat":-6.141205},{"station_name":"Jakarta Kota","line":0,"is_transit":true,"station_id":"JAKK","i_lat":-6.137569,"i_long":106.812439,"time":4,"distance":1264,"transit":true},{"distance":1364,"is_transit":true,"transit":true,"time":3,"line":0,"i_long":106.826365,"station_name":"Kampung Bandan","i_lat":-6.132549,"station_id":"KPB"},{"transit":false,"is_transit":false,"i_lat":-6.14505,"distance":1444,"time":3,"station_name":"Rajawali","line":11,"station_id":"RJW","i_long":106.836569},{"i_lat":-6.161728,"distance":1901,"transit":false,"is_transit":false,"station_name":"Kemayoran","i_long":106.839204,"station_id":"KMO","time":5,"line":11},{"station_id":"PSE","is_transit":false,"i_long":106.84368,"distance":1436,"i_lat":-6.174784,"time":4,"station_name":"Pasar Senen","transit":false,"line":11},{"is_transit":false,"station_id":"GST","station_name":"Gang Sentiong","time":8,"transit":false,"distance":1567,"i_long":106.850107,"i_lat":-6.185975,"line":11},{"time":1,"station_name":"Kramat","transit":false,"i_lat":-6.193792,"station_id":"KMT","i_long":106.855437,"is_transit":false,"distance":973,"line":11}]]}