{"data":[[{"distance":0,"station_id":"CSK","transit":false,"i_long":106.640411,"line":3,"station_name":"Cisauk","time":0,"is_transit":false,"i_lat":-6.32484},{"transit":false,"time":4,"i_long":106.66566,"is_transit":false,"line":6,"station_id":"SRP","distance":1784,"i_lat":-6.319871,"station_name":"Serpong"},{"time":4,"i_long":106.675475,"distance":2413,"i_lat":-6.314823,"station_name":"Rawa Buntu","transit":false,"is_transit":false,"station_id":"RU","line":6},{"station_id":"SDM","line":6,"transit":false,"i_lat":-6.296963,"distance":4566,"is_transit":false,"i_long":106.712277,"station_name":"Sudimara","time":6},{"station_name":"Jurangmangu","i_lat":-6.288927,"is_transit":false,"transit":false,"time":4,"line":6,"distance":1994,"i_long":106.728916,"station_id":"JMU"},{"station_name":"Pondokranji","distance":2179,"transit":false,"is_transit":false,"line":6,"station_id":"PDJ","i_lat":-6.276362,"i_long":106.74273,"time":3},{"i_lat":-6.237242,"line":6,"is_transit":false,"transit":false,"station_id":"KBY","i_long":106.780334,"station_name":"Kebayoran","time":8,"distance":6218},{"line":6,"distance":3737,"i_long":106.79689,"station_id":"PLM","time":7,"transit":false,"station_name":"Palmerah","i_lat":-6.207404,"is_transit":false},{"station_name":"Tanah Abang","distance":3191,"time":6,"is_transit":true,"transit":true,"i_lat":-6.185545,"i_long":106.811091,"line":1,"station_id":"THB"},{"time":8,"i_lat":-6.155215,"line":1,"station_name":"Duri","is_transit":true,"transit":true,"distance":3632,"station_id":"DU","i_long":106.800832},{"transit":false,"i_long":106.788277,"distance":1700,"station_id":"GGL","station_name":"Grogol","is_transit":false,"i_lat":-6.162021,"line":5,"time":3},{"station_id":"PSG","i_long":106.771379,"transit":false,"is_transit":false,"time":2,"i_lat":-6.161433,"distance":2036,"line":5,"station_name":"Pesing"},{"station_id":"TKO","i_long":106.756522,"line":5,"station_name":"Taman Kota","time":2,"is_transit":false,"transit":false,"i_lat":-6.1587309999999995,"distance":1614},{"transit":false,"i_long":106.737035,"line":5,"is_transit":false,"station_name":"Bojongindah","time":2,"station_id":"BOI","distance":2334,"i_lat":-6.159876},{"is_transit":false,"station_id":"RW","time":4,"distance":1152,"i_long":106.723064,"transit":false,"station_name":"Rawa Buaya","line":5,"i_lat":-6.162758},{"transit":false,"distance":2504,"time":3,"station_name":"Kalideres","station_id":"KDS","i_long":106.701612,"i_lat":-6.166068,"is_transit":false,"line":5}],[{"station_id":"CSK","i_lat":-6.32484,"line":3,"time":0,"distance":0,"i_long":106.640411,"is_transit":false,"station_name":"Cisauk","transit":false},{"i_lat":-6.319871,"is_transit":false,"i_long":106.66566,"station_name":"Serpong","transit":false,"distance":1784,"time":4,"line":6,"station_id":"SRP"},{"transit":false,"i_long":106.675475,"station_id":"RU","is_transit":false,"i_lat":-6.314823,"line":6,"station_name":"Rawa Buntu","time":4,"distance":2413},{"line":6,"is_transit":false,"transit":false,"i_lat":-6.296963,"i_long":106.712277,"time":6,"station_id":"SDM","station_name":"Sudimara","distance":4566},{"transit":false,"distance":1994,"is_transit":false,"station_name":"Jurangmangu","time":4,"i_long":106.728916,"station_id":"JMU","line":6,"i_lat":-6.288927},{"i_long":106.74273,"station_name":"Pondokranji","transit":false,"i_lat":-6.276362,"line":6,"is_transit":false,"station_id":"PDJ","time":3,"distance":2179},{"transit":false,"station_id":"KBY","i_lat":-6.237242,"is_transit":false,"station_name":"Kebayoran","time":8,"i_long":106.780334,"line":6,"distance":6218},{"distance":3737,"station_id":"PLM","is_transit":false,"time":7,"i_long":106.79689,"line":6,"station_name":"Palmerah","transit":false,"i_lat":-6.207404},{"distance":3191,"station_name":"Tanah Abang","i_lat":-6.185545,"is_transit":true,"station_id":"THB","time":6,"line":1,"i_long":106.811091,"transit":true},{"station_id":"KAT","i_long":106.816351,"distance":2029,"i_lat":-6.20132,"is_transit":false,"station_name":"Karet","transit":false,"line":1,"time":5},{"station_id":"SUDB","line":1,"is_transit":false,"time":1,"station_name":"Sudirman Baru","distance":471,"i_lat":-6.201433,"transit":false,"i_long":106.819881},{"transit":false,"station_id":"SUD","i_long":106.822649,"distance":280,"station_name":"Sudirman","time":1,"i_lat":-6.202263,"is_transit":false,"line":1},{"is_transit":true,"station_id":"MRI","distance":3186,"i_long":106.84912,"transit":true,"i_lat":-6.209883,"time":4,"line":2,"station_name":"Manggarai"},{"i_long":106.840169,"is_transit":false,"station_id":"CKI","time":4,"i_lat":-6.198556,"station_name":"Cikini","distance":1590,"transit":false,"line":2},{"distance":1750,"transit":false,"is_transit":false,"station_name":"Gondangdia","station_id":"GDD","time":3,"i_long":106.832183,"line":2,"i_lat":-6.186295},{"station_id":"JUA","distance":2015,"transit":false,"time":4,"i_lat":-6.166716,"line":2,"i_long":106.828284,"is_transit":false,"station_name":"Juanda"},{"i_lat":-6.160725,"station_id":"SW","distance":1149,"is_transit":false,"i_long":106.827103,"time":2,"line":2,"station_name":"Sawah Besar","transit":false},{"line":2,"station_id":"MGB","i_long":106.82482,"is_transit":false,"i_lat":-6.149769,"transit":false,"station_name":"Manggabesar","time":2,"distance":906},{"transit":false,"is_transit":false,"time":2,"line":2,"station_name":"Jayakarta","distance":1080,"i_lat":-6.141205,"station_id":"JAY","i_long":106.820901},{"i_long":106.812439,"line":2,"i_lat":-6.137569,"station_id":"JAKK","station_name":"Jakarta Kota","transit":true,"is_transit":true,"time":4,"distance":1264},{"i_long":106.826365,"is_transit":true,"station_name":"Kampung Bandan","transit":true,"time":3,"i_lat":-6.132549,"line":4,"station_id":"KPB","distance":1364},{"station_name":"Angke","station_id":"AK","time":9,"line":1,"i_long":106.79867,"transit":false,"distance":4102,"is_transit":false,"i_lat":-6.144674},{"time":4,"i_lat":-6.155215,"line":1,"transit":true,"station_id":"DU","is_transit":true,"i_long":106.800832,"station_name":"Duri","distance":1230},{"transit":false,"is_transit":false,"station_id":"GGL","line":5,"distance":1700,"station_name":"Grogol","i_lat":-6.162021,"time":3,"i_long":106.788277},{"line":5,"transit":false,"station_id":"PSG","i_long":106.771379,"is_transit":false,"station_name":"Pesing","distance":2036,"time":2,"i_lat":-6.161433},{"distance":1614,"is_transit":false,"line":5,"transit":false,"station_id":"TKO","station_name":"Taman Kota","i_long":106.756522,"time":2,"i_lat":-6.1587309999999995},{"transit":false,"i_long":106.737035,"i_lat":-6.159876,"line":5,"distance":2334,"station_id":"BOI","station_name":"Bojongindah","is_transit":false,"time":2},{"station_name":"Rawa Buaya","i_long":106.723064,"line":5,"time":4,"transit":false,"station_id":"RW","is_transit":false,"i_lat":-6.162758,"distance":1152},{"station_id":"KDS","is_transit":false,"station_name":"Kalideres","i_lat":-6.166068,"distance":2504,"transit":false,"i_long":106.701612,"line":5,"time":3}],[{"station_name":"Cisauk","i_long":106.640411,"time":0,"i_lat":-6.32484,"line":3,"is_transit":false,"distance":0,"station_id":"CSK","transit":false},{"i_long":106.66566,"i_lat":-6.319871,"station_id":"SRP","transit":false,"is_transit":false,"station_name":"Serpong","time":4,"distance":1784,"line":6},{"line":6,"station_name":"Rawa Buntu","transit":false,"time":4,"is_transit":false,"station_id":"RU","distance":2413,"i_long":106.675475,"i_lat":-6.314823},{"station_id":"SDM","distance":4566,"i_long":106.712277,"transit":false,"is_transit":false,"station_name":"Sudimara","i_lat":-6.296963,"time":6,"line":6},{"time":4,"station_name":"Jurangmangu","i_lat":-6.288927,"transit":false,"i_long":106.728916,"line":6,"is_transit":false,"station_id":"JMU","distance":1994},{"time":3,"transit":false,"station_id":"PDJ","station_name":"Pondokranji","i_lat":-6.276362,"i_long":106.74273,"is_transit":false,"distance":2179,"line":6},{"station_name":"Kebayoran","station_id":"KBY","line":6,"i_long":106.780334,"transit":false,"is_transit":false,"i_lat":-6.237242,"distance":6218,"time":8},{"station_name":"Palmerah","station_id":"PLM","time":7,"transit":false,"i_lat":-6.207404,"line":6,"distance":3737,"i_long":106.79689,"is_transit":false},{"distance":3191,"time":6,"i_lat":-6.185545,"line":1,"station_id":"THB","transit":true,"station_name":"Tanah Abang","i_long":106.811091,"is_transit":true},{"transit":false,"is_transit":false,"station_name":"Karet","station_id":"KAT","line":1,"time":5,"i_lat":-6.20132,"i_long":106.816351,"distance":2029},{"time":1,"station_id":"SUDB","i_long":106.819881,"line":1,"station_name":"Sudirman Baru","i_lat":-6.201433,"transit":false,"distance":471,"is_transit":false},{"station_name":"Sudirman","station_id":"SUD","transit":false,"time":1,"i_long":106.822649,"line":1,"distance":280,"i_lat":-6.202263,"is_transit":false},{"i_lat":-6.209883,"time":4,"station_id":"MRI","transit":false,"distance":3186,"line":2,"station_name":"Manggarai","is_transit":false,"i_long":106.84912},{"station_id":"MTR","line":1,"is_transit":false,"station_name":"Matraman","i_long":106.858896,"transit":false,"time":2,"distance":1275,"i_lat":-6.212485},{"transit":true,"distance":1377,"i_lat":-6.215091,"i_long":106.86807400000001,"station_id":"JNG","line":1,"station_name":"Jatinegara","is_transit":true,"time":8},{"line":11,"i_long":106.861737,"transit":false,"is_transit":false,"time":2,"i_lat":-6.209188,"station_name":"Pondok Jati","station_id":"POK","distance":1236},{"i_long":106.855437,"distance":1829,"i_lat":-6.193792,"transit":false,"station_name":"Kramat","line":11,"is_transit":false,"station_id":"KMT","time":2},{"station_name":"Gang Sentiong","line":11,"time":1,"distance":973,"station_id":"GST","is_transit":false,"transit":false,"i_lat":-6.185975,"i_long":106.850107},{"station_name":"Pasar Senen","line":11,"i_long":106.84368,"time":8,"distance":1567,"i_lat":-6.174784,"station_id":"PSE","transit":false,"is_transit":false},{"distance":1436,"i_lat":-6.161728,"station_id":"KMO","transit":false,"time":4,"station_name":"Kemayoran","i_long":106.839204,"line":11,"is_transit":false},{"station_name":"Rajawali","i_lat":-6.14505,"distance":1901,"transit":false,"line":11,"i_long":106.836569,"is_transit":false,"station_id":"RJW","time":5},{"station_id":"KPB","is_transit":true,"i_lat":-6.132549,"transit":true,"distance":1444,"i_long":106.826365,"time":3,"line":4,"station_name":"Kampung Bandan"},{"line":1,"transit":false,"i_long":106.79867,"station_id":"AK","i_lat":-6.144674,"station_name":"Angke","is_transit":false,"time":9,"distance":4102},{"distance":1230,"i_lat":-6.155215,"is_transit":true,"time":4,"station_id":"DU","station_name":"Duri","transit":true,"i_long":106.800832,"line":1},{"station_id":"GGL","time":3,"i_lat":-6.162021,"i_long":106.788277,"transit":false,"line":5,"station_name":"Grogol","is_transit":false,"distance":1700},{"is_transit":false,"station_name":"Pesing","i_lat":-6.161433,"distance":2036,"time":2,"station_id":"PSG","line":5,"i_long":106.771379,"transit":false},{"time":2,"i_long":106.756522,"station_name":"Taman Kota","i_lat":-6.1587309999999995,"distance":1614,"station_id":"TKO","line":5,"is_transit":false,"transit":false},{"i_lat":-6.159876,"time":2,"distance":2334,"station_name":"Bojongindah","station_id":"BOI","transit":false,"i_long":106.737035,"is_transit":false,"line":5},{"is_transit":false,"i_lat":-6.162758,"station_id":"RW","i_long":106.723064,"time":4,"distance":1152,"transit":false,"line":5,"station_name":"Rawa Buaya"},{"time":3,"is_transit":false,"station_id":"KDS","distance":2504,"i_lat":-6.166068,"line":5,"station_name":"Kalideres","transit":false,"i_long":106.701612}]]}