{"data":[[{"distance":0,"transit":false,"station_name":"Cisauk","is_transit":false,"i_lat":-6.32484,"i_long":106.640411,"line":0,"time":0,"station_id":"CSK"},{"is_transit":false,"i_long":106.66566,"station_id":"SRP","station_name":"Serpong","distance":1784,"time":4,"transit":false,"i_lat":-6.319871,"line":6},{"distance":2413,"is_transit":false,"i_long":106.675475,"station_id":"RU","station_name":"Rawa Buntu","time":4,"transit":false,"i_lat":-6.314823,"line":6},{"time":6,"i_lat":-6.296963,"station_id":"SDM","distance":4566,"line":6,"transit":false,"is_transit":false,"station_name":"Sudimara","i_long":106.712277},{"i_lat":-6.288927,"station_id":"JMU","is_transit":false,"station_name":"Jurangmangu","i_long":106.728916,"line":6,"time":4,"distance":1994,"transit":false},{"time":3,"line":6,"station_id":"PDJ","is_transit":false,"distance":2179,"i_long":106.74273,"transit":false,"station_name":"Pondokranji","i_lat":-6.276362},{"distance":6218,"is_transit":false,"i_lat":-6.237242,"station_id":"KBY","station_name":"Kebayoran","time":8,"transit":false,"i_long":106.780334,"line":6},{"line":6,"is_transit":false,"time":7,"station_id":"PLM","transit":false,"i_long":106.79689,"station_name":"Palmerah","distance":3737,"i_lat":-6.207404},{"i_lat":-6.185545,"transit":true,"distance":3191,"station_id":"THB","line":1,"i_long":106.811091,"time":6,"station_name":"Tanah Abang","is_transit":true},{"is_transit":false,"time":5,"line":1,"distance":2029,"i_lat":-6.20132,"transit":false,"station_id":"KAT","station_name":"Karet","i_long":106.816351},{"station_name":"Sudirman Baru","time":1,"station_id":"SUDB","line":1,"is_transit":false,"distance":471,"transit":false,"i_long":106.819881,"i_lat":-6.201433},{"transit":false,"is_transit":false,"i_long":106.822649,"station_id":"SUD","station_name":"Sudirman","line":1,"distance":280,"i_lat":-6.202263,"time":1},{"i_lat":-6.209883,"transit":false,"station_id":"MRI","distance":3186,"line":0,"time":4,"i_long":106.84912,"station_name":"Manggarai","is_transit":true},{"station_name":"Matraman","station_id":"MTR","is_transit":false,"distance":1275,"time":2,"i_lat":-6.212485,"line":1,"i_long":106.858896,"transit":false},{"station_id":"JNG","line":0,"is_transit":true,"station_name":"Jatinegara","time":8,"distance":1377,"transit":false,"i_long":106.86807400000001,"i_lat":-6.215091},{"i_lat":-6.2135,"line":1,"station_id":"KLD","distance":3395,"i_long":106.899548,"station_name":"Klender","is_transit":false,"time":3,"transit":false},{"station_id":"BUA","time":2,"transit":false,"line":0,"station_name":"Buaran","is_transit":false,"i_long":106.922662,"distance":3100,"i_lat":-6.215568},{"i_long":106.939679,"is_transit":false,"transit":false,"station_id":"KLDB","distance":1305,"time":1,"i_lat":-6.217455,"line":1,"station_name":"Klenderbaru"}],[{"transit":false,"time":0,"station_id":"CSK","distance":0,"line":0,"i_lat":-6.32484,"is_transit":false,"station_name":"Cisauk","i_long":106.640411},{"station_name":"Serpong","transit":false,"i_long":106.66566,"station_id":"SRP","distance":1784,"i_lat":-6.319871,"line":6,"time":4,"is_transit":false},{"distance":2413,"station_name":"Rawa Buntu","station_id":"RU","is_transit":false,"i_long":106.675475,"i_lat":-6.314823,"line":6,"time":4,"transit":false},{"is_transit":false,"i_lat":-6.296963,"transit":false,"i_long":106.712277,"distance":4566,"line":6,"station_id":"SDM","time":6,"station_name":"Sudimara"},{"is_transit":false,"transit":false,"i_long":106.728916,"station_id":"JMU","station_name":"Jurangmangu","distance":1994,"line":6,"time":4,"i_lat":-6.288927},{"distance":2179,"station_name":"Pondokranji","i_lat":-6.276362,"is_transit":false,"i_long":106.74273,"time":3,"station_id":"PDJ","transit":false,"line":6},{"station_id":"KBY","i_long":106.780334,"distance":6218,"station_name":"Kebayoran","is_transit":false,"line":6,"time":8,"transit":false,"i_lat":-6.237242},{"station_id":"PLM","line":6,"i_long":106.79689,"station_name":"Palmerah","transit":false,"distance":3737,"is_transit":false,"i_lat":-6.207404,"time":7},{"i_lat":-6.185545,"station_name":"Tanah Abang","is_transit":true,"time":6,"i_long":106.811091,"station_id":"THB","transit":true,"line":1,"distance":3191},{"station_id":"DU","i_long":106.800832,"distance":3632,"time":8,"transit":true,"i_lat":-6.155215,"line":1,"station_name":"Duri","is_transit":true},{"i_lat":-6.144674,"station_id":"AK","transit":false,"time":4,"distance":1230,"is_transit":false,"i_long":106.79867,"station_name":"Angke","line":0},{"is_transit":true,"i_lat":-6.132549,"transit":true,"station_name":"Kampung Bandan","distance":4102,"line":0,"station_id":"KPB","time":9,"i_long":106.826365},{"station_name":"Rajawali","is_transit":false,"transit":false,"line":11,"station_id":"RJW","i_lat":-6.14505,"distance":1444,"i_long":106.836569,"time":3},{"station_name":"Kemayoran","is_transit":false,"station_id":"KMO","distance":1901,"transit":false,"i_lat":-6.161728,"time":5,"i_long":106.839204,"line":11},{"time":4,"line":11,"distance":1436,"station_name":"Pasar Senen","station_id":"PSE","i_lat":-6.174784,"i_long":106.84368,"is_transit":false,"transit":false},{"line":11,"distance":1567,"time":8,"i_lat":-6.185975,"i_long":106.850107,"station_name":"Gang Sentiong","is_transit":false,"station_id":"GST","transit":false},{"is_transit":false,"time":1,"station_id":"KMT","distance":973,"transit":false,"i_long":106.855437,"i_lat":-6.193792,"line":11,"station_name":"Kramat"},{"i_lat":-6.209188,"station_name":"Pondok Jati","is_transit":false,"transit":false,"line":11,"time":2,"distance":1829,"i_long":106.861737,"station_id":"POK"},{"is_transit":true,"i_long":106.86807400000001,"transit":true,"line":0,"station_id":"JNG","time":9,"i_lat":-6.215091,"distance":1236,"station_name":"Jatinegara"},{"time":3,"station_name":"Klender","station_id":"KLD","distance":3395,"line":1,"is_transit":false,"transit":false,"i_lat":-6.2135,"i_long":106.899548},{"is_transit":false,"time":2,"distance":3100,"transit":false,"station_id":"BUA","station_name":"Buaran","i_lat":-6.215568,"i_long":106.922662,"line":0},{"time":1,"station_name":"Klenderbaru","i_long":106.939679,"transit":false,"distance":1305,"station_id":"KLDB","i_lat":-6.217455,"line":1,"is_transit":false}],[{"line":0,"is_transit":false,"transit":false,"time":0,"station_id":"CSK","distance":0,"i_lat":-6.32484,"station_name":"Cisauk","i_long":106.640411},{"station_id":"SRP","transit":false,"line":6,"is_transit":false,"station_name":"Serpong","i_lat":-6.319871,"i_long":106.66566,"time":4,"distance":1784},{"time":4,"line":6,"i_long":106.675475,"station_id":"RU","station_name":"Rawa Buntu","distance":2413,"transit":false,"i_lat":-6.314823,"is_transit":false},{"is_transit":false,"i_lat":-6.296963,"i_long":106.712277,"station_name":"Sudimara","transit":false,"station_id":"SDM","time":6,"distance":4566,"line":6},{"i_lat":-6.288927,"i_long":106.728916,"transit":false,"station_id":"JMU","station_name":"Jurangmangu","is_transit":false,"time":4,"line":6,"distance":1994},{"time":3,"station_id":"PDJ","i_long":106.74273,"is_transit":false,"distance":2179,"i_lat":-6.276362,"line":6,"transit":false,"station_name":"Pondokranji"},{"distance":6218,"time":8,"transit":false,"i_long":106.780334,"line":6,"i_lat":-6.237242,"is_transit":false,"station_id":"KBY","station_name":"Kebayoran"},{"i_long":106.79689,"transit":false,"i_lat":-6.207404,"time":7,"is_transit":false,"line":6,"station_id":"PLM","station_name":"Palmerah","distance":3737},{"time":6,"station_name":"Tanah Abang","is_transit":true,"distance":3191,"i_lat":-6.185545,"line":1,"i_long":106.811091,"station_id":"THB","transit":true},{"station_id":"DU","is_transit":true,"distance":3632,"time":8,"i_lat":-6.155215,"line":1,"station_name":"Duri","transit":true,"i_long":106.800832},{"distance":1230,"transit":false,"i_lat":-6.144674,"time":4,"station_id":"AK","station_name":"Angke","line":0,"i_long":106.79867,"is_transit":false},{"i_lat":-6.132549,"line":0,"distance":4102,"time":9,"station_id":"KPB","i_long":106.826365,"station_name":"Kampung Bandan","is_transit":true,"transit":false},{"i_lat":-6.137569,"station_name":"Jakarta Kota","distance":1364,"is_transit":true,"station_id":"JAKK","time":3,"i_long":106.812439,"transit":true,"line":0},{"transit":false,"station_id":"JAY","distance":1264,"i_long":106.820901,"line":7,"i_lat":-6.141205,"time":4,"station_name":"Jayakarta","is_transit":false},{"distance":1080,"transit":false,"station_id":"MGB","time":2,"i_lat":-6.149769,"is_transit":false,"line":2,"station_name":"Manggabesar","i_long":106.82482},{"station_id":"SW","line":2,"time":2,"is_transit":false,"i_long":106.827103,"station_name":"Sawah Besar","transit":false,"i_lat":-6.160725,"distance":906},{"distance":1149,"line":2,"station_id":"JUA","transit":false,"i_long":106.828284,"is_transit":false,"station_name":"Juanda","i_lat":-6.166716,"time":2},{"is_transit":false,"i_long":106.832183,"line":2,"station_name":"Gondangdia","i_lat":-6.186295,"time":4,"transit":false,"distance":2015,"station_id":"GDD"},{"distance":1750,"transit":false,"i_lat":-6.198556,"station_id":"CKI","line":0,"is_transit":false,"i_long":106.840169,"time":3,"station_name":"Cikini"},{"i_lat":-6.209883,"line":0,"is_transit":true,"distance":1590,"station_name":"Manggarai","transit":true,"time":4,"station_id":"MRI","i_long":106.84912},{"i_long":106.858896,"time":2,"line":1,"is_transit":false,"transit":false,"station_name":"Matraman","distance":1275,"station_id":"MTR","i_lat":-6.212485},{"station_id":"JNG","transit":false,"time":8,"distance":1377,"i_lat":-6.215091,"station_name":"Jatinegara","i_long":106.86807400000001,"is_transit":true,"line":0},{"i_lat":-6.2135,"time":3,"transit":false,"is_transit":false,"distance":3395,"line":1,"station_name":"Klender","station_id":"KLD","i_long":106.899548},{"station_name":"Buaran","distance":3100,"station_id":"BUA","is_transit":false,"time":2,"i_long":106.922662,"line":0,"i_lat":-6.215568,"transit":false},{"i_long":106.939679,"station_id":"KLDB","transit":false,"time":1,"distance":1305,"is_transit":false,"station_name":"Klenderbaru","i_lat":-6.217455,"line":1}],[{"time":0,"i_long":106.640411,"i_lat":-6.32484,"distance":0,"transit":false,"is_transit":false,"station_id":"CSK","station_name":"Cisauk","line":0},{"time":4,"i_lat":-6.319871,"distance":1784,"station_id":"SRP","is_transit":false,"transit":false,"station_name":"Serpong","line":6,"i_long":106.66566},{"time":4,"distance":2413,"i_long":106.675475,"transit":false,"line":6,"i_lat":-6.314823,"station_name":"Rawa Buntu","station_id":"RU","is_transit":false},{"i_long":106.712277,"station_name":"Sudimara","i_lat":-6.296963,"line":6,"station_id":"SDM","time":6,"transit":false,"distance":4566,"is_transit":false},{"i_lat":-6.288927,"is_transit":false,"i_long":106.728916,"line":6,"station_name":"Jurangmangu","distance":1994,"station_id":"JMU","time":4,"transit":false},{"station_id":"PDJ","station_name":"Pondokranji","transit":false,"is_transit":false,"line":6,"i_lat":-6.276362,"time":3,"distance":2179,"i_long":106.74273},{"distance":6218,"station_id":"KBY","i_long":106.780334,"transit":false,"station_name":"Kebayoran","time":8,"is_transit":false,"i_lat":-6.237242,"line":6},{"i_long":106.79689,"time":7,"i_lat":-6.207404,"station_name":"Palmerah","line":6,"is_transit":false,"station_id":"PLM","transit":false,"distance":3737},{"station_name":"Tanah Abang","line":1,"transit":true,"time":6,"i_long":106.811091,"is_transit":true,"station_id":"THB","distance":3191,"i_lat":-6.185545},{"i_long":106.816351,"i_lat":-6.20132,"station_id":"KAT","station_name":"Karet","transit":false,"time":5,"is_transit":false,"distance":2029,"line":1},{"i_lat":-6.201433,"line":1,"station_id":"SUDB","is_transit":false,"transit":false,"time":1,"station_name":"Sudirman Baru","distance":471,"i_long":106.819881},{"station_name":"Sudirman","station_id":"SUD","is_transit":false,"time":1,"i_lat":-6.202263,"line":1,"i_long":106.822649,"distance":280,"transit":false},{"transit":true,"is_transit":true,"i_lat":-6.209883,"station_id":"MRI","station_name":"Manggarai","distance":3186,"i_long":106.84912,"line":0,"time":4},{"station_name":"Cikini","time":4,"line":0,"station_id":"CKI","transit":false,"distance":1590,"is_transit":false,"i_lat":-6.198556,"i_long":106.840169},{"station_name":"Gondangdia","i_lat":-6.186295,"time":3,"is_transit":false,"transit":false,"i_long":106.832183,"distance":1750,"line":2,"station_id":"GDD"},{"line":2,"i_lat":-6.166716,"station_name":"Juanda","station_id":"JUA","transit":false,"i_long":106.828284,"time":4,"is_transit":false,"distance":2015},{"i_lat":-6.160725,"is_transit":false,"station_name":"Sawah Besar","time":2,"i_long":106.827103,"line":2,"station_id":"SW","distance":1149,"transit":false},{"i_lat":-6.149769,"station_name":"Manggabesar","station_id":"MGB","i_long":106.82482,"transit":false,"line":2,"distance":906,"time":2,"is_transit":false},{"transit":false,"i_lat":-6.141205,"station_name":"Jayakarta","distance":1080,"time":2,"line":7,"station_id":"JAY","is_transit":false,"i_long":106.820901},{"i_lat":-6.137569,"line":0,"i_long":106.812439,"station_id":"JAKK","time":4,"is_transit":true,"station_name":"Jakarta Kota","distance":1264,"transit":true},{"station_name":"Kampung Bandan","is_transit":true,"line":0,"i_lat":-6.132549,"i_long":106.826365,"time":3,"distance":1364,"station_id":"KPB","transit":true},{"time":3,"transit":false,"station_name":"Rajawali","distance":1444,"line":11,"station_id":"RJW","is_transit":false,"i_lat":-6.14505,"i_long":106.836569},{"time":5,"i_long":106.839204,"line":11,"station_id":"KMO","station_name":"Kemayoran","transit":false,"is_transit":false,"distance":1901,"i_lat":-6.161728},{"i_long":106.84368,"station_id":"PSE","is_transit":false,"line":11,"i_lat":-6.174784,"distance":1436,"time":4,"transit":false,"station_name":"Pasar Senen"},{"is_transit":false,"line":11,"station_name":"Gang Sentiong","distance":1567,"time":8,"transit":false,"station_id":"GST","i_long":106.850107,"i_lat":-6.185975},{"time":1,"station_id":"KMT","station_name":"Kramat","distance":973,"i_lat":-6.193792,"transit":false,"line":11,"is_transit":false,"i_long":106.855437},{"i_lat":-6.209188,"station_id":"POK","is_transit":false,"line":11,"distance":1829,"station_name":"Pondok Jati","time":2,"i_long":106.861737,"transit":false},{"station_name":"Jatinegara","time":9,"is_transit":true,"line":0,"i_lat":-6.215091,"distance":1236,"i_long":106.86807400000001,"station_id":"JNG","transit":true},{"distance":3395,"line":1,"time":3,"station_id":"KLD","station_name":"Klender","i_long":106.899548,"transit":false,"is_transit":false,"i_lat":-6.2135},{"transit":false,"line":0,"station_id":"BUA","i_lat":-6.215568,"is_transit":false,"i_long":106.922662,"station_name":"Buaran","time":2,"distance":3100},{"i_lat":-6.217455,"time":1,"station_id":"KLDB","station_name":"Klenderbaru","i_long":106.939679,"line":1,"transit":false,"is_transit":false,"distance":1305}]]}