{"data":[[{"station_id":"CSK","is_transit":false,"time":0,"distance":0,"i_long":106.640411,"line":0,"i_lat":-6.32484,"transit":false,"station_name":"Cisauk"},{"line":0,"station_id":"CC","distance":2519,"i_lat":-6.329547,"is_transit":false,"station_name":"Cicayur","transit":false,"time":4,"i_long":106.617853},{"i_lat":-6.3441410000000005,"time":8,"station_name":"Parung Panjang","i_long":106.568863,"line":6,"station_id":"PRP","distance":5968,"transit":false,"is_transit":false},{"distance":7025,"transit":false,"i_long":106.508482,"time":9,"is_transit":false,"i_lat":-6.354349,"station_name":"Cilejit","line":0,"station_id":"CJT"},{"time":6,"station_id":"DAR","transit":false,"distance":2675,"line":0,"station_name":"Daru","is_transit":false,"i_lat":-6.338021,"i_long":106.491338}]]}