{"data":[[{"line":3,"station_name":"Cisauk","distance":0,"i_lat":-6.32484,"i_long":106.640411,"time":0,"station_id":"CSK","transit":false,"is_transit":false},{"transit":false,"distance":2519,"time":4,"i_long":106.617853,"line":3,"i_lat":-6.329547,"is_transit":false,"station_name":"Cicayur","station_id":"CC"},{"i_lat":-6.3441410000000005,"transit":false,"distance":5968,"i_long":106.568863,"line":6,"station_id":"PRP","station_name":"Parung Panjang","time":8,"is_transit":false},{"distance":7025,"time":9,"is_transit":false,"i_long":106.508482,"station_name":"Cilejit","station_id":"CJT","transit":false,"i_lat":-6.354349,"line":3},{"distance":2675,"transit":false,"i_lat":-6.338021,"line":0,"station_id":"DAR","station_name":"Daru","i_long":106.491338,"is_transit":false,"time":6},{"i_long":106.460812,"time":5,"station_id":"TEJ","i_lat":-6.327251,"is_transit":false,"station_name":"Tenjo","line":6,"transit":false,"distance":3902},{"distance":2974,"station_name":"Tigaraksa","line":6,"i_lat":-6.328533,"is_transit":false,"time":5,"transit":false,"i_long":106.425991,"station_id":"TGS"}]]}