{"data":[[{"i_long":106.640411,"station_id":"CSK","distance":0,"line":3,"i_lat":-6.32484,"station_name":"Cisauk","time":0,"is_transit":false,"transit":false},{"i_long":106.66566,"time":4,"line":6,"is_transit":false,"i_lat":-6.319871,"distance":1784,"station_id":"SRP","transit":false,"station_name":"Serpong"},{"i_long":106.675475,"time":4,"transit":false,"distance":2413,"station_id":"RU","i_lat":-6.314823,"station_name":"Rawa Buntu","is_transit":false,"line":6},{"line":6,"time":6,"distance":4566,"is_transit":false,"i_lat":-6.296963,"transit":false,"station_id":"SDM","station_name":"Sudimara","i_long":106.712277},{"is_transit":false,"i_lat":-6.288927,"transit":false,"station_id":"JMU","i_long":106.728916,"line":6,"distance":1994,"station_name":"Jurangmangu","time":4},{"transit":false,"distance":2179,"i_lat":-6.276362,"time":3,"line":6,"i_long":106.74273,"is_transit":false,"station_name":"Pondokranji","station_id":"PDJ"},{"station_name":"Kebayoran","station_id":"KBY","transit":false,"i_lat":-6.237242,"time":8,"i_long":106.780334,"is_transit":false,"distance":6218,"line":6},{"station_id":"PLM","transit":false,"i_long":106.79689,"i_lat":-6.207404,"time":7,"station_name":"Palmerah","is_transit":false,"line":6,"distance":3737},{"is_transit":true,"i_lat":-6.185545,"i_long":106.811091,"transit":true,"time":6,"station_id":"THB","station_name":"Tanah Abang","distance":3191,"line":1},{"station_name":"Karet","transit":false,"station_id":"KAT","distance":2029,"i_lat":-6.20132,"i_long":106.816351,"line":1,"is_transit":false,"time":5},{"time":1,"transit":false,"station_name":"Sudirman Baru","i_long":106.819881,"station_id":"SUDB","is_transit":false,"distance":471,"line":1,"i_lat":-6.201433},{"line":1,"transit":false,"station_id":"SUD","i_long":106.822649,"distance":280,"time":1,"is_transit":false,"i_lat":-6.202263,"station_name":"Sudirman"},{"station_id":"MRI","line":2,"distance":3186,"i_long":106.84912,"time":4,"station_name":"Manggarai","is_transit":true,"transit":true,"i_lat":-6.209883},{"distance":2610,"line":2,"i_long":106.857948,"time":4,"transit":false,"station_id":"TEB","i_lat":-6.226659,"station_name":"Tebet","is_transit":false},{"i_long":106.856607,"station_name":"Cawang","transit":false,"time":2,"i_lat":-6.242512,"is_transit":false,"line":2,"station_id":"CW","distance":1230},{"transit":false,"station_name":"Duren Kalibata","line":2,"station_id":"DRN","time":3,"i_long":106.85449,"is_transit":false,"distance":1546,"i_lat":-6.255332},{"station_name":"Pasar Minggu Baru","line":2,"distance":824,"i_long":106.851577,"time":2,"transit":false,"station_id":"PSMB","is_transit":false,"i_lat":-6.263214},{"i_lat":-6.2842400000000005,"i_long":106.843999,"is_transit":false,"line":2,"station_name":"Pasar Minggu","time":2,"transit":false,"distance":2380,"station_id":"PSM"},{"is_transit":false,"distance":2820,"i_lat":-6.3080680000000005,"line":2,"station_name":"Tanjung Barat","time":4,"i_long":106.838896,"station_id":"TNT","transit":false},{"transit":false,"time":3,"station_id":"LNA","i_long":106.832616,"distance":2671,"is_transit":false,"i_lat":-6.330363,"line":2,"station_name":"Lenteng Agung"},{"transit":false,"i_lat":-6.339291,"station_id":"UP","line":2,"time":2,"distance":1029,"is_transit":false,"i_long":106.834175,"station_name":"Univ. Pancasila"}],[{"transit":false,"line":3,"is_transit":false,"i_lat":-6.32484,"distance":0,"time":0,"station_id":"CSK","i_long":106.640411,"station_name":"Cisauk"},{"line":6,"station_name":"Serpong","transit":false,"i_lat":-6.319871,"i_long":106.66566,"distance":1784,"time":4,"is_transit":false,"station_id":"SRP"},{"i_long":106.675475,"time":4,"distance":2413,"is_transit":false,"station_name":"Rawa Buntu","transit":false,"station_id":"RU","i_lat":-6.314823,"line":6},{"station_id":"SDM","time":6,"distance":4566,"is_transit":false,"i_lat":-6.296963,"line":6,"i_long":106.712277,"transit":false,"station_name":"Sudimara"},{"station_name":"Jurangmangu","time":4,"distance":1994,"station_id":"JMU","is_transit":false,"line":6,"i_lat":-6.288927,"transit":false,"i_long":106.728916},{"station_name":"Pondokranji","station_id":"PDJ","time":3,"i_lat":-6.276362,"line":6,"is_transit":false,"i_long":106.74273,"transit":false,"distance":2179},{"station_name":"Kebayoran","time":8,"transit":false,"i_long":106.780334,"is_transit":false,"line":6,"i_lat":-6.237242,"distance":6218,"station_id":"KBY"},{"time":7,"station_name":"Palmerah","station_id":"PLM","transit":false,"i_lat":-6.207404,"is_transit":false,"distance":3737,"i_long":106.79689,"line":6},{"distance":3191,"time":6,"station_name":"Tanah Abang","i_lat":-6.185545,"i_long":106.811091,"station_id":"THB","is_transit":true,"transit":true,"line":1},{"i_lat":-6.155215,"distance":3632,"line":1,"i_long":106.800832,"is_transit":false,"station_name":"Duri","time":8,"transit":false,"station_id":"DU"},{"line":1,"distance":1230,"time":4,"station_name":"Angke","station_id":"AK","is_transit":false,"transit":false,"i_lat":-6.144674,"i_long":106.79867},{"i_long":106.826365,"transit":true,"i_lat":-6.132549,"station_name":"Kampung Bandan","line":4,"is_transit":true,"time":9,"distance":4102,"station_id":"KPB"},{"station_name":"Jakarta Kota","distance":1364,"i_lat":-6.137569,"i_long":106.812439,"station_id":"JAKK","transit":true,"line":2,"is_transit":true,"time":3},{"i_long":106.820901,"time":4,"distance":1264,"transit":false,"line":2,"station_name":"Jayakarta","station_id":"JAY","is_transit":false,"i_lat":-6.141205},{"time":2,"distance":1080,"transit":false,"station_id":"MGB","i_lat":-6.149769,"i_long":106.82482,"line":2,"is_transit":false,"station_name":"Manggabesar"},{"station_id":"SW","distance":906,"time":2,"station_name":"Sawah Besar","transit":false,"line":2,"is_transit":false,"i_lat":-6.160725,"i_long":106.827103},{"i_long":106.828284,"distance":1149,"line":2,"station_name":"Juanda","transit":false,"i_lat":-6.166716,"station_id":"JUA","time":2,"is_transit":false},{"line":2,"station_id":"GDD","i_lat":-6.186295,"time":4,"distance":2015,"station_name":"Gondangdia","is_transit":false,"transit":false,"i_long":106.832183},{"i_long":106.840169,"station_name":"Cikini","station_id":"CKI","time":3,"distance":1750,"i_lat":-6.198556,"line":2,"is_transit":false,"transit":false},{"i_lat":-6.209883,"station_name":"Manggarai","time":4,"line":2,"station_id":"MRI","distance":1590,"transit":false,"i_long":106.84912,"is_transit":false},{"distance":2610,"is_transit":false,"time":4,"i_lat":-6.226659,"transit":false,"i_long":106.857948,"line":2,"station_id":"TEB","station_name":"Tebet"},{"transit":false,"is_transit":false,"distance":1230,"station_name":"Cawang","station_id":"CW","i_long":106.856607,"i_lat":-6.242512,"time":2,"line":2},{"line":2,"transit":false,"station_name":"Duren Kalibata","i_long":106.85449,"station_id":"DRN","time":3,"i_lat":-6.255332,"distance":1546,"is_transit":false},{"time":2,"station_name":"Pasar Minggu Baru","line":2,"distance":824,"station_id":"PSMB","i_lat":-6.263214,"is_transit":false,"transit":false,"i_long":106.851577},{"station_id":"PSM","is_transit":false,"line":2,"transit":false,"i_lat":-6.2842400000000005,"i_long":106.843999,"time":2,"distance":2380,"station_name":"Pasar Minggu"},{"distance":2820,"is_transit":false,"i_lat":-6.3080680000000005,"station_name":"Tanjung Barat","line":2,"station_id":"TNT","transit":false,"time":4,"i_long":106.838896},{"i_long":106.832616,"line":2,"station_name":"Lenteng Agung","i_lat":-6.330363,"distance":2671,"is_transit":false,"time":3,"station_id":"LNA","transit":false},{"time":2,"station_name":"Univ. Pancasila","station_id":"UP","distance":1029,"is_transit":false,"transit":false,"line":2,"i_lat":-6.339291,"i_long":106.834175}],[{"line":3,"station_name":"Cisauk","distance":0,"is_transit":false,"station_id":"CSK","time":0,"i_lat":-6.32484,"transit":false,"i_long":106.640411},{"distance":1784,"is_transit":false,"time":4,"i_lat":-6.319871,"line":6,"transit":false,"station_id":"SRP","i_long":106.66566,"station_name":"Serpong"},{"line":6,"distance":2413,"station_id":"RU","i_long":106.675475,"transit":false,"station_name":"Rawa Buntu","is_transit":false,"time":4,"i_lat":-6.314823},{"i_lat":-6.296963,"time":6,"station_id":"SDM","is_transit":false,"transit":false,"distance":4566,"station_name":"Sudimara","i_long":106.712277,"line":6},{"i_lat":-6.288927,"is_transit":false,"transit":false,"station_name":"Jurangmangu","i_long":106.728916,"station_id":"JMU","time":4,"distance":1994,"line":6},{"station_id":"PDJ","station_name":"Pondokranji","time":3,"transit":false,"i_lat":-6.276362,"distance":2179,"i_long":106.74273,"is_transit":false,"line":6},{"line":6,"is_transit":false,"i_lat":-6.237242,"distance":6218,"transit":false,"time":8,"i_long":106.780334,"station_name":"Kebayoran","station_id":"KBY"},{"distance":3737,"i_long":106.79689,"i_lat":-6.207404,"station_name":"Palmerah","is_transit":false,"transit":false,"station_id":"PLM","line":6,"time":7},{"station_name":"Tanah Abang","is_transit":true,"time":6,"station_id":"THB","distance":3191,"i_lat":-6.185545,"i_long":106.811091,"transit":true,"line":1},{"transit":false,"distance":3632,"is_transit":false,"i_lat":-6.155215,"i_long":106.800832,"time":8,"station_name":"Duri","station_id":"DU","line":1},{"transit":false,"time":4,"station_name":"Angke","distance":1230,"i_lat":-6.144674,"station_id":"AK","i_long":106.79867,"line":1,"is_transit":false},{"i_long":106.826365,"line":4,"station_name":"Kampung Bandan","station_id":"KPB","time":9,"is_transit":true,"transit":true,"i_lat":-6.132549,"distance":4102},{"i_lat":-6.14505,"line":11,"is_transit":false,"i_long":106.836569,"station_id":"RJW","station_name":"Rajawali","time":3,"transit":false,"distance":1444},{"time":5,"distance":1901,"is_transit":false,"transit":false,"i_long":106.839204,"station_name":"Kemayoran","station_id":"KMO","i_lat":-6.161728,"line":11},{"distance":1436,"i_long":106.84368,"line":11,"station_name":"Pasar Senen","transit":false,"is_transit":false,"station_id":"PSE","time":4,"i_lat":-6.174784},{"i_lat":-6.185975,"station_id":"GST","time":8,"i_long":106.850107,"line":11,"distance":1567,"is_transit":false,"station_name":"Gang Sentiong","transit":false},{"is_transit":false,"distance":973,"station_id":"KMT","time":1,"transit":false,"i_lat":-6.193792,"station_name":"Kramat","i_long":106.855437,"line":11},{"station_id":"POK","time":2,"line":11,"distance":1829,"transit":false,"station_name":"Pondok Jati","i_lat":-6.209188,"i_long":106.861737,"is_transit":false},{"station_id":"JNG","time":9,"distance":1236,"transit":true,"i_long":106.86807400000001,"line":1,"station_name":"Jatinegara","is_transit":true,"i_lat":-6.215091},{"is_transit":false,"i_long":106.858896,"line":1,"i_lat":-6.212485,"station_name":"Matraman","station_id":"MTR","time":2,"distance":1377,"transit":false},{"time":2,"distance":1275,"station_id":"MRI","i_long":106.84912,"station_name":"Manggarai","is_transit":true,"transit":true,"line":2,"i_lat":-6.209883},{"i_lat":-6.226659,"station_name":"Tebet","distance":2610,"i_long":106.857948,"station_id":"TEB","line":2,"is_transit":false,"time":4,"transit":false},{"i_lat":-6.242512,"station_id":"CW","line":2,"time":2,"is_transit":false,"station_name":"Cawang","transit":false,"i_long":106.856607,"distance":1230},{"station_id":"DRN","is_transit":false,"time":3,"i_long":106.85449,"i_lat":-6.255332,"transit":false,"distance":1546,"line":2,"station_name":"Duren Kalibata"},{"line":2,"i_long":106.851577,"transit":false,"time":2,"is_transit":false,"i_lat":-6.263214,"station_id":"PSMB","distance":824,"station_name":"Pasar Minggu Baru"},{"station_name":"Pasar Minggu","transit":false,"station_id":"PSM","i_long":106.843999,"is_transit":false,"line":2,"i_lat":-6.2842400000000005,"time":2,"distance":2380},{"line":2,"transit":false,"station_name":"Tanjung Barat","i_lat":-6.3080680000000005,"is_transit":false,"station_id":"TNT","time":4,"i_long":106.838896,"distance":2820},{"time":3,"station_id":"LNA","distance":2671,"i_long":106.832616,"is_transit":false,"station_name":"Lenteng Agung","transit":false,"line":2,"i_lat":-6.330363},{"distance":1029,"i_long":106.834175,"line":2,"station_name":"Univ. Pancasila","transit":false,"station_id":"UP","is_transit":false,"i_lat":-6.339291,"time":2}]]}