{"data":[[{"station_name":"Cisauk","time":0,"i_long":106.640411,"i_lat":-6.32484,"transit":false,"station_id":"CSK","distance":0,"is_transit":false,"line":3},{"i_long":106.66566,"transit":false,"station_name":"Serpong","is_transit":false,"time":4,"station_id":"SRP","distance":1784,"line":6,"i_lat":-6.319871},{"i_long":106.675475,"distance":2413,"time":4,"transit":false,"line":6,"is_transit":false,"station_name":"Rawa Buntu","station_id":"RU","i_lat":-6.314823},{"station_id":"SDM","time":6,"i_long":106.712277,"distance":4566,"station_name":"Sudimara","transit":false,"i_lat":-6.296963,"line":6,"is_transit":false},{"distance":1994,"station_id":"JMU","is_transit":false,"i_long":106.728916,"transit":false,"i_lat":-6.288927,"station_name":"Jurangmangu","time":4,"line":6},{"is_transit":false,"transit":false,"i_long":106.74273,"time":3,"i_lat":-6.276362,"station_name":"Pondokranji","distance":2179,"station_id":"PDJ","line":6},{"i_lat":-6.237242,"distance":6218,"station_name":"Kebayoran","line":6,"time":8,"station_id":"KBY","transit":false,"is_transit":false,"i_long":106.780334},{"i_long":106.79689,"is_transit":false,"distance":3737,"i_lat":-6.207404,"time":7,"station_name":"Palmerah","transit":false,"line":6,"station_id":"PLM"},{"is_transit":true,"transit":true,"distance":3191,"station_name":"Tanah Abang","i_lat":-6.185545,"i_long":106.811091,"line":1,"time":6,"station_id":"THB"},{"station_name":"Karet","is_transit":false,"i_long":106.816351,"transit":false,"station_id":"KAT","i_lat":-6.20132,"line":1,"time":5,"distance":2029},{"time":1,"distance":471,"i_lat":-6.201433,"station_id":"SUDB","line":1,"i_long":106.819881,"station_name":"Sudirman Baru","transit":false,"is_transit":false}],[{"distance":0,"i_long":106.640411,"station_id":"CSK","station_name":"Cisauk","time":0,"line":3,"i_lat":-6.32484,"is_transit":false,"transit":false},{"line":6,"distance":1784,"is_transit":false,"transit":false,"i_lat":-6.319871,"station_id":"SRP","i_long":106.66566,"time":4,"station_name":"Serpong"},{"i_lat":-6.314823,"distance":2413,"station_id":"RU","i_long":106.675475,"time":4,"station_name":"Rawa Buntu","is_transit":false,"line":6,"transit":false},{"transit":false,"i_long":106.712277,"time":6,"station_id":"SDM","i_lat":-6.296963,"station_name":"Sudimara","is_transit":false,"distance":4566,"line":6},{"time":4,"distance":1994,"station_id":"JMU","is_transit":false,"i_lat":-6.288927,"line":6,"station_name":"Jurangmangu","i_long":106.728916,"transit":false},{"i_long":106.74273,"distance":2179,"station_id":"PDJ","is_transit":false,"i_lat":-6.276362,"time":3,"station_name":"Pondokranji","line":6,"transit":false},{"is_transit":false,"transit":false,"station_id":"KBY","line":6,"i_long":106.780334,"time":8,"distance":6218,"i_lat":-6.237242,"station_name":"Kebayoran"},{"station_name":"Palmerah","i_lat":-6.207404,"is_transit":false,"line":6,"transit":false,"distance":3737,"i_long":106.79689,"time":7,"station_id":"PLM"},{"distance":3191,"transit":true,"i_long":106.811091,"line":1,"i_lat":-6.185545,"station_name":"Tanah Abang","time":6,"station_id":"THB","is_transit":true},{"distance":3632,"station_id":"DU","station_name":"Duri","transit":false,"is_transit":false,"line":1,"i_long":106.800832,"i_lat":-6.155215,"time":8},{"i_lat":-6.144674,"transit":false,"time":4,"distance":1230,"station_name":"Angke","is_transit":false,"i_long":106.79867,"line":1,"station_id":"AK"},{"distance":4102,"station_id":"KPB","is_transit":true,"transit":true,"station_name":"Kampung Bandan","i_lat":-6.132549,"i_long":106.826365,"line":4,"time":9},{"is_transit":true,"line":2,"i_lat":-6.137569,"time":3,"transit":true,"i_long":106.812439,"station_name":"Jakarta Kota","station_id":"JAKK","distance":1364},{"i_lat":-6.141205,"i_long":106.820901,"distance":1264,"line":2,"station_name":"Jayakarta","is_transit":false,"time":4,"station_id":"JAY","transit":false},{"line":2,"transit":false,"distance":1080,"i_long":106.82482,"is_transit":false,"station_name":"Manggabesar","i_lat":-6.149769,"time":2,"station_id":"MGB"},{"i_lat":-6.160725,"i_long":106.827103,"station_name":"Sawah Besar","line":2,"time":2,"station_id":"SW","is_transit":false,"distance":906,"transit":false},{"station_name":"Juanda","time":2,"transit":false,"distance":1149,"i_lat":-6.166716,"line":2,"station_id":"JUA","is_transit":false,"i_long":106.828284},{"station_name":"Gondangdia","station_id":"GDD","i_lat":-6.186295,"time":4,"line":2,"is_transit":false,"distance":2015,"transit":false,"i_long":106.832183},{"transit":false,"station_name":"Cikini","station_id":"CKI","i_lat":-6.198556,"is_transit":false,"line":2,"i_long":106.840169,"distance":1750,"time":3},{"line":2,"i_long":106.84912,"distance":1590,"is_transit":true,"station_id":"MRI","transit":true,"time":4,"station_name":"Manggarai","i_lat":-6.209883},{"line":1,"time":4,"i_long":106.822649,"transit":false,"station_name":"Sudirman","distance":3186,"station_id":"SUD","is_transit":false,"i_lat":-6.202263},{"time":1,"is_transit":false,"station_name":"Sudirman Baru","line":1,"distance":280,"transit":false,"station_id":"SUDB","i_long":106.819881,"i_lat":-6.201433}],[{"time":0,"station_name":"Cisauk","distance":0,"transit":false,"is_transit":false,"i_lat":-6.32484,"i_long":106.640411,"line":3,"station_id":"CSK"},{"is_transit":false,"i_long":106.66566,"station_name":"Serpong","time":4,"line":6,"distance":1784,"transit":false,"i_lat":-6.319871,"station_id":"SRP"},{"station_name":"Rawa Buntu","i_lat":-6.314823,"time":4,"transit":false,"is_transit":false,"distance":2413,"i_long":106.675475,"station_id":"RU","line":6},{"i_lat":-6.296963,"station_name":"Sudimara","time":6,"transit":false,"is_transit":false,"i_long":106.712277,"station_id":"SDM","line":6,"distance":4566},{"transit":false,"i_lat":-6.288927,"is_transit":false,"time":4,"station_name":"Jurangmangu","station_id":"JMU","distance":1994,"line":6,"i_long":106.728916},{"transit":false,"is_transit":false,"station_id":"PDJ","i_lat":-6.276362,"station_name":"Pondokranji","line":6,"i_long":106.74273,"distance":2179,"time":3},{"line":6,"i_lat":-6.237242,"distance":6218,"station_name":"Kebayoran","time":8,"station_id":"KBY","is_transit":false,"i_long":106.780334,"transit":false},{"distance":3737,"station_name":"Palmerah","i_long":106.79689,"is_transit":false,"transit":false,"station_id":"PLM","i_lat":-6.207404,"time":7,"line":6},{"i_long":106.811091,"i_lat":-6.185545,"is_transit":true,"transit":true,"time":6,"station_name":"Tanah Abang","line":1,"station_id":"THB","distance":3191},{"station_id":"DU","is_transit":false,"time":8,"station_name":"Duri","line":1,"i_lat":-6.155215,"distance":3632,"i_long":106.800832,"transit":false},{"line":1,"i_lat":-6.144674,"transit":false,"is_transit":false,"distance":1230,"time":4,"station_name":"Angke","station_id":"AK","i_long":106.79867},{"station_id":"KPB","station_name":"Kampung Bandan","transit":true,"i_long":106.826365,"distance":4102,"line":4,"time":9,"is_transit":true,"i_lat":-6.132549},{"line":11,"station_id":"RJW","is_transit":false,"time":3,"distance":1444,"i_long":106.836569,"station_name":"Rajawali","i_lat":-6.14505,"transit":false},{"time":5,"is_transit":false,"transit":false,"station_name":"Kemayoran","i_long":106.839204,"distance":1901,"line":11,"i_lat":-6.161728,"station_id":"KMO"},{"transit":false,"is_transit":false,"i_lat":-6.174784,"time":4,"station_id":"PSE","line":11,"distance":1436,"i_long":106.84368,"station_name":"Pasar Senen"},{"i_long":106.850107,"time":8,"transit":false,"is_transit":false,"distance":1567,"line":11,"station_id":"GST","i_lat":-6.185975,"station_name":"Gang Sentiong"},{"transit":false,"time":1,"i_long":106.855437,"station_id":"KMT","is_transit":false,"station_name":"Kramat","distance":973,"i_lat":-6.193792,"line":11},{"i_lat":-6.209188,"station_name":"Pondok Jati","is_transit":false,"time":2,"line":11,"transit":false,"distance":1829,"i_long":106.861737,"station_id":"POK"},{"i_lat":-6.215091,"distance":1236,"transit":true,"i_long":106.86807400000001,"is_transit":true,"time":9,"line":1,"station_name":"Jatinegara","station_id":"JNG"},{"i_long":106.858896,"i_lat":-6.212485,"station_id":"MTR","line":1,"station_name":"Matraman","is_transit":false,"distance":1377,"time":2,"transit":false},{"station_id":"MRI","i_lat":-6.209883,"i_long":106.84912,"is_transit":false,"transit":false,"time":2,"line":2,"station_name":"Manggarai","distance":1275},{"transit":false,"distance":3186,"i_lat":-6.202263,"i_long":106.822649,"station_id":"SUD","station_name":"Sudirman","is_transit":false,"time":4,"line":1},{"i_lat":-6.201433,"station_name":"Sudirman Baru","is_transit":false,"distance":280,"station_id":"SUDB","transit":false,"time":1,"i_long":106.819881,"line":1}]]}