{"data":[[{"station_name":"Citayam","time":0,"transit":false,"distance":0,"i_lat":-6.448811,"i_long":106.800298,"is_transit":false,"station_id":"CTA","line":2},{"distance":5084,"station_id":"DP","is_transit":false,"i_lat":-6.405256,"i_long":106.816926,"line":2,"transit":false,"station_name":"Depok","time":6},{"distance":1584,"is_transit":false,"i_lat":-6.391065,"line":2,"station_id":"DPB","transit":false,"station_name":"Depokbaru","i_long":106.819451,"time":3},{"i_long":106.831114,"station_name":"Pondok Cina","line":2,"i_lat":-6.369073,"is_transit":false,"station_id":"POC","transit":false,"distance":2727,"time":4},{"i_lat":-6.360749,"station_id":"UI","line":2,"distance":1109,"transit":false,"station_name":"Univ. Indonesia","time":2,"is_transit":false,"i_long":106.831474},{"i_long":106.834175,"is_transit":false,"distance":2264,"i_lat":-6.339291,"line":2,"transit":false,"time":3,"station_id":"UP","station_name":"Univ. Pancasila"},{"station_name":"Lenteng Agung","i_long":106.832616,"i_lat":-6.330363,"is_transit":false,"station_id":"LNA","transit":false,"distance":1029,"line":2,"time":2},{"transit":false,"station_name":"Tanjung Barat","station_id":"TNT","distance":2671,"is_transit":false,"i_lat":-6.3080680000000005,"time":3,"i_long":106.838896,"line":2},{"distance":2820,"transit":false,"time":4,"is_transit":false,"station_name":"Pasar Minggu","i_lat":-6.2842400000000005,"station_id":"PSM","i_long":106.843999,"line":2},{"transit":false,"i_lat":-6.263214,"distance":2380,"time":2,"i_long":106.851577,"line":2,"station_name":"Pasar Minggu Baru","station_id":"PSMB","is_transit":false},{"distance":824,"i_long":106.85449,"is_transit":false,"line":2,"station_name":"Duren Kalibata","station_id":"DRN","i_lat":-6.255332,"transit":false,"time":2},{"is_transit":false,"i_long":106.856607,"distance":1546,"i_lat":-6.242512,"transit":false,"station_id":"CW","station_name":"Cawang","time":3,"line":2},{"transit":false,"time":2,"i_long":106.857948,"station_id":"TEB","distance":1230,"line":2,"station_name":"Tebet","i_lat":-6.226659,"is_transit":false},{"i_long":106.84912,"line":2,"station_id":"MRI","transit":true,"distance":2610,"time":4,"i_lat":-6.209883,"station_name":"Manggarai","is_transit":true},{"i_lat":-6.202263,"distance":3186,"station_id":"SUD","transit":false,"is_transit":false,"station_name":"Sudirman","i_long":106.822649,"line":1,"time":4},{"station_name":"Sudirman Baru","i_long":106.819881,"transit":false,"i_lat":-6.201433,"distance":280,"time":1,"station_id":"SUDB","line":1,"is_transit":false},{"i_long":106.816351,"station_id":"KAT","distance":471,"station_name":"Karet","line":1,"is_transit":false,"time":1,"transit":false,"i_lat":-6.20132},{"transit":false,"i_long":106.811091,"station_name":"Tanah Abang","line":1,"i_lat":-6.185545,"distance":2029,"is_transit":false,"time":5,"station_id":"THB"},{"transit":true,"station_id":"DU","line":1,"i_lat":-6.155215,"station_name":"Duri","distance":3632,"is_transit":true,"time":8,"i_long":106.800832},{"station_name":"Grogol","time":3,"is_transit":false,"distance":1700,"i_long":106.788277,"line":5,"transit":false,"station_id":"GGL","i_lat":-6.162021},{"i_lat":-6.161433,"station_id":"PSG","time":2,"station_name":"Pesing","i_long":106.771379,"distance":2036,"is_transit":false,"transit":false,"line":5},{"time":2,"line":5,"station_id":"TKO","distance":1614,"is_transit":false,"transit":false,"station_name":"Taman Kota","i_lat":-6.1587309999999995,"i_long":106.756522},{"transit":false,"time":2,"i_lat":-6.159876,"distance":2334,"station_name":"Bojongindah","i_long":106.737035,"is_transit":false,"line":5,"station_id":"BOI"},{"line":5,"i_long":106.723064,"station_name":"Rawa Buaya","distance":1152,"i_lat":-6.162758,"is_transit":false,"transit":false,"time":4,"station_id":"RW"},{"i_long":106.701612,"is_transit":false,"time":3,"line":5,"distance":2504,"i_lat":-6.166068,"station_id":"KDS","transit":false,"station_name":"Kalideres"},{"is_transit":false,"station_name":"Poris","time":3,"distance":2548,"transit":false,"i_lat":-6.169933,"i_long":106.679458,"station_id":"PI","line":5},{"i_lat":-6.171811,"i_long":106.665036,"distance":1834,"transit":false,"station_name":"Batuceper","station_id":"BPR","is_transit":false,"time":3,"line":5},{"transit":false,"i_lat":-6.17331,"is_transit":false,"distance":2028,"station_name":"Tanah Tinggi","station_id":"TTI","i_long":106.64657,"line":5,"time":3}],[{"time":0,"i_long":106.800298,"i_lat":-6.448811,"station_name":"Citayam","station_id":"CTA","is_transit":false,"line":2,"distance":0,"transit":false},{"i_lat":-6.405256,"line":2,"transit":false,"station_id":"DP","is_transit":false,"station_name":"Depok","i_long":106.816926,"time":6,"distance":5084},{"transit":false,"i_long":106.819451,"station_name":"Depokbaru","distance":1584,"time":3,"line":2,"i_lat":-6.391065,"station_id":"DPB","is_transit":false},{"i_long":106.831114,"line":2,"transit":false,"station_id":"POC","is_transit":false,"station_name":"Pondok Cina","time":4,"i_lat":-6.369073,"distance":2727},{"i_long":106.831474,"i_lat":-6.360749,"line":2,"station_name":"Univ. Indonesia","distance":1109,"station_id":"UI","is_transit":false,"time":2,"transit":false},{"station_id":"UP","line":2,"is_transit":false,"distance":2264,"station_name":"Univ. Pancasila","transit":false,"time":3,"i_lat":-6.339291,"i_long":106.834175},{"time":2,"distance":1029,"is_transit":false,"station_id":"LNA","station_name":"Lenteng Agung","line":2,"i_lat":-6.330363,"transit":false,"i_long":106.832616},{"i_lat":-6.3080680000000005,"station_id":"TNT","station_name":"Tanjung Barat","line":2,"i_long":106.838896,"is_transit":false,"distance":2671,"transit":false,"time":3},{"distance":2820,"transit":false,"station_id":"PSM","station_name":"Pasar Minggu","i_lat":-6.2842400000000005,"i_long":106.843999,"time":4,"line":2,"is_transit":false},{"transit":false,"distance":2380,"station_id":"PSMB","i_lat":-6.263214,"time":2,"line":2,"station_name":"Pasar Minggu Baru","i_long":106.851577,"is_transit":false},{"transit":false,"i_long":106.85449,"i_lat":-6.255332,"is_transit":false,"line":2,"station_name":"Duren Kalibata","station_id":"DRN","distance":824,"time":2},{"transit":false,"line":2,"station_id":"CW","station_name":"Cawang","i_lat":-6.242512,"time":3,"distance":1546,"i_long":106.856607,"is_transit":false},{"i_long":106.857948,"line":2,"distance":1230,"i_lat":-6.226659,"station_id":"TEB","is_transit":false,"station_name":"Tebet","transit":false,"time":2},{"time":4,"transit":false,"station_id":"MRI","station_name":"Manggarai","line":2,"is_transit":false,"i_lat":-6.209883,"distance":2610,"i_long":106.84912},{"line":2,"station_id":"CKI","distance":1590,"time":4,"transit":false,"station_name":"Cikini","is_transit":false,"i_lat":-6.198556,"i_long":106.840169},{"time":3,"station_name":"Gondangdia","station_id":"GDD","i_long":106.832183,"i_lat":-6.186295,"line":2,"transit":false,"distance":1750,"is_transit":false},{"station_name":"Juanda","time":4,"station_id":"JUA","is_transit":false,"transit":false,"i_lat":-6.166716,"i_long":106.828284,"distance":2015,"line":2},{"line":2,"transit":false,"is_transit":false,"time":2,"i_lat":-6.160725,"i_long":106.827103,"distance":1149,"station_id":"SW","station_name":"Sawah Besar"},{"time":2,"transit":false,"station_name":"Manggabesar","line":2,"station_id":"MGB","is_transit":false,"i_lat":-6.149769,"distance":906,"i_long":106.82482},{"transit":false,"is_transit":false,"i_lat":-6.141205,"station_id":"JAY","station_name":"Jayakarta","line":2,"time":2,"i_long":106.820901,"distance":1080},{"i_long":106.812439,"station_name":"Jakarta Kota","transit":true,"station_id":"JAKK","distance":1264,"time":4,"is_transit":true,"i_lat":-6.137569,"line":2},{"station_id":"KPB","transit":true,"station_name":"Kampung Bandan","is_transit":true,"time":3,"i_lat":-6.132549,"distance":1364,"i_long":106.826365,"line":4},{"distance":4102,"station_id":"AK","is_transit":false,"transit":false,"station_name":"Angke","time":9,"i_lat":-6.144674,"line":1,"i_long":106.79867},{"station_id":"DU","distance":1230,"is_transit":true,"station_name":"Duri","time":4,"i_lat":-6.155215,"transit":true,"i_long":106.800832,"line":1},{"i_lat":-6.162021,"line":5,"transit":false,"is_transit":false,"i_long":106.788277,"station_id":"GGL","distance":1700,"station_name":"Grogol","time":3},{"line":5,"station_name":"Pesing","is_transit":false,"transit":false,"time":2,"station_id":"PSG","distance":2036,"i_lat":-6.161433,"i_long":106.771379},{"i_long":106.756522,"line":5,"is_transit":false,"station_name":"Taman Kota","time":2,"i_lat":-6.1587309999999995,"station_id":"TKO","distance":1614,"transit":false},{"distance":2334,"station_id":"BOI","station_name":"Bojongindah","time":2,"i_lat":-6.159876,"is_transit":false,"i_long":106.737035,"line":5,"transit":false},{"time":4,"station_id":"RW","distance":1152,"station_name":"Rawa Buaya","is_transit":false,"transit":false,"i_lat":-6.162758,"i_long":106.723064,"line":5},{"i_long":106.701612,"distance":2504,"is_transit":false,"transit":false,"time":3,"i_lat":-6.166068,"line":5,"station_name":"Kalideres","station_id":"KDS"},{"i_long":106.679458,"station_id":"PI","line":5,"is_transit":false,"station_name":"Poris","distance":2548,"i_lat":-6.169933,"time":3,"transit":false},{"transit":false,"time":3,"station_id":"BPR","i_lat":-6.171811,"i_long":106.665036,"line":5,"is_transit":false,"station_name":"Batuceper","distance":1834},{"i_lat":-6.17331,"station_id":"TTI","i_long":106.64657,"distance":2028,"transit":false,"time":3,"is_transit":false,"line":5,"station_name":"Tanah Tinggi"}],[{"transit":false,"i_lat":-6.448811,"time":0,"i_long":106.800298,"station_id":"CTA","is_transit":false,"line":2,"station_name":"Citayam","distance":0},{"transit":false,"is_transit":false,"time":6,"i_lat":-6.405256,"line":2,"station_name":"Depok","distance":5084,"i_long":106.816926,"station_id":"DP"},{"i_long":106.819451,"distance":1584,"station_id":"DPB","transit":false,"i_lat":-6.391065,"line":2,"time":3,"is_transit":false,"station_name":"Depokbaru"},{"is_transit":false,"i_long":106.831114,"i_lat":-6.369073,"time":4,"line":2,"station_name":"Pondok Cina","distance":2727,"station_id":"POC","transit":false},{"line":2,"station_name":"Univ. Indonesia","i_long":106.831474,"i_lat":-6.360749,"station_id":"UI","distance":1109,"time":2,"is_transit":false,"transit":false},{"station_name":"Univ. Pancasila","transit":false,"time":3,"line":2,"distance":2264,"station_id":"UP","is_transit":false,"i_long":106.834175,"i_lat":-6.339291},{"station_name":"Lenteng Agung","line":2,"time":2,"is_transit":false,"distance":1029,"i_long":106.832616,"i_lat":-6.330363,"station_id":"LNA","transit":false},{"transit":false,"i_long":106.838896,"i_lat":-6.3080680000000005,"station_id":"TNT","is_transit":false,"distance":2671,"time":3,"station_name":"Tanjung Barat","line":2},{"line":2,"station_name":"Pasar Minggu","is_transit":false,"distance":2820,"transit":false,"i_lat":-6.2842400000000005,"time":4,"station_id":"PSM","i_long":106.843999},{"transit":false,"i_long":106.851577,"is_transit":false,"time":2,"station_id":"PSMB","i_lat":-6.263214,"distance":2380,"line":2,"station_name":"Pasar Minggu Baru"},{"distance":824,"i_lat":-6.255332,"station_id":"DRN","is_transit":false,"i_long":106.85449,"transit":false,"time":2,"line":2,"station_name":"Duren Kalibata"},{"line":2,"i_long":106.856607,"time":3,"station_id":"CW","distance":1546,"is_transit":false,"station_name":"Cawang","transit":false,"i_lat":-6.242512},{"station_id":"TEB","is_transit":false,"station_name":"Tebet","i_lat":-6.226659,"line":2,"time":2,"i_long":106.857948,"transit":false,"distance":1230},{"station_name":"Manggarai","time":4,"i_long":106.84912,"i_lat":-6.209883,"is_transit":true,"distance":2610,"transit":true,"line":2,"station_id":"MRI"},{"station_name":"Matraman","line":1,"transit":false,"i_long":106.858896,"distance":1275,"time":2,"i_lat":-6.212485,"station_id":"MTR","is_transit":false},{"line":1,"distance":1377,"time":8,"station_name":"Jatinegara","i_long":106.86807400000001,"station_id":"JNG","is_transit":true,"transit":true,"i_lat":-6.215091},{"line":11,"station_name":"Pondok Jati","i_lat":-6.209188,"station_id":"POK","transit":false,"is_transit":false,"i_long":106.861737,"distance":1236,"time":2},{"i_long":106.855437,"line":11,"is_transit":false,"time":2,"station_id":"KMT","station_name":"Kramat","distance":1829,"transit":false,"i_lat":-6.193792},{"station_name":"Gang Sentiong","time":1,"station_id":"GST","i_lat":-6.185975,"line":11,"distance":973,"is_transit":false,"i_long":106.850107,"transit":false},{"transit":false,"line":11,"i_long":106.84368,"station_id":"PSE","station_name":"Pasar Senen","time":8,"is_transit":false,"i_lat":-6.174784,"distance":1567},{"distance":1436,"station_id":"KMO","is_transit":false,"transit":false,"time":4,"station_name":"Kemayoran","i_lat":-6.161728,"i_long":106.839204,"line":11},{"distance":1901,"line":11,"i_lat":-6.14505,"is_transit":false,"time":5,"transit":false,"i_long":106.836569,"station_id":"RJW","station_name":"Rajawali"},{"i_lat":-6.132549,"distance":1444,"is_transit":true,"i_long":106.826365,"station_id":"KPB","time":3,"transit":true,"station_name":"Kampung Bandan","line":4},{"is_transit":false,"station_id":"AK","distance":4102,"station_name":"Angke","i_long":106.79867,"i_lat":-6.144674,"transit":false,"line":1,"time":9},{"i_long":106.800832,"distance":1230,"time":4,"transit":true,"line":1,"is_transit":true,"station_name":"Duri","station_id":"DU","i_lat":-6.155215},{"distance":1700,"station_name":"Grogol","transit":false,"is_transit":false,"i_lat":-6.162021,"line":5,"i_long":106.788277,"station_id":"GGL","time":3},{"distance":2036,"is_transit":false,"station_name":"Pesing","i_long":106.771379,"i_lat":-6.161433,"transit":false,"line":5,"station_id":"PSG","time":2},{"i_long":106.756522,"line":5,"is_transit":false,"distance":1614,"station_name":"Taman Kota","station_id":"TKO","transit":false,"time":2,"i_lat":-6.1587309999999995},{"i_lat":-6.159876,"distance":2334,"station_id":"BOI","is_transit":false,"station_name":"Bojongindah","line":5,"time":2,"i_long":106.737035,"transit":false},{"is_transit":false,"transit":false,"station_id":"RW","distance":1152,"i_lat":-6.162758,"i_long":106.723064,"line":5,"time":4,"station_name":"Rawa Buaya"},{"transit":false,"line":5,"station_id":"KDS","distance":2504,"station_name":"Kalideres","time":3,"is_transit":false,"i_lat":-6.166068,"i_long":106.701612},{"transit":false,"distance":2548,"time":3,"i_lat":-6.169933,"is_transit":false,"station_id":"PI","i_long":106.679458,"line":5,"station_name":"Poris"},{"distance":1834,"transit":false,"line":5,"i_long":106.665036,"i_lat":-6.171811,"time":3,"station_id":"BPR","is_transit":false,"station_name":"Batuceper"},{"distance":2028,"time":3,"station_id":"TTI","transit":false,"station_name":"Tanah Tinggi","i_long":106.64657,"is_transit":false,"i_lat":-6.17331,"line":5}]]}