{"data":[[{"i_long":106.800298,"station_name":"Citayam","is_transit":true,"distance":0,"time":0,"station_id":"CTA","line":1,"i_lat":-6.448811,"transit":false},{"line":0,"i_lat":-6.405256,"station_id":"DP","station_name":"Depok","i_long":106.816926,"is_transit":false,"transit":false,"time":6,"distance":5084},{"i_long":106.819451,"line":0,"transit":false,"i_lat":-6.391065,"time":3,"station_id":"DPB","is_transit":false,"distance":1584,"station_name":"Depokbaru"},{"station_name":"Pondok Cina","is_transit":false,"station_id":"POC","i_long":106.831114,"distance":2727,"i_lat":-6.369073,"time":4,"transit":false,"line":2},{"station_name":"Univ. Indonesia","station_id":"UI","line":2,"is_transit":false,"time":2,"transit":false,"distance":1109,"i_lat":-6.360749,"i_long":106.831474},{"i_long":106.834175,"distance":2264,"transit":false,"line":2,"is_transit":false,"station_name":"Univ. Pancasila","time":3,"i_lat":-6.339291,"station_id":"UP"},{"i_lat":-6.330363,"i_long":106.832616,"line":2,"is_transit":false,"station_name":"Lenteng Agung","time":2,"distance":1029,"station_id":"LNA","transit":false},{"station_name":"Tanjung Barat","line":2,"is_transit":false,"distance":2671,"transit":false,"i_long":106.838896,"i_lat":-6.3080680000000005,"station_id":"TNT","time":3},{"is_transit":false,"time":4,"i_lat":-6.2842400000000005,"i_long":106.843999,"transit":false,"line":2,"distance":2820,"station_id":"PSM","station_name":"Pasar Minggu"},{"station_id":"PSMB","i_lat":-6.263214,"i_long":106.851577,"station_name":"Pasar Minggu Baru","distance":2380,"is_transit":false,"transit":false,"time":2,"line":2},{"distance":824,"station_name":"Duren Kalibata","line":0,"is_transit":false,"i_long":106.85449,"time":2,"station_id":"DRN","transit":false,"i_lat":-6.255332},{"time":3,"line":0,"i_lat":-6.242512,"station_id":"CW","station_name":"Cawang","distance":1546,"transit":false,"i_long":106.856607,"is_transit":false},{"station_name":"Tebet","time":2,"station_id":"TEB","is_transit":false,"i_lat":-6.226659,"distance":1230,"i_long":106.857948,"transit":false,"line":2},{"is_transit":true,"time":4,"station_id":"MRI","transit":true,"distance":2610,"station_name":"Manggarai","i_long":106.84912,"line":0,"i_lat":-6.209883},{"time":4,"is_transit":false,"station_id":"SUD","transit":false,"i_lat":-6.202263,"distance":3186,"i_long":106.822649,"line":1,"station_name":"Sudirman"},{"time":1,"station_id":"SUDB","i_lat":-6.201433,"station_name":"Sudirman Baru","is_transit":false,"i_long":106.819881,"distance":280,"transit":false,"line":1},{"i_lat":-6.20132,"time":1,"line":1,"distance":471,"is_transit":false,"station_id":"KAT","transit":false,"i_long":106.816351,"station_name":"Karet"},{"transit":false,"distance":2029,"i_long":106.811091,"is_transit":true,"station_name":"Tanah Abang","i_lat":-6.185545,"station_id":"THB","time":5,"line":1},{"station_name":"Duri","station_id":"DU","transit":true,"is_transit":true,"i_lat":-6.155215,"i_long":106.800832,"line":1,"distance":3632,"time":8},{"time":3,"station_id":"GGL","i_long":106.788277,"transit":false,"station_name":"Grogol","i_lat":-6.162021,"is_transit":false,"distance":1700,"line":5},{"i_long":106.771379,"distance":2036,"station_name":"Pesing","i_lat":-6.161433,"line":5,"is_transit":false,"time":2,"transit":false,"station_id":"PSG"},{"i_lat":-6.1587309999999995,"is_transit":false,"transit":false,"station_id":"TKO","distance":1614,"line":5,"station_name":"Taman Kota","time":2,"i_long":106.756522},{"i_lat":-6.159876,"line":0,"time":2,"is_transit":false,"station_name":"Bojongindah","distance":2334,"transit":false,"i_long":106.737035,"station_id":"BOI"},{"time":4,"distance":1152,"line":5,"station_name":"Rawa Buaya","is_transit":false,"station_id":"RW","transit":false,"i_lat":-6.162758,"i_long":106.723064},{"i_long":106.701612,"is_transit":false,"station_name":"Kalideres","station_id":"KDS","line":5,"distance":2504,"time":3,"i_lat":-6.166068,"transit":false},{"station_id":"PI","distance":2548,"transit":false,"station_name":"Poris","i_lat":-6.169933,"i_long":106.679458,"line":5,"is_transit":false,"time":3},{"station_id":"BPR","i_lat":-6.171811,"time":3,"i_long":106.665036,"line":0,"distance":1834,"is_transit":false,"station_name":"Batuceper","transit":false},{"is_transit":false,"time":3,"distance":2028,"station_name":"Tanah Tinggi","station_id":"TTI","i_lat":-6.17331,"transit":false,"i_long":106.64657,"line":5}],[{"line":1,"station_id":"CTA","time":0,"station_name":"Citayam","i_long":106.800298,"is_transit":true,"transit":false,"distance":0,"i_lat":-6.448811},{"time":6,"is_transit":false,"station_name":"Depok","i_lat":-6.405256,"station_id":"DP","i_long":106.816926,"distance":5084,"line":0,"transit":false},{"is_transit":false,"i_lat":-6.391065,"line":0,"transit":false,"station_name":"Depokbaru","station_id":"DPB","i_long":106.819451,"time":3,"distance":1584},{"time":4,"station_name":"Pondok Cina","i_lat":-6.369073,"station_id":"POC","distance":2727,"is_transit":false,"i_long":106.831114,"line":2,"transit":false},{"i_lat":-6.360749,"transit":false,"distance":1109,"time":2,"i_long":106.831474,"is_transit":false,"line":2,"station_id":"UI","station_name":"Univ. Indonesia"},{"station_name":"Univ. Pancasila","time":3,"i_long":106.834175,"line":2,"distance":2264,"is_transit":false,"transit":false,"i_lat":-6.339291,"station_id":"UP"},{"distance":1029,"station_name":"Lenteng Agung","i_lat":-6.330363,"transit":false,"is_transit":false,"i_long":106.832616,"time":2,"station_id":"LNA","line":2},{"distance":2671,"time":3,"is_transit":false,"station_name":"Tanjung Barat","transit":false,"i_lat":-6.3080680000000005,"i_long":106.838896,"station_id":"TNT","line":2},{"time":4,"distance":2820,"i_lat":-6.2842400000000005,"station_name":"Pasar Minggu","is_transit":false,"transit":false,"i_long":106.843999,"line":2,"station_id":"PSM"},{"station_name":"Pasar Minggu Baru","i_lat":-6.263214,"station_id":"PSMB","distance":2380,"line":2,"time":2,"transit":false,"i_long":106.851577,"is_transit":false},{"time":2,"i_long":106.85449,"station_name":"Duren Kalibata","transit":false,"distance":824,"is_transit":false,"line":0,"station_id":"DRN","i_lat":-6.255332},{"is_transit":false,"station_id":"CW","transit":false,"line":0,"i_long":106.856607,"station_name":"Cawang","i_lat":-6.242512,"time":3,"distance":1546},{"transit":false,"distance":1230,"i_lat":-6.226659,"station_id":"TEB","station_name":"Tebet","is_transit":false,"i_long":106.857948,"time":2,"line":2},{"is_transit":true,"distance":2610,"station_name":"Manggarai","i_long":106.84912,"time":4,"transit":true,"station_id":"MRI","i_lat":-6.209883,"line":0},{"distance":1590,"transit":false,"time":4,"is_transit":false,"station_id":"CKI","i_long":106.840169,"line":0,"station_name":"Cikini","i_lat":-6.198556},{"time":3,"is_transit":false,"i_long":106.832183,"station_id":"GDD","transit":false,"distance":1750,"station_name":"Gondangdia","i_lat":-6.186295,"line":2},{"time":4,"is_transit":false,"distance":2015,"transit":false,"station_id":"JUA","i_lat":-6.166716,"station_name":"Juanda","i_long":106.828284,"line":2},{"distance":1149,"line":2,"i_long":106.827103,"i_lat":-6.160725,"is_transit":false,"station_name":"Sawah Besar","station_id":"SW","transit":false,"time":2},{"time":2,"i_long":106.82482,"is_transit":false,"line":2,"station_name":"Manggabesar","distance":906,"i_lat":-6.149769,"station_id":"MGB","transit":false},{"station_name":"Jayakarta","is_transit":false,"time":2,"station_id":"JAY","i_long":106.820901,"distance":1080,"transit":false,"i_lat":-6.141205,"line":7},{"station_id":"JAKK","station_name":"Jakarta Kota","transit":true,"i_lat":-6.137569,"is_transit":true,"i_long":106.812439,"line":0,"distance":1264,"time":4},{"i_lat":-6.132549,"station_name":"Kampung Bandan","transit":false,"distance":1364,"time":3,"is_transit":true,"line":0,"station_id":"KPB","i_long":106.826365},{"station_name":"Angke","station_id":"AK","i_lat":-6.144674,"transit":false,"is_transit":false,"i_long":106.79867,"line":0,"distance":4102,"time":9},{"distance":1230,"transit":true,"time":4,"i_lat":-6.155215,"i_long":106.800832,"line":1,"is_transit":true,"station_id":"DU","station_name":"Duri"},{"distance":1700,"time":3,"station_name":"Grogol","i_lat":-6.162021,"i_long":106.788277,"line":5,"transit":false,"is_transit":false,"station_id":"GGL"},{"station_name":"Pesing","station_id":"PSG","time":2,"i_lat":-6.161433,"i_long":106.771379,"distance":2036,"transit":false,"line":5,"is_transit":false},{"station_name":"Taman Kota","distance":1614,"transit":false,"line":5,"station_id":"TKO","i_long":106.756522,"time":2,"i_lat":-6.1587309999999995,"is_transit":false},{"i_long":106.737035,"distance":2334,"i_lat":-6.159876,"station_name":"Bojongindah","line":0,"is_transit":false,"station_id":"BOI","time":2,"transit":false},{"i_lat":-6.162758,"transit":false,"i_long":106.723064,"line":5,"station_name":"Rawa Buaya","is_transit":false,"distance":1152,"time":4,"station_id":"RW"},{"line":5,"i_lat":-6.166068,"transit":false,"station_id":"KDS","is_transit":false,"distance":2504,"i_long":106.701612,"time":3,"station_name":"Kalideres"},{"station_id":"PI","transit":false,"time":3,"i_lat":-6.169933,"i_long":106.679458,"is_transit":false,"line":5,"station_name":"Poris","distance":2548},{"is_transit":false,"station_name":"Batuceper","distance":1834,"time":3,"transit":false,"i_long":106.665036,"station_id":"BPR","i_lat":-6.171811,"line":0},{"transit":false,"line":5,"time":3,"i_long":106.64657,"distance":2028,"i_lat":-6.17331,"station_name":"Tanah Tinggi","station_id":"TTI","is_transit":false}],[{"station_name":"Citayam","distance":0,"station_id":"CTA","is_transit":true,"time":0,"i_lat":-6.448811,"i_long":106.800298,"transit":false,"line":1},{"time":6,"station_id":"DP","transit":false,"is_transit":false,"distance":5084,"i_long":106.816926,"i_lat":-6.405256,"station_name":"Depok","line":0},{"line":0,"time":3,"distance":1584,"transit":false,"is_transit":false,"station_name":"Depokbaru","station_id":"DPB","i_lat":-6.391065,"i_long":106.819451},{"transit":false,"station_id":"POC","i_long":106.831114,"time":4,"is_transit":false,"line":2,"distance":2727,"station_name":"Pondok Cina","i_lat":-6.369073},{"line":2,"is_transit":false,"distance":1109,"i_lat":-6.360749,"station_name":"Univ. Indonesia","time":2,"station_id":"UI","transit":false,"i_long":106.831474},{"station_name":"Univ. Pancasila","is_transit":false,"time":3,"i_lat":-6.339291,"transit":false,"distance":2264,"i_long":106.834175,"line":2,"station_id":"UP"},{"time":2,"station_id":"LNA","i_lat":-6.330363,"i_long":106.832616,"line":2,"is_transit":false,"station_name":"Lenteng Agung","transit":false,"distance":1029},{"station_id":"TNT","station_name":"Tanjung Barat","distance":2671,"is_transit":false,"i_long":106.838896,"line":2,"time":3,"transit":false,"i_lat":-6.3080680000000005},{"transit":false,"distance":2820,"station_name":"Pasar Minggu","time":4,"i_lat":-6.2842400000000005,"line":2,"is_transit":false,"station_id":"PSM","i_long":106.843999},{"distance":2380,"station_name":"Pasar Minggu Baru","line":2,"transit":false,"i_long":106.851577,"is_transit":false,"time":2,"station_id":"PSMB","i_lat":-6.263214},{"station_id":"DRN","time":2,"distance":824,"transit":false,"i_lat":-6.255332,"station_name":"Duren Kalibata","i_long":106.85449,"is_transit":false,"line":0},{"line":0,"station_name":"Cawang","distance":1546,"time":3,"station_id":"CW","transit":false,"i_lat":-6.242512,"i_long":106.856607,"is_transit":false},{"is_transit":false,"distance":1230,"station_id":"TEB","line":2,"time":2,"station_name":"Tebet","transit":false,"i_long":106.857948,"i_lat":-6.226659},{"time":4,"distance":2610,"station_name":"Manggarai","i_lat":-6.209883,"line":0,"station_id":"MRI","is_transit":true,"transit":true,"i_long":106.84912},{"time":2,"i_long":106.858896,"distance":1275,"station_name":"Matraman","transit":false,"i_lat":-6.212485,"station_id":"MTR","is_transit":false,"line":1},{"distance":1377,"station_id":"JNG","i_long":106.86807400000001,"line":0,"is_transit":true,"time":8,"i_lat":-6.215091,"station_name":"Jatinegara","transit":true},{"i_long":106.861737,"station_name":"Pondok Jati","i_lat":-6.209188,"distance":1236,"is_transit":false,"time":2,"line":11,"transit":false,"station_id":"POK"},{"distance":1829,"station_id":"KMT","transit":false,"i_long":106.855437,"line":11,"is_transit":false,"i_lat":-6.193792,"station_name":"Kramat","time":2},{"i_lat":-6.185975,"is_transit":false,"distance":973,"time":1,"transit":false,"line":11,"station_name":"Gang Sentiong","station_id":"GST","i_long":106.850107},{"transit":false,"i_long":106.84368,"station_id":"PSE","i_lat":-6.174784,"station_name":"Pasar Senen","distance":1567,"line":11,"is_transit":false,"time":8},{"transit":false,"time":4,"station_name":"Kemayoran","i_lat":-6.161728,"i_long":106.839204,"station_id":"KMO","is_transit":false,"line":11,"distance":1436},{"i_long":106.836569,"line":11,"station_name":"Rajawali","station_id":"RJW","i_lat":-6.14505,"is_transit":false,"distance":1901,"time":5,"transit":false},{"i_lat":-6.132549,"time":3,"distance":1444,"station_name":"Kampung Bandan","transit":true,"station_id":"KPB","i_long":106.826365,"line":0,"is_transit":true},{"distance":4102,"time":9,"station_id":"AK","line":0,"is_transit":false,"transit":false,"i_long":106.79867,"station_name":"Angke","i_lat":-6.144674},{"station_name":"Duri","distance":1230,"i_lat":-6.155215,"line":1,"station_id":"DU","transit":true,"time":4,"i_long":106.800832,"is_transit":true},{"station_id":"GGL","station_name":"Grogol","distance":1700,"i_long":106.788277,"time":3,"transit":false,"line":5,"is_transit":false,"i_lat":-6.162021},{"distance":2036,"line":5,"station_id":"PSG","transit":false,"is_transit":false,"time":2,"i_lat":-6.161433,"station_name":"Pesing","i_long":106.771379},{"station_id":"TKO","station_name":"Taman Kota","line":5,"i_lat":-6.1587309999999995,"i_long":106.756522,"is_transit":false,"distance":1614,"time":2,"transit":false},{"is_transit":false,"transit":false,"line":0,"station_name":"Bojongindah","time":2,"station_id":"BOI","distance":2334,"i_lat":-6.159876,"i_long":106.737035},{"station_name":"Rawa Buaya","line":5,"distance":1152,"i_lat":-6.162758,"i_long":106.723064,"is_transit":false,"time":4,"station_id":"RW","transit":false},{"line":5,"is_transit":false,"transit":false,"i_lat":-6.166068,"time":3,"distance":2504,"station_id":"KDS","station_name":"Kalideres","i_long":106.701612},{"time":3,"station_name":"Poris","i_long":106.679458,"transit":false,"i_lat":-6.169933,"line":5,"distance":2548,"station_id":"PI","is_transit":false},{"station_id":"BPR","i_lat":-6.171811,"distance":1834,"i_long":106.665036,"is_transit":false,"time":3,"station_name":"Batuceper","transit":false,"line":0},{"line":5,"station_name":"Tanah Tinggi","is_transit":false,"distance":2028,"transit":false,"station_id":"TTI","i_lat":-6.17331,"time":3,"i_long":106.64657}]]}