{"data":[[{"i_long":106.800298,"time":0,"i_lat":-6.448811,"station_name":"Citayam","station_id":"CTA","distance":0,"transit":false,"is_transit":false,"line":2},{"transit":false,"time":6,"distance":5084,"station_id":"DP","is_transit":false,"i_lat":-6.405256,"i_long":106.816926,"line":2,"station_name":"Depok"},{"time":3,"i_long":106.819451,"station_id":"DPB","i_lat":-6.391065,"line":2,"transit":false,"station_name":"Depokbaru","distance":1584,"is_transit":false},{"station_id":"POC","i_long":106.831114,"station_name":"Pondok Cina","is_transit":false,"i_lat":-6.369073,"distance":2727,"transit":false,"line":2,"time":4},{"line":2,"transit":false,"station_id":"UI","distance":1109,"time":2,"i_lat":-6.360749,"station_name":"Univ. Indonesia","is_transit":false,"i_long":106.831474},{"is_transit":false,"time":3,"station_name":"Univ. Pancasila","transit":false,"distance":2264,"i_lat":-6.339291,"line":2,"station_id":"UP","i_long":106.834175},{"time":2,"station_id":"LNA","is_transit":false,"i_long":106.832616,"line":2,"distance":1029,"i_lat":-6.330363,"transit":false,"station_name":"Lenteng Agung"},{"transit":false,"station_name":"Tanjung Barat","time":3,"station_id":"TNT","line":2,"distance":2671,"i_lat":-6.3080680000000005,"is_transit":false,"i_long":106.838896},{"station_id":"PSM","i_lat":-6.2842400000000005,"i_long":106.843999,"line":2,"station_name":"Pasar Minggu","is_transit":false,"time":4,"transit":false,"distance":2820},{"distance":2380,"i_long":106.851577,"line":2,"station_name":"Pasar Minggu Baru","transit":false,"is_transit":false,"time":2,"station_id":"PSMB","i_lat":-6.263214},{"is_transit":false,"line":2,"station_name":"Duren Kalibata","time":2,"station_id":"DRN","transit":false,"i_long":106.85449,"distance":824,"i_lat":-6.255332},{"station_name":"Cawang","time":3,"i_lat":-6.242512,"distance":1546,"station_id":"CW","transit":false,"line":2,"i_long":106.856607,"is_transit":false},{"station_id":"TEB","i_lat":-6.226659,"i_long":106.857948,"transit":false,"is_transit":false,"time":2,"distance":1230,"line":2,"station_name":"Tebet"},{"is_transit":true,"station_name":"Manggarai","i_long":106.84912,"time":4,"line":2,"distance":2610,"station_id":"MRI","transit":true,"i_lat":-6.209883},{"station_name":"Matraman","transit":false,"time":2,"distance":1275,"station_id":"MTR","line":1,"i_lat":-6.212485,"is_transit":false,"i_long":106.858896},{"line":1,"transit":false,"time":8,"is_transit":false,"distance":1377,"i_long":106.86807400000001,"station_name":"Jatinegara","station_id":"JNG","i_lat":-6.215091},{"is_transit":false,"time":3,"i_long":106.899548,"transit":false,"station_name":"Klender","distance":3395,"i_lat":-6.2135,"line":1,"station_id":"KLD"},{"i_lat":-6.215568,"time":2,"station_name":"Buaran","station_id":"BUA","transit":false,"is_transit":false,"distance":3100,"i_long":106.922662,"line":1},{"transit":false,"is_transit":false,"station_name":"Klenderbaru","station_id":"KLDB","i_lat":-6.217455,"i_long":106.939679,"time":1,"distance":1305,"line":1},{"time":8,"i_long":106.951283,"station_id":"CUK","transit":false,"distance":1385,"line":1,"is_transit":false,"i_lat":-6.219053,"station_name":"Cakung"},{"time":3,"transit":false,"i_lat":-6.224515,"i_long":106.977657,"line":1,"is_transit":false,"station_name":"Kranji","distance":3097,"station_id":"KRI"}],[{"time":0,"distance":0,"i_lat":-6.448811,"is_transit":false,"transit":false,"i_long":106.800298,"line":2,"station_name":"Citayam","station_id":"CTA"},{"station_name":"Depok","i_long":106.816926,"distance":5084,"time":6,"line":2,"transit":false,"is_transit":false,"i_lat":-6.405256,"station_id":"DP"},{"station_id":"DPB","station_name":"Depokbaru","time":3,"transit":false,"i_long":106.819451,"i_lat":-6.391065,"line":2,"is_transit":false,"distance":1584},{"is_transit":false,"i_long":106.831114,"station_id":"POC","time":4,"line":2,"i_lat":-6.369073,"transit":false,"station_name":"Pondok Cina","distance":2727},{"station_name":"Univ. Indonesia","distance":1109,"is_transit":false,"time":2,"station_id":"UI","i_lat":-6.360749,"transit":false,"i_long":106.831474,"line":2},{"station_name":"Univ. Pancasila","time":3,"i_lat":-6.339291,"transit":false,"station_id":"UP","is_transit":false,"i_long":106.834175,"distance":2264,"line":2},{"station_name":"Lenteng Agung","is_transit":false,"i_long":106.832616,"distance":1029,"i_lat":-6.330363,"station_id":"LNA","line":2,"time":2,"transit":false},{"station_name":"Tanjung Barat","station_id":"TNT","distance":2671,"i_lat":-6.3080680000000005,"i_long":106.838896,"time":3,"line":2,"is_transit":false,"transit":false},{"time":4,"distance":2820,"station_id":"PSM","is_transit":false,"station_name":"Pasar Minggu","line":2,"transit":false,"i_lat":-6.2842400000000005,"i_long":106.843999},{"station_id":"PSMB","is_transit":false,"transit":false,"time":2,"i_long":106.851577,"station_name":"Pasar Minggu Baru","line":2,"distance":2380,"i_lat":-6.263214},{"station_id":"DRN","i_lat":-6.255332,"is_transit":false,"i_long":106.85449,"line":2,"distance":824,"transit":false,"station_name":"Duren Kalibata","time":2},{"station_id":"CW","distance":1546,"i_long":106.856607,"line":2,"transit":false,"station_name":"Cawang","is_transit":false,"i_lat":-6.242512,"time":3},{"i_lat":-6.226659,"line":2,"transit":false,"time":2,"distance":1230,"i_long":106.857948,"is_transit":false,"station_name":"Tebet","station_id":"TEB"},{"i_lat":-6.209883,"time":4,"i_long":106.84912,"line":2,"distance":2610,"station_name":"Manggarai","is_transit":true,"transit":true,"station_id":"MRI"},{"i_lat":-6.202263,"station_name":"Sudirman","line":1,"time":4,"distance":3186,"station_id":"SUD","transit":false,"i_long":106.822649,"is_transit":false},{"time":1,"station_name":"Sudirman Baru","is_transit":false,"i_long":106.819881,"transit":false,"distance":280,"line":1,"i_lat":-6.201433,"station_id":"SUDB"},{"line":1,"i_lat":-6.20132,"station_name":"Karet","time":1,"distance":471,"is_transit":false,"i_long":106.816351,"station_id":"KAT","transit":false},{"is_transit":false,"transit":false,"station_name":"Tanah Abang","line":1,"i_lat":-6.185545,"i_long":106.811091,"station_id":"THB","time":5,"distance":2029},{"time":8,"i_lat":-6.155215,"station_name":"Duri","is_transit":false,"i_long":106.800832,"distance":3632,"line":1,"transit":false,"station_id":"DU"},{"transit":false,"time":4,"distance":1230,"line":1,"i_long":106.79867,"i_lat":-6.144674,"is_transit":false,"station_name":"Angke","station_id":"AK"},{"i_long":106.826365,"time":9,"i_lat":-6.132549,"distance":4102,"station_name":"Kampung Bandan","station_id":"KPB","line":4,"transit":true,"is_transit":true},{"is_transit":false,"distance":1444,"i_lat":-6.14505,"line":11,"transit":false,"station_id":"RJW","i_long":106.836569,"time":3,"station_name":"Rajawali"},{"station_name":"Kemayoran","time":5,"i_lat":-6.161728,"distance":1901,"station_id":"KMO","is_transit":false,"transit":false,"i_long":106.839204,"line":11},{"time":4,"i_lat":-6.174784,"i_long":106.84368,"distance":1436,"transit":false,"is_transit":false,"station_id":"PSE","line":11,"station_name":"Pasar Senen"},{"line":11,"transit":false,"time":8,"station_name":"Gang Sentiong","station_id":"GST","i_lat":-6.185975,"i_long":106.850107,"is_transit":false,"distance":1567},{"is_transit":false,"i_long":106.855437,"transit":false,"line":11,"time":1,"i_lat":-6.193792,"station_name":"Kramat","station_id":"KMT","distance":973},{"distance":1829,"transit":false,"i_lat":-6.209188,"station_name":"Pondok Jati","line":11,"is_transit":false,"i_long":106.861737,"time":2,"station_id":"POK"},{"time":9,"is_transit":true,"station_name":"Jatinegara","i_long":106.86807400000001,"transit":true,"station_id":"JNG","line":1,"i_lat":-6.215091,"distance":1236},{"is_transit":false,"transit":false,"i_lat":-6.2135,"i_long":106.899548,"station_id":"KLD","line":1,"time":3,"station_name":"Klender","distance":3395},{"time":2,"transit":false,"line":1,"station_name":"Buaran","distance":3100,"i_lat":-6.215568,"is_transit":false,"i_long":106.922662,"station_id":"BUA"},{"line":1,"is_transit":false,"distance":1305,"station_id":"KLDB","i_lat":-6.217455,"i_long":106.939679,"station_name":"Klenderbaru","transit":false,"time":1},{"station_name":"Cakung","time":8,"i_long":106.951283,"station_id":"CUK","transit":false,"is_transit":false,"distance":1385,"line":1,"i_lat":-6.219053},{"transit":false,"line":1,"is_transit":false,"station_id":"KRI","time":3,"i_long":106.977657,"station_name":"Kranji","i_lat":-6.224515,"distance":3097}],[{"i_long":106.800298,"time":0,"station_id":"CTA","i_lat":-6.448811,"is_transit":false,"distance":0,"line":2,"transit":false,"station_name":"Citayam"},{"is_transit":false,"distance":5084,"transit":false,"station_name":"Depok","line":2,"station_id":"DP","i_lat":-6.405256,"time":6,"i_long":106.816926},{"transit":false,"i_lat":-6.391065,"station_name":"Depokbaru","distance":1584,"time":3,"station_id":"DPB","line":2,"i_long":106.819451,"is_transit":false},{"is_transit":false,"transit":false,"station_id":"POC","i_lat":-6.369073,"i_long":106.831114,"line":2,"station_name":"Pondok Cina","time":4,"distance":2727},{"distance":1109,"transit":false,"station_name":"Univ. Indonesia","station_id":"UI","i_long":106.831474,"is_transit":false,"i_lat":-6.360749,"time":2,"line":2},{"transit":false,"i_long":106.834175,"distance":2264,"line":2,"i_lat":-6.339291,"time":3,"station_name":"Univ. Pancasila","is_transit":false,"station_id":"UP"},{"station_id":"LNA","line":2,"distance":1029,"i_lat":-6.330363,"is_transit":false,"station_name":"Lenteng Agung","i_long":106.832616,"time":2,"transit":false},{"station_id":"TNT","transit":false,"is_transit":false,"i_long":106.838896,"distance":2671,"line":2,"i_lat":-6.3080680000000005,"station_name":"Tanjung Barat","time":3},{"transit":false,"distance":2820,"i_long":106.843999,"station_id":"PSM","i_lat":-6.2842400000000005,"line":2,"time":4,"is_transit":false,"station_name":"Pasar Minggu"},{"station_name":"Pasar Minggu Baru","is_transit":false,"distance":2380,"i_lat":-6.263214,"line":2,"transit":false,"station_id":"PSMB","time":2,"i_long":106.851577},{"distance":824,"station_id":"DRN","time":2,"transit":false,"is_transit":false,"station_name":"Duren Kalibata","i_lat":-6.255332,"i_long":106.85449,"line":2},{"station_name":"Cawang","distance":1546,"i_long":106.856607,"is_transit":false,"transit":false,"line":2,"time":3,"station_id":"CW","i_lat":-6.242512},{"i_long":106.857948,"transit":false,"station_name":"Tebet","time":2,"station_id":"TEB","i_lat":-6.226659,"distance":1230,"is_transit":false,"line":2},{"i_lat":-6.209883,"transit":false,"line":2,"station_id":"MRI","station_name":"Manggarai","distance":2610,"is_transit":false,"i_long":106.84912,"time":4},{"time":4,"station_id":"CKI","line":2,"is_transit":false,"transit":false,"distance":1590,"i_lat":-6.198556,"i_long":106.840169,"station_name":"Cikini"},{"i_lat":-6.186295,"i_long":106.832183,"line":2,"time":3,"station_name":"Gondangdia","is_transit":false,"distance":1750,"station_id":"GDD","transit":false},{"i_lat":-6.166716,"i_long":106.828284,"distance":2015,"transit":false,"station_name":"Juanda","station_id":"JUA","line":2,"time":4,"is_transit":false},{"distance":1149,"transit":false,"station_id":"SW","i_lat":-6.160725,"line":2,"time":2,"i_long":106.827103,"station_name":"Sawah Besar","is_transit":false},{"i_lat":-6.149769,"line":2,"distance":906,"i_long":106.82482,"station_name":"Manggabesar","station_id":"MGB","is_transit":false,"transit":false,"time":2},{"i_lat":-6.141205,"distance":1080,"is_transit":false,"i_long":106.820901,"line":2,"station_id":"JAY","time":2,"station_name":"Jayakarta","transit":false},{"i_lat":-6.137569,"station_id":"JAKK","line":2,"transit":true,"is_transit":true,"i_long":106.812439,"time":4,"station_name":"Jakarta Kota","distance":1264},{"is_transit":true,"line":4,"transit":true,"station_name":"Kampung Bandan","distance":1364,"i_lat":-6.132549,"time":3,"i_long":106.826365,"station_id":"KPB"},{"is_transit":false,"station_name":"Rajawali","time":3,"station_id":"RJW","line":11,"distance":1444,"i_long":106.836569,"transit":false,"i_lat":-6.14505},{"is_transit":false,"i_lat":-6.161728,"time":5,"distance":1901,"station_id":"KMO","line":11,"station_name":"Kemayoran","transit":false,"i_long":106.839204},{"time":4,"i_long":106.84368,"i_lat":-6.174784,"is_transit":false,"station_id":"PSE","transit":false,"station_name":"Pasar Senen","distance":1436,"line":11},{"line":11,"is_transit":false,"transit":false,"distance":1567,"station_name":"Gang Sentiong","station_id":"GST","i_lat":-6.185975,"time":8,"i_long":106.850107},{"distance":973,"line":11,"station_name":"Kramat","i_long":106.855437,"is_transit":false,"transit":false,"time":1,"station_id":"KMT","i_lat":-6.193792},{"transit":false,"station_name":"Pondok Jati","distance":1829,"i_long":106.861737,"station_id":"POK","is_transit":false,"time":2,"i_lat":-6.209188,"line":11},{"station_name":"Jatinegara","station_id":"JNG","line":1,"is_transit":true,"distance":1236,"i_lat":-6.215091,"i_long":106.86807400000001,"transit":true,"time":9},{"distance":3395,"transit":false,"i_long":106.899548,"station_name":"Klender","time":3,"station_id":"KLD","line":1,"i_lat":-6.2135,"is_transit":false},{"distance":3100,"i_lat":-6.215568,"is_transit":false,"station_name":"Buaran","i_long":106.922662,"line":1,"station_id":"BUA","time":2,"transit":false},{"transit":false,"i_long":106.939679,"distance":1305,"time":1,"line":1,"i_lat":-6.217455,"is_transit":false,"station_id":"KLDB","station_name":"Klenderbaru"},{"distance":1385,"station_name":"Cakung","is_transit":false,"station_id":"CUK","i_lat":-6.219053,"time":8,"transit":false,"i_long":106.951283,"line":1},{"i_long":106.977657,"i_lat":-6.224515,"distance":3097,"station_id":"KRI","transit":false,"line":1,"time":3,"station_name":"Kranji","is_transit":false}]]}