{"data":[[{"distance":0,"i_lat":-6.448811,"i_long":106.800298,"station_name":"Citayam","time":0,"is_transit":false,"line":2,"station_id":"CTA","transit":false},{"distance":5084,"transit":false,"station_id":"DP","line":2,"station_name":"Depok","i_lat":-6.405256,"i_long":106.816926,"is_transit":false,"time":6},{"line":2,"time":3,"i_lat":-6.391065,"station_name":"Depokbaru","transit":false,"i_long":106.819451,"station_id":"DPB","distance":1584,"is_transit":false},{"i_long":106.831114,"time":4,"line":2,"station_name":"Pondok Cina","distance":2727,"is_transit":false,"station_id":"POC","transit":false,"i_lat":-6.369073},{"time":2,"line":2,"station_name":"Univ. Indonesia","i_lat":-6.360749,"distance":1109,"is_transit":false,"station_id":"UI","transit":false,"i_long":106.831474},{"distance":2264,"i_long":106.834175,"line":2,"time":3,"station_name":"Univ. Pancasila","is_transit":false,"transit":false,"i_lat":-6.339291,"station_id":"UP"},{"station_name":"Lenteng Agung","i_long":106.832616,"time":2,"station_id":"LNA","i_lat":-6.330363,"distance":1029,"line":2,"is_transit":false,"transit":false},{"station_id":"TNT","time":3,"is_transit":false,"station_name":"Tanjung Barat","i_lat":-6.3080680000000005,"i_long":106.838896,"line":2,"transit":false,"distance":2671},{"time":4,"distance":2820,"transit":false,"i_long":106.843999,"line":2,"station_name":"Pasar Minggu","station_id":"PSM","is_transit":false,"i_lat":-6.2842400000000005},{"time":2,"transit":false,"station_id":"PSMB","i_lat":-6.263214,"distance":2380,"is_transit":false,"station_name":"Pasar Minggu Baru","i_long":106.851577,"line":2},{"station_name":"Duren Kalibata","i_lat":-6.255332,"distance":824,"is_transit":false,"time":2,"station_id":"DRN","line":2,"transit":false,"i_long":106.85449},{"i_lat":-6.242512,"distance":1546,"station_name":"Cawang","time":3,"station_id":"CW","transit":false,"is_transit":false,"i_long":106.856607,"line":2}]]}