{"data":[[{"line":2,"station_name":"Citayam","station_id":"CTA","is_transit":false,"distance":0,"i_lat":-6.448811,"transit":false,"time":0,"i_long":106.800298},{"station_id":"DP","i_lat":-6.405256,"transit":false,"station_name":"Depok","is_transit":false,"time":6,"distance":5084,"line":2,"i_long":106.816926},{"distance":1584,"i_lat":-6.391065,"line":2,"transit":false,"station_id":"DPB","is_transit":false,"i_long":106.819451,"time":3,"station_name":"Depokbaru"},{"station_name":"Pondok Cina","is_transit":false,"time":4,"distance":2727,"transit":false,"i_lat":-6.369073,"line":2,"i_long":106.831114,"station_id":"POC"},{"transit":false,"station_name":"Univ. Indonesia","time":2,"station_id":"UI","distance":1109,"i_lat":-6.360749,"i_long":106.831474,"line":2,"is_transit":false},{"is_transit":false,"distance":2264,"i_lat":-6.339291,"time":3,"i_long":106.834175,"line":2,"transit":false,"station_name":"Univ. Pancasila","station_id":"UP"},{"i_long":106.832616,"transit":false,"i_lat":-6.330363,"is_transit":false,"station_id":"LNA","time":2,"distance":1029,"station_name":"Lenteng Agung","line":2},{"distance":2671,"i_lat":-6.3080680000000005,"line":2,"station_id":"TNT","is_transit":false,"station_name":"Tanjung Barat","time":3,"i_long":106.838896,"transit":false},{"i_lat":-6.2842400000000005,"time":4,"i_long":106.843999,"line":2,"distance":2820,"station_name":"Pasar Minggu","station_id":"PSM","transit":false,"is_transit":false},{"i_long":106.851577,"line":2,"station_id":"PSMB","is_transit":false,"distance":2380,"station_name":"Pasar Minggu Baru","time":2,"i_lat":-6.263214,"transit":false},{"distance":824,"is_transit":false,"i_long":106.85449,"line":2,"station_id":"DRN","time":2,"station_name":"Duren Kalibata","i_lat":-6.255332,"transit":false},{"station_id":"CW","station_name":"Cawang","distance":1546,"is_transit":false,"time":3,"i_lat":-6.242512,"transit":false,"i_long":106.856607,"line":2},{"distance":1230,"station_name":"Tebet","i_lat":-6.226659,"station_id":"TEB","is_transit":false,"time":2,"transit":false,"i_long":106.857948,"line":2},{"station_name":"Manggarai","transit":false,"station_id":"MRI","is_transit":false,"distance":2610,"i_long":106.84912,"i_lat":-6.209883,"line":2,"time":4}]]}