{"data":[[{"i_long":106.800298,"line":2,"is_transit":false,"transit":false,"distance":0,"i_lat":-6.448811,"station_id":"CTA","station_name":"Citayam","time":0},{"is_transit":false,"station_id":"DP","distance":5084,"i_lat":-6.405256,"line":2,"transit":false,"station_name":"Depok","time":6,"i_long":106.816926},{"i_lat":-6.391065,"station_name":"Depokbaru","distance":1584,"station_id":"DPB","line":2,"is_transit":false,"time":3,"i_long":106.819451,"transit":false},{"time":4,"i_lat":-6.369073,"line":2,"transit":false,"station_id":"POC","i_long":106.831114,"distance":2727,"station_name":"Pondok Cina","is_transit":false},{"is_transit":false,"distance":1109,"transit":false,"line":2,"station_id":"UI","i_lat":-6.360749,"station_name":"Univ. Indonesia","time":2,"i_long":106.831474},{"i_lat":-6.339291,"time":3,"line":2,"distance":2264,"i_long":106.834175,"is_transit":false,"transit":false,"station_name":"Univ. Pancasila","station_id":"UP"},{"i_lat":-6.330363,"time":2,"transit":false,"is_transit":false,"i_long":106.832616,"station_id":"LNA","line":2,"distance":1029,"station_name":"Lenteng Agung"},{"i_long":106.838896,"transit":false,"station_id":"TNT","distance":2671,"is_transit":false,"station_name":"Tanjung Barat","line":2,"time":3,"i_lat":-6.3080680000000005},{"station_id":"PSM","is_transit":false,"i_long":106.843999,"distance":2820,"transit":false,"i_lat":-6.2842400000000005,"station_name":"Pasar Minggu","time":4,"line":2},{"station_name":"Pasar Minggu Baru","i_lat":-6.263214,"station_id":"PSMB","distance":2380,"transit":false,"line":2,"i_long":106.851577,"is_transit":false,"time":2},{"i_long":106.85449,"station_name":"Duren Kalibata","i_lat":-6.255332,"line":2,"transit":false,"is_transit":false,"time":2,"distance":824,"station_id":"DRN"},{"station_id":"CW","distance":1546,"is_transit":false,"i_long":106.856607,"station_name":"Cawang","line":2,"transit":false,"time":3,"i_lat":-6.242512},{"station_name":"Tebet","transit":false,"station_id":"TEB","is_transit":false,"time":2,"distance":1230,"i_long":106.857948,"i_lat":-6.226659,"line":2},{"i_lat":-6.209883,"station_name":"Manggarai","station_id":"MRI","line":2,"distance":2610,"is_transit":true,"transit":true,"time":4,"i_long":106.84912},{"distance":3186,"station_id":"SUD","transit":false,"station_name":"Sudirman","time":4,"i_lat":-6.202263,"line":1,"is_transit":false,"i_long":106.822649},{"station_id":"SUDB","is_transit":false,"distance":280,"i_long":106.819881,"transit":false,"time":1,"line":1,"i_lat":-6.201433,"station_name":"Sudirman Baru"}],[{"is_transit":false,"station_id":"CTA","i_long":106.800298,"time":0,"i_lat":-6.448811,"distance":0,"line":2,"transit":false,"station_name":"Citayam"},{"station_name":"Depok","i_long":106.816926,"distance":5084,"transit":false,"time":6,"is_transit":false,"line":2,"i_lat":-6.405256,"station_id":"DP"},{"station_name":"Depokbaru","distance":1584,"time":3,"station_id":"DPB","i_lat":-6.391065,"i_long":106.819451,"is_transit":false,"transit":false,"line":2},{"transit":false,"distance":2727,"station_id":"POC","is_transit":false,"time":4,"i_lat":-6.369073,"i_long":106.831114,"line":2,"station_name":"Pondok Cina"},{"line":2,"time":2,"i_lat":-6.360749,"is_transit":false,"station_id":"UI","distance":1109,"transit":false,"station_name":"Univ. Indonesia","i_long":106.831474},{"is_transit":false,"time":3,"i_lat":-6.339291,"distance":2264,"station_id":"UP","i_long":106.834175,"line":2,"transit":false,"station_name":"Univ. Pancasila"},{"transit":false,"i_lat":-6.330363,"station_id":"LNA","station_name":"Lenteng Agung","time":2,"distance":1029,"is_transit":false,"i_long":106.832616,"line":2},{"is_transit":false,"transit":false,"station_name":"Tanjung Barat","station_id":"TNT","i_lat":-6.3080680000000005,"distance":2671,"time":3,"line":2,"i_long":106.838896},{"station_id":"PSM","distance":2820,"time":4,"station_name":"Pasar Minggu","i_long":106.843999,"is_transit":false,"line":2,"transit":false,"i_lat":-6.2842400000000005},{"is_transit":false,"time":2,"i_lat":-6.263214,"transit":false,"distance":2380,"line":2,"station_name":"Pasar Minggu Baru","station_id":"PSMB","i_long":106.851577},{"station_id":"DRN","is_transit":false,"i_lat":-6.255332,"distance":824,"line":2,"transit":false,"time":2,"station_name":"Duren Kalibata","i_long":106.85449},{"line":2,"station_id":"CW","is_transit":false,"i_lat":-6.242512,"distance":1546,"transit":false,"i_long":106.856607,"station_name":"Cawang","time":3},{"station_name":"Tebet","transit":false,"time":2,"distance":1230,"line":2,"station_id":"TEB","is_transit":false,"i_long":106.857948,"i_lat":-6.226659},{"i_lat":-6.209883,"i_long":106.84912,"station_name":"Manggarai","transit":false,"station_id":"MRI","time":4,"line":2,"distance":2610,"is_transit":false},{"station_name":"Cikini","i_long":106.840169,"line":2,"station_id":"CKI","time":4,"transit":false,"i_lat":-6.198556,"distance":1590,"is_transit":false},{"i_long":106.832183,"time":3,"i_lat":-6.186295,"distance":1750,"station_id":"GDD","is_transit":false,"line":2,"transit":false,"station_name":"Gondangdia"},{"time":4,"line":2,"i_lat":-6.166716,"is_transit":false,"station_id":"JUA","i_long":106.828284,"distance":2015,"transit":false,"station_name":"Juanda"},{"i_long":106.827103,"transit":false,"time":2,"distance":1149,"line":2,"station_name":"Sawah Besar","is_transit":false,"station_id":"SW","i_lat":-6.160725},{"station_name":"Manggabesar","time":2,"distance":906,"i_lat":-6.149769,"line":2,"station_id":"MGB","is_transit":false,"transit":false,"i_long":106.82482},{"transit":false,"station_name":"Jayakarta","station_id":"JAY","is_transit":false,"i_lat":-6.141205,"i_long":106.820901,"line":2,"distance":1080,"time":2},{"i_long":106.812439,"line":2,"transit":true,"i_lat":-6.137569,"time":4,"distance":1264,"is_transit":true,"station_id":"JAKK","station_name":"Jakarta Kota"},{"transit":true,"station_name":"Kampung Bandan","is_transit":true,"station_id":"KPB","time":3,"distance":1364,"i_lat":-6.132549,"i_long":106.826365,"line":4},{"station_name":"Angke","i_long":106.79867,"is_transit":false,"transit":false,"station_id":"AK","i_lat":-6.144674,"line":1,"distance":4102,"time":9},{"transit":false,"i_lat":-6.155215,"is_transit":false,"distance":1230,"station_id":"DU","time":4,"station_name":"Duri","i_long":106.800832,"line":1},{"station_name":"Tanah Abang","i_lat":-6.185545,"line":1,"transit":false,"station_id":"THB","time":8,"is_transit":false,"distance":3632,"i_long":106.811091},{"station_id":"KAT","time":5,"transit":false,"station_name":"Karet","i_lat":-6.20132,"i_long":106.816351,"line":1,"is_transit":false,"distance":2029},{"line":1,"distance":471,"station_name":"Sudirman Baru","i_lat":-6.201433,"is_transit":false,"transit":false,"time":1,"station_id":"SUDB","i_long":106.819881}],[{"station_id":"CTA","i_lat":-6.448811,"line":2,"transit":false,"time":0,"is_transit":false,"distance":0,"station_name":"Citayam","i_long":106.800298},{"transit":false,"distance":5084,"station_name":"Depok","station_id":"DP","i_lat":-6.405256,"i_long":106.816926,"is_transit":false,"time":6,"line":2},{"transit":false,"i_lat":-6.391065,"i_long":106.819451,"line":2,"is_transit":false,"time":3,"station_id":"DPB","distance":1584,"station_name":"Depokbaru"},{"is_transit":false,"time":4,"distance":2727,"line":2,"i_long":106.831114,"station_name":"Pondok Cina","i_lat":-6.369073,"transit":false,"station_id":"POC"},{"i_lat":-6.360749,"i_long":106.831474,"station_name":"Univ. Indonesia","time":2,"is_transit":false,"station_id":"UI","distance":1109,"line":2,"transit":false},{"transit":false,"i_long":106.834175,"station_name":"Univ. Pancasila","station_id":"UP","i_lat":-6.339291,"time":3,"is_transit":false,"line":2,"distance":2264},{"station_name":"Lenteng Agung","line":2,"station_id":"LNA","is_transit":false,"distance":1029,"transit":false,"i_lat":-6.330363,"time":2,"i_long":106.832616},{"transit":false,"station_name":"Tanjung Barat","i_long":106.838896,"i_lat":-6.3080680000000005,"line":2,"station_id":"TNT","distance":2671,"is_transit":false,"time":3},{"distance":2820,"is_transit":false,"transit":false,"station_name":"Pasar Minggu","i_long":106.843999,"station_id":"PSM","time":4,"i_lat":-6.2842400000000005,"line":2},{"line":2,"time":2,"i_lat":-6.263214,"transit":false,"is_transit":false,"i_long":106.851577,"station_name":"Pasar Minggu Baru","distance":2380,"station_id":"PSMB"},{"i_long":106.85449,"station_id":"DRN","distance":824,"transit":false,"is_transit":false,"i_lat":-6.255332,"station_name":"Duren Kalibata","time":2,"line":2},{"line":2,"i_lat":-6.242512,"station_id":"CW","is_transit":false,"transit":false,"time":3,"distance":1546,"station_name":"Cawang","i_long":106.856607},{"distance":1230,"i_lat":-6.226659,"i_long":106.857948,"station_id":"TEB","transit":false,"station_name":"Tebet","line":2,"is_transit":false,"time":2},{"distance":2610,"station_id":"MRI","time":4,"i_lat":-6.209883,"transit":true,"station_name":"Manggarai","is_transit":true,"i_long":106.84912,"line":2},{"distance":1275,"is_transit":false,"line":1,"i_lat":-6.212485,"i_long":106.858896,"station_id":"MTR","time":2,"transit":false,"station_name":"Matraman"},{"time":8,"transit":true,"station_name":"Jatinegara","is_transit":true,"distance":1377,"i_lat":-6.215091,"i_long":106.86807400000001,"station_id":"JNG","line":1},{"transit":false,"station_id":"POK","distance":1236,"i_lat":-6.209188,"line":11,"is_transit":false,"time":2,"i_long":106.861737,"station_name":"Pondok Jati"},{"station_name":"Kramat","station_id":"KMT","is_transit":false,"time":2,"i_long":106.855437,"distance":1829,"transit":false,"line":11,"i_lat":-6.193792},{"is_transit":false,"distance":973,"i_lat":-6.185975,"transit":false,"i_long":106.850107,"line":11,"station_name":"Gang Sentiong","time":1,"station_id":"GST"},{"distance":1567,"is_transit":false,"i_long":106.84368,"station_id":"PSE","i_lat":-6.174784,"transit":false,"time":8,"line":11,"station_name":"Pasar Senen"},{"station_name":"Kemayoran","distance":1436,"i_long":106.839204,"i_lat":-6.161728,"time":4,"station_id":"KMO","line":11,"is_transit":false,"transit":false},{"i_long":106.836569,"i_lat":-6.14505,"transit":false,"time":5,"is_transit":false,"distance":1901,"station_name":"Rajawali","station_id":"RJW","line":11},{"station_name":"Kampung Bandan","station_id":"KPB","distance":1444,"i_lat":-6.132549,"transit":true,"is_transit":true,"time":3,"line":4,"i_long":106.826365},{"time":9,"line":1,"station_id":"AK","transit":false,"i_long":106.79867,"distance":4102,"is_transit":false,"station_name":"Angke","i_lat":-6.144674},{"station_id":"DU","station_name":"Duri","line":1,"i_long":106.800832,"i_lat":-6.155215,"is_transit":false,"time":4,"distance":1230,"transit":false},{"is_transit":false,"distance":3632,"i_lat":-6.185545,"time":8,"transit":false,"station_id":"THB","line":1,"station_name":"Tanah Abang","i_long":106.811091},{"i_lat":-6.20132,"is_transit":false,"transit":false,"station_id":"KAT","distance":2029,"station_name":"Karet","line":1,"time":5,"i_long":106.816351},{"transit":false,"time":1,"distance":471,"is_transit":false,"station_id":"SUDB","line":1,"i_long":106.819881,"i_lat":-6.201433,"station_name":"Sudirman Baru"}]]}