{"data":[[{"station_id":"CTA","distance":0,"i_lat":-6.448811,"time":0,"transit":false,"i_long":106.800298,"is_transit":false,"line":2,"station_name":"Citayam"},{"station_id":"DP","transit":false,"is_transit":false,"i_lat":-6.405256,"station_name":"Depok","time":6,"distance":5084,"i_long":106.816926,"line":2},{"is_transit":false,"transit":false,"i_lat":-6.391065,"i_long":106.819451,"time":3,"line":2,"station_name":"Depokbaru","distance":1584,"station_id":"DPB"},{"transit":false,"time":4,"station_name":"Pondok Cina","is_transit":false,"i_long":106.831114,"station_id":"POC","i_lat":-6.369073,"line":2,"distance":2727},{"i_lat":-6.360749,"i_long":106.831474,"transit":false,"station_name":"Univ. Indonesia","is_transit":false,"time":2,"distance":1109,"line":2,"station_id":"UI"},{"transit":false,"station_name":"Univ. Pancasila","is_transit":false,"time":3,"distance":2264,"station_id":"UP","i_lat":-6.339291,"i_long":106.834175,"line":2},{"transit":false,"station_name":"Lenteng Agung","time":2,"i_long":106.832616,"is_transit":false,"station_id":"LNA","distance":1029,"i_lat":-6.330363,"line":2},{"i_lat":-6.3080680000000005,"station_name":"Tanjung Barat","time":3,"is_transit":false,"i_long":106.838896,"transit":false,"station_id":"TNT","distance":2671,"line":2},{"time":4,"i_lat":-6.2842400000000005,"transit":false,"line":2,"i_long":106.843999,"station_id":"PSM","is_transit":false,"distance":2820,"station_name":"Pasar Minggu"},{"distance":2380,"is_transit":false,"time":2,"transit":false,"i_lat":-6.263214,"line":2,"i_long":106.851577,"station_id":"PSMB","station_name":"Pasar Minggu Baru"},{"is_transit":false,"i_long":106.85449,"time":2,"station_id":"DRN","transit":false,"station_name":"Duren Kalibata","distance":824,"i_lat":-6.255332,"line":2},{"station_name":"Cawang","i_long":106.856607,"time":3,"i_lat":-6.242512,"is_transit":false,"transit":false,"line":2,"station_id":"CW","distance":1546},{"line":2,"station_id":"TEB","time":2,"is_transit":false,"i_lat":-6.226659,"i_long":106.857948,"distance":1230,"station_name":"Tebet","transit":false},{"time":4,"i_lat":-6.209883,"i_long":106.84912,"distance":2610,"line":2,"transit":true,"station_id":"MRI","is_transit":true,"station_name":"Manggarai"},{"distance":3186,"line":1,"station_name":"Sudirman","time":4,"i_lat":-6.202263,"station_id":"SUD","is_transit":false,"i_long":106.822649,"transit":false},{"is_transit":false,"distance":280,"line":1,"time":1,"transit":false,"station_id":"SUDB","station_name":"Sudirman Baru","i_long":106.819881,"i_lat":-6.201433},{"distance":471,"transit":false,"time":1,"is_transit":false,"i_long":106.816351,"i_lat":-6.20132,"station_id":"KAT","station_name":"Karet","line":1},{"time":5,"distance":2029,"station_id":"THB","i_long":106.811091,"line":1,"is_transit":false,"i_lat":-6.185545,"transit":false,"station_name":"Tanah Abang"},{"line":1,"station_id":"DU","time":8,"transit":true,"station_name":"Duri","is_transit":true,"i_long":106.800832,"distance":3632,"i_lat":-6.155215},{"is_transit":false,"station_name":"Grogol","i_lat":-6.162021,"line":5,"i_long":106.788277,"time":3,"station_id":"GGL","transit":false,"distance":1700},{"i_long":106.771379,"time":2,"distance":2036,"i_lat":-6.161433,"is_transit":false,"station_id":"PSG","line":5,"station_name":"Pesing","transit":false}],[{"transit":false,"station_name":"Citayam","i_long":106.800298,"is_transit":false,"station_id":"CTA","line":2,"time":0,"distance":0,"i_lat":-6.448811},{"i_lat":-6.405256,"transit":false,"time":6,"i_long":106.816926,"line":2,"is_transit":false,"station_name":"Depok","station_id":"DP","distance":5084},{"transit":false,"station_id":"DPB","i_lat":-6.391065,"station_name":"Depokbaru","i_long":106.819451,"is_transit":false,"line":2,"time":3,"distance":1584},{"distance":2727,"i_long":106.831114,"i_lat":-6.369073,"time":4,"is_transit":false,"station_id":"POC","line":2,"station_name":"Pondok Cina","transit":false},{"transit":false,"is_transit":false,"time":2,"distance":1109,"station_id":"UI","i_lat":-6.360749,"i_long":106.831474,"line":2,"station_name":"Univ. Indonesia"},{"time":3,"i_lat":-6.339291,"distance":2264,"is_transit":false,"line":2,"station_id":"UP","i_long":106.834175,"station_name":"Univ. Pancasila","transit":false},{"station_name":"Lenteng Agung","i_long":106.832616,"line":2,"station_id":"LNA","is_transit":false,"time":2,"distance":1029,"transit":false,"i_lat":-6.330363},{"time":3,"is_transit":false,"station_name":"Tanjung Barat","i_long":106.838896,"station_id":"TNT","transit":false,"i_lat":-6.3080680000000005,"distance":2671,"line":2},{"is_transit":false,"station_name":"Pasar Minggu","i_lat":-6.2842400000000005,"station_id":"PSM","time":4,"i_long":106.843999,"line":2,"transit":false,"distance":2820},{"station_name":"Pasar Minggu Baru","distance":2380,"is_transit":false,"i_lat":-6.263214,"transit":false,"station_id":"PSMB","time":2,"line":2,"i_long":106.851577},{"line":2,"i_lat":-6.255332,"distance":824,"is_transit":false,"station_name":"Duren Kalibata","i_long":106.85449,"station_id":"DRN","transit":false,"time":2},{"transit":false,"is_transit":false,"time":3,"i_lat":-6.242512,"i_long":106.856607,"station_id":"CW","line":2,"distance":1546,"station_name":"Cawang"},{"time":2,"i_lat":-6.226659,"line":2,"station_id":"TEB","transit":false,"i_long":106.857948,"station_name":"Tebet","distance":1230,"is_transit":false},{"i_lat":-6.209883,"i_long":106.84912,"time":4,"is_transit":false,"station_name":"Manggarai","station_id":"MRI","distance":2610,"line":2,"transit":false},{"transit":false,"station_id":"CKI","i_long":106.840169,"i_lat":-6.198556,"is_transit":false,"line":2,"distance":1590,"time":4,"station_name":"Cikini"},{"is_transit":false,"i_lat":-6.186295,"distance":1750,"transit":false,"station_name":"Gondangdia","i_long":106.832183,"station_id":"GDD","line":2,"time":3},{"i_lat":-6.166716,"time":4,"station_id":"JUA","i_long":106.828284,"line":2,"station_name":"Juanda","transit":false,"is_transit":false,"distance":2015},{"i_long":106.827103,"i_lat":-6.160725,"line":2,"transit":false,"station_name":"Sawah Besar","time":2,"is_transit":false,"station_id":"SW","distance":1149},{"station_name":"Manggabesar","distance":906,"is_transit":false,"i_lat":-6.149769,"station_id":"MGB","transit":false,"time":2,"line":2,"i_long":106.82482},{"line":2,"time":2,"is_transit":false,"i_lat":-6.141205,"station_id":"JAY","station_name":"Jayakarta","transit":false,"distance":1080,"i_long":106.820901},{"transit":true,"station_name":"Jakarta Kota","line":2,"time":4,"is_transit":true,"distance":1264,"i_long":106.812439,"i_lat":-6.137569,"station_id":"JAKK"},{"station_name":"Kampung Bandan","i_long":106.826365,"i_lat":-6.132549,"station_id":"KPB","transit":true,"is_transit":true,"distance":1364,"time":3,"line":4},{"i_lat":-6.144674,"i_long":106.79867,"station_id":"AK","is_transit":false,"transit":false,"station_name":"Angke","line":1,"distance":4102,"time":9},{"distance":1230,"transit":true,"is_transit":true,"station_id":"DU","time":4,"station_name":"Duri","line":1,"i_long":106.800832,"i_lat":-6.155215},{"distance":1700,"is_transit":false,"station_id":"GGL","time":3,"transit":false,"i_lat":-6.162021,"i_long":106.788277,"line":5,"station_name":"Grogol"},{"line":5,"station_name":"Pesing","station_id":"PSG","distance":2036,"i_long":106.771379,"time":2,"i_lat":-6.161433,"transit":false,"is_transit":false}],[{"time":0,"station_name":"Citayam","transit":false,"is_transit":false,"distance":0,"i_long":106.800298,"i_lat":-6.448811,"station_id":"CTA","line":2},{"transit":false,"is_transit":false,"station_name":"Depok","time":6,"distance":5084,"i_long":106.816926,"line":2,"i_lat":-6.405256,"station_id":"DP"},{"time":3,"station_id":"DPB","transit":false,"is_transit":false,"distance":1584,"station_name":"Depokbaru","i_lat":-6.391065,"i_long":106.819451,"line":2},{"i_lat":-6.369073,"i_long":106.831114,"station_id":"POC","station_name":"Pondok Cina","transit":false,"time":4,"is_transit":false,"distance":2727,"line":2},{"time":2,"is_transit":false,"i_lat":-6.360749,"line":2,"i_long":106.831474,"station_name":"Univ. Indonesia","distance":1109,"station_id":"UI","transit":false},{"line":2,"i_lat":-6.339291,"time":3,"is_transit":false,"distance":2264,"station_id":"UP","transit":false,"i_long":106.834175,"station_name":"Univ. Pancasila"},{"i_long":106.832616,"distance":1029,"i_lat":-6.330363,"line":2,"is_transit":false,"station_id":"LNA","transit":false,"station_name":"Lenteng Agung","time":2},{"transit":false,"i_lat":-6.3080680000000005,"distance":2671,"station_name":"Tanjung Barat","station_id":"TNT","is_transit":false,"time":3,"i_long":106.838896,"line":2},{"is_transit":false,"transit":false,"i_long":106.843999,"station_name":"Pasar Minggu","line":2,"station_id":"PSM","time":4,"i_lat":-6.2842400000000005,"distance":2820},{"station_name":"Pasar Minggu Baru","i_lat":-6.263214,"line":2,"transit":false,"is_transit":false,"i_long":106.851577,"station_id":"PSMB","distance":2380,"time":2},{"distance":824,"i_lat":-6.255332,"station_name":"Duren Kalibata","transit":false,"is_transit":false,"i_long":106.85449,"station_id":"DRN","line":2,"time":2},{"transit":false,"i_lat":-6.242512,"line":2,"time":3,"station_id":"CW","distance":1546,"i_long":106.856607,"is_transit":false,"station_name":"Cawang"},{"station_name":"Tebet","is_transit":false,"line":2,"time":2,"i_long":106.857948,"distance":1230,"transit":false,"i_lat":-6.226659,"station_id":"TEB"},{"distance":2610,"time":4,"station_name":"Manggarai","transit":true,"i_lat":-6.209883,"line":2,"is_transit":true,"i_long":106.84912,"station_id":"MRI"},{"line":1,"i_long":106.858896,"station_name":"Matraman","time":2,"distance":1275,"is_transit":false,"i_lat":-6.212485,"transit":false,"station_id":"MTR"},{"is_transit":true,"station_name":"Jatinegara","line":1,"transit":true,"i_lat":-6.215091,"time":8,"distance":1377,"i_long":106.86807400000001,"station_id":"JNG"},{"station_id":"POK","i_long":106.861737,"distance":1236,"line":11,"time":2,"i_lat":-6.209188,"station_name":"Pondok Jati","is_transit":false,"transit":false},{"i_lat":-6.193792,"station_name":"Kramat","transit":false,"distance":1829,"is_transit":false,"time":2,"line":11,"station_id":"KMT","i_long":106.855437},{"line":11,"distance":973,"time":1,"station_id":"GST","transit":false,"i_lat":-6.185975,"is_transit":false,"station_name":"Gang Sentiong","i_long":106.850107},{"is_transit":false,"station_id":"PSE","station_name":"Pasar Senen","i_lat":-6.174784,"line":11,"i_long":106.84368,"distance":1567,"time":8,"transit":false},{"i_long":106.839204,"station_id":"KMO","line":11,"i_lat":-6.161728,"station_name":"Kemayoran","transit":false,"time":4,"is_transit":false,"distance":1436},{"station_name":"Rajawali","distance":1901,"i_lat":-6.14505,"i_long":106.836569,"time":5,"line":11,"transit":false,"station_id":"RJW","is_transit":false},{"station_id":"KPB","i_lat":-6.132549,"is_transit":true,"line":4,"distance":1444,"transit":true,"station_name":"Kampung Bandan","i_long":106.826365,"time":3},{"station_id":"AK","time":9,"i_lat":-6.144674,"line":1,"distance":4102,"station_name":"Angke","is_transit":false,"transit":false,"i_long":106.79867},{"transit":true,"station_id":"DU","i_lat":-6.155215,"is_transit":true,"i_long":106.800832,"station_name":"Duri","distance":1230,"line":1,"time":4},{"i_lat":-6.162021,"station_id":"GGL","time":3,"is_transit":false,"line":5,"i_long":106.788277,"station_name":"Grogol","transit":false,"distance":1700},{"is_transit":false,"distance":2036,"time":2,"i_lat":-6.161433,"i_long":106.771379,"line":5,"station_name":"Pesing","station_id":"PSG","transit":false}]]}