{"data":[[{"time":0,"distance":0,"station_id":"CTA","i_lat":-6.448811,"is_transit":false,"i_long":106.800298,"line":2,"station_name":"Citayam","transit":false},{"line":2,"time":6,"i_lat":-6.405256,"transit":false,"distance":5084,"i_long":106.816926,"is_transit":false,"station_name":"Depok","station_id":"DP"},{"station_id":"DPB","transit":false,"station_name":"Depokbaru","i_lat":-6.391065,"i_long":106.819451,"time":3,"line":2,"distance":1584,"is_transit":false},{"i_long":106.831114,"station_id":"POC","line":2,"distance":2727,"transit":false,"station_name":"Pondok Cina","is_transit":false,"time":4,"i_lat":-6.369073},{"time":2,"station_id":"UI","is_transit":false,"transit":false,"i_long":106.831474,"station_name":"Univ. Indonesia","line":2,"i_lat":-6.360749,"distance":1109},{"is_transit":false,"distance":2264,"i_long":106.834175,"station_id":"UP","station_name":"Univ. Pancasila","time":3,"i_lat":-6.339291,"transit":false,"line":2},{"station_id":"LNA","transit":false,"distance":1029,"i_lat":-6.330363,"line":2,"time":2,"is_transit":false,"station_name":"Lenteng Agung","i_long":106.832616},{"line":2,"is_transit":false,"i_lat":-6.3080680000000005,"i_long":106.838896,"station_id":"TNT","transit":false,"time":3,"station_name":"Tanjung Barat","distance":2671},{"is_transit":false,"station_id":"PSM","station_name":"Pasar Minggu","time":4,"i_lat":-6.2842400000000005,"transit":false,"i_long":106.843999,"distance":2820,"line":2},{"i_long":106.851577,"station_name":"Pasar Minggu Baru","distance":2380,"is_transit":false,"i_lat":-6.263214,"station_id":"PSMB","line":2,"time":2,"transit":false},{"line":2,"station_name":"Duren Kalibata","station_id":"DRN","distance":824,"i_lat":-6.255332,"transit":false,"time":2,"i_long":106.85449,"is_transit":false},{"distance":1546,"line":2,"is_transit":false,"i_long":106.856607,"station_name":"Cawang","transit":false,"station_id":"CW","time":3,"i_lat":-6.242512},{"i_lat":-6.226659,"i_long":106.857948,"line":2,"transit":false,"distance":1230,"station_id":"TEB","is_transit":false,"station_name":"Tebet","time":2},{"transit":false,"is_transit":false,"line":2,"station_id":"MRI","i_long":106.84912,"time":4,"i_lat":-6.209883,"distance":2610,"station_name":"Manggarai"}]]}