{"data":[[{"station_name":"Citayam","time":0,"transit":false,"distance":0,"i_lat":-6.448811,"is_transit":false,"i_long":106.800298,"line":2,"station_id":"CTA"},{"i_long":106.816926,"is_transit":false,"time":6,"distance":5084,"transit":false,"station_name":"Depok","i_lat":-6.405256,"line":2,"station_id":"DP"},{"station_name":"Depokbaru","is_transit":false,"i_long":106.819451,"station_id":"DPB","transit":false,"line":2,"distance":1584,"time":3,"i_lat":-6.391065},{"station_id":"POC","i_long":106.831114,"time":4,"i_lat":-6.369073,"station_name":"Pondok Cina","line":2,"transit":false,"distance":2727,"is_transit":false},{"station_id":"UI","is_transit":false,"station_name":"Univ. Indonesia","transit":false,"i_lat":-6.360749,"i_long":106.831474,"time":2,"distance":1109,"line":2},{"i_lat":-6.339291,"station_id":"UP","transit":false,"distance":2264,"time":3,"i_long":106.834175,"is_transit":false,"station_name":"Univ. Pancasila","line":2},{"i_long":106.832616,"line":2,"distance":1029,"time":2,"is_transit":false,"i_lat":-6.330363,"station_id":"LNA","transit":false,"station_name":"Lenteng Agung"},{"station_id":"TNT","i_long":106.838896,"time":3,"is_transit":false,"station_name":"Tanjung Barat","i_lat":-6.3080680000000005,"line":2,"distance":2671,"transit":false},{"i_long":106.843999,"station_id":"PSM","line":2,"is_transit":false,"transit":false,"time":4,"i_lat":-6.2842400000000005,"distance":2820,"station_name":"Pasar Minggu"},{"is_transit":false,"distance":2380,"i_lat":-6.263214,"i_long":106.851577,"line":2,"station_name":"Pasar Minggu Baru","station_id":"PSMB","time":2,"transit":false},{"transit":false,"station_name":"Duren Kalibata","distance":824,"time":2,"i_long":106.85449,"is_transit":false,"station_id":"DRN","i_lat":-6.255332,"line":2},{"transit":false,"is_transit":false,"distance":1546,"station_name":"Cawang","time":3,"i_lat":-6.242512,"station_id":"CW","i_long":106.856607,"line":2},{"i_long":106.857948,"distance":1230,"i_lat":-6.226659,"time":2,"station_id":"TEB","station_name":"Tebet","transit":false,"is_transit":false,"line":2},{"time":4,"i_lat":-6.209883,"i_long":106.84912,"distance":2610,"station_id":"MRI","station_name":"Manggarai","transit":true,"line":2,"is_transit":true},{"transit":false,"i_long":106.858896,"distance":1275,"line":1,"i_lat":-6.212485,"is_transit":false,"station_id":"MTR","station_name":"Matraman","time":2},{"line":1,"transit":true,"i_lat":-6.215091,"station_id":"JNG","distance":1377,"time":8,"i_long":106.86807400000001,"station_name":"Jatinegara","is_transit":true},{"transit":false,"station_id":"POK","i_lat":-6.209188,"distance":1236,"is_transit":false,"line":11,"station_name":"Pondok Jati","time":2,"i_long":106.861737},{"station_id":"KMT","i_lat":-6.193792,"station_name":"Kramat","is_transit":false,"transit":false,"line":11,"distance":1829,"i_long":106.855437,"time":2},{"transit":false,"is_transit":false,"time":1,"station_name":"Gang Sentiong","station_id":"GST","distance":973,"i_lat":-6.185975,"i_long":106.850107,"line":11}],[{"i_lat":-6.448811,"i_long":106.800298,"time":0,"station_id":"CTA","is_transit":false,"station_name":"Citayam","transit":false,"distance":0,"line":2},{"line":2,"time":6,"distance":5084,"i_long":106.816926,"i_lat":-6.405256,"transit":false,"is_transit":false,"station_id":"DP","station_name":"Depok"},{"transit":false,"station_name":"Depokbaru","i_lat":-6.391065,"distance":1584,"is_transit":false,"station_id":"DPB","time":3,"i_long":106.819451,"line":2},{"distance":2727,"is_transit":false,"time":4,"line":2,"transit":false,"station_id":"POC","station_name":"Pondok Cina","i_lat":-6.369073,"i_long":106.831114},{"i_long":106.831474,"line":2,"is_transit":false,"transit":false,"station_name":"Univ. Indonesia","distance":1109,"station_id":"UI","time":2,"i_lat":-6.360749},{"i_long":106.834175,"station_id":"UP","station_name":"Univ. Pancasila","time":3,"i_lat":-6.339291,"transit":false,"is_transit":false,"distance":2264,"line":2},{"i_long":106.832616,"time":2,"i_lat":-6.330363,"transit":false,"is_transit":false,"distance":1029,"station_id":"LNA","station_name":"Lenteng Agung","line":2},{"line":2,"distance":2671,"i_lat":-6.3080680000000005,"transit":false,"station_id":"TNT","time":3,"station_name":"Tanjung Barat","i_long":106.838896,"is_transit":false},{"line":2,"station_id":"PSM","is_transit":false,"distance":2820,"time":4,"station_name":"Pasar Minggu","i_long":106.843999,"transit":false,"i_lat":-6.2842400000000005},{"i_lat":-6.263214,"is_transit":false,"transit":false,"distance":2380,"station_id":"PSMB","time":2,"i_long":106.851577,"station_name":"Pasar Minggu Baru","line":2},{"distance":824,"station_id":"DRN","station_name":"Duren Kalibata","is_transit":false,"i_long":106.85449,"transit":false,"line":2,"time":2,"i_lat":-6.255332},{"transit":false,"station_id":"CW","time":3,"i_lat":-6.242512,"distance":1546,"is_transit":false,"station_name":"Cawang","i_long":106.856607,"line":2},{"is_transit":false,"station_name":"Tebet","transit":false,"i_lat":-6.226659,"i_long":106.857948,"line":2,"station_id":"TEB","distance":1230,"time":2},{"line":2,"is_transit":true,"i_lat":-6.209883,"station_id":"MRI","distance":2610,"i_long":106.84912,"station_name":"Manggarai","transit":true,"time":4},{"time":4,"is_transit":false,"station_name":"Sudirman","distance":3186,"i_long":106.822649,"station_id":"SUD","i_lat":-6.202263,"line":1,"transit":false},{"distance":280,"station_name":"Sudirman Baru","i_long":106.819881,"line":1,"transit":false,"i_lat":-6.201433,"station_id":"SUDB","time":1,"is_transit":false},{"transit":false,"distance":471,"time":1,"is_transit":false,"station_name":"Karet","i_lat":-6.20132,"station_id":"KAT","i_long":106.816351,"line":1},{"is_transit":false,"time":5,"distance":2029,"transit":false,"station_name":"Tanah Abang","line":1,"i_lat":-6.185545,"i_long":106.811091,"station_id":"THB"},{"i_lat":-6.155215,"line":1,"time":8,"distance":3632,"transit":false,"is_transit":false,"station_name":"Duri","station_id":"DU","i_long":106.800832},{"time":4,"station_id":"AK","station_name":"Angke","i_long":106.79867,"is_transit":false,"transit":false,"line":1,"i_lat":-6.144674,"distance":1230},{"i_lat":-6.132549,"transit":true,"distance":4102,"time":9,"i_long":106.826365,"station_id":"KPB","is_transit":true,"station_name":"Kampung Bandan","line":4},{"station_id":"RJW","i_lat":-6.14505,"transit":false,"line":11,"i_long":106.836569,"distance":1444,"is_transit":false,"time":3,"station_name":"Rajawali"},{"station_id":"KMO","transit":false,"station_name":"Kemayoran","i_long":106.839204,"i_lat":-6.161728,"is_transit":false,"time":5,"line":11,"distance":1901},{"time":4,"line":11,"distance":1436,"is_transit":false,"transit":false,"station_name":"Pasar Senen","i_lat":-6.174784,"station_id":"PSE","i_long":106.84368},{"i_long":106.850107,"i_lat":-6.185975,"transit":false,"line":11,"station_id":"GST","is_transit":false,"distance":1567,"station_name":"Gang Sentiong","time":8}],[{"station_name":"Citayam","station_id":"CTA","distance":0,"i_lat":-6.448811,"transit":false,"time":0,"i_long":106.800298,"is_transit":false,"line":2},{"distance":5084,"time":6,"transit":false,"is_transit":false,"i_lat":-6.405256,"station_id":"DP","i_long":106.816926,"line":2,"station_name":"Depok"},{"is_transit":false,"distance":1584,"transit":false,"i_long":106.819451,"station_id":"DPB","time":3,"i_lat":-6.391065,"station_name":"Depokbaru","line":2},{"time":4,"line":2,"transit":false,"station_id":"POC","distance":2727,"i_long":106.831114,"is_transit":false,"station_name":"Pondok Cina","i_lat":-6.369073},{"transit":false,"station_name":"Univ. Indonesia","time":2,"i_lat":-6.360749,"station_id":"UI","line":2,"distance":1109,"i_long":106.831474,"is_transit":false},{"is_transit":false,"time":3,"station_name":"Univ. Pancasila","station_id":"UP","distance":2264,"line":2,"i_long":106.834175,"transit":false,"i_lat":-6.339291},{"i_lat":-6.330363,"station_id":"LNA","transit":false,"is_transit":false,"station_name":"Lenteng Agung","time":2,"distance":1029,"i_long":106.832616,"line":2},{"time":3,"is_transit":false,"i_lat":-6.3080680000000005,"transit":false,"distance":2671,"station_id":"TNT","line":2,"i_long":106.838896,"station_name":"Tanjung Barat"},{"is_transit":false,"i_long":106.843999,"distance":2820,"transit":false,"time":4,"line":2,"station_name":"Pasar Minggu","station_id":"PSM","i_lat":-6.2842400000000005},{"line":2,"time":2,"station_name":"Pasar Minggu Baru","distance":2380,"i_long":106.851577,"transit":false,"station_id":"PSMB","i_lat":-6.263214,"is_transit":false},{"time":2,"i_long":106.85449,"line":2,"i_lat":-6.255332,"station_id":"DRN","transit":false,"station_name":"Duren Kalibata","is_transit":false,"distance":824},{"i_long":106.856607,"transit":false,"is_transit":false,"i_lat":-6.242512,"line":2,"station_id":"CW","distance":1546,"time":3,"station_name":"Cawang"},{"transit":false,"station_id":"TEB","i_lat":-6.226659,"is_transit":false,"time":2,"i_long":106.857948,"station_name":"Tebet","distance":1230,"line":2},{"station_id":"MRI","i_lat":-6.209883,"line":2,"transit":false,"is_transit":false,"time":4,"distance":2610,"i_long":106.84912,"station_name":"Manggarai"},{"i_lat":-6.198556,"line":2,"station_name":"Cikini","station_id":"CKI","i_long":106.840169,"distance":1590,"time":4,"is_transit":false,"transit":false},{"line":2,"i_long":106.832183,"station_name":"Gondangdia","distance":1750,"time":3,"i_lat":-6.186295,"transit":false,"is_transit":false,"station_id":"GDD"},{"distance":2015,"station_id":"JUA","time":4,"i_lat":-6.166716,"is_transit":false,"i_long":106.828284,"line":2,"transit":false,"station_name":"Juanda"},{"distance":1149,"is_transit":false,"transit":false,"i_long":106.827103,"station_name":"Sawah Besar","time":2,"i_lat":-6.160725,"line":2,"station_id":"SW"},{"is_transit":false,"i_long":106.82482,"station_id":"MGB","line":2,"transit":false,"i_lat":-6.149769,"station_name":"Manggabesar","time":2,"distance":906},{"transit":false,"station_id":"JAY","i_lat":-6.141205,"distance":1080,"time":2,"station_name":"Jayakarta","is_transit":false,"i_long":106.820901,"line":2},{"is_transit":true,"distance":1264,"transit":true,"station_name":"Jakarta Kota","i_lat":-6.137569,"i_long":106.812439,"station_id":"JAKK","line":2,"time":4},{"time":3,"station_name":"Kampung Bandan","is_transit":true,"distance":1364,"station_id":"KPB","line":4,"transit":true,"i_lat":-6.132549,"i_long":106.826365},{"i_long":106.836569,"transit":false,"distance":1444,"is_transit":false,"i_lat":-6.14505,"station_name":"Rajawali","line":11,"station_id":"RJW","time":3},{"transit":false,"station_id":"KMO","time":5,"station_name":"Kemayoran","line":11,"is_transit":false,"distance":1901,"i_lat":-6.161728,"i_long":106.839204},{"station_name":"Pasar Senen","i_long":106.84368,"i_lat":-6.174784,"transit":false,"distance":1436,"time":4,"line":11,"is_transit":false,"station_id":"PSE"},{"line":11,"transit":false,"is_transit":false,"distance":1567,"station_id":"GST","station_name":"Gang Sentiong","time":8,"i_lat":-6.185975,"i_long":106.850107}]]}