{"data":[[{"time":0,"i_long":106.800298,"i_lat":-6.448811,"transit":false,"is_transit":true,"distance":0,"line":1,"station_name":"Citayam","station_id":"CTA"},{"i_lat":-6.405256,"transit":false,"time":6,"station_id":"DP","distance":5084,"line":0,"station_name":"Depok","i_long":106.816926,"is_transit":false},{"i_lat":-6.391065,"line":0,"time":3,"transit":false,"distance":1584,"station_id":"DPB","station_name":"Depokbaru","is_transit":false,"i_long":106.819451},{"line":2,"i_long":106.831114,"distance":2727,"time":4,"station_id":"POC","transit":false,"station_name":"Pondok Cina","i_lat":-6.369073,"is_transit":false},{"i_long":106.831474,"station_id":"UI","station_name":"Univ. Indonesia","distance":1109,"line":2,"is_transit":false,"transit":false,"time":2,"i_lat":-6.360749},{"station_id":"UP","station_name":"Univ. Pancasila","transit":false,"i_lat":-6.339291,"is_transit":false,"time":3,"distance":2264,"i_long":106.834175,"line":2},{"time":2,"transit":false,"i_lat":-6.330363,"line":2,"station_name":"Lenteng Agung","is_transit":false,"distance":1029,"station_id":"LNA","i_long":106.832616}]]}