{"data":[[{"is_transit":false,"i_lat":-6.448811,"station_name":"Citayam","station_id":"CTA","line":2,"transit":false,"i_long":106.800298,"distance":0,"time":0},{"is_transit":false,"time":6,"line":2,"transit":false,"distance":5084,"station_name":"Depok","i_lat":-6.405256,"i_long":106.816926,"station_id":"DP"},{"transit":false,"line":2,"distance":1584,"i_lat":-6.391065,"i_long":106.819451,"station_name":"Depokbaru","is_transit":false,"station_id":"DPB","time":3},{"line":2,"time":4,"station_id":"POC","distance":2727,"transit":false,"is_transit":false,"i_lat":-6.369073,"station_name":"Pondok Cina","i_long":106.831114},{"time":2,"station_name":"Univ. Indonesia","line":2,"is_transit":false,"i_long":106.831474,"i_lat":-6.360749,"station_id":"UI","transit":false,"distance":1109},{"station_id":"UP","distance":2264,"transit":false,"i_lat":-6.339291,"i_long":106.834175,"line":2,"time":3,"station_name":"Univ. Pancasila","is_transit":false},{"is_transit":false,"station_id":"LNA","distance":1029,"time":2,"transit":false,"i_long":106.832616,"line":2,"station_name":"Lenteng Agung","i_lat":-6.330363},{"transit":false,"station_id":"TNT","i_long":106.838896,"is_transit":false,"time":3,"distance":2671,"line":2,"station_name":"Tanjung Barat","i_lat":-6.3080680000000005},{"station_name":"Pasar Minggu","i_lat":-6.2842400000000005,"transit":false,"i_long":106.843999,"distance":2820,"is_transit":false,"station_id":"PSM","time":4,"line":2},{"station_name":"Pasar Minggu Baru","i_lat":-6.263214,"i_long":106.851577,"time":2,"line":2,"station_id":"PSMB","distance":2380,"is_transit":false,"transit":false},{"distance":824,"station_name":"Duren Kalibata","transit":false,"is_transit":false,"time":2,"i_long":106.85449,"line":2,"station_id":"DRN","i_lat":-6.255332},{"distance":1546,"station_id":"CW","time":3,"line":2,"is_transit":false,"i_long":106.856607,"transit":false,"i_lat":-6.242512,"station_name":"Cawang"},{"is_transit":false,"line":2,"i_long":106.857948,"station_id":"TEB","i_lat":-6.226659,"distance":1230,"station_name":"Tebet","time":2,"transit":false},{"station_name":"Manggarai","i_lat":-6.209883,"line":2,"station_id":"MRI","is_transit":true,"distance":2610,"time":4,"i_long":106.84912,"transit":true},{"line":1,"station_id":"SUD","time":4,"i_long":106.822649,"i_lat":-6.202263,"is_transit":false,"transit":false,"station_name":"Sudirman","distance":3186},{"station_id":"SUDB","time":1,"is_transit":false,"transit":false,"station_name":"Sudirman Baru","distance":280,"i_lat":-6.201433,"line":1,"i_long":106.819881},{"time":1,"i_lat":-6.20132,"transit":false,"i_long":106.816351,"is_transit":false,"line":1,"station_name":"Karet","station_id":"KAT","distance":471},{"transit":false,"is_transit":false,"i_lat":-6.185545,"station_name":"Tanah Abang","distance":2029,"i_long":106.811091,"line":1,"station_id":"THB","time":5}],[{"station_id":"CTA","distance":0,"time":0,"station_name":"Citayam","i_lat":-6.448811,"transit":false,"line":2,"is_transit":false,"i_long":106.800298},{"station_name":"Depok","distance":5084,"station_id":"DP","line":2,"transit":false,"i_long":106.816926,"is_transit":false,"i_lat":-6.405256,"time":6},{"distance":1584,"i_lat":-6.391065,"i_long":106.819451,"line":2,"station_id":"DPB","is_transit":false,"time":3,"station_name":"Depokbaru","transit":false},{"distance":2727,"transit":false,"time":4,"is_transit":false,"i_lat":-6.369073,"i_long":106.831114,"station_name":"Pondok Cina","station_id":"POC","line":2},{"transit":false,"distance":1109,"is_transit":false,"time":2,"i_lat":-6.360749,"line":2,"station_id":"UI","station_name":"Univ. Indonesia","i_long":106.831474},{"is_transit":false,"time":3,"distance":2264,"station_id":"UP","transit":false,"i_lat":-6.339291,"station_name":"Univ. Pancasila","i_long":106.834175,"line":2},{"i_lat":-6.330363,"i_long":106.832616,"station_id":"LNA","time":2,"station_name":"Lenteng Agung","transit":false,"line":2,"distance":1029,"is_transit":false},{"i_long":106.838896,"distance":2671,"is_transit":false,"transit":false,"i_lat":-6.3080680000000005,"line":2,"station_id":"TNT","station_name":"Tanjung Barat","time":3},{"time":4,"is_transit":false,"distance":2820,"line":2,"i_lat":-6.2842400000000005,"i_long":106.843999,"station_id":"PSM","transit":false,"station_name":"Pasar Minggu"},{"is_transit":false,"line":2,"station_name":"Pasar Minggu Baru","i_lat":-6.263214,"time":2,"distance":2380,"transit":false,"i_long":106.851577,"station_id":"PSMB"},{"time":2,"i_lat":-6.255332,"transit":false,"i_long":106.85449,"distance":824,"station_id":"DRN","line":2,"is_transit":false,"station_name":"Duren Kalibata"},{"line":2,"distance":1546,"time":3,"transit":false,"i_long":106.856607,"i_lat":-6.242512,"is_transit":false,"station_name":"Cawang","station_id":"CW"},{"is_transit":false,"time":2,"distance":1230,"i_lat":-6.226659,"i_long":106.857948,"transit":false,"station_id":"TEB","line":2,"station_name":"Tebet"},{"station_name":"Manggarai","i_long":106.84912,"transit":false,"line":2,"time":4,"station_id":"MRI","distance":2610,"i_lat":-6.209883,"is_transit":false},{"i_lat":-6.198556,"line":2,"is_transit":false,"time":4,"station_id":"CKI","distance":1590,"transit":false,"i_long":106.840169,"station_name":"Cikini"},{"time":3,"distance":1750,"transit":false,"station_id":"GDD","line":2,"i_long":106.832183,"is_transit":false,"station_name":"Gondangdia","i_lat":-6.186295},{"time":4,"line":2,"station_name":"Juanda","transit":false,"is_transit":false,"station_id":"JUA","distance":2015,"i_lat":-6.166716,"i_long":106.828284},{"i_long":106.827103,"time":2,"distance":1149,"line":2,"is_transit":false,"i_lat":-6.160725,"station_name":"Sawah Besar","station_id":"SW","transit":false},{"distance":906,"time":2,"station_id":"MGB","is_transit":false,"station_name":"Manggabesar","i_long":106.82482,"transit":false,"i_lat":-6.149769,"line":2},{"station_name":"Jayakarta","station_id":"JAY","is_transit":false,"time":2,"distance":1080,"i_lat":-6.141205,"line":2,"i_long":106.820901,"transit":false},{"is_transit":true,"i_lat":-6.137569,"station_id":"JAKK","distance":1264,"i_long":106.812439,"transit":true,"station_name":"Jakarta Kota","line":2,"time":4},{"is_transit":true,"i_lat":-6.132549,"distance":1364,"station_name":"Kampung Bandan","station_id":"KPB","line":4,"i_long":106.826365,"time":3,"transit":true},{"i_long":106.79867,"i_lat":-6.144674,"distance":4102,"station_id":"AK","time":9,"line":1,"transit":false,"is_transit":false,"station_name":"Angke"},{"station_id":"DU","transit":false,"line":1,"time":4,"is_transit":false,"distance":1230,"station_name":"Duri","i_lat":-6.155215,"i_long":106.800832},{"i_lat":-6.185545,"time":8,"i_long":106.811091,"line":1,"is_transit":false,"station_name":"Tanah Abang","station_id":"THB","distance":3632,"transit":false}],[{"transit":false,"distance":0,"i_long":106.800298,"line":2,"station_name":"Citayam","i_lat":-6.448811,"station_id":"CTA","is_transit":false,"time":0},{"line":2,"station_id":"DP","distance":5084,"i_lat":-6.405256,"station_name":"Depok","time":6,"transit":false,"is_transit":false,"i_long":106.816926},{"transit":false,"i_long":106.819451,"line":2,"station_name":"Depokbaru","is_transit":false,"station_id":"DPB","time":3,"distance":1584,"i_lat":-6.391065},{"station_id":"POC","i_lat":-6.369073,"transit":false,"i_long":106.831114,"station_name":"Pondok Cina","line":2,"distance":2727,"time":4,"is_transit":false},{"time":2,"station_name":"Univ. Indonesia","station_id":"UI","i_long":106.831474,"is_transit":false,"i_lat":-6.360749,"line":2,"transit":false,"distance":1109},{"distance":2264,"is_transit":false,"transit":false,"station_name":"Univ. Pancasila","i_long":106.834175,"i_lat":-6.339291,"station_id":"UP","time":3,"line":2},{"time":2,"distance":1029,"is_transit":false,"i_lat":-6.330363,"i_long":106.832616,"station_id":"LNA","transit":false,"station_name":"Lenteng Agung","line":2},{"is_transit":false,"time":3,"transit":false,"station_name":"Tanjung Barat","line":2,"i_lat":-6.3080680000000005,"station_id":"TNT","distance":2671,"i_long":106.838896},{"time":4,"distance":2820,"i_long":106.843999,"is_transit":false,"line":2,"transit":false,"station_name":"Pasar Minggu","station_id":"PSM","i_lat":-6.2842400000000005},{"time":2,"station_id":"PSMB","distance":2380,"i_long":106.851577,"transit":false,"line":2,"is_transit":false,"i_lat":-6.263214,"station_name":"Pasar Minggu Baru"},{"is_transit":false,"time":2,"i_lat":-6.255332,"station_id":"DRN","line":2,"distance":824,"i_long":106.85449,"transit":false,"station_name":"Duren Kalibata"},{"time":3,"i_lat":-6.242512,"line":2,"transit":false,"station_id":"CW","station_name":"Cawang","i_long":106.856607,"distance":1546,"is_transit":false},{"station_name":"Tebet","time":2,"is_transit":false,"station_id":"TEB","line":2,"distance":1230,"i_lat":-6.226659,"i_long":106.857948,"transit":false},{"station_name":"Manggarai","transit":true,"time":4,"station_id":"MRI","i_long":106.84912,"i_lat":-6.209883,"is_transit":true,"distance":2610,"line":2},{"distance":1275,"line":1,"station_name":"Matraman","i_long":106.858896,"station_id":"MTR","transit":false,"is_transit":false,"i_lat":-6.212485,"time":2},{"station_name":"Jatinegara","distance":1377,"station_id":"JNG","time":8,"i_lat":-6.215091,"is_transit":true,"transit":true,"i_long":106.86807400000001,"line":1},{"i_long":106.861737,"is_transit":false,"line":11,"station_name":"Pondok Jati","time":2,"transit":false,"distance":1236,"station_id":"POK","i_lat":-6.209188},{"line":11,"is_transit":false,"station_id":"KMT","station_name":"Kramat","time":2,"distance":1829,"i_lat":-6.193792,"i_long":106.855437,"transit":false},{"time":1,"line":11,"i_lat":-6.185975,"station_name":"Gang Sentiong","transit":false,"station_id":"GST","is_transit":false,"distance":973,"i_long":106.850107},{"i_lat":-6.174784,"i_long":106.84368,"distance":1567,"station_name":"Pasar Senen","line":11,"is_transit":false,"station_id":"PSE","transit":false,"time":8},{"line":11,"distance":1436,"transit":false,"is_transit":false,"station_id":"KMO","i_lat":-6.161728,"time":4,"station_name":"Kemayoran","i_long":106.839204},{"station_name":"Rajawali","i_long":106.836569,"time":5,"i_lat":-6.14505,"distance":1901,"line":11,"is_transit":false,"station_id":"RJW","transit":false},{"station_id":"KPB","transit":true,"i_lat":-6.132549,"i_long":106.826365,"distance":1444,"is_transit":true,"time":3,"station_name":"Kampung Bandan","line":4},{"is_transit":false,"transit":false,"station_name":"Angke","station_id":"AK","distance":4102,"time":9,"i_lat":-6.144674,"i_long":106.79867,"line":1},{"transit":false,"i_lat":-6.155215,"is_transit":false,"station_name":"Duri","station_id":"DU","time":4,"i_long":106.800832,"line":1,"distance":1230},{"time":8,"station_name":"Tanah Abang","station_id":"THB","is_transit":false,"transit":false,"i_long":106.811091,"distance":3632,"i_lat":-6.185545,"line":1}]]}