{"data":[[{"is_transit":false,"station_id":"CTA","i_lat":-6.448811,"distance":0,"line":2,"station_name":"Citayam","transit":false,"time":0,"i_long":106.800298},{"line":2,"transit":false,"i_long":106.816926,"station_name":"Depok","is_transit":false,"distance":5084,"station_id":"DP","time":6,"i_lat":-6.405256},{"station_name":"Depokbaru","distance":1584,"time":3,"i_long":106.819451,"is_transit":false,"transit":false,"line":2,"i_lat":-6.391065,"station_id":"DPB"},{"is_transit":false,"i_lat":-6.369073,"line":2,"station_name":"Pondok Cina","station_id":"POC","transit":false,"i_long":106.831114,"time":4,"distance":2727},{"station_name":"Univ. Indonesia","time":2,"station_id":"UI","distance":1109,"line":2,"transit":false,"is_transit":false,"i_lat":-6.360749,"i_long":106.831474},{"station_id":"UP","is_transit":false,"i_lat":-6.339291,"time":3,"station_name":"Univ. Pancasila","line":2,"i_long":106.834175,"distance":2264,"transit":false},{"i_long":106.832616,"line":2,"i_lat":-6.330363,"station_id":"LNA","station_name":"Lenteng Agung","is_transit":false,"distance":1029,"time":2,"transit":false},{"transit":false,"time":3,"line":2,"station_id":"TNT","is_transit":false,"i_long":106.838896,"distance":2671,"station_name":"Tanjung Barat","i_lat":-6.3080680000000005},{"station_name":"Pasar Minggu","line":2,"distance":2820,"i_long":106.843999,"is_transit":false,"transit":false,"time":4,"i_lat":-6.2842400000000005,"station_id":"PSM"},{"line":2,"time":2,"station_id":"PSMB","distance":2380,"transit":false,"i_long":106.851577,"station_name":"Pasar Minggu Baru","is_transit":false,"i_lat":-6.263214},{"is_transit":false,"transit":false,"i_lat":-6.255332,"station_id":"DRN","time":2,"line":2,"distance":824,"station_name":"Duren Kalibata","i_long":106.85449},{"station_id":"CW","is_transit":false,"distance":1546,"i_long":106.856607,"transit":false,"line":2,"time":3,"i_lat":-6.242512,"station_name":"Cawang"},{"distance":1230,"i_long":106.857948,"i_lat":-6.226659,"is_transit":false,"time":2,"station_name":"Tebet","station_id":"TEB","line":2,"transit":false},{"is_transit":true,"transit":true,"i_lat":-6.209883,"station_name":"Manggarai","distance":2610,"i_long":106.84912,"line":2,"station_id":"MRI","time":4},{"station_name":"Matraman","i_long":106.858896,"line":1,"is_transit":false,"transit":false,"distance":1275,"i_lat":-6.212485,"station_id":"MTR","time":2},{"transit":false,"station_name":"Jatinegara","time":8,"i_long":106.86807400000001,"line":1,"distance":1377,"i_lat":-6.215091,"station_id":"JNG","is_transit":false},{"transit":false,"station_name":"Klender","line":1,"i_lat":-6.2135,"time":3,"i_long":106.899548,"station_id":"KLD","is_transit":false,"distance":3395},{"station_name":"Buaran","station_id":"BUA","i_long":106.922662,"is_transit":false,"distance":3100,"transit":false,"time":2,"i_lat":-6.215568,"line":1},{"is_transit":false,"i_lat":-6.217455,"station_name":"Klenderbaru","station_id":"KLDB","line":1,"transit":false,"i_long":106.939679,"distance":1305,"time":1}],[{"is_transit":false,"time":0,"line":2,"station_name":"Citayam","transit":false,"distance":0,"i_lat":-6.448811,"i_long":106.800298,"station_id":"CTA"},{"transit":false,"line":2,"distance":5084,"i_lat":-6.405256,"i_long":106.816926,"station_name":"Depok","station_id":"DP","is_transit":false,"time":6},{"line":2,"time":3,"station_id":"DPB","distance":1584,"transit":false,"is_transit":false,"i_lat":-6.391065,"station_name":"Depokbaru","i_long":106.819451},{"time":4,"station_name":"Pondok Cina","line":2,"is_transit":false,"i_long":106.831114,"i_lat":-6.369073,"station_id":"POC","transit":false,"distance":2727},{"station_id":"UI","transit":false,"distance":1109,"i_lat":-6.360749,"i_long":106.831474,"line":2,"time":2,"station_name":"Univ. Indonesia","is_transit":false},{"is_transit":false,"station_id":"UP","distance":2264,"time":3,"transit":false,"i_long":106.834175,"line":2,"station_name":"Univ. Pancasila","i_lat":-6.339291},{"transit":false,"station_id":"LNA","i_long":106.832616,"is_transit":false,"time":2,"distance":1029,"line":2,"station_name":"Lenteng Agung","i_lat":-6.330363},{"station_name":"Tanjung Barat","i_lat":-6.3080680000000005,"transit":false,"i_long":106.838896,"distance":2671,"is_transit":false,"station_id":"TNT","time":3,"line":2},{"transit":false,"i_lat":-6.2842400000000005,"i_long":106.843999,"time":4,"line":2,"station_id":"PSM","distance":2820,"is_transit":false,"station_name":"Pasar Minggu"},{"distance":2380,"station_name":"Pasar Minggu Baru","transit":false,"is_transit":false,"time":2,"i_long":106.851577,"line":2,"station_id":"PSMB","i_lat":-6.263214},{"distance":824,"station_id":"DRN","time":2,"line":2,"is_transit":false,"i_long":106.85449,"transit":false,"i_lat":-6.255332,"station_name":"Duren Kalibata"},{"is_transit":false,"line":2,"i_long":106.856607,"station_id":"CW","i_lat":-6.242512,"distance":1546,"station_name":"Cawang","time":3,"transit":false},{"station_name":"Tebet","i_lat":-6.226659,"line":2,"station_id":"TEB","is_transit":false,"distance":1230,"time":2,"i_long":106.857948,"transit":false},{"line":2,"station_id":"MRI","time":4,"i_long":106.84912,"i_lat":-6.209883,"is_transit":true,"transit":true,"station_name":"Manggarai","distance":2610},{"station_id":"SUD","time":4,"is_transit":false,"transit":false,"station_name":"Sudirman","distance":3186,"i_lat":-6.202263,"line":1,"i_long":106.822649},{"time":1,"i_lat":-6.201433,"transit":false,"i_long":106.819881,"is_transit":false,"line":1,"station_name":"Sudirman Baru","station_id":"SUDB","distance":280},{"distance":471,"time":1,"transit":false,"i_long":106.816351,"is_transit":false,"station_id":"KAT","line":1,"i_lat":-6.20132,"station_name":"Karet"},{"station_name":"Tanah Abang","station_id":"THB","time":5,"distance":2029,"i_lat":-6.185545,"transit":false,"line":1,"is_transit":false,"i_long":106.811091},{"station_name":"Duri","distance":3632,"station_id":"DU","line":1,"transit":false,"i_long":106.800832,"is_transit":false,"i_lat":-6.155215,"time":8},{"distance":1230,"i_lat":-6.144674,"i_long":106.79867,"line":1,"station_id":"AK","station_name":"Angke","is_transit":false,"time":4,"transit":false},{"transit":true,"distance":4102,"time":9,"is_transit":true,"i_lat":-6.132549,"i_long":106.826365,"station_name":"Kampung Bandan","station_id":"KPB","line":4},{"transit":false,"distance":1444,"is_transit":false,"time":3,"i_lat":-6.14505,"line":11,"station_id":"RJW","station_name":"Rajawali","i_long":106.836569},{"is_transit":false,"time":5,"transit":false,"station_id":"KMO","distance":1901,"i_lat":-6.161728,"station_name":"Kemayoran","i_long":106.839204,"line":11},{"i_lat":-6.174784,"i_long":106.84368,"station_id":"PSE","station_name":"Pasar Senen","time":4,"transit":false,"line":11,"distance":1436,"is_transit":false},{"i_long":106.850107,"transit":false,"is_transit":false,"distance":1567,"i_lat":-6.185975,"line":11,"station_id":"GST","station_name":"Gang Sentiong","time":8},{"time":1,"is_transit":false,"distance":973,"line":11,"i_lat":-6.193792,"i_long":106.855437,"station_name":"Kramat","station_id":"KMT","transit":false},{"is_transit":false,"line":11,"station_name":"Pondok Jati","i_lat":-6.209188,"time":2,"distance":1829,"transit":false,"i_long":106.861737,"station_id":"POK"},{"time":9,"i_lat":-6.215091,"transit":true,"i_long":106.86807400000001,"distance":1236,"station_id":"JNG","line":1,"station_name":"Jatinegara","is_transit":true},{"line":1,"distance":3395,"time":3,"transit":false,"i_long":106.899548,"i_lat":-6.2135,"station_name":"Klender","is_transit":false,"station_id":"KLD"},{"is_transit":false,"time":2,"distance":3100,"i_lat":-6.215568,"i_long":106.922662,"transit":false,"station_id":"BUA","line":1,"station_name":"Buaran"},{"station_name":"Klenderbaru","i_long":106.939679,"transit":false,"line":1,"time":1,"station_id":"KLDB","distance":1305,"i_lat":-6.217455,"is_transit":false}],[{"i_lat":-6.448811,"line":2,"is_transit":false,"time":0,"station_id":"CTA","distance":0,"transit":false,"i_long":106.800298,"station_name":"Citayam"},{"transit":false,"time":6,"distance":5084,"station_id":"DP","line":2,"i_long":106.816926,"is_transit":false,"station_name":"Depok","i_lat":-6.405256},{"time":3,"line":2,"station_name":"Depokbaru","transit":false,"station_id":"DPB","is_transit":false,"distance":1584,"i_lat":-6.391065,"i_long":106.819451},{"is_transit":false,"station_id":"POC","i_lat":-6.369073,"station_name":"Pondok Cina","transit":false,"distance":2727,"line":2,"time":4,"i_long":106.831114},{"line":2,"transit":false,"station_name":"Univ. Indonesia","is_transit":false,"i_lat":-6.360749,"i_long":106.831474,"station_id":"UI","distance":1109,"time":2},{"i_long":106.834175,"is_transit":false,"time":3,"transit":false,"line":2,"distance":2264,"i_lat":-6.339291,"station_name":"Univ. Pancasila","station_id":"UP"},{"line":2,"i_lat":-6.330363,"i_long":106.832616,"transit":false,"time":2,"is_transit":false,"station_name":"Lenteng Agung","distance":1029,"station_id":"LNA"},{"is_transit":false,"transit":false,"station_name":"Tanjung Barat","distance":2671,"i_long":106.838896,"i_lat":-6.3080680000000005,"time":3,"station_id":"TNT","line":2},{"station_name":"Pasar Minggu","distance":2820,"is_transit":false,"line":2,"transit":false,"time":4,"station_id":"PSM","i_lat":-6.2842400000000005,"i_long":106.843999},{"station_name":"Pasar Minggu Baru","transit":false,"i_long":106.851577,"station_id":"PSMB","i_lat":-6.263214,"line":2,"is_transit":false,"time":2,"distance":2380},{"i_lat":-6.255332,"line":2,"is_transit":false,"distance":824,"i_long":106.85449,"station_id":"DRN","station_name":"Duren Kalibata","transit":false,"time":2},{"station_name":"Cawang","i_long":106.856607,"line":2,"i_lat":-6.242512,"time":3,"distance":1546,"station_id":"CW","is_transit":false,"transit":false},{"time":2,"i_long":106.857948,"is_transit":false,"station_name":"Tebet","i_lat":-6.226659,"transit":false,"distance":1230,"line":2,"station_id":"TEB"},{"station_id":"MRI","is_transit":false,"transit":false,"time":4,"distance":2610,"line":2,"station_name":"Manggarai","i_lat":-6.209883,"i_long":106.84912},{"station_id":"CKI","line":2,"is_transit":false,"i_lat":-6.198556,"transit":false,"i_long":106.840169,"time":4,"distance":1590,"station_name":"Cikini"},{"distance":1750,"station_name":"Gondangdia","station_id":"GDD","i_long":106.832183,"is_transit":false,"line":2,"time":3,"transit":false,"i_lat":-6.186295},{"time":4,"station_name":"Juanda","transit":false,"line":2,"station_id":"JUA","is_transit":false,"i_lat":-6.166716,"i_long":106.828284,"distance":2015},{"time":2,"distance":1149,"is_transit":false,"i_lat":-6.160725,"i_long":106.827103,"station_id":"SW","station_name":"Sawah Besar","transit":false,"line":2},{"station_name":"Manggabesar","is_transit":false,"transit":false,"time":2,"line":2,"i_lat":-6.149769,"station_id":"MGB","distance":906,"i_long":106.82482},{"time":2,"distance":1080,"i_long":106.820901,"is_transit":false,"line":2,"transit":false,"station_name":"Jayakarta","station_id":"JAY","i_lat":-6.141205},{"time":4,"station_id":"JAKK","distance":1264,"i_long":106.812439,"transit":true,"line":2,"is_transit":true,"i_lat":-6.137569,"station_name":"Jakarta Kota"},{"is_transit":true,"time":3,"i_lat":-6.132549,"station_id":"KPB","line":4,"distance":1364,"i_long":106.826365,"station_name":"Kampung Bandan","transit":true},{"time":3,"i_lat":-6.14505,"line":11,"station_name":"Rajawali","station_id":"RJW","transit":false,"i_long":106.836569,"distance":1444,"is_transit":false},{"station_name":"Kemayoran","time":5,"station_id":"KMO","is_transit":false,"line":11,"distance":1901,"i_lat":-6.161728,"i_long":106.839204,"transit":false},{"station_name":"Pasar Senen","transit":false,"time":4,"station_id":"PSE","i_long":106.84368,"i_lat":-6.174784,"is_transit":false,"distance":1436,"line":11},{"distance":1567,"line":11,"station_name":"Gang Sentiong","i_long":106.850107,"station_id":"GST","transit":false,"is_transit":false,"i_lat":-6.185975,"time":8},{"station_name":"Kramat","distance":973,"station_id":"KMT","time":1,"i_lat":-6.193792,"is_transit":false,"transit":false,"i_long":106.855437,"line":11},{"i_long":106.861737,"is_transit":false,"line":11,"station_name":"Pondok Jati","time":2,"transit":false,"distance":1829,"station_id":"POK","i_lat":-6.209188},{"distance":1236,"is_transit":true,"transit":true,"station_name":"Jatinegara","time":9,"line":1,"i_long":106.86807400000001,"station_id":"JNG","i_lat":-6.215091},{"station_id":"KLD","time":3,"distance":3395,"is_transit":false,"i_lat":-6.2135,"i_long":106.899548,"line":1,"transit":false,"station_name":"Klender"},{"distance":3100,"station_id":"BUA","i_lat":-6.215568,"i_long":106.922662,"transit":false,"line":1,"time":2,"is_transit":false,"station_name":"Buaran"},{"is_transit":false,"i_lat":-6.217455,"line":1,"station_id":"KLDB","transit":false,"time":1,"station_name":"Klenderbaru","distance":1305,"i_long":106.939679}]]}