{"data":[[{"station_name":"Citayam","line":2,"is_transit":false,"distance":0,"time":0,"i_long":106.800298,"i_lat":-6.448811,"station_id":"CTA","transit":false},{"i_lat":-6.405256,"station_id":"DP","is_transit":false,"transit":false,"line":2,"station_name":"Depok","i_long":106.816926,"time":6,"distance":5084},{"station_name":"Depokbaru","i_long":106.819451,"station_id":"DPB","transit":false,"i_lat":-6.391065,"time":3,"distance":1584,"is_transit":false,"line":2},{"transit":false,"is_transit":false,"i_lat":-6.369073,"line":2,"time":4,"distance":2727,"station_id":"POC","station_name":"Pondok Cina","i_long":106.831114},{"i_long":106.831474,"distance":1109,"station_name":"Univ. Indonesia","is_transit":false,"line":2,"station_id":"UI","transit":false,"i_lat":-6.360749,"time":2},{"i_lat":-6.339291,"distance":2264,"station_id":"UP","station_name":"Univ. Pancasila","is_transit":false,"transit":false,"i_long":106.834175,"line":2,"time":3},{"station_id":"LNA","is_transit":false,"i_long":106.832616,"distance":1029,"transit":false,"station_name":"Lenteng Agung","i_lat":-6.330363,"line":2,"time":2},{"time":3,"distance":2671,"i_lat":-6.3080680000000005,"i_long":106.838896,"station_name":"Tanjung Barat","transit":false,"line":2,"is_transit":false,"station_id":"TNT"},{"station_id":"PSM","i_long":106.843999,"is_transit":false,"time":4,"transit":false,"i_lat":-6.2842400000000005,"station_name":"Pasar Minggu","line":2,"distance":2820},{"i_long":106.851577,"station_name":"Pasar Minggu Baru","is_transit":false,"transit":false,"i_lat":-6.263214,"station_id":"PSMB","line":2,"distance":2380,"time":2},{"i_lat":-6.255332,"station_name":"Duren Kalibata","line":2,"station_id":"DRN","distance":824,"transit":false,"is_transit":false,"i_long":106.85449,"time":2},{"station_id":"CW","station_name":"Cawang","is_transit":false,"i_lat":-6.242512,"time":3,"transit":false,"i_long":106.856607,"distance":1546,"line":2},{"time":2,"i_long":106.857948,"distance":1230,"station_name":"Tebet","line":2,"is_transit":false,"station_id":"TEB","transit":false,"i_lat":-6.226659},{"i_long":106.84912,"line":2,"station_name":"Manggarai","transit":true,"station_id":"MRI","is_transit":true,"i_lat":-6.209883,"time":4,"distance":2610},{"line":1,"i_lat":-6.212485,"time":2,"station_name":"Matraman","transit":false,"i_long":106.858896,"distance":1275,"station_id":"MTR","is_transit":false},{"distance":1377,"station_name":"Jatinegara","transit":false,"i_long":106.86807400000001,"i_lat":-6.215091,"time":8,"station_id":"JNG","is_transit":false,"line":1},{"i_lat":-6.2135,"station_name":"Klender","time":3,"is_transit":false,"transit":false,"line":1,"distance":3395,"i_long":106.899548,"station_id":"KLD"},{"line":1,"is_transit":false,"station_id":"BUA","transit":false,"i_long":106.922662,"station_name":"Buaran","time":2,"distance":3100,"i_lat":-6.215568},{"transit":false,"station_name":"Klenderbaru","time":1,"station_id":"KLDB","i_long":106.939679,"line":1,"distance":1305,"is_transit":false,"i_lat":-6.217455},{"i_long":106.951283,"time":8,"station_name":"Cakung","is_transit":false,"transit":false,"line":1,"station_id":"CUK","i_lat":-6.219053,"distance":1385},{"line":1,"station_name":"Kranji","station_id":"KRI","distance":3097,"i_long":106.977657,"i_lat":-6.224515,"is_transit":false,"transit":false,"time":3},{"i_lat":-6.236616,"transit":false,"i_long":106.997013,"station_name":"Bekasi","distance":2520,"line":1,"is_transit":false,"station_id":"BKS","time":4},{"station_name":"Bekasi Timur","i_long":107.016735,"i_lat":-6.248029,"line":1,"transit":false,"station_id":"BKST","is_transit":false,"time":2,"distance":2368},{"time":7,"i_lat":-6.258864,"is_transit":false,"station_id":"TB","line":1,"i_long":107.055722,"station_name":"Tambun","distance":4460,"transit":false},{"station_name":"Cibitung","i_lat":-6.261877,"i_long":107.083084,"distance":3420,"time":3,"line":1,"station_id":"CIT","is_transit":false,"transit":false},{"i_lat":-6.262938,"station_name":"Metland Telaga Murni","transit":false,"i_long":107.093313,"station_id":"TLM","is_transit":false,"time":2,"distance":2800,"line":1},{"transit":false,"i_lat":-6.2553149999999995,"is_transit":false,"i_long":107.144613,"station_name":"Cikarang","line":1,"time":4,"distance":3689,"station_id":"CKR"}],[{"time":0,"line":2,"i_lat":-6.448811,"station_id":"CTA","distance":0,"station_name":"Citayam","is_transit":false,"transit":false,"i_long":106.800298},{"i_lat":-6.405256,"station_id":"DP","station_name":"Depok","time":6,"is_transit":false,"i_long":106.816926,"transit":false,"distance":5084,"line":2},{"station_id":"DPB","transit":false,"is_transit":false,"time":3,"distance":1584,"i_long":106.819451,"i_lat":-6.391065,"station_name":"Depokbaru","line":2},{"station_id":"POC","distance":2727,"transit":false,"i_lat":-6.369073,"i_long":106.831114,"is_transit":false,"line":2,"station_name":"Pondok Cina","time":4},{"i_lat":-6.360749,"distance":1109,"station_name":"Univ. Indonesia","time":2,"station_id":"UI","transit":false,"i_long":106.831474,"is_transit":false,"line":2},{"i_lat":-6.339291,"station_id":"UP","is_transit":false,"transit":false,"distance":2264,"line":2,"time":3,"i_long":106.834175,"station_name":"Univ. Pancasila"},{"i_lat":-6.330363,"line":2,"time":2,"station_name":"Lenteng Agung","is_transit":false,"transit":false,"distance":1029,"station_id":"LNA","i_long":106.832616},{"transit":false,"station_name":"Tanjung Barat","time":3,"station_id":"TNT","distance":2671,"i_lat":-6.3080680000000005,"line":2,"i_long":106.838896,"is_transit":false},{"station_name":"Pasar Minggu","station_id":"PSM","i_long":106.843999,"distance":2820,"line":2,"is_transit":false,"transit":false,"time":4,"i_lat":-6.2842400000000005},{"station_name":"Pasar Minggu Baru","transit":false,"station_id":"PSMB","i_long":106.851577,"time":2,"distance":2380,"is_transit":false,"i_lat":-6.263214,"line":2},{"station_id":"DRN","i_lat":-6.255332,"i_long":106.85449,"line":2,"transit":false,"station_name":"Duren Kalibata","distance":824,"is_transit":false,"time":2},{"i_lat":-6.242512,"distance":1546,"i_long":106.856607,"is_transit":false,"line":2,"transit":false,"time":3,"station_name":"Cawang","station_id":"CW"},{"is_transit":false,"time":2,"station_id":"TEB","station_name":"Tebet","line":2,"i_lat":-6.226659,"distance":1230,"transit":false,"i_long":106.857948},{"is_transit":true,"i_long":106.84912,"distance":2610,"time":4,"transit":true,"station_name":"Manggarai","i_lat":-6.209883,"station_id":"MRI","line":2},{"time":4,"station_id":"SUD","station_name":"Sudirman","is_transit":false,"transit":false,"line":1,"i_lat":-6.202263,"distance":3186,"i_long":106.822649},{"i_long":106.819881,"station_id":"SUDB","station_name":"Sudirman Baru","is_transit":false,"i_lat":-6.201433,"distance":280,"line":1,"time":1,"transit":false},{"is_transit":false,"i_lat":-6.20132,"line":1,"station_name":"Karet","distance":471,"time":1,"transit":false,"i_long":106.816351,"station_id":"KAT"},{"is_transit":false,"i_long":106.811091,"time":5,"station_name":"Tanah Abang","distance":2029,"station_id":"THB","transit":false,"i_lat":-6.185545,"line":1},{"station_name":"Duri","transit":false,"i_lat":-6.155215,"time":8,"station_id":"DU","line":1,"i_long":106.800832,"is_transit":false,"distance":3632},{"distance":1230,"i_lat":-6.144674,"i_long":106.79867,"transit":false,"station_name":"Angke","station_id":"AK","line":1,"is_transit":false,"time":4},{"transit":true,"station_name":"Kampung Bandan","is_transit":true,"line":4,"distance":4102,"i_long":106.826365,"time":9,"i_lat":-6.132549,"station_id":"KPB"},{"station_name":"Rajawali","i_long":106.836569,"i_lat":-6.14505,"line":11,"distance":1444,"transit":false,"is_transit":false,"time":3,"station_id":"RJW"},{"station_name":"Kemayoran","i_lat":-6.161728,"distance":1901,"i_long":106.839204,"transit":false,"line":11,"station_id":"KMO","is_transit":false,"time":5},{"i_lat":-6.174784,"distance":1436,"is_transit":false,"i_long":106.84368,"line":11,"transit":false,"time":4,"station_name":"Pasar Senen","station_id":"PSE"},{"station_id":"GST","i_lat":-6.185975,"distance":1567,"time":8,"i_long":106.850107,"station_name":"Gang Sentiong","is_transit":false,"transit":false,"line":11},{"station_id":"KMT","time":1,"is_transit":false,"station_name":"Kramat","distance":973,"i_lat":-6.193792,"transit":false,"i_long":106.855437,"line":11},{"i_lat":-6.209188,"station_name":"Pondok Jati","time":2,"line":11,"distance":1829,"transit":false,"is_transit":false,"station_id":"POK","i_long":106.861737},{"line":1,"station_name":"Jatinegara","is_transit":true,"distance":1236,"transit":true,"i_lat":-6.215091,"time":9,"i_long":106.86807400000001,"station_id":"JNG"},{"is_transit":false,"line":1,"station_name":"Klender","i_lat":-6.2135,"time":3,"i_long":106.899548,"station_id":"KLD","distance":3395,"transit":false},{"station_id":"BUA","is_transit":false,"line":1,"i_lat":-6.215568,"distance":3100,"i_long":106.922662,"station_name":"Buaran","time":2,"transit":false},{"station_name":"Klenderbaru","i_lat":-6.217455,"i_long":106.939679,"station_id":"KLDB","distance":1305,"time":1,"line":1,"is_transit":false,"transit":false},{"distance":1385,"station_name":"Cakung","station_id":"CUK","time":8,"is_transit":false,"transit":false,"i_long":106.951283,"line":1,"i_lat":-6.219053},{"time":3,"station_name":"Kranji","distance":3097,"i_lat":-6.224515,"i_long":106.977657,"station_id":"KRI","transit":false,"is_transit":false,"line":1},{"i_lat":-6.236616,"line":1,"i_long":106.997013,"station_name":"Bekasi","is_transit":false,"station_id":"BKS","distance":2520,"transit":false,"time":4},{"station_id":"BKST","time":2,"transit":false,"is_transit":false,"line":1,"i_long":107.016735,"i_lat":-6.248029,"distance":2368,"station_name":"Bekasi Timur"},{"time":7,"transit":false,"station_name":"Tambun","i_long":107.055722,"station_id":"TB","i_lat":-6.258864,"line":1,"distance":4460,"is_transit":false},{"station_name":"Cibitung","station_id":"CIT","transit":false,"time":3,"is_transit":false,"i_lat":-6.261877,"i_long":107.083084,"line":1,"distance":3420},{"transit":false,"station_name":"Metland Telaga Murni","line":1,"time":2,"i_lat":-6.262938,"i_long":107.093313,"station_id":"TLM","distance":2800,"is_transit":false},{"station_name":"Cikarang","time":4,"i_lat":-6.2553149999999995,"is_transit":false,"i_long":107.144613,"transit":false,"station_id":"CKR","distance":3689,"line":1}],[{"line":2,"time":0,"i_long":106.800298,"transit":false,"distance":0,"station_name":"Citayam","i_lat":-6.448811,"station_id":"CTA","is_transit":false},{"is_transit":false,"station_id":"DP","time":6,"transit":false,"distance":5084,"i_long":106.816926,"station_name":"Depok","i_lat":-6.405256,"line":2},{"distance":1584,"i_lat":-6.391065,"i_long":106.819451,"station_id":"DPB","is_transit":false,"transit":false,"line":2,"station_name":"Depokbaru","time":3},{"is_transit":false,"station_name":"Pondok Cina","distance":2727,"line":2,"i_long":106.831114,"i_lat":-6.369073,"time":4,"station_id":"POC","transit":false},{"station_id":"UI","i_lat":-6.360749,"i_long":106.831474,"line":2,"transit":false,"time":2,"is_transit":false,"station_name":"Univ. Indonesia","distance":1109},{"station_id":"UP","is_transit":false,"i_lat":-6.339291,"distance":2264,"station_name":"Univ. Pancasila","line":2,"time":3,"i_long":106.834175,"transit":false},{"station_id":"LNA","line":2,"station_name":"Lenteng Agung","time":2,"i_long":106.832616,"i_lat":-6.330363,"distance":1029,"transit":false,"is_transit":false},{"time":3,"is_transit":false,"station_id":"TNT","station_name":"Tanjung Barat","distance":2671,"transit":false,"i_long":106.838896,"i_lat":-6.3080680000000005,"line":2},{"is_transit":false,"distance":2820,"line":2,"station_id":"PSM","time":4,"station_name":"Pasar Minggu","i_long":106.843999,"i_lat":-6.2842400000000005,"transit":false},{"line":2,"station_id":"PSMB","distance":2380,"i_long":106.851577,"transit":false,"station_name":"Pasar Minggu Baru","time":2,"is_transit":false,"i_lat":-6.263214},{"i_lat":-6.255332,"i_long":106.85449,"distance":824,"is_transit":false,"transit":false,"station_name":"Duren Kalibata","time":2,"station_id":"DRN","line":2},{"station_id":"CW","line":2,"time":3,"transit":false,"is_transit":false,"station_name":"Cawang","i_lat":-6.242512,"i_long":106.856607,"distance":1546},{"is_transit":false,"station_name":"Tebet","transit":false,"i_long":106.857948,"line":2,"distance":1230,"time":2,"i_lat":-6.226659,"station_id":"TEB"},{"distance":2610,"time":4,"transit":false,"station_name":"Manggarai","i_lat":-6.209883,"is_transit":false,"line":2,"i_long":106.84912,"station_id":"MRI"},{"line":2,"transit":false,"i_long":106.840169,"time":4,"station_id":"CKI","distance":1590,"i_lat":-6.198556,"station_name":"Cikini","is_transit":false},{"i_lat":-6.186295,"is_transit":false,"time":3,"line":2,"station_name":"Gondangdia","transit":false,"station_id":"GDD","distance":1750,"i_long":106.832183},{"station_id":"JUA","station_name":"Juanda","is_transit":false,"transit":false,"i_lat":-6.166716,"line":2,"time":4,"distance":2015,"i_long":106.828284},{"station_id":"SW","station_name":"Sawah Besar","i_long":106.827103,"transit":false,"i_lat":-6.160725,"is_transit":false,"distance":1149,"line":2,"time":2},{"line":2,"station_id":"MGB","time":2,"distance":906,"transit":false,"i_lat":-6.149769,"is_transit":false,"i_long":106.82482,"station_name":"Manggabesar"},{"line":2,"time":2,"distance":1080,"i_lat":-6.141205,"station_id":"JAY","is_transit":false,"i_long":106.820901,"transit":false,"station_name":"Jayakarta"},{"is_transit":true,"i_lat":-6.137569,"distance":1264,"line":2,"i_long":106.812439,"station_id":"JAKK","transit":true,"station_name":"Jakarta Kota","time":4},{"time":3,"station_id":"KPB","is_transit":true,"i_long":106.826365,"distance":1364,"i_lat":-6.132549,"station_name":"Kampung Bandan","line":4,"transit":true},{"station_id":"RJW","line":11,"time":3,"i_lat":-6.14505,"is_transit":false,"distance":1444,"station_name":"Rajawali","transit":false,"i_long":106.836569},{"time":5,"station_id":"KMO","distance":1901,"i_long":106.839204,"i_lat":-6.161728,"is_transit":false,"transit":false,"station_name":"Kemayoran","line":11},{"time":4,"i_lat":-6.174784,"transit":false,"i_long":106.84368,"distance":1436,"station_id":"PSE","line":11,"station_name":"Pasar Senen","is_transit":false},{"time":8,"station_id":"GST","station_name":"Gang Sentiong","distance":1567,"i_long":106.850107,"transit":false,"i_lat":-6.185975,"line":11,"is_transit":false},{"transit":false,"i_lat":-6.193792,"i_long":106.855437,"distance":973,"station_id":"KMT","line":11,"station_name":"Kramat","time":1,"is_transit":false},{"i_lat":-6.209188,"station_id":"POK","is_transit":false,"line":11,"time":2,"station_name":"Pondok Jati","distance":1829,"i_long":106.861737,"transit":false},{"transit":true,"i_long":106.86807400000001,"is_transit":true,"station_name":"Jatinegara","line":1,"time":9,"distance":1236,"i_lat":-6.215091,"station_id":"JNG"},{"i_long":106.899548,"transit":false,"i_lat":-6.2135,"station_name":"Klender","station_id":"KLD","is_transit":false,"distance":3395,"line":1,"time":3},{"i_lat":-6.215568,"distance":3100,"i_long":106.922662,"transit":false,"station_id":"BUA","time":2,"line":1,"station_name":"Buaran","is_transit":false},{"station_id":"KLDB","i_long":106.939679,"line":1,"distance":1305,"i_lat":-6.217455,"time":1,"is_transit":false,"station_name":"Klenderbaru","transit":false},{"line":1,"time":8,"i_lat":-6.219053,"distance":1385,"station_name":"Cakung","transit":false,"station_id":"CUK","i_long":106.951283,"is_transit":false},{"distance":3097,"i_lat":-6.224515,"station_id":"KRI","is_transit":false,"station_name":"Kranji","transit":false,"i_long":106.977657,"line":1,"time":3},{"i_long":106.997013,"distance":2520,"is_transit":false,"transit":false,"station_id":"BKS","i_lat":-6.236616,"station_name":"Bekasi","line":1,"time":4},{"i_long":107.016735,"is_transit":false,"i_lat":-6.248029,"time":2,"station_name":"Bekasi Timur","line":1,"distance":2368,"station_id":"BKST","transit":false},{"distance":4460,"i_lat":-6.258864,"station_name":"Tambun","i_long":107.055722,"line":1,"station_id":"TB","time":7,"is_transit":false,"transit":false},{"transit":false,"i_long":107.083084,"time":3,"distance":3420,"i_lat":-6.261877,"station_id":"CIT","line":1,"is_transit":false,"station_name":"Cibitung"},{"is_transit":false,"time":2,"i_long":107.093313,"line":1,"distance":2800,"station_id":"TLM","station_name":"Metland Telaga Murni","transit":false,"i_lat":-6.262938},{"distance":3689,"i_lat":-6.2553149999999995,"i_long":107.144613,"station_id":"CKR","transit":false,"is_transit":false,"time":4,"station_name":"Cikarang","line":1}]]}