{"data":[[{"line":2,"distance":0,"station_id":"CTA","i_lat":-6.448811,"i_long":106.800298,"station_name":"Citayam","transit":false,"time":0,"is_transit":false},{"distance":5084,"i_long":106.816926,"transit":false,"is_transit":false,"i_lat":-6.405256,"line":2,"station_name":"Depok","station_id":"DP","time":6},{"is_transit":false,"distance":1584,"station_id":"DPB","i_long":106.819451,"time":3,"i_lat":-6.391065,"transit":false,"line":2,"station_name":"Depokbaru"},{"line":2,"time":4,"i_long":106.831114,"is_transit":false,"transit":false,"station_id":"POC","station_name":"Pondok Cina","distance":2727,"i_lat":-6.369073},{"station_name":"Univ. Indonesia","distance":1109,"i_lat":-6.360749,"i_long":106.831474,"transit":false,"line":2,"is_transit":false,"station_id":"UI","time":2},{"transit":false,"i_long":106.834175,"station_id":"UP","station_name":"Univ. Pancasila","is_transit":false,"time":3,"distance":2264,"i_lat":-6.339291,"line":2},{"transit":false,"line":2,"i_long":106.832616,"distance":1029,"station_id":"LNA","time":2,"station_name":"Lenteng Agung","is_transit":false,"i_lat":-6.330363},{"i_lat":-6.3080680000000005,"i_long":106.838896,"station_name":"Tanjung Barat","is_transit":false,"transit":false,"distance":2671,"station_id":"TNT","time":3,"line":2},{"distance":2820,"i_lat":-6.2842400000000005,"i_long":106.843999,"station_id":"PSM","station_name":"Pasar Minggu","is_transit":false,"line":2,"time":4,"transit":false},{"transit":false,"station_name":"Pasar Minggu Baru","station_id":"PSMB","i_lat":-6.263214,"i_long":106.851577,"distance":2380,"line":2,"is_transit":false,"time":2}]]}