{"data":[[{"station_id":"CTA","distance":0,"transit":false,"i_long":106.800298,"is_transit":true,"line":1,"station_name":"Citayam","i_lat":-6.448811,"time":0},{"transit":false,"line":0,"distance":5084,"station_name":"Depok","station_id":"DP","i_long":106.816926,"time":6,"is_transit":false,"i_lat":-6.405256},{"transit":false,"i_lat":-6.391065,"line":0,"is_transit":false,"i_long":106.819451,"distance":1584,"station_name":"Depokbaru","station_id":"DPB","time":3},{"i_long":106.831114,"station_id":"POC","transit":false,"time":4,"station_name":"Pondok Cina","distance":2727,"i_lat":-6.369073,"is_transit":false,"line":2},{"time":2,"i_lat":-6.360749,"station_name":"Univ. Indonesia","is_transit":false,"i_long":106.831474,"distance":1109,"transit":false,"line":2,"station_id":"UI"}]]}