{"data":[[{"transit":false,"time":0,"station_id":"CTA","i_lat":-6.448811,"i_long":106.800298,"line":1,"station_name":"Citayam","distance":0,"is_transit":true},{"station_id":"DP","i_long":106.816926,"line":0,"i_lat":-6.405256,"time":6,"is_transit":false,"distance":5084,"station_name":"Depok","transit":false},{"line":0,"station_id":"DPB","is_transit":false,"distance":1584,"station_name":"Depokbaru","transit":false,"time":3,"i_lat":-6.391065,"i_long":106.819451},{"i_long":106.831114,"station_id":"POC","line":2,"station_name":"Pondok Cina","transit":false,"i_lat":-6.369073,"is_transit":false,"time":4,"distance":2727},{"station_id":"UI","line":2,"i_lat":-6.360749,"is_transit":false,"transit":false,"distance":1109,"time":2,"i_long":106.831474,"station_name":"Univ. Indonesia"},{"is_transit":false,"station_name":"Univ. Pancasila","i_lat":-6.339291,"distance":2264,"station_id":"UP","transit":false,"time":3,"i_long":106.834175,"line":2},{"time":2,"i_lat":-6.330363,"line":2,"i_long":106.832616,"station_id":"LNA","is_transit":false,"station_name":"Lenteng Agung","distance":1029,"transit":false},{"i_lat":-6.3080680000000005,"transit":false,"i_long":106.838896,"station_id":"TNT","distance":2671,"time":3,"station_name":"Tanjung Barat","line":2,"is_transit":false},{"transit":false,"i_long":106.843999,"line":2,"i_lat":-6.2842400000000005,"distance":2820,"station_name":"Pasar Minggu","station_id":"PSM","is_transit":false,"time":4},{"i_lat":-6.263214,"distance":2380,"transit":false,"time":2,"is_transit":false,"i_long":106.851577,"station_name":"Pasar Minggu Baru","line":2,"station_id":"PSMB"},{"i_long":106.85449,"is_transit":false,"distance":824,"line":0,"transit":false,"station_id":"DRN","i_lat":-6.255332,"time":2,"station_name":"Duren Kalibata"},{"station_name":"Cawang","i_lat":-6.242512,"transit":false,"station_id":"CW","i_long":106.856607,"distance":1546,"is_transit":false,"time":3,"line":0},{"transit":false,"station_id":"TEB","station_name":"Tebet","distance":1230,"time":2,"i_lat":-6.226659,"line":2,"i_long":106.857948,"is_transit":false},{"distance":2610,"is_transit":true,"station_name":"Manggarai","time":4,"line":0,"i_long":106.84912,"station_id":"MRI","transit":true,"i_lat":-6.209883},{"is_transit":false,"i_lat":-6.202263,"distance":3186,"time":4,"i_long":106.822649,"line":1,"station_id":"SUD","station_name":"Sudirman","transit":false},{"transit":false,"time":1,"station_id":"SUDB","i_lat":-6.201433,"i_long":106.819881,"distance":280,"station_name":"Sudirman Baru","line":1,"is_transit":false},{"line":1,"time":1,"i_lat":-6.20132,"station_name":"Karet","transit":false,"distance":471,"station_id":"KAT","i_long":106.816351,"is_transit":false},{"time":5,"distance":2029,"station_name":"Tanah Abang","line":1,"i_lat":-6.185545,"station_id":"THB","transit":true,"is_transit":true,"i_long":106.811091},{"line":6,"is_transit":false,"station_name":"Palmerah","i_lat":-6.207404,"i_long":106.79689,"station_id":"PLM","transit":false,"time":6,"distance":3191},{"is_transit":false,"station_name":"Kebayoran","transit":false,"time":7,"i_lat":-6.237242,"distance":3737,"line":6,"i_long":106.780334,"station_id":"KBY"},{"time":8,"is_transit":false,"i_long":106.74273,"distance":6218,"station_name":"Pondokranji","i_lat":-6.276362,"line":6,"transit":false,"station_id":"PDJ"},{"station_id":"JMU","time":3,"i_lat":-6.288927,"i_long":106.728916,"transit":false,"is_transit":false,"distance":2179,"line":6,"station_name":"Jurangmangu"},{"station_name":"Sudimara","time":4,"line":6,"is_transit":false,"distance":1994,"station_id":"SDM","i_lat":-6.296963,"transit":false,"i_long":106.712277},{"transit":false,"station_id":"RU","time":6,"line":6,"station_name":"Rawa Buntu","i_long":106.675475,"distance":4566,"is_transit":false,"i_lat":-6.314823}],[{"station_name":"Citayam","i_lat":-6.448811,"line":1,"is_transit":true,"station_id":"CTA","transit":false,"i_long":106.800298,"distance":0,"time":0},{"distance":5084,"station_name":"Depok","station_id":"DP","i_lat":-6.405256,"i_long":106.816926,"is_transit":false,"transit":false,"time":6,"line":0},{"station_id":"DPB","i_long":106.819451,"time":3,"transit":false,"station_name":"Depokbaru","line":0,"distance":1584,"i_lat":-6.391065,"is_transit":false},{"transit":false,"line":2,"i_lat":-6.369073,"time":4,"i_long":106.831114,"station_name":"Pondok Cina","distance":2727,"is_transit":false,"station_id":"POC"},{"transit":false,"is_transit":false,"i_long":106.831474,"distance":1109,"station_name":"Univ. Indonesia","station_id":"UI","line":2,"time":2,"i_lat":-6.360749},{"i_long":106.834175,"station_name":"Univ. Pancasila","distance":2264,"transit":false,"i_lat":-6.339291,"time":3,"is_transit":false,"station_id":"UP","line":2},{"transit":false,"line":2,"i_lat":-6.330363,"station_name":"Lenteng Agung","i_long":106.832616,"time":2,"is_transit":false,"station_id":"LNA","distance":1029},{"station_id":"TNT","line":2,"is_transit":false,"transit":false,"distance":2671,"station_name":"Tanjung Barat","time":3,"i_long":106.838896,"i_lat":-6.3080680000000005},{"is_transit":false,"station_name":"Pasar Minggu","transit":false,"i_long":106.843999,"i_lat":-6.2842400000000005,"time":4,"line":2,"station_id":"PSM","distance":2820},{"is_transit":false,"i_long":106.851577,"station_id":"PSMB","distance":2380,"time":2,"i_lat":-6.263214,"line":2,"station_name":"Pasar Minggu Baru","transit":false},{"distance":824,"line":0,"station_id":"DRN","time":2,"i_lat":-6.255332,"transit":false,"i_long":106.85449,"station_name":"Duren Kalibata","is_transit":false},{"transit":false,"time":3,"i_lat":-6.242512,"is_transit":false,"line":0,"i_long":106.856607,"station_id":"CW","distance":1546,"station_name":"Cawang"},{"time":2,"is_transit":false,"transit":false,"station_id":"TEB","line":2,"i_lat":-6.226659,"station_name":"Tebet","distance":1230,"i_long":106.857948},{"i_lat":-6.209883,"is_transit":true,"time":4,"station_name":"Manggarai","transit":true,"station_id":"MRI","line":0,"distance":2610,"i_long":106.84912},{"distance":1590,"line":0,"is_transit":false,"i_lat":-6.198556,"i_long":106.840169,"transit":false,"station_id":"CKI","time":4,"station_name":"Cikini"},{"line":2,"station_name":"Gondangdia","distance":1750,"i_long":106.832183,"is_transit":false,"i_lat":-6.186295,"transit":false,"station_id":"GDD","time":3},{"line":2,"station_id":"JUA","transit":false,"i_lat":-6.166716,"i_long":106.828284,"station_name":"Juanda","time":4,"distance":2015,"is_transit":false},{"time":2,"i_long":106.827103,"distance":1149,"transit":false,"line":2,"station_id":"SW","is_transit":false,"station_name":"Sawah Besar","i_lat":-6.160725},{"line":2,"station_id":"MGB","distance":906,"is_transit":false,"i_long":106.82482,"transit":false,"i_lat":-6.149769,"station_name":"Manggabesar","time":2},{"time":2,"i_long":106.820901,"station_name":"Jayakarta","is_transit":false,"distance":1080,"line":7,"transit":false,"station_id":"JAY","i_lat":-6.141205},{"distance":1264,"is_transit":true,"station_name":"Jakarta Kota","station_id":"JAKK","i_long":106.812439,"i_lat":-6.137569,"time":4,"line":0,"transit":true},{"station_name":"Kampung Bandan","time":3,"i_lat":-6.132549,"distance":1364,"i_long":106.826365,"is_transit":true,"station_id":"KPB","transit":false,"line":0},{"i_long":106.79867,"line":0,"transit":false,"distance":4102,"station_name":"Angke","is_transit":false,"station_id":"AK","time":9,"i_lat":-6.144674},{"is_transit":true,"station_name":"Duri","i_long":106.800832,"station_id":"DU","i_lat":-6.155215,"line":1,"distance":1230,"transit":true,"time":4},{"transit":true,"i_long":106.811091,"station_id":"THB","line":1,"station_name":"Tanah Abang","distance":3632,"is_transit":true,"time":8,"i_lat":-6.185545},{"distance":3191,"station_id":"PLM","line":6,"transit":false,"time":6,"station_name":"Palmerah","is_transit":false,"i_lat":-6.207404,"i_long":106.79689},{"station_name":"Kebayoran","i_lat":-6.237242,"is_transit":false,"time":7,"distance":3737,"transit":false,"station_id":"KBY","line":6,"i_long":106.780334},{"station_name":"Pondokranji","transit":false,"line":6,"station_id":"PDJ","is_transit":false,"distance":6218,"i_lat":-6.276362,"time":8,"i_long":106.74273},{"station_id":"JMU","station_name":"Jurangmangu","time":3,"is_transit":false,"transit":false,"distance":2179,"line":6,"i_long":106.728916,"i_lat":-6.288927},{"station_name":"Sudimara","transit":false,"station_id":"SDM","distance":1994,"is_transit":false,"line":6,"time":4,"i_lat":-6.296963,"i_long":106.712277},{"station_id":"RU","time":6,"transit":false,"line":6,"i_long":106.675475,"i_lat":-6.314823,"station_name":"Rawa Buntu","distance":4566,"is_transit":false}],[{"line":1,"distance":0,"station_name":"Citayam","is_transit":true,"station_id":"CTA","transit":false,"time":0,"i_lat":-6.448811,"i_long":106.800298},{"is_transit":false,"station_name":"Depok","i_lat":-6.405256,"station_id":"DP","time":6,"distance":5084,"i_long":106.816926,"transit":false,"line":0},{"distance":1584,"i_lat":-6.391065,"station_id":"DPB","transit":false,"i_long":106.819451,"is_transit":false,"time":3,"line":0,"station_name":"Depokbaru"},{"station_id":"POC","is_transit":false,"i_long":106.831114,"station_name":"Pondok Cina","distance":2727,"time":4,"transit":false,"i_lat":-6.369073,"line":2},{"station_name":"Univ. Indonesia","i_lat":-6.360749,"transit":false,"is_transit":false,"distance":1109,"i_long":106.831474,"line":2,"station_id":"UI","time":2},{"transit":false,"i_lat":-6.339291,"is_transit":false,"i_long":106.834175,"line":2,"time":3,"station_name":"Univ. Pancasila","station_id":"UP","distance":2264},{"transit":false,"distance":1029,"time":2,"i_lat":-6.330363,"station_id":"LNA","is_transit":false,"i_long":106.832616,"line":2,"station_name":"Lenteng Agung"},{"transit":false,"distance":2671,"i_long":106.838896,"is_transit":false,"station_name":"Tanjung Barat","i_lat":-6.3080680000000005,"line":2,"time":3,"station_id":"TNT"},{"line":2,"time":4,"is_transit":false,"distance":2820,"i_lat":-6.2842400000000005,"transit":false,"i_long":106.843999,"station_name":"Pasar Minggu","station_id":"PSM"},{"station_name":"Pasar Minggu Baru","transit":false,"distance":2380,"time":2,"i_lat":-6.263214,"line":2,"station_id":"PSMB","is_transit":false,"i_long":106.851577},{"time":2,"line":0,"transit":false,"i_lat":-6.255332,"is_transit":false,"station_name":"Duren Kalibata","distance":824,"i_long":106.85449,"station_id":"DRN"},{"is_transit":false,"line":0,"transit":false,"station_id":"CW","distance":1546,"time":3,"station_name":"Cawang","i_lat":-6.242512,"i_long":106.856607},{"i_long":106.857948,"station_name":"Tebet","transit":false,"time":2,"line":2,"i_lat":-6.226659,"is_transit":false,"station_id":"TEB","distance":1230},{"is_transit":true,"transit":true,"station_name":"Manggarai","distance":2610,"i_lat":-6.209883,"line":0,"station_id":"MRI","time":4,"i_long":106.84912},{"i_lat":-6.212485,"is_transit":false,"station_name":"Matraman","transit":false,"i_long":106.858896,"station_id":"MTR","distance":1275,"line":1,"time":2},{"time":8,"i_lat":-6.215091,"station_id":"JNG","line":0,"i_long":106.86807400000001,"is_transit":true,"station_name":"Jatinegara","transit":true,"distance":1377},{"distance":1236,"time":2,"station_id":"POK","station_name":"Pondok Jati","i_lat":-6.209188,"transit":false,"line":11,"i_long":106.861737,"is_transit":false},{"i_long":106.855437,"station_name":"Kramat","distance":1829,"is_transit":false,"time":2,"station_id":"KMT","transit":false,"line":11,"i_lat":-6.193792},{"line":11,"i_lat":-6.185975,"is_transit":false,"station_name":"Gang Sentiong","i_long":106.850107,"time":1,"distance":973,"transit":false,"station_id":"GST"},{"time":8,"station_id":"PSE","i_long":106.84368,"line":11,"is_transit":false,"station_name":"Pasar Senen","i_lat":-6.174784,"transit":false,"distance":1567},{"station_id":"KMO","distance":1436,"i_lat":-6.161728,"transit":false,"time":4,"i_long":106.839204,"station_name":"Kemayoran","is_transit":false,"line":11},{"i_long":106.836569,"time":5,"station_name":"Rajawali","line":11,"is_transit":false,"distance":1901,"i_lat":-6.14505,"transit":false,"station_id":"RJW"},{"time":3,"is_transit":true,"station_id":"KPB","distance":1444,"transit":true,"line":0,"i_long":106.826365,"i_lat":-6.132549,"station_name":"Kampung Bandan"},{"station_name":"Angke","line":0,"time":9,"i_long":106.79867,"transit":false,"station_id":"AK","is_transit":false,"distance":4102,"i_lat":-6.144674},{"line":1,"transit":true,"station_id":"DU","distance":1230,"is_transit":true,"i_long":106.800832,"station_name":"Duri","time":4,"i_lat":-6.155215},{"transit":true,"i_long":106.811091,"station_id":"THB","distance":3632,"time":8,"is_transit":true,"i_lat":-6.185545,"line":1,"station_name":"Tanah Abang"},{"i_long":106.79689,"transit":false,"station_id":"PLM","time":6,"distance":3191,"is_transit":false,"i_lat":-6.207404,"line":6,"station_name":"Palmerah"},{"station_name":"Kebayoran","station_id":"KBY","i_lat":-6.237242,"i_long":106.780334,"distance":3737,"line":6,"is_transit":false,"time":7,"transit":false},{"station_id":"PDJ","transit":false,"distance":6218,"i_long":106.74273,"i_lat":-6.276362,"is_transit":false,"time":8,"station_name":"Pondokranji","line":6},{"station_id":"JMU","station_name":"Jurangmangu","distance":2179,"time":3,"is_transit":false,"i_lat":-6.288927,"transit":false,"i_long":106.728916,"line":6},{"i_lat":-6.296963,"i_long":106.712277,"time":4,"line":6,"distance":1994,"station_name":"Sudimara","station_id":"SDM","is_transit":false,"transit":false},{"station_id":"RU","time":6,"i_long":106.675475,"i_lat":-6.314823,"is_transit":false,"line":6,"transit":false,"distance":4566,"station_name":"Rawa Buntu"}]]}