{"data":[[{"transit":false,"i_lat":-6.448811,"line":1,"is_transit":true,"time":0,"station_name":"Citayam","distance":0,"i_long":106.800298,"station_id":"CTA"},{"time":6,"i_lat":-6.405256,"station_name":"Depok","station_id":"DP","i_long":106.816926,"transit":false,"is_transit":false,"distance":5084,"line":0},{"station_name":"Depokbaru","i_long":106.819451,"distance":1584,"is_transit":false,"i_lat":-6.391065,"transit":false,"line":0,"station_id":"DPB","time":3},{"station_name":"Pondok Cina","line":2,"i_lat":-6.369073,"i_long":106.831114,"distance":2727,"time":4,"is_transit":false,"transit":false,"station_id":"POC"},{"distance":1109,"transit":false,"station_name":"Univ. Indonesia","i_lat":-6.360749,"line":2,"is_transit":false,"time":2,"station_id":"UI","i_long":106.831474},{"station_name":"Univ. Pancasila","is_transit":false,"station_id":"UP","line":2,"i_long":106.834175,"time":3,"i_lat":-6.339291,"distance":2264,"transit":false},{"station_id":"LNA","i_long":106.832616,"distance":1029,"transit":false,"is_transit":false,"line":2,"i_lat":-6.330363,"station_name":"Lenteng Agung","time":2},{"time":3,"station_name":"Tanjung Barat","distance":2671,"transit":false,"is_transit":false,"line":2,"station_id":"TNT","i_long":106.838896,"i_lat":-6.3080680000000005},{"i_long":106.843999,"distance":2820,"line":2,"time":4,"transit":false,"is_transit":false,"station_name":"Pasar Minggu","station_id":"PSM","i_lat":-6.2842400000000005},{"i_lat":-6.263214,"station_id":"PSMB","i_long":106.851577,"transit":false,"line":2,"is_transit":false,"time":2,"distance":2380,"station_name":"Pasar Minggu Baru"},{"is_transit":false,"station_id":"DRN","i_lat":-6.255332,"time":2,"transit":false,"station_name":"Duren Kalibata","distance":824,"i_long":106.85449,"line":0},{"i_lat":-6.242512,"distance":1546,"time":3,"is_transit":false,"station_id":"CW","transit":false,"i_long":106.856607,"station_name":"Cawang","line":0},{"station_name":"Tebet","station_id":"TEB","distance":1230,"time":2,"i_long":106.857948,"line":2,"is_transit":false,"transit":false,"i_lat":-6.226659},{"time":4,"station_name":"Manggarai","station_id":"MRI","i_long":106.84912,"distance":2610,"line":0,"transit":true,"i_lat":-6.209883,"is_transit":true},{"i_long":106.822649,"time":4,"line":1,"station_name":"Sudirman","i_lat":-6.202263,"is_transit":false,"transit":false,"station_id":"SUD","distance":3186},{"station_name":"Sudirman Baru","i_lat":-6.201433,"distance":280,"time":1,"transit":false,"station_id":"SUDB","i_long":106.819881,"line":1,"is_transit":false}],[{"station_id":"CTA","transit":false,"time":0,"i_lat":-6.448811,"distance":0,"line":1,"station_name":"Citayam","is_transit":true,"i_long":106.800298},{"is_transit":false,"station_id":"DP","i_long":106.816926,"station_name":"Depok","time":6,"distance":5084,"line":0,"i_lat":-6.405256,"transit":false},{"station_id":"DPB","is_transit":false,"i_lat":-6.391065,"i_long":106.819451,"station_name":"Depokbaru","distance":1584,"line":0,"transit":false,"time":3},{"time":4,"i_long":106.831114,"line":2,"station_name":"Pondok Cina","distance":2727,"is_transit":false,"i_lat":-6.369073,"transit":false,"station_id":"POC"},{"is_transit":false,"line":2,"i_long":106.831474,"station_id":"UI","distance":1109,"station_name":"Univ. Indonesia","i_lat":-6.360749,"transit":false,"time":2},{"i_lat":-6.339291,"line":2,"station_name":"Univ. Pancasila","is_transit":false,"station_id":"UP","distance":2264,"transit":false,"i_long":106.834175,"time":3},{"transit":false,"i_long":106.832616,"station_name":"Lenteng Agung","station_id":"LNA","distance":1029,"is_transit":false,"line":2,"i_lat":-6.330363,"time":2},{"distance":2671,"station_name":"Tanjung Barat","line":2,"is_transit":false,"transit":false,"time":3,"station_id":"TNT","i_lat":-6.3080680000000005,"i_long":106.838896},{"distance":2820,"i_lat":-6.2842400000000005,"station_id":"PSM","line":2,"station_name":"Pasar Minggu","transit":false,"time":4,"is_transit":false,"i_long":106.843999},{"i_lat":-6.263214,"station_id":"PSMB","time":2,"station_name":"Pasar Minggu Baru","transit":false,"is_transit":false,"i_long":106.851577,"distance":2380,"line":2},{"is_transit":false,"i_lat":-6.255332,"transit":false,"station_id":"DRN","i_long":106.85449,"distance":824,"station_name":"Duren Kalibata","time":2,"line":0},{"station_name":"Cawang","is_transit":false,"time":3,"station_id":"CW","i_lat":-6.242512,"i_long":106.856607,"line":0,"distance":1546,"transit":false},{"station_id":"TEB","station_name":"Tebet","time":2,"line":2,"distance":1230,"transit":false,"is_transit":false,"i_lat":-6.226659,"i_long":106.857948},{"distance":2610,"station_name":"Manggarai","i_lat":-6.209883,"time":4,"i_long":106.84912,"station_id":"MRI","transit":true,"is_transit":true,"line":0},{"time":4,"is_transit":false,"transit":false,"i_lat":-6.198556,"distance":1590,"station_id":"CKI","station_name":"Cikini","i_long":106.840169,"line":0},{"i_lat":-6.186295,"distance":1750,"line":2,"transit":false,"is_transit":false,"station_name":"Gondangdia","station_id":"GDD","time":3,"i_long":106.832183},{"transit":false,"line":2,"distance":2015,"i_lat":-6.166716,"is_transit":false,"i_long":106.828284,"time":4,"station_id":"JUA","station_name":"Juanda"},{"is_transit":false,"i_lat":-6.160725,"station_id":"SW","distance":1149,"station_name":"Sawah Besar","i_long":106.827103,"line":2,"time":2,"transit":false},{"line":2,"i_long":106.82482,"i_lat":-6.149769,"time":2,"transit":false,"distance":906,"station_name":"Manggabesar","is_transit":false,"station_id":"MGB"},{"transit":false,"i_lat":-6.141205,"i_long":106.820901,"station_id":"JAY","line":7,"is_transit":false,"time":2,"station_name":"Jayakarta","distance":1080},{"i_lat":-6.137569,"transit":true,"line":0,"station_id":"JAKK","distance":1264,"station_name":"Jakarta Kota","i_long":106.812439,"time":4,"is_transit":true},{"station_name":"Kampung Bandan","transit":false,"is_transit":true,"station_id":"KPB","i_lat":-6.132549,"i_long":106.826365,"line":0,"distance":1364,"time":3},{"i_lat":-6.144674,"i_long":106.79867,"line":0,"station_name":"Angke","transit":false,"is_transit":false,"station_id":"AK","distance":4102,"time":9},{"i_long":106.800832,"distance":1230,"line":1,"is_transit":true,"transit":true,"station_name":"Duri","time":4,"i_lat":-6.155215,"station_id":"DU"},{"transit":false,"is_transit":true,"i_lat":-6.185545,"i_long":106.811091,"station_name":"Tanah Abang","time":8,"station_id":"THB","line":1,"distance":3632},{"line":1,"station_name":"Karet","transit":false,"station_id":"KAT","is_transit":false,"distance":2029,"time":5,"i_lat":-6.20132,"i_long":106.816351},{"station_name":"Sudirman Baru","i_long":106.819881,"time":1,"line":1,"transit":false,"distance":471,"is_transit":false,"station_id":"SUDB","i_lat":-6.201433}],[{"transit":false,"station_id":"CTA","i_lat":-6.448811,"distance":0,"is_transit":true,"i_long":106.800298,"station_name":"Citayam","line":1,"time":0},{"station_name":"Depok","transit":false,"is_transit":false,"distance":5084,"station_id":"DP","i_lat":-6.405256,"i_long":106.816926,"line":0,"time":6},{"transit":false,"time":3,"station_id":"DPB","distance":1584,"is_transit":false,"i_lat":-6.391065,"i_long":106.819451,"line":0,"station_name":"Depokbaru"},{"distance":2727,"transit":false,"line":2,"station_name":"Pondok Cina","i_long":106.831114,"i_lat":-6.369073,"time":4,"is_transit":false,"station_id":"POC"},{"is_transit":false,"i_long":106.831474,"time":2,"distance":1109,"station_name":"Univ. Indonesia","transit":false,"i_lat":-6.360749,"station_id":"UI","line":2},{"time":3,"transit":false,"i_lat":-6.339291,"distance":2264,"station_id":"UP","i_long":106.834175,"station_name":"Univ. Pancasila","is_transit":false,"line":2},{"station_id":"LNA","i_lat":-6.330363,"line":2,"time":2,"distance":1029,"is_transit":false,"station_name":"Lenteng Agung","transit":false,"i_long":106.832616},{"i_lat":-6.3080680000000005,"station_name":"Tanjung Barat","station_id":"TNT","line":2,"transit":false,"i_long":106.838896,"is_transit":false,"distance":2671,"time":3},{"time":4,"transit":false,"i_lat":-6.2842400000000005,"station_id":"PSM","line":2,"is_transit":false,"distance":2820,"i_long":106.843999,"station_name":"Pasar Minggu"},{"i_long":106.851577,"station_id":"PSMB","station_name":"Pasar Minggu Baru","is_transit":false,"distance":2380,"time":2,"line":2,"transit":false,"i_lat":-6.263214},{"distance":824,"station_name":"Duren Kalibata","i_lat":-6.255332,"time":2,"is_transit":false,"i_long":106.85449,"line":0,"station_id":"DRN","transit":false},{"i_long":106.856607,"station_name":"Cawang","line":0,"time":3,"distance":1546,"transit":false,"is_transit":false,"i_lat":-6.242512,"station_id":"CW"},{"station_id":"TEB","station_name":"Tebet","i_lat":-6.226659,"i_long":106.857948,"distance":1230,"line":2,"time":2,"transit":false,"is_transit":false},{"transit":true,"distance":2610,"line":0,"i_long":106.84912,"time":4,"i_lat":-6.209883,"station_name":"Manggarai","is_transit":true,"station_id":"MRI"},{"i_long":106.858896,"is_transit":false,"time":2,"distance":1275,"i_lat":-6.212485,"line":1,"transit":false,"station_id":"MTR","station_name":"Matraman"},{"line":0,"station_id":"JNG","transit":true,"i_lat":-6.215091,"distance":1377,"is_transit":true,"station_name":"Jatinegara","i_long":106.86807400000001,"time":8},{"is_transit":false,"distance":1236,"time":2,"station_name":"Pondok Jati","i_lat":-6.209188,"line":11,"i_long":106.861737,"transit":false,"station_id":"POK"},{"time":2,"i_long":106.855437,"distance":1829,"transit":false,"i_lat":-6.193792,"station_id":"KMT","station_name":"Kramat","is_transit":false,"line":11},{"station_id":"GST","station_name":"Gang Sentiong","transit":false,"distance":973,"is_transit":false,"i_long":106.850107,"i_lat":-6.185975,"line":11,"time":1},{"station_name":"Pasar Senen","is_transit":false,"line":11,"distance":1567,"time":8,"i_lat":-6.174784,"transit":false,"i_long":106.84368,"station_id":"PSE"},{"transit":false,"station_name":"Kemayoran","is_transit":false,"i_lat":-6.161728,"station_id":"KMO","i_long":106.839204,"distance":1436,"line":11,"time":4},{"i_lat":-6.14505,"distance":1901,"is_transit":false,"time":5,"transit":false,"i_long":106.836569,"station_id":"RJW","line":11,"station_name":"Rajawali"},{"time":3,"i_long":106.826365,"line":0,"is_transit":true,"station_id":"KPB","station_name":"Kampung Bandan","transit":true,"distance":1444,"i_lat":-6.132549},{"station_name":"Angke","distance":4102,"time":9,"transit":false,"i_long":106.79867,"line":0,"station_id":"AK","is_transit":false,"i_lat":-6.144674},{"i_lat":-6.155215,"i_long":106.800832,"time":4,"station_name":"Duri","station_id":"DU","line":1,"is_transit":true,"transit":true,"distance":1230},{"transit":false,"distance":3632,"time":8,"station_name":"Tanah Abang","i_long":106.811091,"station_id":"THB","line":1,"is_transit":true,"i_lat":-6.185545},{"i_lat":-6.20132,"is_transit":false,"distance":2029,"i_long":106.816351,"line":1,"time":5,"station_name":"Karet","transit":false,"station_id":"KAT"},{"distance":471,"i_long":106.819881,"is_transit":false,"station_id":"SUDB","line":1,"time":1,"transit":false,"i_lat":-6.201433,"station_name":"Sudirman Baru"}]]}