{"data":[[{"line":1,"station_name":"Citayam","station_id":"CTA","i_lat":-6.448811,"is_transit":true,"distance":0,"time":0,"transit":false,"i_long":106.800298},{"transit":false,"i_long":106.816926,"station_name":"Depok","distance":5084,"line":0,"time":6,"station_id":"DP","is_transit":false,"i_lat":-6.405256},{"i_lat":-6.391065,"distance":1584,"transit":false,"is_transit":false,"station_name":"Depokbaru","station_id":"DPB","i_long":106.819451,"line":0,"time":3},{"i_long":106.831114,"i_lat":-6.369073,"distance":2727,"transit":false,"station_name":"Pondok Cina","line":2,"time":4,"is_transit":false,"station_id":"POC"},{"i_lat":-6.360749,"station_id":"UI","station_name":"Univ. Indonesia","line":2,"distance":1109,"is_transit":false,"i_long":106.831474,"time":2,"transit":false},{"is_transit":false,"time":3,"transit":false,"i_long":106.834175,"line":2,"station_id":"UP","distance":2264,"station_name":"Univ. Pancasila","i_lat":-6.339291},{"station_name":"Lenteng Agung","is_transit":false,"distance":1029,"transit":false,"station_id":"LNA","i_long":106.832616,"time":2,"i_lat":-6.330363,"line":2},{"i_lat":-6.3080680000000005,"line":2,"distance":2671,"station_name":"Tanjung Barat","transit":false,"station_id":"TNT","is_transit":false,"time":3,"i_long":106.838896},{"transit":false,"i_long":106.843999,"time":4,"i_lat":-6.2842400000000005,"station_id":"PSM","station_name":"Pasar Minggu","line":2,"is_transit":false,"distance":2820},{"station_name":"Pasar Minggu Baru","i_long":106.851577,"time":2,"transit":false,"i_lat":-6.263214,"line":2,"is_transit":false,"station_id":"PSMB","distance":2380},{"station_id":"DRN","is_transit":false,"time":2,"i_lat":-6.255332,"distance":824,"line":0,"transit":false,"i_long":106.85449,"station_name":"Duren Kalibata"},{"transit":false,"i_lat":-6.242512,"line":0,"station_name":"Cawang","i_long":106.856607,"distance":1546,"station_id":"CW","is_transit":false,"time":3},{"station_name":"Tebet","transit":false,"i_lat":-6.226659,"line":2,"station_id":"TEB","time":2,"distance":1230,"is_transit":false,"i_long":106.857948},{"station_name":"Manggarai","time":4,"i_lat":-6.209883,"distance":2610,"i_long":106.84912,"station_id":"MRI","transit":true,"line":0,"is_transit":true},{"line":1,"is_transit":false,"station_id":"SUD","station_name":"Sudirman","time":4,"distance":3186,"transit":false,"i_lat":-6.202263,"i_long":106.822649},{"line":1,"station_id":"SUDB","i_long":106.819881,"is_transit":false,"i_lat":-6.201433,"time":1,"distance":280,"station_name":"Sudirman Baru","transit":false},{"i_long":106.816351,"line":1,"station_name":"Karet","distance":471,"time":1,"is_transit":false,"station_id":"KAT","i_lat":-6.20132,"transit":false},{"i_lat":-6.185545,"line":1,"time":5,"distance":2029,"station_name":"Tanah Abang","station_id":"THB","i_long":106.811091,"is_transit":true,"transit":false},{"time":8,"distance":3632,"station_id":"DU","transit":true,"station_name":"Duri","i_lat":-6.155215,"is_transit":true,"line":1,"i_long":106.800832},{"line":5,"time":3,"i_long":106.788277,"station_name":"Grogol","distance":1700,"i_lat":-6.162021,"station_id":"GGL","is_transit":false,"transit":false},{"station_id":"PSG","is_transit":false,"station_name":"Pesing","i_lat":-6.161433,"transit":false,"time":2,"line":5,"distance":2036,"i_long":106.771379},{"i_long":106.756522,"transit":false,"i_lat":-6.1587309999999995,"line":5,"time":2,"is_transit":false,"distance":1614,"station_name":"Taman Kota","station_id":"TKO"},{"i_lat":-6.159876,"time":2,"is_transit":false,"station_id":"BOI","station_name":"Bojongindah","i_long":106.737035,"distance":2334,"line":0,"transit":false},{"i_lat":-6.162758,"line":5,"i_long":106.723064,"distance":1152,"is_transit":false,"transit":false,"time":4,"station_id":"RW","station_name":"Rawa Buaya"},{"is_transit":false,"i_lat":-6.166068,"distance":2504,"line":5,"i_long":106.701612,"transit":false,"station_name":"Kalideres","station_id":"KDS","time":3},{"is_transit":false,"distance":2548,"line":5,"station_id":"PI","transit":false,"i_long":106.679458,"station_name":"Poris","time":3,"i_lat":-6.169933},{"station_id":"BPR","station_name":"Batuceper","transit":false,"distance":1834,"i_lat":-6.171811,"i_long":106.665036,"time":3,"is_transit":false,"line":0},{"i_lat":-6.17331,"line":5,"station_id":"TTI","i_long":106.64657,"station_name":"Tanah Tinggi","time":3,"is_transit":false,"distance":2028,"transit":false},{"is_transit":false,"distance":1547,"time":3,"station_name":"Tangerang","transit":false,"i_lat":-6.176583,"i_long":106.632761,"station_id":"TNG","line":5}],[{"is_transit":true,"transit":false,"time":0,"station_id":"CTA","distance":0,"i_long":106.800298,"line":1,"station_name":"Citayam","i_lat":-6.448811},{"transit":false,"distance":5084,"i_long":106.816926,"is_transit":false,"line":0,"station_name":"Depok","time":6,"station_id":"DP","i_lat":-6.405256},{"line":0,"i_lat":-6.391065,"distance":1584,"transit":false,"i_long":106.819451,"station_id":"DPB","is_transit":false,"station_name":"Depokbaru","time":3},{"station_id":"POC","distance":2727,"i_lat":-6.369073,"is_transit":false,"station_name":"Pondok Cina","transit":false,"i_long":106.831114,"line":2,"time":4},{"line":2,"time":2,"i_long":106.831474,"station_name":"Univ. Indonesia","is_transit":false,"distance":1109,"i_lat":-6.360749,"station_id":"UI","transit":false},{"i_long":106.834175,"station_name":"Univ. Pancasila","transit":false,"station_id":"UP","distance":2264,"i_lat":-6.339291,"line":2,"is_transit":false,"time":3},{"distance":1029,"time":2,"i_lat":-6.330363,"line":2,"is_transit":false,"transit":false,"station_id":"LNA","station_name":"Lenteng Agung","i_long":106.832616},{"distance":2671,"time":3,"i_lat":-6.3080680000000005,"station_id":"TNT","i_long":106.838896,"line":2,"is_transit":false,"station_name":"Tanjung Barat","transit":false},{"is_transit":false,"station_id":"PSM","time":4,"line":2,"i_lat":-6.2842400000000005,"i_long":106.843999,"distance":2820,"transit":false,"station_name":"Pasar Minggu"},{"distance":2380,"transit":false,"is_transit":false,"station_id":"PSMB","i_lat":-6.263214,"station_name":"Pasar Minggu Baru","line":2,"i_long":106.851577,"time":2},{"time":2,"is_transit":false,"line":0,"i_lat":-6.255332,"station_name":"Duren Kalibata","transit":false,"i_long":106.85449,"distance":824,"station_id":"DRN"},{"station_id":"CW","transit":false,"is_transit":false,"i_lat":-6.242512,"station_name":"Cawang","i_long":106.856607,"time":3,"line":0,"distance":1546},{"distance":1230,"station_id":"TEB","i_long":106.857948,"i_lat":-6.226659,"line":2,"station_name":"Tebet","time":2,"transit":false,"is_transit":false},{"line":0,"is_transit":true,"i_lat":-6.209883,"time":4,"station_name":"Manggarai","i_long":106.84912,"station_id":"MRI","transit":true,"distance":2610},{"transit":false,"line":0,"station_id":"CKI","distance":1590,"station_name":"Cikini","is_transit":false,"time":4,"i_lat":-6.198556,"i_long":106.840169},{"distance":1750,"i_long":106.832183,"i_lat":-6.186295,"station_id":"GDD","line":2,"time":3,"station_name":"Gondangdia","is_transit":false,"transit":false},{"time":4,"distance":2015,"i_long":106.828284,"transit":false,"is_transit":false,"i_lat":-6.166716,"line":2,"station_id":"JUA","station_name":"Juanda"},{"station_name":"Sawah Besar","line":2,"is_transit":false,"transit":false,"i_lat":-6.160725,"time":2,"i_long":106.827103,"distance":1149,"station_id":"SW"},{"transit":false,"i_long":106.82482,"station_name":"Manggabesar","time":2,"distance":906,"i_lat":-6.149769,"line":2,"station_id":"MGB","is_transit":false},{"transit":false,"i_long":106.820901,"station_id":"JAY","station_name":"Jayakarta","line":7,"i_lat":-6.141205,"time":2,"is_transit":false,"distance":1080},{"station_name":"Jakarta Kota","i_long":106.812439,"station_id":"JAKK","is_transit":true,"transit":true,"distance":1264,"time":4,"line":0,"i_lat":-6.137569},{"i_lat":-6.132549,"time":3,"i_long":106.826365,"is_transit":true,"station_name":"Kampung Bandan","station_id":"KPB","distance":1364,"transit":false,"line":0},{"distance":4102,"transit":false,"time":9,"i_lat":-6.144674,"is_transit":false,"station_id":"AK","station_name":"Angke","i_long":106.79867,"line":0},{"line":1,"i_long":106.800832,"is_transit":true,"distance":1230,"station_id":"DU","time":4,"station_name":"Duri","transit":true,"i_lat":-6.155215},{"i_long":106.788277,"time":3,"station_id":"GGL","transit":false,"distance":1700,"is_transit":false,"station_name":"Grogol","i_lat":-6.162021,"line":5},{"line":5,"distance":2036,"station_name":"Pesing","transit":false,"station_id":"PSG","i_long":106.771379,"time":2,"is_transit":false,"i_lat":-6.161433},{"station_name":"Taman Kota","transit":false,"is_transit":false,"distance":1614,"line":5,"time":2,"station_id":"TKO","i_long":106.756522,"i_lat":-6.1587309999999995},{"station_name":"Bojongindah","transit":false,"distance":2334,"is_transit":false,"station_id":"BOI","i_lat":-6.159876,"time":2,"i_long":106.737035,"line":0},{"station_id":"RW","transit":false,"is_transit":false,"time":4,"i_lat":-6.162758,"distance":1152,"station_name":"Rawa Buaya","line":5,"i_long":106.723064},{"station_name":"Kalideres","transit":false,"is_transit":false,"i_long":106.701612,"distance":2504,"line":5,"station_id":"KDS","time":3,"i_lat":-6.166068},{"i_lat":-6.169933,"is_transit":false,"transit":false,"station_id":"PI","line":5,"time":3,"station_name":"Poris","distance":2548,"i_long":106.679458},{"station_id":"BPR","time":3,"station_name":"Batuceper","line":0,"distance":1834,"i_lat":-6.171811,"is_transit":false,"i_long":106.665036,"transit":false},{"station_id":"TTI","transit":false,"i_lat":-6.17331,"station_name":"Tanah Tinggi","is_transit":false,"line":5,"time":3,"distance":2028,"i_long":106.64657},{"i_long":106.632761,"line":5,"i_lat":-6.176583,"station_id":"TNG","is_transit":false,"time":3,"transit":false,"station_name":"Tangerang","distance":1547}],[{"distance":0,"i_long":106.800298,"station_id":"CTA","station_name":"Citayam","transit":false,"is_transit":true,"time":0,"line":1,"i_lat":-6.448811},{"station_id":"DP","distance":5084,"transit":false,"time":6,"station_name":"Depok","is_transit":false,"line":0,"i_lat":-6.405256,"i_long":106.816926},{"i_lat":-6.391065,"is_transit":false,"station_name":"Depokbaru","station_id":"DPB","distance":1584,"i_long":106.819451,"time":3,"transit":false,"line":0},{"is_transit":false,"time":4,"station_id":"POC","line":2,"distance":2727,"station_name":"Pondok Cina","i_long":106.831114,"transit":false,"i_lat":-6.369073},{"line":2,"time":2,"transit":false,"i_long":106.831474,"i_lat":-6.360749,"distance":1109,"station_id":"UI","station_name":"Univ. Indonesia","is_transit":false},{"i_lat":-6.339291,"distance":2264,"i_long":106.834175,"line":2,"transit":false,"station_id":"UP","station_name":"Univ. Pancasila","is_transit":false,"time":3},{"i_lat":-6.330363,"transit":false,"line":2,"time":2,"station_id":"LNA","distance":1029,"i_long":106.832616,"station_name":"Lenteng Agung","is_transit":false},{"station_name":"Tanjung Barat","i_long":106.838896,"is_transit":false,"time":3,"distance":2671,"i_lat":-6.3080680000000005,"station_id":"TNT","transit":false,"line":2},{"i_lat":-6.2842400000000005,"line":2,"distance":2820,"is_transit":false,"time":4,"station_name":"Pasar Minggu","i_long":106.843999,"station_id":"PSM","transit":false},{"station_name":"Pasar Minggu Baru","transit":false,"line":2,"i_lat":-6.263214,"distance":2380,"is_transit":false,"i_long":106.851577,"station_id":"PSMB","time":2},{"distance":824,"i_lat":-6.255332,"line":0,"i_long":106.85449,"station_id":"DRN","time":2,"station_name":"Duren Kalibata","transit":false,"is_transit":false},{"time":3,"station_id":"CW","distance":1546,"station_name":"Cawang","i_long":106.856607,"transit":false,"is_transit":false,"i_lat":-6.242512,"line":0},{"time":2,"is_transit":false,"line":2,"i_lat":-6.226659,"distance":1230,"i_long":106.857948,"station_id":"TEB","transit":false,"station_name":"Tebet"},{"station_id":"MRI","transit":true,"i_lat":-6.209883,"line":0,"time":4,"is_transit":true,"distance":2610,"station_name":"Manggarai","i_long":106.84912},{"station_id":"MTR","i_long":106.858896,"station_name":"Matraman","distance":1275,"time":2,"transit":false,"is_transit":false,"i_lat":-6.212485,"line":1},{"line":0,"is_transit":true,"time":8,"i_lat":-6.215091,"transit":true,"distance":1377,"i_long":106.86807400000001,"station_name":"Jatinegara","station_id":"JNG"},{"is_transit":false,"time":2,"station_name":"Pondok Jati","i_lat":-6.209188,"transit":false,"distance":1236,"i_long":106.861737,"line":11,"station_id":"POK"},{"line":11,"time":2,"station_name":"Kramat","transit":false,"distance":1829,"station_id":"KMT","is_transit":false,"i_long":106.855437,"i_lat":-6.193792},{"transit":false,"time":1,"station_id":"GST","station_name":"Gang Sentiong","line":11,"distance":973,"i_long":106.850107,"is_transit":false,"i_lat":-6.185975},{"is_transit":false,"i_long":106.84368,"station_name":"Pasar Senen","time":8,"i_lat":-6.174784,"distance":1567,"line":11,"station_id":"PSE","transit":false},{"is_transit":false,"line":11,"i_lat":-6.161728,"time":4,"i_long":106.839204,"station_id":"KMO","distance":1436,"transit":false,"station_name":"Kemayoran"},{"line":11,"distance":1901,"station_id":"RJW","transit":false,"i_lat":-6.14505,"i_long":106.836569,"time":5,"is_transit":false,"station_name":"Rajawali"},{"is_transit":true,"line":0,"station_id":"KPB","station_name":"Kampung Bandan","i_lat":-6.132549,"i_long":106.826365,"distance":1444,"transit":true,"time":3},{"station_name":"Angke","time":9,"transit":false,"i_long":106.79867,"is_transit":false,"i_lat":-6.144674,"station_id":"AK","line":0,"distance":4102},{"distance":1230,"station_id":"DU","station_name":"Duri","i_long":106.800832,"i_lat":-6.155215,"time":4,"line":1,"transit":true,"is_transit":true},{"i_long":106.788277,"transit":false,"line":5,"distance":1700,"is_transit":false,"station_id":"GGL","station_name":"Grogol","i_lat":-6.162021,"time":3},{"time":2,"station_id":"PSG","i_lat":-6.161433,"station_name":"Pesing","transit":false,"i_long":106.771379,"line":5,"is_transit":false,"distance":2036},{"station_id":"TKO","i_lat":-6.1587309999999995,"distance":1614,"station_name":"Taman Kota","transit":false,"line":5,"i_long":106.756522,"is_transit":false,"time":2},{"time":2,"i_lat":-6.159876,"transit":false,"i_long":106.737035,"is_transit":false,"line":0,"distance":2334,"station_name":"Bojongindah","station_id":"BOI"},{"distance":1152,"is_transit":false,"time":4,"station_id":"RW","i_lat":-6.162758,"line":5,"station_name":"Rawa Buaya","transit":false,"i_long":106.723064},{"is_transit":false,"station_id":"KDS","station_name":"Kalideres","time":3,"distance":2504,"i_long":106.701612,"i_lat":-6.166068,"transit":false,"line":5},{"transit":false,"is_transit":false,"station_id":"PI","i_long":106.679458,"station_name":"Poris","time":3,"distance":2548,"line":5,"i_lat":-6.169933},{"line":0,"station_name":"Batuceper","i_long":106.665036,"transit":false,"time":3,"station_id":"BPR","is_transit":false,"distance":1834,"i_lat":-6.171811},{"distance":2028,"i_lat":-6.17331,"station_name":"Tanah Tinggi","transit":false,"station_id":"TTI","is_transit":false,"time":3,"i_long":106.64657,"line":5},{"i_lat":-6.176583,"line":5,"distance":1547,"station_id":"TNG","time":3,"is_transit":false,"i_long":106.632761,"station_name":"Tangerang","transit":false}]]}