{"data":[[{"transit":false,"is_transit":false,"station_name":"Citayam","i_long":106.800298,"line":2,"distance":0,"time":0,"station_id":"CTA","i_lat":-6.448811},{"is_transit":false,"i_lat":-6.405256,"station_id":"DP","distance":5084,"time":6,"transit":false,"i_long":106.816926,"station_name":"Depok","line":2},{"station_id":"DPB","station_name":"Depokbaru","distance":1584,"time":3,"is_transit":false,"i_lat":-6.391065,"i_long":106.819451,"transit":false,"line":2},{"i_long":106.831114,"is_transit":false,"distance":2727,"station_id":"POC","line":2,"time":4,"station_name":"Pondok Cina","transit":false,"i_lat":-6.369073},{"station_id":"UI","station_name":"Univ. Indonesia","time":2,"i_lat":-6.360749,"i_long":106.831474,"distance":1109,"line":2,"transit":false,"is_transit":false},{"is_transit":false,"distance":2264,"station_name":"Univ. Pancasila","i_lat":-6.339291,"line":2,"station_id":"UP","transit":false,"i_long":106.834175,"time":3},{"line":2,"time":2,"station_id":"LNA","i_long":106.832616,"is_transit":false,"distance":1029,"station_name":"Lenteng Agung","transit":false,"i_lat":-6.330363},{"i_lat":-6.3080680000000005,"line":2,"transit":false,"time":3,"is_transit":false,"distance":2671,"station_id":"TNT","station_name":"Tanjung Barat","i_long":106.838896},{"distance":2820,"is_transit":false,"time":4,"i_long":106.843999,"station_id":"PSM","i_lat":-6.2842400000000005,"transit":false,"station_name":"Pasar Minggu","line":2},{"station_name":"Pasar Minggu Baru","station_id":"PSMB","distance":2380,"i_long":106.851577,"time":2,"is_transit":false,"i_lat":-6.263214,"transit":false,"line":2},{"distance":824,"station_id":"DRN","i_lat":-6.255332,"transit":false,"time":2,"is_transit":false,"station_name":"Duren Kalibata","i_long":106.85449,"line":2},{"time":3,"station_name":"Cawang","line":2,"transit":false,"i_long":106.856607,"distance":1546,"station_id":"CW","is_transit":false,"i_lat":-6.242512},{"time":2,"distance":1230,"is_transit":false,"station_name":"Tebet","station_id":"TEB","i_long":106.857948,"line":2,"transit":false,"i_lat":-6.226659},{"distance":2610,"time":4,"transit":true,"station_id":"MRI","is_transit":true,"station_name":"Manggarai","i_lat":-6.209883,"i_long":106.84912,"line":2},{"station_name":"Matraman","distance":1275,"line":1,"station_id":"MTR","i_long":106.858896,"transit":false,"time":2,"i_lat":-6.212485,"is_transit":false}],[{"transit":false,"distance":0,"i_lat":-6.448811,"i_long":106.800298,"station_name":"Citayam","is_transit":false,"line":2,"time":0,"station_id":"CTA"},{"transit":false,"line":2,"station_name":"Depok","is_transit":false,"i_long":106.816926,"distance":5084,"i_lat":-6.405256,"station_id":"DP","time":6},{"i_lat":-6.391065,"station_name":"Depokbaru","transit":false,"distance":1584,"is_transit":false,"station_id":"DPB","i_long":106.819451,"time":3,"line":2},{"line":2,"time":4,"station_id":"POC","transit":false,"distance":2727,"i_long":106.831114,"station_name":"Pondok Cina","is_transit":false,"i_lat":-6.369073},{"i_long":106.831474,"transit":false,"distance":1109,"station_id":"UI","line":2,"is_transit":false,"time":2,"i_lat":-6.360749,"station_name":"Univ. Indonesia"},{"distance":2264,"i_long":106.834175,"station_name":"Univ. Pancasila","line":2,"transit":false,"time":3,"is_transit":false,"station_id":"UP","i_lat":-6.339291},{"i_lat":-6.330363,"is_transit":false,"station_name":"Lenteng Agung","i_long":106.832616,"distance":1029,"line":2,"time":2,"station_id":"LNA","transit":false},{"time":3,"distance":2671,"line":2,"is_transit":false,"station_id":"TNT","transit":false,"i_lat":-6.3080680000000005,"i_long":106.838896,"station_name":"Tanjung Barat"},{"i_lat":-6.2842400000000005,"station_id":"PSM","is_transit":false,"station_name":"Pasar Minggu","line":2,"time":4,"transit":false,"i_long":106.843999,"distance":2820},{"distance":2380,"i_lat":-6.263214,"is_transit":false,"line":2,"station_name":"Pasar Minggu Baru","station_id":"PSMB","transit":false,"time":2,"i_long":106.851577},{"station_id":"DRN","time":2,"is_transit":false,"distance":824,"transit":false,"i_long":106.85449,"station_name":"Duren Kalibata","i_lat":-6.255332,"line":2},{"distance":1546,"station_id":"CW","station_name":"Cawang","transit":false,"time":3,"i_lat":-6.242512,"is_transit":false,"i_long":106.856607,"line":2},{"line":2,"station_name":"Tebet","i_long":106.857948,"is_transit":false,"station_id":"TEB","transit":false,"i_lat":-6.226659,"distance":1230,"time":2},{"i_lat":-6.209883,"is_transit":true,"time":4,"i_long":106.84912,"station_id":"MRI","distance":2610,"transit":true,"line":2,"station_name":"Manggarai"},{"transit":false,"i_lat":-6.202263,"i_long":106.822649,"station_name":"Sudirman","distance":3186,"is_transit":false,"time":4,"line":1,"station_id":"SUD"},{"line":1,"time":1,"i_long":106.819881,"transit":false,"i_lat":-6.201433,"station_id":"SUDB","distance":280,"station_name":"Sudirman Baru","is_transit":false},{"line":1,"is_transit":false,"station_name":"Karet","station_id":"KAT","distance":471,"transit":false,"time":1,"i_lat":-6.20132,"i_long":106.816351},{"i_lat":-6.185545,"line":1,"station_id":"THB","distance":2029,"i_long":106.811091,"time":5,"station_name":"Tanah Abang","transit":false,"is_transit":false},{"i_lat":-6.155215,"line":1,"is_transit":false,"station_name":"Duri","distance":3632,"i_long":106.800832,"station_id":"DU","time":8,"transit":false},{"station_id":"AK","is_transit":false,"distance":1230,"line":1,"station_name":"Angke","transit":false,"time":4,"i_lat":-6.144674,"i_long":106.79867},{"distance":4102,"station_name":"Kampung Bandan","time":9,"transit":true,"is_transit":true,"station_id":"KPB","i_long":106.826365,"i_lat":-6.132549,"line":4},{"transit":false,"is_transit":false,"station_id":"RJW","line":11,"station_name":"Rajawali","i_lat":-6.14505,"distance":1444,"i_long":106.836569,"time":3},{"i_long":106.839204,"distance":1901,"line":11,"station_id":"KMO","time":5,"station_name":"Kemayoran","transit":false,"i_lat":-6.161728,"is_transit":false},{"transit":false,"i_long":106.84368,"station_id":"PSE","i_lat":-6.174784,"is_transit":false,"line":11,"time":4,"distance":1436,"station_name":"Pasar Senen"},{"line":11,"i_long":106.850107,"distance":1567,"is_transit":false,"time":8,"transit":false,"station_name":"Gang Sentiong","station_id":"GST","i_lat":-6.185975},{"station_id":"KMT","station_name":"Kramat","transit":false,"is_transit":false,"distance":973,"i_long":106.855437,"time":1,"line":11,"i_lat":-6.193792},{"station_name":"Pondok Jati","is_transit":false,"i_long":106.861737,"station_id":"POK","line":11,"time":2,"transit":false,"i_lat":-6.209188,"distance":1829},{"station_name":"Jatinegara","i_long":106.86807400000001,"is_transit":true,"station_id":"JNG","time":9,"transit":true,"distance":1236,"i_lat":-6.215091,"line":1},{"station_name":"Matraman","station_id":"MTR","transit":false,"i_long":106.858896,"time":2,"i_lat":-6.212485,"is_transit":false,"distance":1377,"line":1}],[{"distance":0,"transit":false,"time":0,"station_id":"CTA","i_long":106.800298,"line":2,"i_lat":-6.448811,"is_transit":false,"station_name":"Citayam"},{"i_lat":-6.405256,"is_transit":false,"station_name":"Depok","station_id":"DP","transit":false,"time":6,"distance":5084,"i_long":106.816926,"line":2},{"distance":1584,"i_lat":-6.391065,"station_id":"DPB","station_name":"Depokbaru","transit":false,"is_transit":false,"time":3,"i_long":106.819451,"line":2},{"i_lat":-6.369073,"i_long":106.831114,"time":4,"transit":false,"is_transit":false,"distance":2727,"line":2,"station_name":"Pondok Cina","station_id":"POC"},{"i_lat":-6.360749,"transit":false,"station_id":"UI","station_name":"Univ. Indonesia","is_transit":false,"distance":1109,"time":2,"line":2,"i_long":106.831474},{"station_id":"UP","time":3,"distance":2264,"i_lat":-6.339291,"transit":false,"station_name":"Univ. Pancasila","is_transit":false,"i_long":106.834175,"line":2},{"distance":1029,"i_lat":-6.330363,"time":2,"is_transit":false,"transit":false,"i_long":106.832616,"station_id":"LNA","line":2,"station_name":"Lenteng Agung"},{"transit":false,"time":3,"line":2,"is_transit":false,"station_name":"Tanjung Barat","i_lat":-6.3080680000000005,"i_long":106.838896,"station_id":"TNT","distance":2671},{"i_lat":-6.2842400000000005,"distance":2820,"transit":false,"time":4,"station_name":"Pasar Minggu","line":2,"is_transit":false,"station_id":"PSM","i_long":106.843999},{"distance":2380,"is_transit":false,"station_name":"Pasar Minggu Baru","i_long":106.851577,"station_id":"PSMB","transit":false,"i_lat":-6.263214,"time":2,"line":2},{"distance":824,"station_id":"DRN","i_long":106.85449,"i_lat":-6.255332,"line":2,"time":2,"is_transit":false,"station_name":"Duren Kalibata","transit":false},{"distance":1546,"i_lat":-6.242512,"line":2,"station_name":"Cawang","i_long":106.856607,"transit":false,"station_id":"CW","time":3,"is_transit":false},{"is_transit":false,"distance":1230,"line":2,"station_name":"Tebet","time":2,"i_lat":-6.226659,"i_long":106.857948,"station_id":"TEB","transit":false},{"is_transit":false,"i_long":106.84912,"distance":2610,"time":4,"station_id":"MRI","transit":false,"station_name":"Manggarai","i_lat":-6.209883,"line":2},{"transit":false,"i_lat":-6.198556,"line":2,"station_id":"CKI","time":4,"station_name":"Cikini","is_transit":false,"distance":1590,"i_long":106.840169},{"i_lat":-6.186295,"line":2,"station_name":"Gondangdia","station_id":"GDD","is_transit":false,"time":3,"i_long":106.832183,"transit":false,"distance":1750},{"station_id":"JUA","station_name":"Juanda","i_long":106.828284,"time":4,"i_lat":-6.166716,"is_transit":false,"distance":2015,"transit":false,"line":2},{"distance":1149,"is_transit":false,"line":2,"time":2,"station_id":"SW","i_lat":-6.160725,"i_long":106.827103,"station_name":"Sawah Besar","transit":false},{"time":2,"is_transit":false,"i_long":106.82482,"line":2,"station_name":"Manggabesar","distance":906,"transit":false,"station_id":"MGB","i_lat":-6.149769},{"line":2,"station_id":"JAY","station_name":"Jayakarta","time":2,"transit":false,"is_transit":false,"i_long":106.820901,"distance":1080,"i_lat":-6.141205},{"distance":1264,"i_long":106.812439,"line":2,"station_name":"Jakarta Kota","is_transit":true,"transit":true,"i_lat":-6.137569,"station_id":"JAKK","time":4},{"i_long":106.826365,"station_name":"Kampung Bandan","transit":true,"is_transit":true,"line":4,"station_id":"KPB","time":3,"distance":1364,"i_lat":-6.132549},{"transit":false,"line":11,"station_name":"Rajawali","station_id":"RJW","time":3,"distance":1444,"i_long":106.836569,"is_transit":false,"i_lat":-6.14505},{"transit":false,"is_transit":false,"distance":1901,"station_name":"Kemayoran","station_id":"KMO","i_long":106.839204,"time":5,"line":11,"i_lat":-6.161728},{"station_name":"Pasar Senen","i_lat":-6.174784,"i_long":106.84368,"line":11,"time":4,"transit":false,"station_id":"PSE","is_transit":false,"distance":1436},{"station_id":"GST","i_long":106.850107,"station_name":"Gang Sentiong","i_lat":-6.185975,"transit":false,"is_transit":false,"line":11,"distance":1567,"time":8},{"is_transit":false,"i_lat":-6.193792,"line":11,"station_id":"KMT","i_long":106.855437,"distance":973,"time":1,"transit":false,"station_name":"Kramat"},{"transit":false,"station_name":"Pondok Jati","is_transit":false,"time":2,"distance":1829,"i_long":106.861737,"i_lat":-6.209188,"station_id":"POK","line":11},{"is_transit":true,"transit":true,"station_id":"JNG","distance":1236,"i_lat":-6.215091,"line":1,"i_long":106.86807400000001,"station_name":"Jatinegara","time":9},{"is_transit":false,"i_long":106.858896,"station_id":"MTR","station_name":"Matraman","transit":false,"distance":1377,"line":1,"i_lat":-6.212485,"time":2}]]}