{"data":[[{"time":0,"transit":false,"i_long":106.800298,"i_lat":-6.448811,"station_name":"Citayam","line":1,"is_transit":true,"station_id":"CTA","distance":0},{"line":0,"transit":false,"station_id":"DP","time":6,"distance":5084,"i_lat":-6.405256,"i_long":106.816926,"is_transit":false,"station_name":"Depok"},{"i_long":106.819451,"station_name":"Depokbaru","distance":1584,"i_lat":-6.391065,"line":0,"is_transit":false,"time":3,"transit":false,"station_id":"DPB"},{"time":4,"station_id":"POC","i_long":106.831114,"station_name":"Pondok Cina","transit":false,"line":2,"is_transit":false,"distance":2727,"i_lat":-6.369073},{"transit":false,"station_id":"UI","i_lat":-6.360749,"is_transit":false,"time":2,"i_long":106.831474,"station_name":"Univ. Indonesia","distance":1109,"line":2},{"station_id":"UP","distance":2264,"i_long":106.834175,"i_lat":-6.339291,"transit":false,"is_transit":false,"station_name":"Univ. Pancasila","time":3,"line":2},{"station_name":"Lenteng Agung","i_long":106.832616,"time":2,"i_lat":-6.330363,"station_id":"LNA","transit":false,"is_transit":false,"distance":1029,"line":2},{"i_long":106.838896,"line":2,"distance":2671,"is_transit":false,"station_id":"TNT","station_name":"Tanjung Barat","time":3,"transit":false,"i_lat":-6.3080680000000005},{"station_name":"Pasar Minggu","time":4,"i_long":106.843999,"is_transit":false,"line":2,"transit":false,"station_id":"PSM","distance":2820,"i_lat":-6.2842400000000005},{"i_lat":-6.263214,"is_transit":false,"station_id":"PSMB","line":2,"transit":false,"station_name":"Pasar Minggu Baru","i_long":106.851577,"time":2,"distance":2380},{"station_name":"Duren Kalibata","i_lat":-6.255332,"line":0,"distance":824,"i_long":106.85449,"station_id":"DRN","time":2,"transit":false,"is_transit":false},{"i_long":106.856607,"transit":false,"time":3,"is_transit":false,"station_name":"Cawang","i_lat":-6.242512,"line":0,"distance":1546,"station_id":"CW"},{"station_id":"TEB","line":2,"transit":false,"is_transit":false,"station_name":"Tebet","i_long":106.857948,"distance":1230,"i_lat":-6.226659,"time":2},{"is_transit":true,"time":4,"i_lat":-6.209883,"line":0,"distance":2610,"station_name":"Manggarai","i_long":106.84912,"transit":true,"station_id":"MRI"},{"station_id":"SUD","station_name":"Sudirman","distance":3186,"time":4,"is_transit":false,"i_lat":-6.202263,"i_long":106.822649,"line":1,"transit":false},{"distance":280,"transit":false,"is_transit":false,"station_id":"SUDB","i_lat":-6.201433,"station_name":"Sudirman Baru","line":1,"time":1,"i_long":106.819881},{"is_transit":false,"distance":471,"i_long":106.816351,"line":1,"station_name":"Karet","time":1,"transit":false,"station_id":"KAT","i_lat":-6.20132},{"i_long":106.811091,"line":1,"time":5,"station_id":"THB","i_lat":-6.185545,"is_transit":true,"distance":2029,"station_name":"Tanah Abang","transit":true},{"line":6,"is_transit":false,"station_name":"Palmerah","i_lat":-6.207404,"transit":false,"station_id":"PLM","i_long":106.79689,"time":6,"distance":3191},{"i_lat":-6.237242,"i_long":106.780334,"station_id":"KBY","distance":3737,"station_name":"Kebayoran","transit":false,"line":6,"time":7,"is_transit":false},{"is_transit":false,"time":8,"transit":false,"i_lat":-6.276362,"i_long":106.74273,"line":6,"station_id":"PDJ","distance":6218,"station_name":"Pondokranji"},{"transit":false,"i_lat":-6.288927,"station_name":"Jurangmangu","is_transit":false,"i_long":106.728916,"station_id":"JMU","line":6,"distance":2179,"time":3},{"is_transit":false,"time":4,"i_lat":-6.296963,"i_long":106.712277,"transit":false,"distance":1994,"station_id":"SDM","line":6,"station_name":"Sudimara"},{"station_id":"RU","line":6,"i_lat":-6.314823,"i_long":106.675475,"time":6,"station_name":"Rawa Buntu","distance":4566,"transit":false,"is_transit":false},{"distance":2413,"i_lat":-6.319871,"station_name":"Serpong","station_id":"SRP","transit":false,"is_transit":false,"time":4,"i_long":106.66566,"line":6},{"i_long":106.640411,"line":0,"is_transit":false,"i_lat":-6.32484,"transit":false,"station_name":"Cisauk","station_id":"CSK","time":4,"distance":1784},{"time":4,"i_lat":-6.329547,"i_long":106.617853,"distance":2519,"transit":false,"station_name":"Cicayur","line":0,"is_transit":false,"station_id":"CC"},{"distance":5968,"station_name":"Parung Panjang","line":6,"transit":false,"i_lat":-6.3441410000000005,"i_long":106.568863,"station_id":"PRP","time":8,"is_transit":false},{"station_name":"Cilejit","i_lat":-6.354349,"transit":false,"is_transit":false,"distance":7025,"i_long":106.508482,"station_id":"CJT","time":9,"line":0},{"time":6,"transit":false,"i_long":106.491338,"line":0,"is_transit":false,"distance":2675,"station_id":"DAR","station_name":"Daru","i_lat":-6.338021},{"line":6,"distance":3902,"transit":false,"time":5,"i_lat":-6.327251,"i_long":106.460812,"station_name":"Tenjo","is_transit":false,"station_id":"TEJ"},{"station_name":"Tigaraksa","station_id":"TGS","i_long":106.425991,"line":6,"transit":false,"distance":2974,"time":5,"is_transit":false,"i_lat":-6.328533},{"station_name":"Cikoya","transit":false,"is_transit":false,"station_id":"CKY","line":0,"time":3,"distance":2651,"i_long":106.411216,"i_lat":-6.33561},{"i_lat":-6.332307,"i_long":106.394373,"time":4,"station_name":"Maja","station_id":"MJ","line":6,"distance":1853,"transit":false,"is_transit":false},{"station_id":"CTR","distance":7293,"line":0,"is_transit":false,"time":10,"i_lat":-6.334892,"i_long":106.332092,"transit":false,"station_name":"Citeras"}],[{"i_lat":-6.448811,"transit":false,"distance":0,"station_id":"CTA","i_long":106.800298,"station_name":"Citayam","is_transit":true,"line":1,"time":0},{"line":0,"i_lat":-6.405256,"is_transit":false,"i_long":106.816926,"station_id":"DP","station_name":"Depok","distance":5084,"time":6,"transit":false},{"is_transit":false,"station_name":"Depokbaru","line":0,"time":3,"station_id":"DPB","distance":1584,"transit":false,"i_lat":-6.391065,"i_long":106.819451},{"distance":2727,"i_long":106.831114,"line":2,"i_lat":-6.369073,"station_id":"POC","is_transit":false,"transit":false,"station_name":"Pondok Cina","time":4},{"station_id":"UI","line":2,"station_name":"Univ. Indonesia","time":2,"is_transit":false,"i_lat":-6.360749,"distance":1109,"i_long":106.831474,"transit":false},{"i_lat":-6.339291,"line":2,"distance":2264,"transit":false,"station_name":"Univ. Pancasila","i_long":106.834175,"station_id":"UP","time":3,"is_transit":false},{"distance":1029,"i_lat":-6.330363,"i_long":106.832616,"line":2,"time":2,"is_transit":false,"station_name":"Lenteng Agung","transit":false,"station_id":"LNA"},{"transit":false,"i_lat":-6.3080680000000005,"i_long":106.838896,"distance":2671,"station_id":"TNT","line":2,"is_transit":false,"station_name":"Tanjung Barat","time":3},{"transit":false,"time":4,"distance":2820,"i_lat":-6.2842400000000005,"i_long":106.843999,"is_transit":false,"line":2,"station_id":"PSM","station_name":"Pasar Minggu"},{"station_name":"Pasar Minggu Baru","transit":false,"i_lat":-6.263214,"i_long":106.851577,"station_id":"PSMB","line":2,"time":2,"is_transit":false,"distance":2380},{"i_lat":-6.255332,"station_name":"Duren Kalibata","distance":824,"is_transit":false,"transit":false,"station_id":"DRN","time":2,"i_long":106.85449,"line":0},{"time":3,"transit":false,"i_lat":-6.242512,"is_transit":false,"station_name":"Cawang","station_id":"CW","i_long":106.856607,"distance":1546,"line":0},{"station_id":"TEB","is_transit":false,"station_name":"Tebet","time":2,"line":2,"i_long":106.857948,"transit":false,"distance":1230,"i_lat":-6.226659},{"station_id":"MRI","transit":true,"i_long":106.84912,"distance":2610,"i_lat":-6.209883,"station_name":"Manggarai","line":0,"time":4,"is_transit":true},{"transit":false,"distance":1590,"i_lat":-6.198556,"i_long":106.840169,"line":0,"time":4,"station_name":"Cikini","is_transit":false,"station_id":"CKI"},{"station_id":"GDD","time":3,"distance":1750,"station_name":"Gondangdia","i_long":106.832183,"is_transit":false,"transit":false,"i_lat":-6.186295,"line":2},{"is_transit":false,"station_name":"Juanda","i_lat":-6.166716,"line":2,"station_id":"JUA","distance":2015,"time":4,"i_long":106.828284,"transit":false},{"transit":false,"distance":1149,"time":2,"i_lat":-6.160725,"i_long":106.827103,"station_id":"SW","line":2,"is_transit":false,"station_name":"Sawah Besar"},{"station_id":"MGB","is_transit":false,"i_lat":-6.149769,"line":2,"station_name":"Manggabesar","i_long":106.82482,"transit":false,"distance":906,"time":2},{"distance":1080,"is_transit":false,"transit":false,"station_id":"JAY","time":2,"i_lat":-6.141205,"i_long":106.820901,"station_name":"Jayakarta","line":7},{"station_id":"JAKK","distance":1264,"is_transit":true,"time":4,"i_lat":-6.137569,"line":0,"i_long":106.812439,"station_name":"Jakarta Kota","transit":true},{"line":0,"distance":1364,"i_long":106.826365,"i_lat":-6.132549,"station_id":"KPB","time":3,"transit":false,"station_name":"Kampung Bandan","is_transit":true},{"line":0,"distance":4102,"transit":false,"i_lat":-6.144674,"i_long":106.79867,"is_transit":false,"time":9,"station_id":"AK","station_name":"Angke"},{"is_transit":true,"station_id":"DU","station_name":"Duri","time":4,"transit":true,"distance":1230,"line":1,"i_lat":-6.155215,"i_long":106.800832},{"line":1,"time":8,"distance":3632,"i_lat":-6.185545,"i_long":106.811091,"is_transit":true,"transit":true,"station_name":"Tanah Abang","station_id":"THB"},{"is_transit":false,"transit":false,"i_long":106.79689,"line":6,"station_id":"PLM","distance":3191,"time":6,"i_lat":-6.207404,"station_name":"Palmerah"},{"i_long":106.780334,"transit":false,"station_id":"KBY","time":7,"line":6,"station_name":"Kebayoran","i_lat":-6.237242,"distance":3737,"is_transit":false},{"time":8,"distance":6218,"is_transit":false,"i_lat":-6.276362,"station_name":"Pondokranji","station_id":"PDJ","i_long":106.74273,"line":6,"transit":false},{"station_id":"JMU","i_long":106.728916,"i_lat":-6.288927,"time":3,"is_transit":false,"station_name":"Jurangmangu","distance":2179,"transit":false,"line":6},{"transit":false,"line":6,"distance":1994,"time":4,"station_id":"SDM","is_transit":false,"station_name":"Sudimara","i_lat":-6.296963,"i_long":106.712277},{"i_lat":-6.314823,"line":6,"station_id":"RU","i_long":106.675475,"station_name":"Rawa Buntu","transit":false,"distance":4566,"time":6,"is_transit":false},{"i_long":106.66566,"i_lat":-6.319871,"station_name":"Serpong","distance":2413,"line":6,"transit":false,"is_transit":false,"station_id":"SRP","time":4},{"station_name":"Cisauk","i_lat":-6.32484,"is_transit":false,"distance":1784,"time":4,"station_id":"CSK","i_long":106.640411,"line":0,"transit":false},{"station_name":"Cicayur","line":0,"i_lat":-6.329547,"distance":2519,"station_id":"CC","time":4,"is_transit":false,"i_long":106.617853,"transit":false},{"i_long":106.568863,"distance":5968,"line":6,"station_id":"PRP","is_transit":false,"time":8,"transit":false,"station_name":"Parung Panjang","i_lat":-6.3441410000000005},{"is_transit":false,"time":9,"i_lat":-6.354349,"i_long":106.508482,"station_id":"CJT","station_name":"Cilejit","line":0,"transit":false,"distance":7025},{"is_transit":false,"distance":2675,"station_name":"Daru","line":0,"i_lat":-6.338021,"transit":false,"time":6,"i_long":106.491338,"station_id":"DAR"},{"station_name":"Tenjo","station_id":"TEJ","time":5,"distance":3902,"i_lat":-6.327251,"line":6,"is_transit":false,"i_long":106.460812,"transit":false},{"line":6,"i_long":106.425991,"station_name":"Tigaraksa","i_lat":-6.328533,"station_id":"TGS","is_transit":false,"transit":false,"time":5,"distance":2974},{"transit":false,"time":3,"station_id":"CKY","i_lat":-6.33561,"station_name":"Cikoya","is_transit":false,"line":0,"i_long":106.411216,"distance":2651},{"station_name":"Maja","station_id":"MJ","is_transit":false,"i_long":106.394373,"line":6,"i_lat":-6.332307,"time":4,"transit":false,"distance":1853},{"time":10,"station_name":"Citeras","i_long":106.332092,"transit":false,"station_id":"CTR","distance":7293,"is_transit":false,"i_lat":-6.334892,"line":0}],[{"station_name":"Citayam","time":0,"i_lat":-6.448811,"line":1,"transit":false,"station_id":"CTA","distance":0,"i_long":106.800298,"is_transit":true},{"station_name":"Depok","time":6,"line":0,"transit":false,"i_long":106.816926,"station_id":"DP","is_transit":false,"i_lat":-6.405256,"distance":5084},{"station_id":"DPB","time":3,"station_name":"Depokbaru","i_lat":-6.391065,"line":0,"is_transit":false,"distance":1584,"transit":false,"i_long":106.819451},{"distance":2727,"time":4,"line":2,"is_transit":false,"i_long":106.831114,"station_name":"Pondok Cina","station_id":"POC","i_lat":-6.369073,"transit":false},{"station_name":"Univ. Indonesia","line":2,"station_id":"UI","i_long":106.831474,"transit":false,"i_lat":-6.360749,"distance":1109,"is_transit":false,"time":2},{"line":2,"is_transit":false,"time":3,"station_name":"Univ. Pancasila","transit":false,"station_id":"UP","distance":2264,"i_lat":-6.339291,"i_long":106.834175},{"is_transit":false,"i_long":106.832616,"transit":false,"time":2,"line":2,"station_id":"LNA","station_name":"Lenteng Agung","i_lat":-6.330363,"distance":1029},{"line":2,"station_name":"Tanjung Barat","i_long":106.838896,"distance":2671,"is_transit":false,"i_lat":-6.3080680000000005,"transit":false,"station_id":"TNT","time":3},{"i_long":106.843999,"station_name":"Pasar Minggu","transit":false,"is_transit":false,"station_id":"PSM","time":4,"distance":2820,"i_lat":-6.2842400000000005,"line":2},{"i_long":106.851577,"time":2,"station_name":"Pasar Minggu Baru","i_lat":-6.263214,"station_id":"PSMB","distance":2380,"transit":false,"line":2,"is_transit":false},{"station_id":"DRN","i_long":106.85449,"i_lat":-6.255332,"distance":824,"is_transit":false,"transit":false,"station_name":"Duren Kalibata","time":2,"line":0},{"distance":1546,"station_name":"Cawang","i_lat":-6.242512,"station_id":"CW","line":0,"is_transit":false,"time":3,"i_long":106.856607,"transit":false},{"station_name":"Tebet","time":2,"distance":1230,"i_lat":-6.226659,"i_long":106.857948,"line":2,"station_id":"TEB","is_transit":false,"transit":false},{"time":4,"transit":true,"station_name":"Manggarai","distance":2610,"station_id":"MRI","i_lat":-6.209883,"i_long":106.84912,"is_transit":true,"line":0},{"transit":false,"station_id":"MTR","i_long":106.858896,"line":1,"is_transit":false,"station_name":"Matraman","time":2,"i_lat":-6.212485,"distance":1275},{"time":8,"distance":1377,"station_name":"Jatinegara","transit":true,"station_id":"JNG","i_long":106.86807400000001,"i_lat":-6.215091,"is_transit":true,"line":0},{"transit":false,"station_name":"Pondok Jati","distance":1236,"line":11,"is_transit":false,"station_id":"POK","i_lat":-6.209188,"i_long":106.861737,"time":2},{"transit":false,"i_lat":-6.193792,"i_long":106.855437,"line":11,"distance":1829,"station_id":"KMT","station_name":"Kramat","is_transit":false,"time":2},{"transit":false,"is_transit":false,"distance":973,"station_id":"GST","line":11,"station_name":"Gang Sentiong","i_lat":-6.185975,"i_long":106.850107,"time":1},{"time":8,"station_name":"Pasar Senen","is_transit":false,"distance":1567,"station_id":"PSE","i_lat":-6.174784,"i_long":106.84368,"transit":false,"line":11},{"distance":1436,"station_name":"Kemayoran","transit":false,"is_transit":false,"time":4,"i_long":106.839204,"line":11,"i_lat":-6.161728,"station_id":"KMO"},{"i_lat":-6.14505,"i_long":106.836569,"line":11,"is_transit":false,"time":5,"station_name":"Rajawali","station_id":"RJW","distance":1901,"transit":false},{"station_name":"Kampung Bandan","i_long":106.826365,"station_id":"KPB","distance":1444,"i_lat":-6.132549,"is_transit":true,"time":3,"transit":true,"line":0},{"distance":4102,"i_long":106.79867,"line":0,"transit":false,"station_name":"Angke","station_id":"AK","is_transit":false,"i_lat":-6.144674,"time":9},{"station_id":"DU","station_name":"Duri","time":4,"line":1,"transit":true,"i_long":106.800832,"distance":1230,"is_transit":true,"i_lat":-6.155215},{"transit":true,"distance":3632,"line":1,"time":8,"is_transit":true,"station_name":"Tanah Abang","station_id":"THB","i_lat":-6.185545,"i_long":106.811091},{"i_long":106.79689,"is_transit":false,"line":6,"station_name":"Palmerah","time":6,"station_id":"PLM","transit":false,"i_lat":-6.207404,"distance":3191},{"is_transit":false,"i_lat":-6.237242,"time":7,"i_long":106.780334,"station_id":"KBY","distance":3737,"transit":false,"station_name":"Kebayoran","line":6},{"distance":6218,"station_id":"PDJ","is_transit":false,"i_long":106.74273,"line":6,"time":8,"transit":false,"i_lat":-6.276362,"station_name":"Pondokranji"},{"station_name":"Jurangmangu","i_lat":-6.288927,"time":3,"i_long":106.728916,"line":6,"is_transit":false,"transit":false,"distance":2179,"station_id":"JMU"},{"i_lat":-6.296963,"i_long":106.712277,"distance":1994,"transit":false,"station_id":"SDM","station_name":"Sudimara","is_transit":false,"time":4,"line":6},{"station_name":"Rawa Buntu","transit":false,"station_id":"RU","distance":4566,"line":6,"i_long":106.675475,"time":6,"is_transit":false,"i_lat":-6.314823},{"time":4,"distance":2413,"i_lat":-6.319871,"station_name":"Serpong","is_transit":false,"station_id":"SRP","transit":false,"line":6,"i_long":106.66566},{"transit":false,"is_transit":false,"station_id":"CSK","distance":1784,"i_long":106.640411,"i_lat":-6.32484,"line":0,"time":4,"station_name":"Cisauk"},{"transit":false,"i_lat":-6.329547,"time":4,"is_transit":false,"distance":2519,"station_name":"Cicayur","station_id":"CC","i_long":106.617853,"line":0},{"transit":false,"distance":5968,"i_long":106.568863,"line":6,"i_lat":-6.3441410000000005,"time":8,"is_transit":false,"station_id":"PRP","station_name":"Parung Panjang"},{"is_transit":false,"station_name":"Cilejit","distance":7025,"transit":false,"station_id":"CJT","time":9,"line":0,"i_lat":-6.354349,"i_long":106.508482},{"transit":false,"is_transit":false,"station_id":"DAR","i_long":106.491338,"line":0,"time":6,"station_name":"Daru","distance":2675,"i_lat":-6.338021},{"is_transit":false,"distance":3902,"time":5,"i_lat":-6.327251,"station_name":"Tenjo","station_id":"TEJ","line":6,"i_long":106.460812,"transit":false},{"station_id":"TGS","line":6,"i_lat":-6.328533,"is_transit":false,"station_name":"Tigaraksa","distance":2974,"i_long":106.425991,"transit":false,"time":5},{"line":0,"i_long":106.411216,"station_name":"Cikoya","time":3,"station_id":"CKY","i_lat":-6.33561,"transit":false,"is_transit":false,"distance":2651},{"station_name":"Maja","distance":1853,"station_id":"MJ","i_lat":-6.332307,"i_long":106.394373,"line":6,"is_transit":false,"transit":false,"time":4},{"line":0,"transit":false,"is_transit":false,"station_name":"Citeras","distance":7293,"station_id":"CTR","time":10,"i_lat":-6.334892,"i_long":106.332092}]]}