{"data":[[{"time":0,"transit":false,"i_long":106.800298,"distance":0,"is_transit":false,"i_lat":-6.448811,"station_name":"Citayam","line":2,"station_id":"CTA"},{"distance":5084,"station_id":"DP","station_name":"Depok","transit":false,"time":6,"i_lat":-6.405256,"i_long":106.816926,"line":2,"is_transit":false},{"transit":false,"station_name":"Depokbaru","i_lat":-6.391065,"i_long":106.819451,"distance":1584,"time":3,"station_id":"DPB","is_transit":false,"line":2},{"i_lat":-6.369073,"i_long":106.831114,"station_name":"Pondok Cina","is_transit":false,"transit":false,"line":2,"time":4,"station_id":"POC","distance":2727},{"i_lat":-6.360749,"i_long":106.831474,"transit":false,"is_transit":false,"distance":1109,"station_name":"Univ. Indonesia","time":2,"line":2,"station_id":"UI"},{"station_name":"Univ. Pancasila","transit":false,"is_transit":false,"distance":2264,"station_id":"UP","time":3,"i_lat":-6.339291,"line":2,"i_long":106.834175},{"station_id":"LNA","station_name":"Lenteng Agung","transit":false,"distance":1029,"time":2,"line":2,"is_transit":false,"i_lat":-6.330363,"i_long":106.832616},{"is_transit":false,"station_name":"Tanjung Barat","time":3,"line":2,"transit":false,"distance":2671,"station_id":"TNT","i_lat":-6.3080680000000005,"i_long":106.838896},{"line":2,"i_long":106.843999,"time":4,"distance":2820,"transit":false,"station_id":"PSM","station_name":"Pasar Minggu","is_transit":false,"i_lat":-6.2842400000000005},{"transit":false,"station_id":"PSMB","i_long":106.851577,"distance":2380,"time":2,"i_lat":-6.263214,"station_name":"Pasar Minggu Baru","is_transit":false,"line":2},{"station_name":"Duren Kalibata","station_id":"DRN","is_transit":false,"transit":false,"distance":824,"time":2,"i_long":106.85449,"i_lat":-6.255332,"line":2},{"distance":1546,"i_long":106.856607,"is_transit":false,"station_id":"CW","station_name":"Cawang","i_lat":-6.242512,"line":2,"time":3,"transit":false},{"line":2,"transit":false,"i_long":106.857948,"time":2,"station_name":"Tebet","distance":1230,"station_id":"TEB","is_transit":false,"i_lat":-6.226659},{"time":4,"station_id":"MRI","i_long":106.84912,"transit":true,"is_transit":true,"distance":2610,"station_name":"Manggarai","i_lat":-6.209883,"line":2},{"i_lat":-6.202263,"i_long":106.822649,"station_name":"Sudirman","transit":false,"station_id":"SUD","is_transit":false,"time":4,"line":1,"distance":3186},{"line":1,"i_long":106.819881,"station_name":"Sudirman Baru","is_transit":false,"station_id":"SUDB","transit":false,"time":1,"i_lat":-6.201433,"distance":280},{"transit":false,"station_id":"KAT","time":1,"i_lat":-6.20132,"i_long":106.816351,"station_name":"Karet","is_transit":false,"distance":471,"line":1},{"is_transit":false,"time":5,"station_id":"THB","distance":2029,"i_lat":-6.185545,"line":1,"i_long":106.811091,"transit":false,"station_name":"Tanah Abang"},{"station_name":"Duri","distance":3632,"transit":true,"i_long":106.800832,"line":1,"i_lat":-6.155215,"station_id":"DU","time":8,"is_transit":true},{"i_lat":-6.162021,"transit":false,"distance":1700,"station_name":"Grogol","is_transit":false,"i_long":106.788277,"time":3,"line":5,"station_id":"GGL"}],[{"time":0,"i_long":106.800298,"station_name":"Citayam","transit":false,"distance":0,"i_lat":-6.448811,"is_transit":false,"station_id":"CTA","line":2},{"time":6,"transit":false,"station_id":"DP","station_name":"Depok","distance":5084,"i_lat":-6.405256,"line":2,"is_transit":false,"i_long":106.816926},{"i_lat":-6.391065,"station_id":"DPB","transit":false,"i_long":106.819451,"time":3,"station_name":"Depokbaru","distance":1584,"line":2,"is_transit":false},{"time":4,"i_long":106.831114,"i_lat":-6.369073,"station_name":"Pondok Cina","is_transit":false,"transit":false,"line":2,"station_id":"POC","distance":2727},{"time":2,"station_name":"Univ. Indonesia","i_lat":-6.360749,"i_long":106.831474,"transit":false,"station_id":"UI","line":2,"is_transit":false,"distance":1109},{"line":2,"is_transit":false,"station_id":"UP","transit":false,"distance":2264,"time":3,"i_long":106.834175,"station_name":"Univ. Pancasila","i_lat":-6.339291},{"distance":1029,"station_name":"Lenteng Agung","is_transit":false,"time":2,"station_id":"LNA","line":2,"i_lat":-6.330363,"transit":false,"i_long":106.832616},{"is_transit":false,"transit":false,"distance":2671,"i_lat":-6.3080680000000005,"line":2,"station_name":"Tanjung Barat","time":3,"station_id":"TNT","i_long":106.838896},{"i_lat":-6.2842400000000005,"distance":2820,"line":2,"station_id":"PSM","i_long":106.843999,"station_name":"Pasar Minggu","time":4,"transit":false,"is_transit":false},{"line":2,"station_id":"PSMB","transit":false,"i_long":106.851577,"is_transit":false,"station_name":"Pasar Minggu Baru","time":2,"distance":2380,"i_lat":-6.263214},{"i_lat":-6.255332,"line":2,"station_id":"DRN","distance":824,"time":2,"i_long":106.85449,"is_transit":false,"station_name":"Duren Kalibata","transit":false},{"distance":1546,"is_transit":false,"time":3,"station_id":"CW","station_name":"Cawang","line":2,"i_lat":-6.242512,"i_long":106.856607,"transit":false},{"i_lat":-6.226659,"i_long":106.857948,"line":2,"is_transit":false,"distance":1230,"station_id":"TEB","transit":false,"station_name":"Tebet","time":2},{"distance":2610,"station_name":"Manggarai","i_lat":-6.209883,"is_transit":false,"transit":false,"i_long":106.84912,"station_id":"MRI","time":4,"line":2},{"distance":1590,"i_lat":-6.198556,"station_id":"CKI","line":2,"is_transit":false,"i_long":106.840169,"station_name":"Cikini","transit":false,"time":4},{"time":3,"is_transit":false,"i_lat":-6.186295,"i_long":106.832183,"distance":1750,"transit":false,"station_name":"Gondangdia","station_id":"GDD","line":2},{"is_transit":false,"station_id":"JUA","i_lat":-6.166716,"i_long":106.828284,"time":4,"distance":2015,"transit":false,"station_name":"Juanda","line":2},{"transit":false,"i_long":106.827103,"distance":1149,"is_transit":false,"time":2,"i_lat":-6.160725,"station_name":"Sawah Besar","line":2,"station_id":"SW"},{"i_long":106.82482,"distance":906,"station_name":"Manggabesar","line":2,"time":2,"i_lat":-6.149769,"transit":false,"station_id":"MGB","is_transit":false},{"i_long":106.820901,"station_name":"Jayakarta","line":2,"station_id":"JAY","distance":1080,"time":2,"i_lat":-6.141205,"transit":false,"is_transit":false},{"station_id":"JAKK","is_transit":true,"i_lat":-6.137569,"transit":true,"i_long":106.812439,"time":4,"distance":1264,"station_name":"Jakarta Kota","line":2},{"station_id":"KPB","is_transit":true,"i_lat":-6.132549,"station_name":"Kampung Bandan","transit":true,"time":3,"i_long":106.826365,"line":4,"distance":1364},{"line":1,"station_id":"AK","i_lat":-6.144674,"i_long":106.79867,"station_name":"Angke","is_transit":false,"time":9,"transit":false,"distance":4102},{"station_id":"DU","distance":1230,"i_lat":-6.155215,"transit":true,"station_name":"Duri","time":4,"line":1,"is_transit":true,"i_long":106.800832},{"i_long":106.788277,"transit":false,"station_id":"GGL","is_transit":false,"distance":1700,"station_name":"Grogol","time":3,"i_lat":-6.162021,"line":5}],[{"time":0,"i_lat":-6.448811,"station_name":"Citayam","line":2,"transit":false,"distance":0,"i_long":106.800298,"is_transit":false,"station_id":"CTA"},{"station_name":"Depok","station_id":"DP","distance":5084,"line":2,"time":6,"i_lat":-6.405256,"i_long":106.816926,"transit":false,"is_transit":false},{"line":2,"transit":false,"is_transit":false,"i_long":106.819451,"distance":1584,"time":3,"station_name":"Depokbaru","station_id":"DPB","i_lat":-6.391065},{"station_name":"Pondok Cina","time":4,"i_long":106.831114,"distance":2727,"line":2,"transit":false,"i_lat":-6.369073,"station_id":"POC","is_transit":false},{"time":2,"transit":false,"distance":1109,"is_transit":false,"i_lat":-6.360749,"station_name":"Univ. Indonesia","i_long":106.831474,"station_id":"UI","line":2},{"station_id":"UP","transit":false,"distance":2264,"station_name":"Univ. Pancasila","i_long":106.834175,"time":3,"is_transit":false,"i_lat":-6.339291,"line":2},{"station_name":"Lenteng Agung","i_lat":-6.330363,"line":2,"transit":false,"station_id":"LNA","is_transit":false,"distance":1029,"time":2,"i_long":106.832616},{"station_name":"Tanjung Barat","transit":false,"station_id":"TNT","time":3,"is_transit":false,"i_lat":-6.3080680000000005,"distance":2671,"i_long":106.838896,"line":2},{"station_id":"PSM","line":2,"transit":false,"i_lat":-6.2842400000000005,"distance":2820,"is_transit":false,"i_long":106.843999,"station_name":"Pasar Minggu","time":4},{"is_transit":false,"line":2,"i_lat":-6.263214,"station_id":"PSMB","station_name":"Pasar Minggu Baru","i_long":106.851577,"distance":2380,"time":2,"transit":false},{"i_lat":-6.255332,"station_name":"Duren Kalibata","time":2,"is_transit":false,"transit":false,"distance":824,"i_long":106.85449,"line":2,"station_id":"DRN"},{"station_id":"CW","time":3,"distance":1546,"i_long":106.856607,"line":2,"station_name":"Cawang","i_lat":-6.242512,"is_transit":false,"transit":false},{"i_long":106.857948,"station_id":"TEB","station_name":"Tebet","transit":false,"time":2,"is_transit":false,"i_lat":-6.226659,"line":2,"distance":1230},{"line":2,"is_transit":true,"distance":2610,"i_long":106.84912,"station_id":"MRI","time":4,"station_name":"Manggarai","i_lat":-6.209883,"transit":true},{"transit":false,"distance":1275,"time":2,"station_id":"MTR","i_long":106.858896,"line":1,"is_transit":false,"station_name":"Matraman","i_lat":-6.212485},{"i_lat":-6.215091,"station_id":"JNG","i_long":106.86807400000001,"line":1,"transit":true,"is_transit":true,"time":8,"station_name":"Jatinegara","distance":1377},{"station_id":"POK","is_transit":false,"time":2,"line":11,"distance":1236,"i_long":106.861737,"i_lat":-6.209188,"station_name":"Pondok Jati","transit":false},{"time":2,"station_id":"KMT","is_transit":false,"line":11,"i_long":106.855437,"station_name":"Kramat","transit":false,"distance":1829,"i_lat":-6.193792},{"i_long":106.850107,"is_transit":false,"line":11,"distance":973,"time":1,"i_lat":-6.185975,"station_id":"GST","transit":false,"station_name":"Gang Sentiong"},{"station_name":"Pasar Senen","i_long":106.84368,"i_lat":-6.174784,"is_transit":false,"distance":1567,"time":8,"station_id":"PSE","line":11,"transit":false},{"station_name":"Kemayoran","station_id":"KMO","is_transit":false,"distance":1436,"time":4,"i_long":106.839204,"transit":false,"i_lat":-6.161728,"line":11},{"time":5,"line":11,"i_lat":-6.14505,"i_long":106.836569,"distance":1901,"station_id":"RJW","transit":false,"station_name":"Rajawali","is_transit":false},{"time":3,"distance":1444,"station_name":"Kampung Bandan","transit":true,"is_transit":true,"station_id":"KPB","i_lat":-6.132549,"line":4,"i_long":106.826365},{"time":9,"i_lat":-6.144674,"station_name":"Angke","is_transit":false,"transit":false,"station_id":"AK","line":1,"distance":4102,"i_long":106.79867},{"i_lat":-6.155215,"i_long":106.800832,"transit":true,"distance":1230,"station_name":"Duri","line":1,"station_id":"DU","time":4,"is_transit":true},{"i_long":106.788277,"distance":1700,"is_transit":false,"i_lat":-6.162021,"transit":false,"line":5,"station_id":"GGL","time":3,"station_name":"Grogol"}]]}