{"data":[[{"line":2,"is_transit":false,"station_id":"CTA","i_long":106.800298,"time":0,"transit":false,"distance":0,"station_name":"Citayam","i_lat":-6.448811},{"station_name":"Depok","line":2,"time":6,"is_transit":false,"station_id":"DP","i_lat":-6.405256,"distance":5084,"transit":false,"i_long":106.816926},{"line":2,"distance":1584,"station_name":"Depokbaru","transit":false,"i_lat":-6.391065,"i_long":106.819451,"station_id":"DPB","is_transit":false,"time":3},{"line":2,"time":4,"is_transit":false,"i_long":106.831114,"distance":2727,"station_id":"POC","station_name":"Pondok Cina","transit":false,"i_lat":-6.369073},{"i_lat":-6.360749,"line":2,"transit":false,"distance":1109,"i_long":106.831474,"time":2,"station_id":"UI","is_transit":false,"station_name":"Univ. Indonesia"},{"station_name":"Univ. Pancasila","i_long":106.834175,"transit":false,"distance":2264,"is_transit":false,"line":2,"time":3,"station_id":"UP","i_lat":-6.339291},{"is_transit":false,"time":2,"i_long":106.832616,"transit":false,"i_lat":-6.330363,"station_name":"Lenteng Agung","line":2,"station_id":"LNA","distance":1029},{"station_id":"TNT","station_name":"Tanjung Barat","transit":false,"line":2,"time":3,"i_lat":-6.3080680000000005,"is_transit":false,"distance":2671,"i_long":106.838896},{"time":4,"is_transit":false,"station_name":"Pasar Minggu","i_lat":-6.2842400000000005,"line":2,"i_long":106.843999,"transit":false,"distance":2820,"station_id":"PSM"},{"station_id":"PSMB","time":2,"station_name":"Pasar Minggu Baru","is_transit":false,"distance":2380,"transit":false,"i_long":106.851577,"i_lat":-6.263214,"line":2},{"station_id":"DRN","station_name":"Duren Kalibata","time":2,"i_long":106.85449,"i_lat":-6.255332,"distance":824,"line":2,"transit":false,"is_transit":false},{"time":3,"distance":1546,"transit":false,"line":2,"is_transit":false,"i_lat":-6.242512,"i_long":106.856607,"station_name":"Cawang","station_id":"CW"},{"station_id":"TEB","distance":1230,"i_lat":-6.226659,"station_name":"Tebet","time":2,"line":2,"i_long":106.857948,"is_transit":false,"transit":false},{"is_transit":true,"distance":2610,"i_long":106.84912,"station_name":"Manggarai","transit":true,"i_lat":-6.209883,"station_id":"MRI","time":4,"line":2},{"station_name":"Matraman","i_lat":-6.212485,"is_transit":false,"i_long":106.858896,"line":1,"distance":1275,"station_id":"MTR","time":2,"transit":false},{"distance":1377,"line":1,"time":8,"station_name":"Jatinegara","is_transit":false,"station_id":"JNG","transit":false,"i_lat":-6.215091,"i_long":106.86807400000001},{"i_long":106.899548,"station_id":"KLD","time":3,"i_lat":-6.2135,"is_transit":false,"distance":3395,"station_name":"Klender","transit":false,"line":1},{"distance":3100,"i_long":106.922662,"i_lat":-6.215568,"line":1,"station_id":"BUA","is_transit":false,"time":2,"station_name":"Buaran","transit":false},{"distance":1305,"is_transit":false,"time":1,"station_id":"KLDB","i_lat":-6.217455,"i_long":106.939679,"line":1,"transit":false,"station_name":"Klenderbaru"}],[{"time":0,"station_name":"Citayam","distance":0,"station_id":"CTA","i_lat":-6.448811,"line":2,"i_long":106.800298,"transit":false,"is_transit":false},{"station_name":"Depok","line":2,"is_transit":false,"i_long":106.816926,"i_lat":-6.405256,"time":6,"station_id":"DP","transit":false,"distance":5084},{"transit":false,"station_name":"Depokbaru","i_long":106.819451,"time":3,"is_transit":false,"distance":1584,"station_id":"DPB","line":2,"i_lat":-6.391065},{"is_transit":false,"transit":false,"distance":2727,"line":2,"i_lat":-6.369073,"time":4,"i_long":106.831114,"station_name":"Pondok Cina","station_id":"POC"},{"transit":false,"station_id":"UI","i_lat":-6.360749,"i_long":106.831474,"is_transit":false,"time":2,"station_name":"Univ. Indonesia","distance":1109,"line":2},{"station_name":"Univ. Pancasila","station_id":"UP","line":2,"distance":2264,"i_lat":-6.339291,"i_long":106.834175,"is_transit":false,"time":3,"transit":false},{"i_lat":-6.330363,"time":2,"i_long":106.832616,"transit":false,"distance":1029,"is_transit":false,"station_name":"Lenteng Agung","station_id":"LNA","line":2},{"time":3,"station_name":"Tanjung Barat","i_lat":-6.3080680000000005,"i_long":106.838896,"transit":false,"line":2,"distance":2671,"is_transit":false,"station_id":"TNT"},{"i_lat":-6.2842400000000005,"station_name":"Pasar Minggu","transit":false,"distance":2820,"i_long":106.843999,"is_transit":false,"line":2,"station_id":"PSM","time":4},{"line":2,"station_id":"PSMB","i_long":106.851577,"station_name":"Pasar Minggu Baru","distance":2380,"is_transit":false,"time":2,"transit":false,"i_lat":-6.263214},{"distance":824,"i_lat":-6.255332,"is_transit":false,"station_id":"DRN","station_name":"Duren Kalibata","i_long":106.85449,"transit":false,"line":2,"time":2},{"distance":1546,"station_id":"CW","station_name":"Cawang","transit":false,"i_lat":-6.242512,"time":3,"i_long":106.856607,"line":2,"is_transit":false},{"time":2,"i_long":106.857948,"i_lat":-6.226659,"distance":1230,"transit":false,"is_transit":false,"station_name":"Tebet","station_id":"TEB","line":2},{"is_transit":true,"station_id":"MRI","station_name":"Manggarai","distance":2610,"line":2,"i_long":106.84912,"i_lat":-6.209883,"time":4,"transit":true},{"transit":false,"distance":3186,"i_lat":-6.202263,"station_id":"SUD","line":1,"i_long":106.822649,"time":4,"is_transit":false,"station_name":"Sudirman"},{"line":1,"station_name":"Sudirman Baru","i_long":106.819881,"time":1,"i_lat":-6.201433,"transit":false,"distance":280,"station_id":"SUDB","is_transit":false},{"transit":false,"line":1,"station_name":"Karet","distance":471,"is_transit":false,"i_long":106.816351,"time":1,"station_id":"KAT","i_lat":-6.20132},{"i_lat":-6.185545,"transit":false,"i_long":106.811091,"line":1,"time":5,"station_name":"Tanah Abang","is_transit":false,"distance":2029,"station_id":"THB"},{"transit":false,"station_id":"DU","line":1,"i_long":106.800832,"is_transit":false,"station_name":"Duri","time":8,"i_lat":-6.155215,"distance":3632},{"station_id":"AK","i_long":106.79867,"distance":1230,"station_name":"Angke","time":4,"line":1,"is_transit":false,"i_lat":-6.144674,"transit":false},{"i_long":106.826365,"time":9,"is_transit":true,"station_name":"Kampung Bandan","distance":4102,"station_id":"KPB","transit":true,"line":4,"i_lat":-6.132549},{"i_lat":-6.14505,"i_long":106.836569,"is_transit":false,"station_name":"Rajawali","distance":1444,"time":3,"station_id":"RJW","line":11,"transit":false},{"i_lat":-6.161728,"is_transit":false,"i_long":106.839204,"station_name":"Kemayoran","station_id":"KMO","line":11,"distance":1901,"transit":false,"time":5},{"line":11,"station_id":"PSE","i_long":106.84368,"time":4,"transit":false,"distance":1436,"i_lat":-6.174784,"is_transit":false,"station_name":"Pasar Senen"},{"is_transit":false,"time":8,"i_lat":-6.185975,"transit":false,"i_long":106.850107,"distance":1567,"station_id":"GST","station_name":"Gang Sentiong","line":11},{"time":1,"station_id":"KMT","distance":973,"is_transit":false,"station_name":"Kramat","i_lat":-6.193792,"i_long":106.855437,"transit":false,"line":11},{"distance":1829,"station_id":"POK","i_lat":-6.209188,"transit":false,"i_long":106.861737,"station_name":"Pondok Jati","time":2,"line":11,"is_transit":false},{"is_transit":true,"distance":1236,"i_lat":-6.215091,"time":9,"transit":true,"station_id":"JNG","station_name":"Jatinegara","i_long":106.86807400000001,"line":1},{"distance":3395,"transit":false,"station_id":"KLD","i_lat":-6.2135,"i_long":106.899548,"is_transit":false,"station_name":"Klender","line":1,"time":3},{"time":2,"i_long":106.922662,"station_name":"Buaran","transit":false,"line":1,"is_transit":false,"distance":3100,"station_id":"BUA","i_lat":-6.215568},{"distance":1305,"station_id":"KLDB","is_transit":false,"time":1,"station_name":"Klenderbaru","i_lat":-6.217455,"line":1,"i_long":106.939679,"transit":false}],[{"time":0,"station_id":"CTA","is_transit":false,"station_name":"Citayam","transit":false,"distance":0,"i_lat":-6.448811,"line":2,"i_long":106.800298},{"transit":false,"line":2,"time":6,"is_transit":false,"distance":5084,"station_id":"DP","i_lat":-6.405256,"i_long":106.816926,"station_name":"Depok"},{"station_id":"DPB","i_long":106.819451,"transit":false,"line":2,"is_transit":false,"i_lat":-6.391065,"station_name":"Depokbaru","time":3,"distance":1584},{"is_transit":false,"station_name":"Pondok Cina","distance":2727,"i_lat":-6.369073,"time":4,"station_id":"POC","i_long":106.831114,"line":2,"transit":false},{"station_name":"Univ. Indonesia","i_long":106.831474,"is_transit":false,"line":2,"distance":1109,"station_id":"UI","transit":false,"time":2,"i_lat":-6.360749},{"distance":2264,"station_name":"Univ. Pancasila","transit":false,"i_lat":-6.339291,"station_id":"UP","i_long":106.834175,"line":2,"is_transit":false,"time":3},{"station_id":"LNA","transit":false,"line":2,"time":2,"i_lat":-6.330363,"is_transit":false,"i_long":106.832616,"distance":1029,"station_name":"Lenteng Agung"},{"time":3,"transit":false,"station_id":"TNT","is_transit":false,"line":2,"distance":2671,"station_name":"Tanjung Barat","i_long":106.838896,"i_lat":-6.3080680000000005},{"i_lat":-6.2842400000000005,"station_name":"Pasar Minggu","is_transit":false,"distance":2820,"station_id":"PSM","i_long":106.843999,"line":2,"transit":false,"time":4},{"line":2,"is_transit":false,"station_id":"PSMB","transit":false,"station_name":"Pasar Minggu Baru","distance":2380,"time":2,"i_lat":-6.263214,"i_long":106.851577},{"station_id":"DRN","i_lat":-6.255332,"transit":false,"line":2,"i_long":106.85449,"is_transit":false,"distance":824,"time":2,"station_name":"Duren Kalibata"},{"station_id":"CW","i_long":106.856607,"is_transit":false,"i_lat":-6.242512,"station_name":"Cawang","time":3,"distance":1546,"line":2,"transit":false},{"distance":1230,"i_lat":-6.226659,"i_long":106.857948,"line":2,"station_id":"TEB","time":2,"station_name":"Tebet","is_transit":false,"transit":false},{"transit":false,"distance":2610,"i_lat":-6.209883,"is_transit":false,"station_id":"MRI","line":2,"i_long":106.84912,"time":4,"station_name":"Manggarai"},{"time":4,"distance":1590,"line":2,"i_long":106.840169,"station_name":"Cikini","i_lat":-6.198556,"station_id":"CKI","transit":false,"is_transit":false},{"distance":1750,"i_lat":-6.186295,"station_id":"GDD","station_name":"Gondangdia","line":2,"i_long":106.832183,"transit":false,"is_transit":false,"time":3},{"time":4,"transit":false,"distance":2015,"i_long":106.828284,"station_id":"JUA","line":2,"station_name":"Juanda","i_lat":-6.166716,"is_transit":false},{"transit":false,"station_name":"Sawah Besar","station_id":"SW","line":2,"time":2,"is_transit":false,"distance":1149,"i_lat":-6.160725,"i_long":106.827103},{"station_id":"MGB","i_lat":-6.149769,"i_long":106.82482,"is_transit":false,"station_name":"Manggabesar","transit":false,"distance":906,"line":2,"time":2},{"distance":1080,"station_id":"JAY","i_lat":-6.141205,"station_name":"Jayakarta","time":2,"i_long":106.820901,"line":2,"transit":false,"is_transit":false},{"i_long":106.812439,"station_name":"Jakarta Kota","time":4,"station_id":"JAKK","i_lat":-6.137569,"transit":true,"distance":1264,"line":2,"is_transit":true},{"time":3,"station_name":"Kampung Bandan","i_lat":-6.132549,"is_transit":true,"transit":true,"station_id":"KPB","i_long":106.826365,"line":4,"distance":1364},{"i_lat":-6.14505,"distance":1444,"i_long":106.836569,"line":11,"is_transit":false,"station_id":"RJW","station_name":"Rajawali","time":3,"transit":false},{"station_id":"KMO","is_transit":false,"i_long":106.839204,"i_lat":-6.161728,"line":11,"distance":1901,"station_name":"Kemayoran","transit":false,"time":5},{"time":4,"transit":false,"station_name":"Pasar Senen","i_lat":-6.174784,"station_id":"PSE","distance":1436,"is_transit":false,"line":11,"i_long":106.84368},{"distance":1567,"line":11,"i_long":106.850107,"is_transit":false,"time":8,"transit":false,"station_name":"Gang Sentiong","station_id":"GST","i_lat":-6.185975},{"transit":false,"distance":973,"is_transit":false,"i_long":106.855437,"i_lat":-6.193792,"time":1,"line":11,"station_id":"KMT","station_name":"Kramat"},{"i_lat":-6.209188,"time":2,"station_name":"Pondok Jati","line":11,"station_id":"POK","distance":1829,"is_transit":false,"i_long":106.861737,"transit":false},{"i_lat":-6.215091,"transit":true,"i_long":106.86807400000001,"station_name":"Jatinegara","station_id":"JNG","is_transit":true,"time":9,"distance":1236,"line":1},{"station_id":"KLD","time":3,"transit":false,"line":1,"distance":3395,"station_name":"Klender","i_long":106.899548,"is_transit":false,"i_lat":-6.2135},{"i_long":106.922662,"station_name":"Buaran","line":1,"transit":false,"station_id":"BUA","time":2,"distance":3100,"i_lat":-6.215568,"is_transit":false},{"time":1,"station_name":"Klenderbaru","distance":1305,"transit":false,"i_long":106.939679,"i_lat":-6.217455,"station_id":"KLDB","line":1,"is_transit":false}]]}