{"data":[[{"line":2,"station_id":"CTA","transit":false,"is_transit":false,"time":0,"i_lat":-6.448811,"station_name":"Citayam","distance":0,"i_long":106.800298},{"distance":5084,"line":2,"is_transit":false,"station_name":"Depok","i_lat":-6.405256,"transit":false,"time":6,"i_long":106.816926,"station_id":"DP"},{"distance":1584,"line":2,"i_lat":-6.391065,"i_long":106.819451,"station_id":"DPB","station_name":"Depokbaru","time":3,"transit":false,"is_transit":false},{"transit":false,"station_name":"Pondok Cina","station_id":"POC","i_long":106.831114,"distance":2727,"line":2,"is_transit":false,"time":4,"i_lat":-6.369073},{"station_name":"Univ. Indonesia","is_transit":false,"distance":1109,"i_long":106.831474,"transit":false,"i_lat":-6.360749,"line":2,"station_id":"UI","time":2},{"station_name":"Univ. Pancasila","i_long":106.834175,"station_id":"UP","time":3,"distance":2264,"i_lat":-6.339291,"line":2,"transit":false,"is_transit":false},{"line":2,"i_long":106.832616,"transit":false,"is_transit":false,"i_lat":-6.330363,"station_id":"LNA","time":2,"distance":1029,"station_name":"Lenteng Agung"},{"i_lat":-6.3080680000000005,"time":3,"i_long":106.838896,"station_id":"TNT","line":2,"is_transit":false,"distance":2671,"station_name":"Tanjung Barat","transit":false},{"i_long":106.843999,"line":2,"distance":2820,"station_id":"PSM","transit":false,"i_lat":-6.2842400000000005,"station_name":"Pasar Minggu","is_transit":false,"time":4},{"is_transit":false,"line":2,"station_id":"PSMB","distance":2380,"i_lat":-6.263214,"station_name":"Pasar Minggu Baru","i_long":106.851577,"transit":false,"time":2},{"station_name":"Duren Kalibata","is_transit":false,"i_long":106.85449,"distance":824,"line":2,"station_id":"DRN","time":2,"i_lat":-6.255332,"transit":false},{"line":2,"is_transit":false,"i_long":106.856607,"station_id":"CW","time":3,"distance":1546,"transit":false,"station_name":"Cawang","i_lat":-6.242512},{"i_long":106.857948,"transit":false,"station_name":"Tebet","is_transit":false,"i_lat":-6.226659,"station_id":"TEB","time":2,"line":2,"distance":1230},{"station_name":"Manggarai","time":4,"distance":2610,"line":2,"is_transit":true,"i_long":106.84912,"transit":true,"i_lat":-6.209883,"station_id":"MRI"},{"station_id":"SUD","station_name":"Sudirman","i_lat":-6.202263,"i_long":106.822649,"distance":3186,"line":1,"is_transit":false,"time":4,"transit":false},{"time":1,"is_transit":false,"transit":false,"station_id":"SUDB","i_long":106.819881,"line":1,"i_lat":-6.201433,"station_name":"Sudirman Baru","distance":280},{"distance":471,"is_transit":false,"station_id":"KAT","time":1,"i_lat":-6.20132,"line":1,"transit":false,"station_name":"Karet","i_long":106.816351},{"station_name":"Tanah Abang","distance":2029,"i_lat":-6.185545,"line":1,"i_long":106.811091,"station_id":"THB","transit":true,"time":5,"is_transit":true},{"station_id":"PLM","distance":3191,"transit":false,"i_lat":-6.207404,"i_long":106.79689,"time":6,"is_transit":false,"station_name":"Palmerah","line":6},{"i_long":106.780334,"line":6,"is_transit":false,"i_lat":-6.237242,"time":7,"distance":3737,"transit":false,"station_name":"Kebayoran","station_id":"KBY"},{"transit":false,"time":8,"i_lat":-6.276362,"is_transit":false,"station_id":"PDJ","distance":6218,"station_name":"Pondokranji","line":6,"i_long":106.74273},{"i_long":106.728916,"station_id":"JMU","transit":false,"distance":2179,"line":6,"i_lat":-6.288927,"station_name":"Jurangmangu","is_transit":false,"time":3},{"station_name":"Sudimara","i_lat":-6.296963,"is_transit":false,"i_long":106.712277,"transit":false,"time":4,"distance":1994,"station_id":"SDM","line":6},{"distance":4566,"i_long":106.675475,"transit":false,"line":6,"station_id":"RU","station_name":"Rawa Buntu","i_lat":-6.314823,"time":6,"is_transit":false}],[{"station_name":"Citayam","station_id":"CTA","line":2,"time":0,"is_transit":false,"distance":0,"i_lat":-6.448811,"i_long":106.800298,"transit":false},{"i_lat":-6.405256,"line":2,"station_name":"Depok","distance":5084,"transit":false,"time":6,"station_id":"DP","i_long":106.816926,"is_transit":false},{"station_id":"DPB","distance":1584,"station_name":"Depokbaru","is_transit":false,"time":3,"i_long":106.819451,"i_lat":-6.391065,"line":2,"transit":false},{"station_id":"POC","station_name":"Pondok Cina","time":4,"i_lat":-6.369073,"i_long":106.831114,"line":2,"distance":2727,"transit":false,"is_transit":false},{"transit":false,"is_transit":false,"time":2,"line":2,"distance":1109,"station_id":"UI","station_name":"Univ. Indonesia","i_long":106.831474,"i_lat":-6.360749},{"i_long":106.834175,"station_id":"UP","line":2,"time":3,"station_name":"Univ. Pancasila","transit":false,"is_transit":false,"distance":2264,"i_lat":-6.339291},{"line":2,"is_transit":false,"station_name":"Lenteng Agung","distance":1029,"transit":false,"time":2,"station_id":"LNA","i_long":106.832616,"i_lat":-6.330363},{"station_id":"TNT","i_long":106.838896,"line":2,"station_name":"Tanjung Barat","i_lat":-6.3080680000000005,"is_transit":false,"time":3,"distance":2671,"transit":false},{"station_name":"Pasar Minggu","line":2,"distance":2820,"i_lat":-6.2842400000000005,"time":4,"is_transit":false,"transit":false,"station_id":"PSM","i_long":106.843999},{"distance":2380,"station_name":"Pasar Minggu Baru","i_lat":-6.263214,"line":2,"is_transit":false,"station_id":"PSMB","transit":false,"time":2,"i_long":106.851577},{"i_long":106.85449,"station_name":"Duren Kalibata","transit":false,"line":2,"distance":824,"i_lat":-6.255332,"time":2,"is_transit":false,"station_id":"DRN"},{"i_long":106.856607,"line":2,"is_transit":false,"distance":1546,"i_lat":-6.242512,"transit":false,"station_name":"Cawang","station_id":"CW","time":3},{"station_name":"Tebet","transit":false,"line":2,"is_transit":false,"station_id":"TEB","time":2,"distance":1230,"i_lat":-6.226659,"i_long":106.857948},{"time":4,"station_name":"Manggarai","is_transit":false,"line":2,"transit":false,"i_long":106.84912,"i_lat":-6.209883,"station_id":"MRI","distance":2610},{"transit":false,"station_id":"CKI","i_long":106.840169,"line":2,"is_transit":false,"distance":1590,"station_name":"Cikini","time":4,"i_lat":-6.198556},{"transit":false,"station_name":"Gondangdia","is_transit":false,"distance":1750,"line":2,"i_lat":-6.186295,"station_id":"GDD","time":3,"i_long":106.832183},{"station_id":"JUA","line":2,"time":4,"is_transit":false,"distance":2015,"transit":false,"i_long":106.828284,"i_lat":-6.166716,"station_name":"Juanda"},{"time":2,"station_name":"Sawah Besar","distance":1149,"station_id":"SW","transit":false,"line":2,"is_transit":false,"i_lat":-6.160725,"i_long":106.827103},{"station_id":"MGB","is_transit":false,"i_lat":-6.149769,"station_name":"Manggabesar","line":2,"transit":false,"time":2,"distance":906,"i_long":106.82482},{"transit":false,"is_transit":false,"i_lat":-6.141205,"station_id":"JAY","time":2,"station_name":"Jayakarta","distance":1080,"i_long":106.820901,"line":2},{"line":2,"i_long":106.812439,"station_id":"JAKK","station_name":"Jakarta Kota","time":4,"is_transit":true,"i_lat":-6.137569,"distance":1264,"transit":true},{"distance":1364,"i_long":106.826365,"is_transit":true,"line":4,"station_id":"KPB","time":3,"transit":true,"i_lat":-6.132549,"station_name":"Kampung Bandan"},{"station_id":"AK","line":1,"i_long":106.79867,"transit":false,"distance":4102,"is_transit":false,"time":9,"i_lat":-6.144674,"station_name":"Angke"},{"distance":1230,"i_lat":-6.155215,"station_name":"Duri","time":4,"i_long":106.800832,"line":1,"transit":false,"station_id":"DU","is_transit":false},{"i_lat":-6.185545,"i_long":106.811091,"line":1,"is_transit":true,"time":8,"transit":true,"station_id":"THB","distance":3632,"station_name":"Tanah Abang"},{"distance":3191,"i_long":106.79689,"i_lat":-6.207404,"station_name":"Palmerah","time":6,"transit":false,"is_transit":false,"line":6,"station_id":"PLM"},{"line":6,"time":7,"station_id":"KBY","i_long":106.780334,"distance":3737,"i_lat":-6.237242,"transit":false,"station_name":"Kebayoran","is_transit":false},{"line":6,"is_transit":false,"i_lat":-6.276362,"distance":6218,"station_id":"PDJ","transit":false,"time":8,"station_name":"Pondokranji","i_long":106.74273},{"station_name":"Jurangmangu","time":3,"i_lat":-6.288927,"station_id":"JMU","i_long":106.728916,"is_transit":false,"transit":false,"line":6,"distance":2179},{"i_long":106.712277,"transit":false,"time":4,"line":6,"station_name":"Sudimara","is_transit":false,"station_id":"SDM","distance":1994,"i_lat":-6.296963},{"line":6,"transit":false,"station_name":"Rawa Buntu","distance":4566,"i_lat":-6.314823,"station_id":"RU","i_long":106.675475,"is_transit":false,"time":6}],[{"station_id":"CTA","time":0,"transit":false,"is_transit":false,"i_long":106.800298,"i_lat":-6.448811,"line":2,"station_name":"Citayam","distance":0},{"i_long":106.816926,"time":6,"transit":false,"station_name":"Depok","distance":5084,"station_id":"DP","is_transit":false,"i_lat":-6.405256,"line":2},{"time":3,"station_name":"Depokbaru","distance":1584,"is_transit":false,"i_lat":-6.391065,"station_id":"DPB","line":2,"transit":false,"i_long":106.819451},{"i_lat":-6.369073,"is_transit":false,"station_name":"Pondok Cina","time":4,"transit":false,"distance":2727,"i_long":106.831114,"station_id":"POC","line":2},{"station_name":"Univ. Indonesia","station_id":"UI","i_long":106.831474,"transit":false,"distance":1109,"i_lat":-6.360749,"is_transit":false,"time":2,"line":2},{"station_name":"Univ. Pancasila","transit":false,"is_transit":false,"time":3,"i_long":106.834175,"station_id":"UP","distance":2264,"line":2,"i_lat":-6.339291},{"transit":false,"time":2,"is_transit":false,"i_long":106.832616,"station_id":"LNA","distance":1029,"line":2,"i_lat":-6.330363,"station_name":"Lenteng Agung"},{"station_name":"Tanjung Barat","time":3,"i_long":106.838896,"transit":false,"station_id":"TNT","distance":2671,"is_transit":false,"i_lat":-6.3080680000000005,"line":2},{"time":4,"distance":2820,"i_long":106.843999,"line":2,"i_lat":-6.2842400000000005,"transit":false,"station_id":"PSM","is_transit":false,"station_name":"Pasar Minggu"},{"is_transit":false,"transit":false,"line":2,"distance":2380,"station_id":"PSMB","i_lat":-6.263214,"station_name":"Pasar Minggu Baru","i_long":106.851577,"time":2},{"i_long":106.85449,"transit":false,"distance":824,"station_name":"Duren Kalibata","is_transit":false,"i_lat":-6.255332,"line":2,"station_id":"DRN","time":2},{"station_name":"Cawang","is_transit":false,"station_id":"CW","i_lat":-6.242512,"distance":1546,"time":3,"line":2,"transit":false,"i_long":106.856607},{"time":2,"distance":1230,"i_lat":-6.226659,"line":2,"transit":false,"station_id":"TEB","station_name":"Tebet","is_transit":false,"i_long":106.857948},{"i_lat":-6.209883,"line":2,"time":4,"i_long":106.84912,"transit":true,"distance":2610,"station_id":"MRI","station_name":"Manggarai","is_transit":true},{"i_lat":-6.212485,"is_transit":false,"line":1,"distance":1275,"station_name":"Matraman","station_id":"MTR","i_long":106.858896,"time":2,"transit":false},{"station_name":"Jatinegara","transit":true,"is_transit":true,"station_id":"JNG","distance":1377,"i_lat":-6.215091,"i_long":106.86807400000001,"time":8,"line":1},{"station_name":"Pondok Jati","is_transit":false,"distance":1236,"transit":false,"i_lat":-6.209188,"station_id":"POK","i_long":106.861737,"time":2,"line":11},{"station_name":"Kramat","transit":false,"i_long":106.855437,"station_id":"KMT","is_transit":false,"distance":1829,"i_lat":-6.193792,"time":2,"line":11},{"i_long":106.850107,"transit":false,"time":1,"is_transit":false,"station_id":"GST","distance":973,"i_lat":-6.185975,"line":11,"station_name":"Gang Sentiong"},{"transit":false,"time":8,"i_lat":-6.174784,"station_id":"PSE","is_transit":false,"i_long":106.84368,"line":11,"station_name":"Pasar Senen","distance":1567},{"is_transit":false,"i_long":106.839204,"transit":false,"station_name":"Kemayoran","distance":1436,"station_id":"KMO","i_lat":-6.161728,"line":11,"time":4},{"line":11,"station_id":"RJW","i_lat":-6.14505,"transit":false,"station_name":"Rajawali","distance":1901,"i_long":106.836569,"is_transit":false,"time":5},{"is_transit":true,"line":4,"station_id":"KPB","transit":true,"distance":1444,"i_long":106.826365,"i_lat":-6.132549,"station_name":"Kampung Bandan","time":3},{"distance":4102,"station_name":"Angke","i_lat":-6.144674,"time":9,"station_id":"AK","transit":false,"is_transit":false,"line":1,"i_long":106.79867},{"transit":false,"station_name":"Duri","line":1,"i_long":106.800832,"station_id":"DU","time":4,"distance":1230,"i_lat":-6.155215,"is_transit":false},{"station_id":"THB","i_long":106.811091,"i_lat":-6.185545,"station_name":"Tanah Abang","distance":3632,"is_transit":true,"transit":true,"line":1,"time":8},{"transit":false,"distance":3191,"i_long":106.79689,"i_lat":-6.207404,"station_name":"Palmerah","time":6,"is_transit":false,"line":6,"station_id":"PLM"},{"i_lat":-6.237242,"line":6,"station_id":"KBY","station_name":"Kebayoran","time":7,"i_long":106.780334,"distance":3737,"is_transit":false,"transit":false},{"transit":false,"station_name":"Pondokranji","time":8,"i_long":106.74273,"line":6,"distance":6218,"station_id":"PDJ","i_lat":-6.276362,"is_transit":false},{"time":3,"station_name":"Jurangmangu","i_lat":-6.288927,"line":6,"distance":2179,"station_id":"JMU","transit":false,"is_transit":false,"i_long":106.728916},{"distance":1994,"is_transit":false,"time":4,"i_lat":-6.296963,"transit":false,"i_long":106.712277,"line":6,"station_name":"Sudimara","station_id":"SDM"},{"station_id":"RU","transit":false,"distance":4566,"i_lat":-6.314823,"time":6,"i_long":106.675475,"station_name":"Rawa Buntu","is_transit":false,"line":6}]]}