{"data":[[{"is_transit":true,"distance":0,"i_lat":-6.448811,"station_id":"CTA","station_name":"Citayam","time":0,"transit":false,"i_long":106.800298,"line":1},{"time":6,"is_transit":false,"station_id":"DP","i_lat":-6.405256,"line":0,"station_name":"Depok","i_long":106.816926,"transit":false,"distance":5084},{"line":0,"station_id":"DPB","i_long":106.819451,"transit":false,"time":3,"is_transit":false,"distance":1584,"i_lat":-6.391065,"station_name":"Depokbaru"},{"i_lat":-6.369073,"is_transit":false,"i_long":106.831114,"time":4,"transit":false,"distance":2727,"line":2,"station_id":"POC","station_name":"Pondok Cina"},{"line":2,"distance":1109,"is_transit":false,"i_lat":-6.360749,"i_long":106.831474,"time":2,"transit":false,"station_name":"Univ. Indonesia","station_id":"UI"},{"transit":false,"station_name":"Univ. Pancasila","i_long":106.834175,"station_id":"UP","i_lat":-6.339291,"line":2,"is_transit":false,"time":3,"distance":2264},{"time":2,"i_long":106.832616,"line":2,"distance":1029,"station_name":"Lenteng Agung","station_id":"LNA","is_transit":false,"i_lat":-6.330363,"transit":false},{"i_long":106.838896,"line":2,"station_id":"TNT","station_name":"Tanjung Barat","i_lat":-6.3080680000000005,"time":3,"is_transit":false,"transit":false,"distance":2671},{"station_id":"PSM","line":2,"i_lat":-6.2842400000000005,"is_transit":false,"i_long":106.843999,"time":4,"distance":2820,"transit":false,"station_name":"Pasar Minggu"},{"time":2,"station_name":"Pasar Minggu Baru","station_id":"PSMB","distance":2380,"is_transit":false,"transit":false,"line":2,"i_lat":-6.263214,"i_long":106.851577},{"station_id":"DRN","i_lat":-6.255332,"transit":false,"distance":824,"station_name":"Duren Kalibata","time":2,"is_transit":false,"i_long":106.85449,"line":0},{"i_long":106.856607,"distance":1546,"is_transit":false,"station_name":"Cawang","transit":false,"time":3,"i_lat":-6.242512,"line":0,"station_id":"CW"},{"is_transit":false,"i_lat":-6.226659,"station_id":"TEB","transit":false,"i_long":106.857948,"line":2,"time":2,"station_name":"Tebet","distance":1230},{"station_name":"Manggarai","i_lat":-6.209883,"station_id":"MRI","transit":true,"i_long":106.84912,"time":4,"line":0,"is_transit":true,"distance":2610},{"station_name":"Sudirman","transit":false,"station_id":"SUD","distance":3186,"i_long":106.822649,"line":1,"time":4,"i_lat":-6.202263,"is_transit":false},{"transit":false,"time":1,"line":1,"distance":280,"i_long":106.819881,"i_lat":-6.201433,"is_transit":false,"station_name":"Sudirman Baru","station_id":"SUDB"},{"line":1,"station_name":"Karet","transit":false,"station_id":"KAT","i_lat":-6.20132,"i_long":106.816351,"is_transit":false,"distance":471,"time":1},{"i_long":106.811091,"time":5,"line":1,"station_name":"Tanah Abang","distance":2029,"i_lat":-6.185545,"station_id":"THB","transit":false,"is_transit":true},{"distance":3632,"i_long":106.800832,"time":8,"transit":true,"station_id":"DU","line":1,"station_name":"Duri","is_transit":true,"i_lat":-6.155215},{"time":3,"station_name":"Grogol","i_long":106.788277,"line":5,"distance":1700,"is_transit":false,"station_id":"GGL","transit":false,"i_lat":-6.162021}],[{"distance":0,"station_name":"Citayam","station_id":"CTA","is_transit":true,"i_long":106.800298,"time":0,"transit":false,"line":1,"i_lat":-6.448811},{"distance":5084,"i_lat":-6.405256,"is_transit":false,"time":6,"station_id":"DP","line":0,"i_long":106.816926,"station_name":"Depok","transit":false},{"station_id":"DPB","i_long":106.819451,"line":0,"station_name":"Depokbaru","is_transit":false,"transit":false,"distance":1584,"i_lat":-6.391065,"time":3},{"station_name":"Pondok Cina","is_transit":false,"line":2,"distance":2727,"transit":false,"i_long":106.831114,"station_id":"POC","time":4,"i_lat":-6.369073},{"is_transit":false,"station_id":"UI","i_lat":-6.360749,"i_long":106.831474,"transit":false,"line":2,"station_name":"Univ. Indonesia","distance":1109,"time":2},{"i_long":106.834175,"distance":2264,"transit":false,"i_lat":-6.339291,"line":2,"time":3,"is_transit":false,"station_id":"UP","station_name":"Univ. Pancasila"},{"station_id":"LNA","time":2,"transit":false,"distance":1029,"i_lat":-6.330363,"i_long":106.832616,"station_name":"Lenteng Agung","is_transit":false,"line":2},{"distance":2671,"i_lat":-6.3080680000000005,"i_long":106.838896,"line":2,"time":3,"is_transit":false,"station_id":"TNT","transit":false,"station_name":"Tanjung Barat"},{"is_transit":false,"distance":2820,"transit":false,"line":2,"time":4,"station_id":"PSM","i_long":106.843999,"station_name":"Pasar Minggu","i_lat":-6.2842400000000005},{"station_id":"PSMB","is_transit":false,"station_name":"Pasar Minggu Baru","distance":2380,"line":2,"time":2,"i_lat":-6.263214,"transit":false,"i_long":106.851577},{"transit":false,"distance":824,"i_lat":-6.255332,"station_name":"Duren Kalibata","is_transit":false,"station_id":"DRN","line":0,"i_long":106.85449,"time":2},{"is_transit":false,"i_lat":-6.242512,"station_id":"CW","transit":false,"line":0,"i_long":106.856607,"station_name":"Cawang","distance":1546,"time":3},{"station_id":"TEB","i_lat":-6.226659,"i_long":106.857948,"station_name":"Tebet","transit":false,"time":2,"distance":1230,"is_transit":false,"line":2},{"i_lat":-6.209883,"time":4,"is_transit":true,"station_name":"Manggarai","station_id":"MRI","i_long":106.84912,"line":0,"transit":true,"distance":2610},{"station_id":"CKI","transit":false,"i_lat":-6.198556,"line":0,"is_transit":false,"distance":1590,"i_long":106.840169,"station_name":"Cikini","time":4},{"station_id":"GDD","i_long":106.832183,"i_lat":-6.186295,"is_transit":false,"station_name":"Gondangdia","distance":1750,"transit":false,"time":3,"line":2},{"station_id":"JUA","station_name":"Juanda","transit":false,"distance":2015,"i_lat":-6.166716,"time":4,"i_long":106.828284,"is_transit":false,"line":2},{"i_long":106.827103,"line":2,"station_id":"SW","time":2,"is_transit":false,"station_name":"Sawah Besar","transit":false,"i_lat":-6.160725,"distance":1149},{"is_transit":false,"i_long":106.82482,"station_id":"MGB","line":2,"time":2,"transit":false,"i_lat":-6.149769,"station_name":"Manggabesar","distance":906},{"i_lat":-6.141205,"time":2,"distance":1080,"line":7,"station_name":"Jayakarta","is_transit":false,"transit":false,"station_id":"JAY","i_long":106.820901},{"is_transit":true,"i_lat":-6.137569,"station_name":"Jakarta Kota","distance":1264,"station_id":"JAKK","line":0,"transit":true,"i_long":106.812439,"time":4},{"i_long":106.826365,"i_lat":-6.132549,"line":0,"time":3,"station_name":"Kampung Bandan","is_transit":true,"transit":false,"distance":1364,"station_id":"KPB"},{"is_transit":false,"i_lat":-6.144674,"line":0,"distance":4102,"station_id":"AK","station_name":"Angke","time":9,"transit":false,"i_long":106.79867},{"is_transit":true,"time":4,"line":1,"i_lat":-6.155215,"station_id":"DU","station_name":"Duri","transit":true,"distance":1230,"i_long":106.800832},{"is_transit":false,"time":3,"station_name":"Grogol","station_id":"GGL","distance":1700,"line":5,"i_lat":-6.162021,"i_long":106.788277,"transit":false}],[{"distance":0,"line":1,"i_long":106.800298,"is_transit":true,"station_id":"CTA","station_name":"Citayam","transit":false,"time":0,"i_lat":-6.448811},{"transit":false,"i_long":106.816926,"i_lat":-6.405256,"is_transit":false,"distance":5084,"line":0,"time":6,"station_name":"Depok","station_id":"DP"},{"i_long":106.819451,"station_name":"Depokbaru","time":3,"i_lat":-6.391065,"transit":false,"distance":1584,"line":0,"station_id":"DPB","is_transit":false},{"station_name":"Pondok Cina","is_transit":false,"distance":2727,"station_id":"POC","time":4,"i_lat":-6.369073,"transit":false,"i_long":106.831114,"line":2},{"i_lat":-6.360749,"transit":false,"time":2,"line":2,"i_long":106.831474,"station_id":"UI","is_transit":false,"distance":1109,"station_name":"Univ. Indonesia"},{"transit":false,"time":3,"distance":2264,"i_lat":-6.339291,"line":2,"i_long":106.834175,"is_transit":false,"station_name":"Univ. Pancasila","station_id":"UP"},{"station_name":"Lenteng Agung","transit":false,"station_id":"LNA","i_lat":-6.330363,"line":2,"distance":1029,"time":2,"is_transit":false,"i_long":106.832616},{"station_name":"Tanjung Barat","time":3,"station_id":"TNT","i_long":106.838896,"i_lat":-6.3080680000000005,"line":2,"is_transit":false,"transit":false,"distance":2671},{"distance":2820,"i_long":106.843999,"is_transit":false,"time":4,"station_name":"Pasar Minggu","station_id":"PSM","line":2,"transit":false,"i_lat":-6.2842400000000005},{"i_lat":-6.263214,"station_id":"PSMB","i_long":106.851577,"line":2,"is_transit":false,"time":2,"transit":false,"station_name":"Pasar Minggu Baru","distance":2380},{"station_id":"DRN","transit":false,"distance":824,"i_lat":-6.255332,"i_long":106.85449,"time":2,"line":0,"station_name":"Duren Kalibata","is_transit":false},{"i_lat":-6.242512,"transit":false,"time":3,"distance":1546,"station_id":"CW","i_long":106.856607,"line":0,"is_transit":false,"station_name":"Cawang"},{"station_id":"TEB","distance":1230,"line":2,"transit":false,"i_lat":-6.226659,"station_name":"Tebet","time":2,"is_transit":false,"i_long":106.857948},{"i_lat":-6.209883,"station_id":"MRI","transit":true,"i_long":106.84912,"line":0,"is_transit":true,"time":4,"station_name":"Manggarai","distance":2610},{"distance":1275,"i_long":106.858896,"transit":false,"line":1,"station_name":"Matraman","is_transit":false,"i_lat":-6.212485,"time":2,"station_id":"MTR"},{"transit":true,"i_lat":-6.215091,"is_transit":true,"station_name":"Jatinegara","station_id":"JNG","time":8,"i_long":106.86807400000001,"line":0,"distance":1377},{"i_lat":-6.209188,"i_long":106.861737,"time":2,"transit":false,"distance":1236,"line":11,"station_id":"POK","is_transit":false,"station_name":"Pondok Jati"},{"station_name":"Kramat","time":2,"transit":false,"distance":1829,"station_id":"KMT","line":11,"i_long":106.855437,"i_lat":-6.193792,"is_transit":false},{"station_id":"GST","i_long":106.850107,"line":11,"time":1,"i_lat":-6.185975,"transit":false,"distance":973,"station_name":"Gang Sentiong","is_transit":false},{"is_transit":false,"distance":1567,"i_lat":-6.174784,"station_id":"PSE","time":8,"transit":false,"line":11,"station_name":"Pasar Senen","i_long":106.84368},{"distance":1436,"i_lat":-6.161728,"line":11,"station_name":"Kemayoran","is_transit":false,"i_long":106.839204,"time":4,"station_id":"KMO","transit":false},{"is_transit":false,"transit":false,"i_lat":-6.14505,"time":5,"station_name":"Rajawali","station_id":"RJW","distance":1901,"line":11,"i_long":106.836569},{"i_lat":-6.132549,"station_name":"Kampung Bandan","time":3,"is_transit":true,"distance":1444,"transit":true,"i_long":106.826365,"station_id":"KPB","line":0},{"i_lat":-6.144674,"line":0,"i_long":106.79867,"transit":false,"station_name":"Angke","distance":4102,"time":9,"is_transit":false,"station_id":"AK"},{"time":4,"i_lat":-6.155215,"station_name":"Duri","distance":1230,"station_id":"DU","transit":true,"line":1,"i_long":106.800832,"is_transit":true},{"distance":1700,"line":5,"i_lat":-6.162021,"is_transit":false,"station_id":"GGL","i_long":106.788277,"station_name":"Grogol","transit":false,"time":3}]]}