{"data":[[{"station_id":"CTA","is_transit":false,"time":0,"i_long":106.800298,"line":2,"i_lat":-6.448811,"distance":0,"station_name":"Citayam","transit":false},{"time":6,"distance":5084,"i_long":106.816926,"station_name":"Depok","i_lat":-6.405256,"line":2,"transit":false,"is_transit":false,"station_id":"DP"},{"transit":false,"i_lat":-6.391065,"distance":1584,"time":3,"station_id":"DPB","is_transit":false,"line":2,"station_name":"Depokbaru","i_long":106.819451},{"station_name":"Pondok Cina","is_transit":false,"i_lat":-6.369073,"i_long":106.831114,"line":2,"station_id":"POC","distance":2727,"transit":false,"time":4},{"distance":1109,"station_id":"UI","is_transit":false,"i_long":106.831474,"line":2,"station_name":"Univ. Indonesia","i_lat":-6.360749,"time":2,"transit":false},{"transit":false,"i_long":106.834175,"i_lat":-6.339291,"line":2,"time":3,"distance":2264,"station_id":"UP","is_transit":false,"station_name":"Univ. Pancasila"},{"i_lat":-6.330363,"station_id":"LNA","is_transit":false,"line":2,"i_long":106.832616,"station_name":"Lenteng Agung","distance":1029,"time":2,"transit":false},{"i_long":106.838896,"i_lat":-6.3080680000000005,"is_transit":false,"station_id":"TNT","station_name":"Tanjung Barat","transit":false,"line":2,"time":3,"distance":2671},{"i_lat":-6.2842400000000005,"line":2,"station_name":"Pasar Minggu","i_long":106.843999,"distance":2820,"is_transit":false,"time":4,"transit":false,"station_id":"PSM"},{"is_transit":false,"station_id":"PSMB","transit":false,"time":2,"station_name":"Pasar Minggu Baru","line":2,"i_lat":-6.263214,"i_long":106.851577,"distance":2380},{"time":2,"is_transit":false,"transit":false,"i_long":106.85449,"line":2,"i_lat":-6.255332,"distance":824,"station_name":"Duren Kalibata","station_id":"DRN"},{"distance":1546,"time":3,"i_lat":-6.242512,"is_transit":false,"i_long":106.856607,"station_name":"Cawang","line":2,"station_id":"CW","transit":false},{"line":2,"time":2,"station_name":"Tebet","transit":false,"i_long":106.857948,"distance":1230,"i_lat":-6.226659,"station_id":"TEB","is_transit":false},{"transit":false,"i_long":106.84912,"line":2,"is_transit":false,"i_lat":-6.209883,"station_id":"MRI","station_name":"Manggarai","time":4,"distance":2610}]]}