{"data":[[{"transit":false,"i_lat":-6.448811,"station_id":"CTA","i_long":106.800298,"station_name":"Citayam","distance":0,"time":0,"line":2,"is_transit":false},{"station_id":"DP","time":6,"transit":false,"station_name":"Depok","distance":5084,"i_lat":-6.405256,"i_long":106.816926,"line":2,"is_transit":false},{"time":3,"line":2,"distance":1584,"i_long":106.819451,"station_name":"Depokbaru","is_transit":false,"transit":false,"station_id":"DPB","i_lat":-6.391065},{"line":2,"is_transit":false,"i_lat":-6.369073,"station_name":"Pondok Cina","time":4,"i_long":106.831114,"station_id":"POC","distance":2727,"transit":false},{"distance":1109,"i_lat":-6.360749,"i_long":106.831474,"station_name":"Univ. Indonesia","station_id":"UI","line":2,"transit":false,"time":2,"is_transit":false},{"i_long":106.834175,"station_name":"Univ. Pancasila","transit":false,"station_id":"UP","is_transit":false,"line":2,"distance":2264,"i_lat":-6.339291,"time":3},{"i_long":106.832616,"line":2,"transit":false,"distance":1029,"station_id":"LNA","time":2,"is_transit":false,"i_lat":-6.330363,"station_name":"Lenteng Agung"},{"station_name":"Tanjung Barat","time":3,"i_long":106.838896,"transit":false,"line":2,"station_id":"TNT","is_transit":false,"i_lat":-6.3080680000000005,"distance":2671},{"i_long":106.843999,"transit":false,"station_name":"Pasar Minggu","time":4,"distance":2820,"i_lat":-6.2842400000000005,"is_transit":false,"station_id":"PSM","line":2},{"time":2,"station_id":"PSMB","i_lat":-6.263214,"station_name":"Pasar Minggu Baru","is_transit":false,"transit":false,"distance":2380,"i_long":106.851577,"line":2}]]}