{"data":[[{"time":0,"station_id":"CTA","station_name":"Citayam","is_transit":false,"i_lat":-6.448811,"i_long":106.800298,"line":2,"transit":false,"distance":0},{"i_long":106.816926,"transit":false,"line":2,"distance":5084,"station_name":"Depok","is_transit":false,"station_id":"DP","i_lat":-6.405256,"time":6},{"distance":1584,"station_name":"Depokbaru","transit":false,"i_lat":-6.391065,"line":2,"i_long":106.819451,"is_transit":false,"station_id":"DPB","time":3},{"i_long":106.831114,"time":4,"station_name":"Pondok Cina","station_id":"POC","line":2,"i_lat":-6.369073,"distance":2727,"transit":false,"is_transit":false},{"i_lat":-6.360749,"line":2,"is_transit":false,"i_long":106.831474,"station_name":"Univ. Indonesia","station_id":"UI","transit":false,"time":2,"distance":1109},{"station_name":"Univ. Pancasila","i_long":106.834175,"distance":2264,"is_transit":false,"time":3,"line":2,"transit":false,"station_id":"UP","i_lat":-6.339291},{"line":2,"station_id":"LNA","time":2,"transit":false,"distance":1029,"i_lat":-6.330363,"station_name":"Lenteng Agung","i_long":106.832616,"is_transit":false},{"station_name":"Tanjung Barat","is_transit":false,"i_long":106.838896,"line":2,"station_id":"TNT","transit":false,"time":3,"distance":2671,"i_lat":-6.3080680000000005},{"line":2,"transit":false,"i_lat":-6.2842400000000005,"station_name":"Pasar Minggu","time":4,"i_long":106.843999,"is_transit":false,"distance":2820,"station_id":"PSM"},{"line":2,"station_id":"PSMB","distance":2380,"time":2,"i_lat":-6.263214,"station_name":"Pasar Minggu Baru","is_transit":false,"transit":false,"i_long":106.851577},{"transit":false,"line":2,"station_id":"DRN","i_long":106.85449,"i_lat":-6.255332,"time":2,"is_transit":false,"distance":824,"station_name":"Duren Kalibata"},{"distance":1546,"station_name":"Cawang","time":3,"station_id":"CW","i_lat":-6.242512,"transit":false,"is_transit":false,"line":2,"i_long":106.856607},{"station_name":"Tebet","transit":false,"distance":1230,"i_lat":-6.226659,"i_long":106.857948,"is_transit":false,"line":2,"time":2,"station_id":"TEB"},{"transit":true,"station_name":"Manggarai","i_lat":-6.209883,"time":4,"distance":2610,"i_long":106.84912,"is_transit":true,"line":2,"station_id":"MRI"},{"time":4,"station_name":"Sudirman","line":1,"station_id":"SUD","is_transit":false,"distance":3186,"i_long":106.822649,"transit":false,"i_lat":-6.202263},{"transit":false,"station_id":"SUDB","line":1,"distance":280,"i_long":106.819881,"station_name":"Sudirman Baru","i_lat":-6.201433,"time":1,"is_transit":false}],[{"i_lat":-6.448811,"i_long":106.800298,"distance":0,"time":0,"transit":false,"station_id":"CTA","is_transit":false,"station_name":"Citayam","line":2},{"time":6,"transit":false,"station_name":"Depok","i_lat":-6.405256,"i_long":106.816926,"station_id":"DP","distance":5084,"line":2,"is_transit":false},{"is_transit":false,"line":2,"station_id":"DPB","i_long":106.819451,"transit":false,"time":3,"i_lat":-6.391065,"distance":1584,"station_name":"Depokbaru"},{"transit":false,"is_transit":false,"time":4,"distance":2727,"i_lat":-6.369073,"station_id":"POC","i_long":106.831114,"station_name":"Pondok Cina","line":2},{"time":2,"station_name":"Univ. Indonesia","i_long":106.831474,"i_lat":-6.360749,"station_id":"UI","line":2,"transit":false,"distance":1109,"is_transit":false},{"line":2,"i_lat":-6.339291,"transit":false,"i_long":106.834175,"distance":2264,"station_id":"UP","station_name":"Univ. Pancasila","time":3,"is_transit":false},{"transit":false,"line":2,"station_name":"Lenteng Agung","i_lat":-6.330363,"i_long":106.832616,"time":2,"station_id":"LNA","distance":1029,"is_transit":false},{"is_transit":false,"station_name":"Tanjung Barat","time":3,"transit":false,"line":2,"i_lat":-6.3080680000000005,"i_long":106.838896,"station_id":"TNT","distance":2671},{"transit":false,"i_long":106.843999,"line":2,"station_name":"Pasar Minggu","i_lat":-6.2842400000000005,"distance":2820,"time":4,"is_transit":false,"station_id":"PSM"},{"station_id":"PSMB","transit":false,"station_name":"Pasar Minggu Baru","time":2,"distance":2380,"is_transit":false,"line":2,"i_lat":-6.263214,"i_long":106.851577},{"time":2,"station_name":"Duren Kalibata","i_lat":-6.255332,"line":2,"distance":824,"i_long":106.85449,"station_id":"DRN","transit":false,"is_transit":false},{"transit":false,"distance":1546,"i_lat":-6.242512,"is_transit":false,"i_long":106.856607,"line":2,"time":3,"station_name":"Cawang","station_id":"CW"},{"i_lat":-6.226659,"station_id":"TEB","distance":1230,"transit":false,"i_long":106.857948,"time":2,"is_transit":false,"line":2,"station_name":"Tebet"},{"is_transit":false,"distance":2610,"transit":false,"time":4,"i_long":106.84912,"station_id":"MRI","i_lat":-6.209883,"station_name":"Manggarai","line":2},{"time":4,"station_id":"CKI","i_lat":-6.198556,"line":2,"is_transit":false,"transit":false,"station_name":"Cikini","i_long":106.840169,"distance":1590},{"station_name":"Gondangdia","i_long":106.832183,"i_lat":-6.186295,"station_id":"GDD","time":3,"line":2,"transit":false,"distance":1750,"is_transit":false},{"station_id":"JUA","line":2,"is_transit":false,"i_long":106.828284,"transit":false,"distance":2015,"station_name":"Juanda","time":4,"i_lat":-6.166716},{"station_name":"Sawah Besar","distance":1149,"i_long":106.827103,"line":2,"i_lat":-6.160725,"time":2,"station_id":"SW","is_transit":false,"transit":false},{"station_id":"MGB","time":2,"transit":false,"is_transit":false,"i_long":106.82482,"line":2,"distance":906,"station_name":"Manggabesar","i_lat":-6.149769},{"time":2,"transit":false,"line":2,"distance":1080,"station_id":"JAY","is_transit":false,"i_lat":-6.141205,"i_long":106.820901,"station_name":"Jayakarta"},{"station_id":"JAKK","time":4,"transit":true,"is_transit":true,"distance":1264,"i_lat":-6.137569,"i_long":106.812439,"station_name":"Jakarta Kota","line":2},{"i_lat":-6.132549,"station_name":"Kampung Bandan","i_long":106.826365,"transit":true,"station_id":"KPB","line":4,"distance":1364,"time":3,"is_transit":true},{"transit":false,"distance":4102,"i_lat":-6.144674,"line":1,"station_id":"AK","station_name":"Angke","is_transit":false,"i_long":106.79867,"time":9},{"transit":false,"time":4,"is_transit":false,"station_name":"Duri","station_id":"DU","distance":1230,"i_lat":-6.155215,"i_long":106.800832,"line":1},{"is_transit":false,"distance":3632,"i_lat":-6.185545,"transit":false,"line":1,"i_long":106.811091,"station_name":"Tanah Abang","station_id":"THB","time":8},{"station_name":"Karet","i_lat":-6.20132,"is_transit":false,"i_long":106.816351,"distance":2029,"time":5,"transit":false,"line":1,"station_id":"KAT"},{"station_name":"Sudirman Baru","line":1,"distance":471,"time":1,"station_id":"SUDB","i_long":106.819881,"i_lat":-6.201433,"transit":false,"is_transit":false}],[{"station_name":"Citayam","line":2,"i_long":106.800298,"transit":false,"station_id":"CTA","is_transit":false,"distance":0,"i_lat":-6.448811,"time":0},{"transit":false,"line":2,"i_long":106.816926,"station_id":"DP","station_name":"Depok","is_transit":false,"time":6,"distance":5084,"i_lat":-6.405256},{"transit":false,"station_name":"Depokbaru","line":2,"is_transit":false,"i_long":106.819451,"distance":1584,"station_id":"DPB","time":3,"i_lat":-6.391065},{"i_long":106.831114,"station_name":"Pondok Cina","transit":false,"distance":2727,"is_transit":false,"line":2,"station_id":"POC","i_lat":-6.369073,"time":4},{"i_long":106.831474,"line":2,"is_transit":false,"station_name":"Univ. Indonesia","time":2,"transit":false,"distance":1109,"station_id":"UI","i_lat":-6.360749},{"station_id":"UP","transit":false,"station_name":"Univ. Pancasila","time":3,"distance":2264,"i_lat":-6.339291,"line":2,"i_long":106.834175,"is_transit":false},{"station_id":"LNA","transit":false,"i_lat":-6.330363,"distance":1029,"i_long":106.832616,"time":2,"station_name":"Lenteng Agung","line":2,"is_transit":false},{"transit":false,"line":2,"station_name":"Tanjung Barat","i_lat":-6.3080680000000005,"distance":2671,"station_id":"TNT","i_long":106.838896,"time":3,"is_transit":false},{"station_name":"Pasar Minggu","time":4,"is_transit":false,"i_lat":-6.2842400000000005,"distance":2820,"line":2,"station_id":"PSM","transit":false,"i_long":106.843999},{"is_transit":false,"station_id":"PSMB","transit":false,"distance":2380,"station_name":"Pasar Minggu Baru","line":2,"i_long":106.851577,"time":2,"i_lat":-6.263214},{"i_lat":-6.255332,"time":2,"station_name":"Duren Kalibata","i_long":106.85449,"line":2,"transit":false,"is_transit":false,"distance":824,"station_id":"DRN"},{"is_transit":false,"i_lat":-6.242512,"station_name":"Cawang","transit":false,"time":3,"distance":1546,"station_id":"CW","i_long":106.856607,"line":2},{"station_name":"Tebet","transit":false,"i_long":106.857948,"line":2,"distance":1230,"station_id":"TEB","is_transit":false,"i_lat":-6.226659,"time":2},{"time":4,"i_long":106.84912,"station_name":"Manggarai","i_lat":-6.209883,"station_id":"MRI","is_transit":true,"line":2,"transit":true,"distance":2610},{"transit":false,"line":1,"station_name":"Matraman","station_id":"MTR","time":2,"distance":1275,"i_long":106.858896,"i_lat":-6.212485,"is_transit":false},{"i_long":106.86807400000001,"transit":true,"station_id":"JNG","i_lat":-6.215091,"line":1,"station_name":"Jatinegara","is_transit":true,"distance":1377,"time":8},{"i_long":106.861737,"station_name":"Pondok Jati","i_lat":-6.209188,"is_transit":false,"distance":1236,"line":11,"station_id":"POK","transit":false,"time":2},{"transit":false,"distance":1829,"line":11,"station_name":"Kramat","is_transit":false,"station_id":"KMT","time":2,"i_long":106.855437,"i_lat":-6.193792},{"station_id":"GST","station_name":"Gang Sentiong","time":1,"i_lat":-6.185975,"transit":false,"i_long":106.850107,"line":11,"is_transit":false,"distance":973},{"station_name":"Pasar Senen","distance":1567,"line":11,"time":8,"transit":false,"station_id":"PSE","i_long":106.84368,"i_lat":-6.174784,"is_transit":false},{"i_long":106.839204,"line":11,"i_lat":-6.161728,"transit":false,"is_transit":false,"station_id":"KMO","time":4,"distance":1436,"station_name":"Kemayoran"},{"i_long":106.836569,"line":11,"transit":false,"station_name":"Rajawali","station_id":"RJW","distance":1901,"i_lat":-6.14505,"is_transit":false,"time":5},{"i_long":106.826365,"i_lat":-6.132549,"transit":true,"station_id":"KPB","line":4,"station_name":"Kampung Bandan","is_transit":true,"distance":1444,"time":3},{"is_transit":false,"transit":false,"i_lat":-6.144674,"station_name":"Angke","time":9,"station_id":"AK","i_long":106.79867,"distance":4102,"line":1},{"station_id":"DU","station_name":"Duri","time":4,"transit":false,"i_long":106.800832,"line":1,"is_transit":false,"i_lat":-6.155215,"distance":1230},{"time":8,"transit":false,"station_id":"THB","i_lat":-6.185545,"station_name":"Tanah Abang","is_transit":false,"distance":3632,"i_long":106.811091,"line":1},{"is_transit":false,"i_lat":-6.20132,"station_id":"KAT","distance":2029,"station_name":"Karet","line":1,"i_long":106.816351,"time":5,"transit":false},{"station_name":"Sudirman Baru","station_id":"SUDB","line":1,"is_transit":false,"time":1,"transit":false,"distance":471,"i_lat":-6.201433,"i_long":106.819881}]]}