{"data":[[{"station_name":"Citayam","line":2,"i_long":106.800298,"station_id":"CTA","time":0,"distance":0,"is_transit":false,"transit":false,"i_lat":-6.448811},{"distance":5084,"i_long":106.816926,"is_transit":false,"line":2,"station_id":"DP","transit":false,"station_name":"Depok","i_lat":-6.405256,"time":6},{"transit":false,"distance":1584,"i_lat":-6.391065,"line":2,"station_id":"DPB","time":3,"station_name":"Depokbaru","i_long":106.819451,"is_transit":false},{"i_long":106.831114,"line":2,"i_lat":-6.369073,"distance":2727,"transit":false,"station_name":"Pondok Cina","is_transit":false,"time":4,"station_id":"POC"},{"time":2,"station_id":"UI","line":2,"i_lat":-6.360749,"is_transit":false,"i_long":106.831474,"station_name":"Univ. Indonesia","transit":false,"distance":1109},{"station_name":"Univ. Pancasila","i_long":106.834175,"distance":2264,"line":2,"transit":false,"station_id":"UP","is_transit":false,"i_lat":-6.339291,"time":3},{"i_long":106.832616,"station_id":"LNA","time":2,"i_lat":-6.330363,"transit":false,"station_name":"Lenteng Agung","is_transit":false,"line":2,"distance":1029},{"line":2,"transit":false,"station_name":"Tanjung Barat","i_long":106.838896,"time":3,"distance":2671,"i_lat":-6.3080680000000005,"is_transit":false,"station_id":"TNT"},{"time":4,"i_lat":-6.2842400000000005,"line":2,"distance":2820,"i_long":106.843999,"is_transit":false,"station_id":"PSM","transit":false,"station_name":"Pasar Minggu"},{"distance":2380,"line":2,"i_long":106.851577,"station_id":"PSMB","station_name":"Pasar Minggu Baru","is_transit":false,"time":2,"i_lat":-6.263214,"transit":false},{"station_id":"DRN","line":2,"distance":824,"i_lat":-6.255332,"transit":false,"i_long":106.85449,"station_name":"Duren Kalibata","time":2,"is_transit":false},{"i_lat":-6.242512,"time":3,"distance":1546,"station_name":"Cawang","transit":false,"is_transit":false,"station_id":"CW","line":2,"i_long":106.856607}]]}