{"data":[[{"line":2,"i_lat":-6.448811,"transit":false,"is_transit":false,"station_name":"Citayam","distance":0,"time":0,"station_id":"CTA","i_long":106.800298},{"station_id":"DP","i_lat":-6.405256,"transit":false,"i_long":106.816926,"line":2,"station_name":"Depok","is_transit":false,"distance":5084,"time":6},{"transit":false,"time":3,"i_lat":-6.391065,"station_name":"Depokbaru","is_transit":false,"i_long":106.819451,"distance":1584,"station_id":"DPB","line":2},{"distance":2727,"i_long":106.831114,"time":4,"is_transit":false,"i_lat":-6.369073,"line":2,"station_id":"POC","station_name":"Pondok Cina","transit":false},{"time":2,"i_lat":-6.360749,"station_name":"Univ. Indonesia","is_transit":false,"line":2,"transit":false,"distance":1109,"i_long":106.831474,"station_id":"UI"},{"i_long":106.834175,"line":2,"i_lat":-6.339291,"transit":false,"station_name":"Univ. Pancasila","station_id":"UP","time":3,"is_transit":false,"distance":2264},{"i_long":106.832616,"transit":false,"station_id":"LNA","station_name":"Lenteng Agung","line":2,"distance":1029,"time":2,"i_lat":-6.330363,"is_transit":false},{"station_id":"TNT","is_transit":false,"transit":false,"line":2,"station_name":"Tanjung Barat","time":3,"i_long":106.838896,"distance":2671,"i_lat":-6.3080680000000005},{"i_lat":-6.2842400000000005,"i_long":106.843999,"is_transit":false,"time":4,"station_id":"PSM","distance":2820,"station_name":"Pasar Minggu","line":2,"transit":false},{"i_lat":-6.263214,"i_long":106.851577,"time":2,"line":2,"distance":2380,"station_id":"PSMB","transit":false,"is_transit":false,"station_name":"Pasar Minggu Baru"},{"line":2,"station_name":"Duren Kalibata","distance":824,"i_long":106.85449,"i_lat":-6.255332,"time":2,"transit":false,"station_id":"DRN","is_transit":false},{"i_lat":-6.242512,"transit":false,"is_transit":false,"line":2,"i_long":106.856607,"station_name":"Cawang","distance":1546,"time":3,"station_id":"CW"},{"line":2,"i_lat":-6.226659,"transit":false,"is_transit":false,"station_name":"Tebet","i_long":106.857948,"distance":1230,"time":2,"station_id":"TEB"},{"line":2,"station_name":"Manggarai","transit":true,"station_id":"MRI","time":4,"is_transit":true,"i_lat":-6.209883,"distance":2610,"i_long":106.84912},{"transit":false,"i_lat":-6.212485,"time":2,"distance":1275,"is_transit":false,"i_long":106.858896,"station_id":"MTR","station_name":"Matraman","line":1},{"time":8,"station_id":"JNG","transit":true,"is_transit":true,"station_name":"Jatinegara","distance":1377,"line":1,"i_lat":-6.215091,"i_long":106.86807400000001},{"transit":false,"line":11,"i_lat":-6.209188,"i_long":106.861737,"time":2,"distance":1236,"station_id":"POK","is_transit":false,"station_name":"Pondok Jati"},{"time":2,"distance":1829,"station_id":"KMT","transit":false,"i_lat":-6.193792,"i_long":106.855437,"is_transit":false,"station_name":"Kramat","line":11},{"line":11,"station_name":"Gang Sentiong","station_id":"GST","time":1,"is_transit":false,"distance":973,"i_long":106.850107,"i_lat":-6.185975,"transit":false}],[{"time":0,"i_lat":-6.448811,"is_transit":false,"distance":0,"i_long":106.800298,"station_name":"Citayam","line":2,"station_id":"CTA","transit":false},{"transit":false,"line":2,"i_long":106.816926,"time":6,"i_lat":-6.405256,"station_name":"Depok","station_id":"DP","is_transit":false,"distance":5084},{"transit":false,"is_transit":false,"i_lat":-6.391065,"i_long":106.819451,"station_name":"Depokbaru","station_id":"DPB","time":3,"distance":1584,"line":2},{"station_name":"Pondok Cina","is_transit":false,"i_lat":-6.369073,"i_long":106.831114,"line":2,"time":4,"transit":false,"station_id":"POC","distance":2727},{"transit":false,"distance":1109,"station_id":"UI","is_transit":false,"line":2,"i_long":106.831474,"station_name":"Univ. Indonesia","time":2,"i_lat":-6.360749},{"distance":2264,"i_lat":-6.339291,"station_name":"Univ. Pancasila","i_long":106.834175,"line":2,"station_id":"UP","time":3,"is_transit":false,"transit":false},{"distance":1029,"transit":false,"line":2,"is_transit":false,"station_name":"Lenteng Agung","time":2,"i_long":106.832616,"station_id":"LNA","i_lat":-6.330363},{"is_transit":false,"distance":2671,"station_name":"Tanjung Barat","i_long":106.838896,"station_id":"TNT","transit":false,"time":3,"line":2,"i_lat":-6.3080680000000005},{"station_id":"PSM","time":4,"line":2,"transit":false,"station_name":"Pasar Minggu","is_transit":false,"i_lat":-6.2842400000000005,"i_long":106.843999,"distance":2820},{"time":2,"line":2,"i_long":106.851577,"station_name":"Pasar Minggu Baru","is_transit":false,"station_id":"PSMB","transit":false,"distance":2380,"i_lat":-6.263214},{"transit":false,"i_lat":-6.255332,"station_name":"Duren Kalibata","is_transit":false,"i_long":106.85449,"distance":824,"line":2,"time":2,"station_id":"DRN"},{"is_transit":false,"i_lat":-6.242512,"distance":1546,"station_name":"Cawang","transit":false,"station_id":"CW","i_long":106.856607,"time":3,"line":2},{"time":2,"station_id":"TEB","is_transit":false,"i_long":106.857948,"transit":false,"i_lat":-6.226659,"station_name":"Tebet","distance":1230,"line":2},{"time":4,"transit":true,"i_long":106.84912,"i_lat":-6.209883,"line":2,"station_name":"Manggarai","station_id":"MRI","is_transit":true,"distance":2610},{"is_transit":false,"distance":3186,"i_lat":-6.202263,"i_long":106.822649,"station_id":"SUD","station_name":"Sudirman","line":1,"transit":false,"time":4},{"transit":false,"i_lat":-6.201433,"is_transit":false,"distance":280,"i_long":106.819881,"station_name":"Sudirman Baru","line":1,"time":1,"station_id":"SUDB"},{"station_name":"Karet","station_id":"KAT","time":1,"distance":471,"i_lat":-6.20132,"line":1,"is_transit":false,"i_long":106.816351,"transit":false},{"i_long":106.811091,"line":1,"time":5,"transit":false,"distance":2029,"is_transit":false,"station_id":"THB","i_lat":-6.185545,"station_name":"Tanah Abang"},{"transit":false,"line":1,"station_name":"Duri","is_transit":false,"station_id":"DU","i_long":106.800832,"time":8,"distance":3632,"i_lat":-6.155215},{"distance":1230,"i_lat":-6.144674,"station_id":"AK","time":4,"transit":false,"i_long":106.79867,"line":1,"station_name":"Angke","is_transit":false},{"i_lat":-6.132549,"line":4,"transit":true,"time":9,"distance":4102,"i_long":106.826365,"station_name":"Kampung Bandan","station_id":"KPB","is_transit":true},{"station_name":"Rajawali","distance":1444,"transit":false,"is_transit":false,"i_lat":-6.14505,"i_long":106.836569,"line":11,"station_id":"RJW","time":3},{"i_long":106.839204,"line":11,"distance":1901,"station_name":"Kemayoran","i_lat":-6.161728,"station_id":"KMO","is_transit":false,"time":5,"transit":false},{"i_long":106.84368,"distance":1436,"line":11,"station_name":"Pasar Senen","transit":false,"time":4,"is_transit":false,"station_id":"PSE","i_lat":-6.174784},{"station_name":"Gang Sentiong","distance":1567,"transit":false,"time":8,"station_id":"GST","i_long":106.850107,"i_lat":-6.185975,"is_transit":false,"line":11}],[{"i_long":106.800298,"line":2,"transit":false,"distance":0,"station_name":"Citayam","station_id":"CTA","is_transit":false,"time":0,"i_lat":-6.448811},{"is_transit":false,"station_id":"DP","transit":false,"station_name":"Depok","i_lat":-6.405256,"time":6,"distance":5084,"i_long":106.816926,"line":2},{"time":3,"i_lat":-6.391065,"station_name":"Depokbaru","is_transit":false,"i_long":106.819451,"line":2,"distance":1584,"transit":false,"station_id":"DPB"},{"is_transit":false,"station_name":"Pondok Cina","i_long":106.831114,"line":2,"distance":2727,"transit":false,"station_id":"POC","i_lat":-6.369073,"time":4},{"station_name":"Univ. Indonesia","transit":false,"is_transit":false,"line":2,"distance":1109,"i_long":106.831474,"station_id":"UI","time":2,"i_lat":-6.360749},{"station_name":"Univ. Pancasila","line":2,"station_id":"UP","transit":false,"is_transit":false,"i_lat":-6.339291,"time":3,"distance":2264,"i_long":106.834175},{"time":2,"transit":false,"i_lat":-6.330363,"line":2,"is_transit":false,"i_long":106.832616,"station_name":"Lenteng Agung","station_id":"LNA","distance":1029},{"is_transit":false,"transit":false,"time":3,"line":2,"station_name":"Tanjung Barat","distance":2671,"station_id":"TNT","i_long":106.838896,"i_lat":-6.3080680000000005},{"is_transit":false,"station_name":"Pasar Minggu","transit":false,"line":2,"station_id":"PSM","time":4,"distance":2820,"i_lat":-6.2842400000000005,"i_long":106.843999},{"station_id":"PSMB","i_lat":-6.263214,"line":2,"distance":2380,"time":2,"is_transit":false,"i_long":106.851577,"station_name":"Pasar Minggu Baru","transit":false},{"transit":false,"i_lat":-6.255332,"line":2,"is_transit":false,"distance":824,"station_name":"Duren Kalibata","i_long":106.85449,"station_id":"DRN","time":2},{"distance":1546,"station_id":"CW","line":2,"is_transit":false,"i_lat":-6.242512,"i_long":106.856607,"station_name":"Cawang","time":3,"transit":false},{"time":2,"distance":1230,"line":2,"i_lat":-6.226659,"station_name":"Tebet","i_long":106.857948,"station_id":"TEB","is_transit":false,"transit":false},{"station_id":"MRI","station_name":"Manggarai","transit":false,"line":2,"i_lat":-6.209883,"distance":2610,"i_long":106.84912,"time":4,"is_transit":false},{"station_name":"Cikini","i_lat":-6.198556,"station_id":"CKI","i_long":106.840169,"is_transit":false,"line":2,"time":4,"distance":1590,"transit":false},{"station_id":"GDD","station_name":"Gondangdia","is_transit":false,"i_lat":-6.186295,"transit":false,"time":3,"line":2,"distance":1750,"i_long":106.832183},{"line":2,"i_long":106.828284,"transit":false,"station_id":"JUA","distance":2015,"i_lat":-6.166716,"station_name":"Juanda","time":4,"is_transit":false},{"transit":false,"line":2,"i_lat":-6.160725,"distance":1149,"station_id":"SW","station_name":"Sawah Besar","time":2,"is_transit":false,"i_long":106.827103},{"i_lat":-6.149769,"distance":906,"transit":false,"time":2,"station_id":"MGB","station_name":"Manggabesar","is_transit":false,"line":2,"i_long":106.82482},{"distance":1080,"transit":false,"is_transit":false,"i_long":106.820901,"i_lat":-6.141205,"station_id":"JAY","line":2,"time":2,"station_name":"Jayakarta"},{"i_long":106.812439,"line":2,"station_id":"JAKK","is_transit":true,"station_name":"Jakarta Kota","time":4,"transit":true,"i_lat":-6.137569,"distance":1264},{"station_id":"KPB","i_long":106.826365,"station_name":"Kampung Bandan","time":3,"transit":true,"i_lat":-6.132549,"is_transit":true,"distance":1364,"line":4},{"station_name":"Rajawali","time":3,"distance":1444,"i_lat":-6.14505,"i_long":106.836569,"line":11,"station_id":"RJW","is_transit":false,"transit":false},{"i_long":106.839204,"distance":1901,"i_lat":-6.161728,"transit":false,"is_transit":false,"time":5,"line":11,"station_name":"Kemayoran","station_id":"KMO"},{"i_lat":-6.174784,"transit":false,"station_name":"Pasar Senen","time":4,"distance":1436,"line":11,"station_id":"PSE","is_transit":false,"i_long":106.84368},{"transit":false,"i_long":106.850107,"is_transit":false,"distance":1567,"line":11,"time":8,"station_id":"GST","i_lat":-6.185975,"station_name":"Gang Sentiong"}]]}