{"data":[[{"time":0,"distance":0,"i_long":106.800298,"is_transit":true,"transit":false,"station_id":"CTA","station_name":"Citayam","line":1,"i_lat":-6.448811},{"transit":false,"is_transit":false,"i_lat":-6.405256,"time":6,"line":0,"station_id":"DP","station_name":"Depok","distance":5084,"i_long":106.816926},{"line":0,"transit":false,"i_long":106.819451,"is_transit":false,"station_id":"DPB","station_name":"Depokbaru","distance":1584,"time":3,"i_lat":-6.391065},{"time":4,"station_id":"POC","station_name":"Pondok Cina","is_transit":false,"i_long":106.831114,"line":2,"distance":2727,"i_lat":-6.369073,"transit":false},{"distance":1109,"i_long":106.831474,"transit":false,"station_name":"Univ. Indonesia","is_transit":false,"i_lat":-6.360749,"time":2,"line":2,"station_id":"UI"},{"i_long":106.834175,"station_name":"Univ. Pancasila","line":2,"is_transit":false,"station_id":"UP","distance":2264,"i_lat":-6.339291,"time":3,"transit":false},{"is_transit":false,"time":2,"station_name":"Lenteng Agung","transit":false,"i_lat":-6.330363,"i_long":106.832616,"distance":1029,"line":2,"station_id":"LNA"},{"station_id":"TNT","transit":false,"is_transit":false,"i_long":106.838896,"distance":2671,"time":3,"station_name":"Tanjung Barat","line":2,"i_lat":-6.3080680000000005},{"station_id":"PSM","transit":false,"station_name":"Pasar Minggu","distance":2820,"is_transit":false,"i_long":106.843999,"line":2,"time":4,"i_lat":-6.2842400000000005},{"line":2,"is_transit":false,"i_lat":-6.263214,"time":2,"transit":false,"station_id":"PSMB","i_long":106.851577,"station_name":"Pasar Minggu Baru","distance":2380},{"i_lat":-6.255332,"station_name":"Duren Kalibata","line":0,"i_long":106.85449,"station_id":"DRN","is_transit":false,"distance":824,"time":2,"transit":false},{"distance":1546,"transit":false,"is_transit":false,"line":0,"station_name":"Cawang","i_lat":-6.242512,"station_id":"CW","time":3,"i_long":106.856607},{"station_name":"Tebet","distance":1230,"transit":false,"i_lat":-6.226659,"i_long":106.857948,"time":2,"station_id":"TEB","is_transit":false,"line":2},{"is_transit":true,"i_long":106.84912,"station_id":"MRI","time":4,"distance":2610,"transit":true,"i_lat":-6.209883,"line":0,"station_name":"Manggarai"},{"time":2,"distance":1275,"i_long":106.858896,"line":1,"transit":false,"station_id":"MTR","is_transit":false,"station_name":"Matraman","i_lat":-6.212485},{"line":0,"station_name":"Jatinegara","station_id":"JNG","i_long":106.86807400000001,"time":8,"is_transit":true,"distance":1377,"i_lat":-6.215091,"transit":false},{"transit":false,"is_transit":false,"distance":3395,"line":1,"i_lat":-6.2135,"station_id":"KLD","station_name":"Klender","i_long":106.899548,"time":3},{"transit":false,"i_lat":-6.215568,"distance":3100,"station_id":"BUA","is_transit":false,"i_long":106.922662,"station_name":"Buaran","time":2,"line":0},{"station_id":"KLDB","time":1,"transit":false,"is_transit":false,"i_lat":-6.217455,"line":1,"i_long":106.939679,"distance":1305,"station_name":"Klenderbaru"},{"station_name":"Cakung","i_lat":-6.219053,"line":0,"time":8,"is_transit":false,"i_long":106.951283,"station_id":"CUK","distance":1385,"transit":false},{"station_name":"Kranji","i_long":106.977657,"distance":3097,"i_lat":-6.224515,"is_transit":false,"time":3,"transit":false,"line":1,"station_id":"KRI"}],[{"transit":false,"station_id":"CTA","distance":0,"time":0,"station_name":"Citayam","is_transit":true,"i_lat":-6.448811,"i_long":106.800298,"line":1},{"station_id":"DP","line":0,"i_lat":-6.405256,"time":6,"transit":false,"is_transit":false,"distance":5084,"station_name":"Depok","i_long":106.816926},{"transit":false,"station_id":"DPB","time":3,"i_long":106.819451,"station_name":"Depokbaru","distance":1584,"is_transit":false,"i_lat":-6.391065,"line":0},{"i_lat":-6.369073,"distance":2727,"transit":false,"station_name":"Pondok Cina","station_id":"POC","line":2,"is_transit":false,"i_long":106.831114,"time":4},{"i_long":106.831474,"line":2,"station_id":"UI","time":2,"distance":1109,"is_transit":false,"station_name":"Univ. Indonesia","i_lat":-6.360749,"transit":false},{"is_transit":false,"i_lat":-6.339291,"distance":2264,"station_id":"UP","i_long":106.834175,"transit":false,"line":2,"station_name":"Univ. Pancasila","time":3},{"station_id":"LNA","time":2,"station_name":"Lenteng Agung","is_transit":false,"distance":1029,"transit":false,"i_lat":-6.330363,"i_long":106.832616,"line":2},{"distance":2671,"i_lat":-6.3080680000000005,"is_transit":false,"line":2,"station_id":"TNT","station_name":"Tanjung Barat","time":3,"transit":false,"i_long":106.838896},{"distance":2820,"line":2,"station_id":"PSM","station_name":"Pasar Minggu","is_transit":false,"time":4,"transit":false,"i_long":106.843999,"i_lat":-6.2842400000000005},{"time":2,"is_transit":false,"station_id":"PSMB","transit":false,"i_lat":-6.263214,"i_long":106.851577,"distance":2380,"station_name":"Pasar Minggu Baru","line":2},{"time":2,"transit":false,"i_lat":-6.255332,"distance":824,"i_long":106.85449,"station_id":"DRN","line":0,"is_transit":false,"station_name":"Duren Kalibata"},{"time":3,"transit":false,"line":0,"distance":1546,"station_name":"Cawang","i_lat":-6.242512,"i_long":106.856607,"station_id":"CW","is_transit":false},{"is_transit":false,"station_name":"Tebet","time":2,"distance":1230,"i_long":106.857948,"line":2,"station_id":"TEB","transit":false,"i_lat":-6.226659},{"time":4,"line":0,"distance":2610,"transit":true,"station_id":"MRI","is_transit":true,"i_long":106.84912,"i_lat":-6.209883,"station_name":"Manggarai"},{"transit":false,"i_lat":-6.202263,"station_name":"Sudirman","distance":3186,"i_long":106.822649,"station_id":"SUD","line":1,"time":4,"is_transit":false},{"i_lat":-6.201433,"station_id":"SUDB","station_name":"Sudirman Baru","time":1,"distance":280,"transit":false,"i_long":106.819881,"line":1,"is_transit":false},{"time":1,"distance":471,"i_long":106.816351,"line":1,"transit":false,"i_lat":-6.20132,"station_id":"KAT","station_name":"Karet","is_transit":false},{"i_long":106.811091,"i_lat":-6.185545,"is_transit":true,"station_name":"Tanah Abang","transit":false,"line":1,"distance":2029,"time":5,"station_id":"THB"},{"station_id":"DU","time":8,"line":1,"i_long":106.800832,"i_lat":-6.155215,"distance":3632,"is_transit":true,"station_name":"Duri","transit":true},{"is_transit":false,"station_name":"Angke","station_id":"AK","time":4,"distance":1230,"i_lat":-6.144674,"line":0,"transit":false,"i_long":106.79867},{"transit":true,"i_long":106.826365,"line":0,"time":9,"station_name":"Kampung Bandan","distance":4102,"station_id":"KPB","is_transit":true,"i_lat":-6.132549},{"is_transit":false,"distance":1444,"transit":false,"time":3,"i_lat":-6.14505,"i_long":106.836569,"line":11,"station_id":"RJW","station_name":"Rajawali"},{"i_long":106.839204,"transit":false,"time":5,"distance":1901,"station_id":"KMO","i_lat":-6.161728,"station_name":"Kemayoran","is_transit":false,"line":11},{"distance":1436,"station_id":"PSE","line":11,"transit":false,"time":4,"i_long":106.84368,"i_lat":-6.174784,"station_name":"Pasar Senen","is_transit":false},{"station_id":"GST","time":8,"distance":1567,"i_long":106.850107,"is_transit":false,"station_name":"Gang Sentiong","transit":false,"line":11,"i_lat":-6.185975},{"time":1,"i_long":106.855437,"i_lat":-6.193792,"station_id":"KMT","transit":false,"line":11,"station_name":"Kramat","is_transit":false,"distance":973},{"transit":false,"i_lat":-6.209188,"station_id":"POK","i_long":106.861737,"is_transit":false,"line":11,"station_name":"Pondok Jati","time":2,"distance":1829},{"transit":true,"station_id":"JNG","i_lat":-6.215091,"i_long":106.86807400000001,"line":0,"time":9,"distance":1236,"is_transit":true,"station_name":"Jatinegara"},{"station_name":"Klender","is_transit":false,"line":1,"transit":false,"station_id":"KLD","distance":3395,"i_long":106.899548,"i_lat":-6.2135,"time":3},{"is_transit":false,"distance":3100,"i_long":106.922662,"time":2,"station_id":"BUA","i_lat":-6.215568,"station_name":"Buaran","transit":false,"line":0},{"line":1,"time":1,"i_long":106.939679,"station_name":"Klenderbaru","transit":false,"is_transit":false,"distance":1305,"i_lat":-6.217455,"station_id":"KLDB"},{"distance":1385,"station_id":"CUK","station_name":"Cakung","i_lat":-6.219053,"i_long":106.951283,"line":0,"is_transit":false,"transit":false,"time":8},{"time":3,"station_name":"Kranji","transit":false,"station_id":"KRI","line":1,"i_long":106.977657,"i_lat":-6.224515,"is_transit":false,"distance":3097}],[{"is_transit":true,"time":0,"i_lat":-6.448811,"transit":false,"i_long":106.800298,"station_id":"CTA","station_name":"Citayam","line":1,"distance":0},{"distance":5084,"station_name":"Depok","time":6,"station_id":"DP","is_transit":false,"transit":false,"i_long":106.816926,"i_lat":-6.405256,"line":0},{"i_lat":-6.391065,"line":0,"time":3,"station_id":"DPB","is_transit":false,"i_long":106.819451,"station_name":"Depokbaru","distance":1584,"transit":false},{"station_id":"POC","is_transit":false,"i_lat":-6.369073,"line":2,"time":4,"i_long":106.831114,"station_name":"Pondok Cina","distance":2727,"transit":false},{"station_name":"Univ. Indonesia","time":2,"is_transit":false,"distance":1109,"i_lat":-6.360749,"transit":false,"i_long":106.831474,"line":2,"station_id":"UI"},{"transit":false,"i_lat":-6.339291,"line":2,"station_name":"Univ. Pancasila","station_id":"UP","is_transit":false,"distance":2264,"i_long":106.834175,"time":3},{"distance":1029,"station_id":"LNA","i_lat":-6.330363,"time":2,"i_long":106.832616,"line":2,"is_transit":false,"station_name":"Lenteng Agung","transit":false},{"i_lat":-6.3080680000000005,"time":3,"station_name":"Tanjung Barat","is_transit":false,"line":2,"transit":false,"distance":2671,"i_long":106.838896,"station_id":"TNT"},{"i_lat":-6.2842400000000005,"i_long":106.843999,"line":2,"is_transit":false,"time":4,"distance":2820,"station_id":"PSM","transit":false,"station_name":"Pasar Minggu"},{"i_lat":-6.263214,"line":2,"station_id":"PSMB","distance":2380,"is_transit":false,"station_name":"Pasar Minggu Baru","time":2,"i_long":106.851577,"transit":false},{"transit":false,"i_lat":-6.255332,"time":2,"distance":824,"station_name":"Duren Kalibata","line":0,"station_id":"DRN","i_long":106.85449,"is_transit":false},{"is_transit":false,"i_long":106.856607,"station_name":"Cawang","station_id":"CW","distance":1546,"transit":false,"i_lat":-6.242512,"line":0,"time":3},{"station_id":"TEB","line":2,"time":2,"is_transit":false,"transit":false,"distance":1230,"i_lat":-6.226659,"station_name":"Tebet","i_long":106.857948},{"station_name":"Manggarai","is_transit":true,"line":0,"transit":true,"time":4,"i_long":106.84912,"distance":2610,"i_lat":-6.209883,"station_id":"MRI"},{"station_id":"CKI","transit":false,"time":4,"station_name":"Cikini","is_transit":false,"i_lat":-6.198556,"distance":1590,"line":0,"i_long":106.840169},{"station_id":"GDD","is_transit":false,"i_lat":-6.186295,"i_long":106.832183,"transit":false,"time":3,"line":2,"distance":1750,"station_name":"Gondangdia"},{"i_lat":-6.166716,"line":2,"i_long":106.828284,"is_transit":false,"distance":2015,"station_id":"JUA","transit":false,"station_name":"Juanda","time":4},{"station_id":"SW","is_transit":false,"line":2,"station_name":"Sawah Besar","i_lat":-6.160725,"distance":1149,"transit":false,"i_long":106.827103,"time":2},{"time":2,"station_name":"Manggabesar","transit":false,"i_long":106.82482,"line":2,"station_id":"MGB","is_transit":false,"distance":906,"i_lat":-6.149769},{"station_id":"JAY","time":2,"is_transit":false,"distance":1080,"line":7,"transit":false,"i_lat":-6.141205,"station_name":"Jayakarta","i_long":106.820901},{"station_name":"Jakarta Kota","i_long":106.812439,"station_id":"JAKK","time":4,"is_transit":true,"distance":1264,"transit":true,"i_lat":-6.137569,"line":0},{"line":0,"distance":1364,"is_transit":true,"i_lat":-6.132549,"station_id":"KPB","i_long":106.826365,"station_name":"Kampung Bandan","time":3,"transit":true},{"time":3,"is_transit":false,"transit":false,"station_id":"RJW","station_name":"Rajawali","i_lat":-6.14505,"i_long":106.836569,"line":11,"distance":1444},{"is_transit":false,"distance":1901,"i_lat":-6.161728,"line":11,"i_long":106.839204,"station_name":"Kemayoran","transit":false,"time":5,"station_id":"KMO"},{"i_long":106.84368,"is_transit":false,"line":11,"station_name":"Pasar Senen","transit":false,"i_lat":-6.174784,"time":4,"distance":1436,"station_id":"PSE"},{"station_name":"Gang Sentiong","time":8,"station_id":"GST","transit":false,"i_lat":-6.185975,"line":11,"distance":1567,"is_transit":false,"i_long":106.850107},{"i_lat":-6.193792,"transit":false,"i_long":106.855437,"distance":973,"time":1,"station_id":"KMT","line":11,"station_name":"Kramat","is_transit":false},{"is_transit":false,"station_name":"Pondok Jati","i_lat":-6.209188,"i_long":106.861737,"line":11,"time":2,"transit":false,"station_id":"POK","distance":1829},{"line":0,"i_long":106.86807400000001,"i_lat":-6.215091,"transit":true,"station_id":"JNG","station_name":"Jatinegara","time":9,"distance":1236,"is_transit":true},{"transit":false,"i_lat":-6.2135,"line":1,"i_long":106.899548,"is_transit":false,"distance":3395,"station_id":"KLD","time":3,"station_name":"Klender"},{"station_id":"BUA","distance":3100,"transit":false,"i_lat":-6.215568,"time":2,"i_long":106.922662,"line":0,"is_transit":false,"station_name":"Buaran"},{"is_transit":false,"transit":false,"station_id":"KLDB","distance":1305,"i_long":106.939679,"time":1,"line":1,"station_name":"Klenderbaru","i_lat":-6.217455},{"distance":1385,"i_long":106.951283,"i_lat":-6.219053,"line":0,"station_id":"CUK","time":8,"is_transit":false,"transit":false,"station_name":"Cakung"},{"station_name":"Kranji","station_id":"KRI","line":1,"transit":false,"i_lat":-6.224515,"distance":3097,"time":3,"is_transit":false,"i_long":106.977657}]]}