{"data":[[{"line":2,"transit":false,"time":0,"is_transit":false,"i_long":106.800298,"i_lat":-6.448811,"distance":0,"station_name":"Citayam","station_id":"CTA"},{"i_lat":-6.405256,"i_long":106.816926,"is_transit":false,"distance":5084,"station_name":"Depok","time":6,"line":2,"transit":false,"station_id":"DP"},{"is_transit":false,"time":3,"transit":false,"station_id":"DPB","i_long":106.819451,"distance":1584,"station_name":"Depokbaru","i_lat":-6.391065,"line":2},{"time":4,"is_transit":false,"distance":2727,"i_lat":-6.369073,"i_long":106.831114,"line":2,"station_name":"Pondok Cina","station_id":"POC","transit":false},{"station_name":"Univ. Indonesia","is_transit":false,"station_id":"UI","i_lat":-6.360749,"line":2,"time":2,"distance":1109,"transit":false,"i_long":106.831474},{"distance":2264,"station_id":"UP","is_transit":false,"line":2,"transit":false,"station_name":"Univ. Pancasila","time":3,"i_lat":-6.339291,"i_long":106.834175},{"station_id":"LNA","i_long":106.832616,"distance":1029,"station_name":"Lenteng Agung","is_transit":false,"i_lat":-6.330363,"line":2,"time":2,"transit":false},{"station_name":"Tanjung Barat","time":3,"i_lat":-6.3080680000000005,"i_long":106.838896,"station_id":"TNT","line":2,"distance":2671,"transit":false,"is_transit":false},{"time":4,"i_lat":-6.2842400000000005,"station_name":"Pasar Minggu","distance":2820,"is_transit":false,"station_id":"PSM","line":2,"transit":false,"i_long":106.843999},{"is_transit":false,"transit":false,"station_name":"Pasar Minggu Baru","distance":2380,"line":2,"time":2,"i_lat":-6.263214,"i_long":106.851577,"station_id":"PSMB"},{"i_long":106.85449,"time":2,"transit":false,"distance":824,"station_name":"Duren Kalibata","station_id":"DRN","i_lat":-6.255332,"line":2,"is_transit":false},{"i_lat":-6.242512,"is_transit":false,"transit":false,"station_name":"Cawang","time":3,"i_long":106.856607,"distance":1546,"station_id":"CW","line":2},{"time":2,"distance":1230,"i_lat":-6.226659,"is_transit":false,"i_long":106.857948,"station_name":"Tebet","transit":false,"station_id":"TEB","line":2},{"transit":true,"i_lat":-6.209883,"distance":2610,"time":4,"line":2,"i_long":106.84912,"station_id":"MRI","is_transit":true,"station_name":"Manggarai"},{"i_long":106.822649,"station_id":"SUD","is_transit":false,"station_name":"Sudirman","distance":3186,"time":4,"transit":false,"line":1,"i_lat":-6.202263},{"time":1,"station_name":"Sudirman Baru","is_transit":false,"distance":280,"station_id":"SUDB","line":1,"transit":false,"i_long":106.819881,"i_lat":-6.201433},{"distance":471,"station_id":"KAT","time":1,"i_lat":-6.20132,"line":1,"station_name":"Karet","i_long":106.816351,"is_transit":false,"transit":false},{"time":5,"station_id":"THB","transit":false,"i_long":106.811091,"station_name":"Tanah Abang","is_transit":false,"line":1,"distance":2029,"i_lat":-6.185545},{"transit":true,"i_long":106.800832,"station_id":"DU","distance":3632,"station_name":"Duri","time":8,"is_transit":true,"i_lat":-6.155215,"line":1},{"time":3,"station_name":"Grogol","i_lat":-6.162021,"i_long":106.788277,"distance":1700,"transit":false,"is_transit":false,"station_id":"GGL","line":5},{"transit":false,"distance":2036,"line":5,"time":2,"station_id":"PSG","i_lat":-6.161433,"i_long":106.771379,"station_name":"Pesing","is_transit":false},{"is_transit":false,"i_lat":-6.1587309999999995,"i_long":106.756522,"line":5,"time":2,"station_id":"TKO","station_name":"Taman Kota","transit":false,"distance":1614},{"line":5,"station_name":"Bojongindah","station_id":"BOI","i_lat":-6.159876,"i_long":106.737035,"time":2,"transit":false,"distance":2334,"is_transit":false},{"distance":1152,"i_long":106.723064,"station_name":"Rawa Buaya","transit":false,"i_lat":-6.162758,"station_id":"RW","line":5,"is_transit":false,"time":4},{"transit":false,"is_transit":false,"line":5,"station_id":"KDS","distance":2504,"i_lat":-6.166068,"i_long":106.701612,"time":3,"station_name":"Kalideres"},{"distance":2548,"i_lat":-6.169933,"is_transit":false,"transit":false,"station_id":"PI","i_long":106.679458,"time":3,"station_name":"Poris","line":5},{"i_lat":-6.171811,"distance":1834,"transit":false,"time":3,"station_name":"Batuceper","station_id":"BPR","i_long":106.665036,"is_transit":false,"line":5},{"i_lat":-6.17331,"station_id":"TTI","distance":2028,"i_long":106.64657,"time":3,"station_name":"Tanah Tinggi","is_transit":false,"transit":false,"line":5},{"distance":1547,"is_transit":false,"station_name":"Tangerang","time":3,"transit":false,"station_id":"TNG","i_long":106.632761,"line":5,"i_lat":-6.176583}],[{"station_name":"Citayam","i_lat":-6.448811,"is_transit":false,"i_long":106.800298,"distance":0,"line":2,"station_id":"CTA","transit":false,"time":0},{"transit":false,"time":6,"station_id":"DP","i_long":106.816926,"station_name":"Depok","distance":5084,"i_lat":-6.405256,"line":2,"is_transit":false},{"distance":1584,"transit":false,"time":3,"is_transit":false,"station_name":"Depokbaru","i_lat":-6.391065,"i_long":106.819451,"line":2,"station_id":"DPB"},{"transit":false,"time":4,"line":2,"station_name":"Pondok Cina","station_id":"POC","i_lat":-6.369073,"i_long":106.831114,"distance":2727,"is_transit":false},{"line":2,"transit":false,"i_long":106.831474,"station_name":"Univ. Indonesia","distance":1109,"is_transit":false,"station_id":"UI","i_lat":-6.360749,"time":2},{"line":2,"i_long":106.834175,"transit":false,"station_name":"Univ. Pancasila","is_transit":false,"time":3,"distance":2264,"station_id":"UP","i_lat":-6.339291},{"distance":1029,"station_name":"Lenteng Agung","transit":false,"i_long":106.832616,"time":2,"line":2,"is_transit":false,"i_lat":-6.330363,"station_id":"LNA"},{"station_name":"Tanjung Barat","station_id":"TNT","distance":2671,"i_lat":-6.3080680000000005,"transit":false,"is_transit":false,"i_long":106.838896,"time":3,"line":2},{"transit":false,"distance":2820,"is_transit":false,"time":4,"i_lat":-6.2842400000000005,"station_name":"Pasar Minggu","i_long":106.843999,"station_id":"PSM","line":2},{"station_id":"PSMB","i_lat":-6.263214,"station_name":"Pasar Minggu Baru","transit":false,"i_long":106.851577,"line":2,"is_transit":false,"time":2,"distance":2380},{"transit":false,"is_transit":false,"station_name":"Duren Kalibata","i_lat":-6.255332,"time":2,"distance":824,"station_id":"DRN","i_long":106.85449,"line":2},{"transit":false,"station_name":"Cawang","i_lat":-6.242512,"distance":1546,"i_long":106.856607,"station_id":"CW","line":2,"time":3,"is_transit":false},{"station_id":"TEB","i_long":106.857948,"i_lat":-6.226659,"distance":1230,"time":2,"station_name":"Tebet","line":2,"transit":false,"is_transit":false},{"transit":false,"station_id":"MRI","time":4,"i_long":106.84912,"line":2,"distance":2610,"is_transit":false,"station_name":"Manggarai","i_lat":-6.209883},{"station_id":"CKI","station_name":"Cikini","i_lat":-6.198556,"time":4,"distance":1590,"is_transit":false,"transit":false,"line":2,"i_long":106.840169},{"i_long":106.832183,"transit":false,"time":3,"is_transit":false,"i_lat":-6.186295,"distance":1750,"station_name":"Gondangdia","line":2,"station_id":"GDD"},{"i_lat":-6.166716,"is_transit":false,"distance":2015,"i_long":106.828284,"transit":false,"time":4,"line":2,"station_id":"JUA","station_name":"Juanda"},{"station_id":"SW","station_name":"Sawah Besar","transit":false,"i_lat":-6.160725,"is_transit":false,"distance":1149,"time":2,"line":2,"i_long":106.827103},{"time":2,"i_long":106.82482,"station_id":"MGB","line":2,"transit":false,"distance":906,"i_lat":-6.149769,"is_transit":false,"station_name":"Manggabesar"},{"distance":1080,"station_id":"JAY","transit":false,"time":2,"station_name":"Jayakarta","is_transit":false,"i_lat":-6.141205,"i_long":106.820901,"line":2},{"line":2,"i_long":106.812439,"distance":1264,"station_name":"Jakarta Kota","is_transit":true,"transit":true,"station_id":"JAKK","i_lat":-6.137569,"time":4},{"time":3,"is_transit":true,"transit":true,"distance":1364,"station_id":"KPB","station_name":"Kampung Bandan","line":4,"i_lat":-6.132549,"i_long":106.826365},{"distance":4102,"i_lat":-6.144674,"station_name":"Angke","line":1,"is_transit":false,"i_long":106.79867,"time":9,"station_id":"AK","transit":false},{"is_transit":true,"line":1,"distance":1230,"time":4,"station_id":"DU","transit":true,"i_lat":-6.155215,"i_long":106.800832,"station_name":"Duri"},{"is_transit":false,"time":3,"station_id":"GGL","i_lat":-6.162021,"line":5,"station_name":"Grogol","transit":false,"distance":1700,"i_long":106.788277},{"is_transit":false,"i_lat":-6.161433,"station_id":"PSG","time":2,"distance":2036,"line":5,"station_name":"Pesing","transit":false,"i_long":106.771379},{"is_transit":false,"distance":1614,"transit":false,"i_lat":-6.1587309999999995,"line":5,"time":2,"i_long":106.756522,"station_name":"Taman Kota","station_id":"TKO"},{"i_lat":-6.159876,"i_long":106.737035,"time":2,"transit":false,"distance":2334,"station_id":"BOI","line":5,"is_transit":false,"station_name":"Bojongindah"},{"is_transit":false,"station_name":"Rawa Buaya","station_id":"RW","line":5,"time":4,"transit":false,"distance":1152,"i_long":106.723064,"i_lat":-6.162758},{"station_name":"Kalideres","i_lat":-6.166068,"station_id":"KDS","line":5,"time":3,"distance":2504,"transit":false,"is_transit":false,"i_long":106.701612},{"i_lat":-6.169933,"i_long":106.679458,"distance":2548,"transit":false,"is_transit":false,"line":5,"time":3,"station_name":"Poris","station_id":"PI"},{"i_lat":-6.171811,"transit":false,"distance":1834,"time":3,"station_name":"Batuceper","is_transit":false,"station_id":"BPR","i_long":106.665036,"line":5},{"i_long":106.64657,"time":3,"line":5,"i_lat":-6.17331,"station_name":"Tanah Tinggi","transit":false,"distance":2028,"station_id":"TTI","is_transit":false},{"i_long":106.632761,"distance":1547,"station_name":"Tangerang","is_transit":false,"transit":false,"station_id":"TNG","i_lat":-6.176583,"line":5,"time":3}],[{"distance":0,"station_id":"CTA","line":2,"time":0,"station_name":"Citayam","transit":false,"i_lat":-6.448811,"is_transit":false,"i_long":106.800298},{"time":6,"transit":false,"is_transit":false,"station_id":"DP","station_name":"Depok","i_long":106.816926,"line":2,"distance":5084,"i_lat":-6.405256},{"station_name":"Depokbaru","distance":1584,"station_id":"DPB","i_lat":-6.391065,"i_long":106.819451,"line":2,"transit":false,"time":3,"is_transit":false},{"station_name":"Pondok Cina","is_transit":false,"i_long":106.831114,"line":2,"station_id":"POC","distance":2727,"time":4,"transit":false,"i_lat":-6.369073},{"i_long":106.831474,"time":2,"distance":1109,"i_lat":-6.360749,"station_id":"UI","station_name":"Univ. Indonesia","line":2,"transit":false,"is_transit":false},{"i_lat":-6.339291,"i_long":106.834175,"line":2,"distance":2264,"transit":false,"time":3,"station_name":"Univ. Pancasila","is_transit":false,"station_id":"UP"},{"distance":1029,"i_long":106.832616,"is_transit":false,"line":2,"station_name":"Lenteng Agung","i_lat":-6.330363,"time":2,"transit":false,"station_id":"LNA"},{"transit":false,"distance":2671,"station_name":"Tanjung Barat","station_id":"TNT","time":3,"is_transit":false,"i_lat":-6.3080680000000005,"i_long":106.838896,"line":2},{"station_id":"PSM","station_name":"Pasar Minggu","is_transit":false,"transit":false,"distance":2820,"i_lat":-6.2842400000000005,"i_long":106.843999,"line":2,"time":4},{"station_id":"PSMB","i_long":106.851577,"line":2,"distance":2380,"station_name":"Pasar Minggu Baru","is_transit":false,"transit":false,"i_lat":-6.263214,"time":2},{"i_long":106.85449,"i_lat":-6.255332,"line":2,"distance":824,"time":2,"station_id":"DRN","station_name":"Duren Kalibata","is_transit":false,"transit":false},{"is_transit":false,"distance":1546,"i_long":106.856607,"station_id":"CW","i_lat":-6.242512,"station_name":"Cawang","line":2,"time":3,"transit":false},{"station_id":"TEB","i_lat":-6.226659,"time":2,"distance":1230,"station_name":"Tebet","is_transit":false,"i_long":106.857948,"line":2,"transit":false},{"i_long":106.84912,"time":4,"is_transit":true,"distance":2610,"line":2,"i_lat":-6.209883,"station_name":"Manggarai","transit":true,"station_id":"MRI"},{"station_name":"Matraman","distance":1275,"is_transit":false,"i_lat":-6.212485,"i_long":106.858896,"line":1,"time":2,"station_id":"MTR","transit":false},{"station_name":"Jatinegara","transit":true,"station_id":"JNG","time":8,"i_long":106.86807400000001,"distance":1377,"i_lat":-6.215091,"line":1,"is_transit":true},{"is_transit":false,"time":2,"i_lat":-6.209188,"line":11,"i_long":106.861737,"distance":1236,"transit":false,"station_name":"Pondok Jati","station_id":"POK"},{"distance":1829,"is_transit":false,"i_lat":-6.193792,"time":2,"line":11,"i_long":106.855437,"station_id":"KMT","transit":false,"station_name":"Kramat"},{"i_long":106.850107,"station_id":"GST","line":11,"is_transit":false,"i_lat":-6.185975,"distance":973,"transit":false,"station_name":"Gang Sentiong","time":1},{"distance":1567,"i_lat":-6.174784,"line":11,"transit":false,"station_id":"PSE","station_name":"Pasar Senen","i_long":106.84368,"is_transit":false,"time":8},{"is_transit":false,"time":4,"distance":1436,"station_name":"Kemayoran","transit":false,"station_id":"KMO","i_long":106.839204,"line":11,"i_lat":-6.161728},{"station_id":"RJW","time":5,"i_lat":-6.14505,"station_name":"Rajawali","i_long":106.836569,"is_transit":false,"distance":1901,"line":11,"transit":false},{"distance":1444,"i_lat":-6.132549,"is_transit":true,"station_id":"KPB","station_name":"Kampung Bandan","transit":true,"time":3,"i_long":106.826365,"line":4},{"is_transit":false,"i_long":106.79867,"transit":false,"time":9,"station_name":"Angke","distance":4102,"station_id":"AK","i_lat":-6.144674,"line":1},{"distance":1230,"transit":true,"i_lat":-6.155215,"station_name":"Duri","is_transit":true,"station_id":"DU","i_long":106.800832,"line":1,"time":4},{"line":5,"transit":false,"i_lat":-6.162021,"i_long":106.788277,"time":3,"station_name":"Grogol","is_transit":false,"station_id":"GGL","distance":1700},{"i_long":106.771379,"transit":false,"station_name":"Pesing","distance":2036,"line":5,"station_id":"PSG","is_transit":false,"time":2,"i_lat":-6.161433},{"time":2,"station_id":"TKO","i_long":106.756522,"is_transit":false,"transit":false,"i_lat":-6.1587309999999995,"distance":1614,"line":5,"station_name":"Taman Kota"},{"i_long":106.737035,"distance":2334,"transit":false,"time":2,"is_transit":false,"station_id":"BOI","i_lat":-6.159876,"line":5,"station_name":"Bojongindah"},{"time":4,"station_name":"Rawa Buaya","distance":1152,"station_id":"RW","i_lat":-6.162758,"i_long":106.723064,"is_transit":false,"line":5,"transit":false},{"station_name":"Kalideres","i_lat":-6.166068,"line":5,"distance":2504,"transit":false,"is_transit":false,"station_id":"KDS","time":3,"i_long":106.701612},{"is_transit":false,"station_name":"Poris","time":3,"i_long":106.679458,"distance":2548,"transit":false,"i_lat":-6.169933,"line":5,"station_id":"PI"},{"distance":1834,"transit":false,"i_long":106.665036,"is_transit":false,"line":5,"station_name":"Batuceper","i_lat":-6.171811,"station_id":"BPR","time":3},{"line":5,"transit":false,"station_id":"TTI","is_transit":false,"i_lat":-6.17331,"time":3,"distance":2028,"station_name":"Tanah Tinggi","i_long":106.64657},{"is_transit":false,"transit":false,"station_id":"TNG","time":3,"station_name":"Tangerang","line":5,"i_lat":-6.176583,"i_long":106.632761,"distance":1547}]]}