{"data":[[{"transit":false,"distance":0,"i_long":106.800298,"time":0,"is_transit":false,"station_id":"CTA","station_name":"Citayam","line":2,"i_lat":-6.448811},{"station_name":"Depok","time":6,"i_long":106.816926,"station_id":"DP","transit":false,"is_transit":false,"distance":5084,"line":2,"i_lat":-6.405256},{"time":3,"station_name":"Depokbaru","transit":false,"station_id":"DPB","is_transit":false,"distance":1584,"i_lat":-6.391065,"i_long":106.819451,"line":2},{"station_name":"Pondok Cina","i_long":106.831114,"is_transit":false,"line":2,"transit":false,"i_lat":-6.369073,"station_id":"POC","time":4,"distance":2727},{"station_name":"Univ. Indonesia","station_id":"UI","time":2,"transit":false,"is_transit":false,"i_lat":-6.360749,"i_long":106.831474,"distance":1109,"line":2},{"transit":false,"station_name":"Univ. Pancasila","time":3,"i_long":106.834175,"line":2,"distance":2264,"station_id":"UP","i_lat":-6.339291,"is_transit":false},{"station_name":"Lenteng Agung","i_lat":-6.330363,"transit":false,"time":2,"distance":1029,"is_transit":false,"i_long":106.832616,"station_id":"LNA","line":2},{"line":2,"station_name":"Tanjung Barat","is_transit":false,"i_long":106.838896,"i_lat":-6.3080680000000005,"station_id":"TNT","time":3,"transit":false,"distance":2671},{"transit":false,"is_transit":false,"time":4,"i_long":106.843999,"distance":2820,"station_name":"Pasar Minggu","i_lat":-6.2842400000000005,"line":2,"station_id":"PSM"},{"station_name":"Pasar Minggu Baru","time":2,"is_transit":false,"i_lat":-6.263214,"i_long":106.851577,"transit":false,"distance":2380,"line":2,"station_id":"PSMB"},{"transit":false,"station_name":"Duren Kalibata","time":2,"distance":824,"is_transit":false,"line":2,"station_id":"DRN","i_lat":-6.255332,"i_long":106.85449},{"distance":1546,"line":2,"transit":false,"station_name":"Cawang","station_id":"CW","time":3,"is_transit":false,"i_lat":-6.242512,"i_long":106.856607},{"time":2,"i_lat":-6.226659,"i_long":106.857948,"station_id":"TEB","transit":false,"station_name":"Tebet","is_transit":false,"distance":1230,"line":2},{"station_id":"MRI","is_transit":true,"i_long":106.84912,"time":4,"transit":true,"line":2,"distance":2610,"i_lat":-6.209883,"station_name":"Manggarai"},{"station_id":"SUD","time":4,"i_long":106.822649,"station_name":"Sudirman","i_lat":-6.202263,"distance":3186,"line":1,"is_transit":false,"transit":false},{"station_name":"Sudirman Baru","is_transit":false,"station_id":"SUDB","line":1,"transit":false,"distance":280,"time":1,"i_lat":-6.201433,"i_long":106.819881},{"is_transit":false,"distance":471,"line":1,"transit":false,"station_id":"KAT","time":1,"i_long":106.816351,"i_lat":-6.20132,"station_name":"Karet"},{"station_id":"THB","transit":false,"station_name":"Tanah Abang","distance":2029,"time":5,"i_lat":-6.185545,"line":1,"is_transit":false,"i_long":106.811091},{"distance":3632,"station_name":"Duri","i_lat":-6.155215,"line":1,"transit":true,"is_transit":true,"time":8,"station_id":"DU","i_long":106.800832},{"station_name":"Grogol","station_id":"GGL","time":3,"i_lat":-6.162021,"i_long":106.788277,"is_transit":false,"transit":false,"line":5,"distance":1700},{"time":2,"is_transit":false,"distance":2036,"line":5,"station_id":"PSG","transit":false,"i_lat":-6.161433,"station_name":"Pesing","i_long":106.771379},{"i_lat":-6.1587309999999995,"i_long":106.756522,"transit":false,"station_name":"Taman Kota","is_transit":false,"distance":1614,"line":5,"station_id":"TKO","time":2},{"transit":false,"i_long":106.737035,"station_id":"BOI","station_name":"Bojongindah","line":5,"distance":2334,"is_transit":false,"i_lat":-6.159876,"time":2},{"line":5,"distance":1152,"station_name":"Rawa Buaya","i_lat":-6.162758,"i_long":106.723064,"station_id":"RW","is_transit":false,"transit":false,"time":4},{"line":5,"i_long":106.701612,"distance":2504,"time":3,"i_lat":-6.166068,"transit":false,"is_transit":false,"station_name":"Kalideres","station_id":"KDS"},{"transit":false,"is_transit":false,"station_id":"PI","distance":2548,"station_name":"Poris","line":5,"i_lat":-6.169933,"time":3,"i_long":106.679458},{"station_id":"BPR","i_long":106.665036,"is_transit":false,"time":3,"transit":false,"line":5,"station_name":"Batuceper","i_lat":-6.171811,"distance":1834},{"station_name":"Tanah Tinggi","i_long":106.64657,"time":3,"is_transit":false,"station_id":"TTI","distance":2028,"i_lat":-6.17331,"transit":false,"line":5}],[{"transit":false,"station_name":"Citayam","line":2,"time":0,"station_id":"CTA","i_lat":-6.448811,"is_transit":false,"i_long":106.800298,"distance":0},{"station_id":"DP","is_transit":false,"time":6,"distance":5084,"i_lat":-6.405256,"transit":false,"i_long":106.816926,"line":2,"station_name":"Depok"},{"station_name":"Depokbaru","time":3,"line":2,"transit":false,"i_long":106.819451,"station_id":"DPB","i_lat":-6.391065,"distance":1584,"is_transit":false},{"line":2,"station_name":"Pondok Cina","is_transit":false,"distance":2727,"i_lat":-6.369073,"station_id":"POC","time":4,"transit":false,"i_long":106.831114},{"line":2,"transit":false,"station_id":"UI","i_lat":-6.360749,"is_transit":false,"time":2,"station_name":"Univ. Indonesia","distance":1109,"i_long":106.831474},{"is_transit":false,"distance":2264,"line":2,"time":3,"i_lat":-6.339291,"station_id":"UP","station_name":"Univ. Pancasila","i_long":106.834175,"transit":false},{"i_long":106.832616,"line":2,"station_name":"Lenteng Agung","transit":false,"station_id":"LNA","distance":1029,"is_transit":false,"i_lat":-6.330363,"time":2},{"i_lat":-6.3080680000000005,"distance":2671,"station_name":"Tanjung Barat","is_transit":false,"i_long":106.838896,"station_id":"TNT","time":3,"line":2,"transit":false},{"line":2,"station_name":"Pasar Minggu","station_id":"PSM","is_transit":false,"time":4,"distance":2820,"transit":false,"i_lat":-6.2842400000000005,"i_long":106.843999},{"distance":2380,"line":2,"station_id":"PSMB","i_lat":-6.263214,"station_name":"Pasar Minggu Baru","i_long":106.851577,"transit":false,"time":2,"is_transit":false},{"is_transit":false,"i_long":106.85449,"line":2,"distance":824,"station_id":"DRN","time":2,"i_lat":-6.255332,"transit":false,"station_name":"Duren Kalibata"},{"i_long":106.856607,"transit":false,"i_lat":-6.242512,"line":2,"distance":1546,"station_name":"Cawang","time":3,"station_id":"CW","is_transit":false},{"transit":false,"station_id":"TEB","i_lat":-6.226659,"station_name":"Tebet","is_transit":false,"i_long":106.857948,"time":2,"line":2,"distance":1230},{"i_lat":-6.209883,"line":2,"time":4,"station_name":"Manggarai","station_id":"MRI","transit":false,"is_transit":false,"i_long":106.84912,"distance":2610},{"i_long":106.840169,"transit":false,"i_lat":-6.198556,"line":2,"station_id":"CKI","is_transit":false,"distance":1590,"station_name":"Cikini","time":4},{"i_long":106.832183,"station_id":"GDD","line":2,"is_transit":false,"i_lat":-6.186295,"station_name":"Gondangdia","time":3,"distance":1750,"transit":false},{"i_lat":-6.166716,"distance":2015,"i_long":106.828284,"line":2,"is_transit":false,"transit":false,"station_name":"Juanda","time":4,"station_id":"JUA"},{"station_name":"Sawah Besar","line":2,"i_long":106.827103,"i_lat":-6.160725,"time":2,"distance":1149,"transit":false,"station_id":"SW","is_transit":false},{"distance":906,"station_name":"Manggabesar","i_long":106.82482,"line":2,"transit":false,"time":2,"is_transit":false,"station_id":"MGB","i_lat":-6.149769},{"is_transit":false,"distance":1080,"time":2,"line":2,"i_lat":-6.141205,"transit":false,"station_name":"Jayakarta","station_id":"JAY","i_long":106.820901},{"station_name":"Jakarta Kota","i_lat":-6.137569,"is_transit":true,"i_long":106.812439,"transit":true,"line":2,"distance":1264,"time":4,"station_id":"JAKK"},{"station_name":"Kampung Bandan","distance":1364,"is_transit":true,"line":4,"station_id":"KPB","i_lat":-6.132549,"transit":true,"time":3,"i_long":106.826365},{"station_name":"Angke","transit":false,"is_transit":false,"station_id":"AK","i_long":106.79867,"distance":4102,"i_lat":-6.144674,"time":9,"line":1},{"i_long":106.800832,"i_lat":-6.155215,"time":4,"station_name":"Duri","distance":1230,"station_id":"DU","line":1,"transit":true,"is_transit":true},{"is_transit":false,"station_id":"GGL","transit":false,"time":3,"line":5,"station_name":"Grogol","distance":1700,"i_lat":-6.162021,"i_long":106.788277},{"time":2,"line":5,"is_transit":false,"i_long":106.771379,"station_id":"PSG","i_lat":-6.161433,"transit":false,"station_name":"Pesing","distance":2036},{"distance":1614,"i_lat":-6.1587309999999995,"station_name":"Taman Kota","transit":false,"i_long":106.756522,"is_transit":false,"line":5,"time":2,"station_id":"TKO"},{"distance":2334,"line":5,"is_transit":false,"station_name":"Bojongindah","station_id":"BOI","transit":false,"time":2,"i_long":106.737035,"i_lat":-6.159876},{"is_transit":false,"i_lat":-6.162758,"station_name":"Rawa Buaya","time":4,"distance":1152,"i_long":106.723064,"line":5,"transit":false,"station_id":"RW"},{"line":5,"transit":false,"station_name":"Kalideres","i_lat":-6.166068,"distance":2504,"i_long":106.701612,"time":3,"station_id":"KDS","is_transit":false},{"i_lat":-6.169933,"is_transit":false,"station_name":"Poris","station_id":"PI","time":3,"line":5,"i_long":106.679458,"distance":2548,"transit":false},{"distance":1834,"i_long":106.665036,"i_lat":-6.171811,"station_id":"BPR","time":3,"line":5,"transit":false,"is_transit":false,"station_name":"Batuceper"},{"time":3,"i_lat":-6.17331,"station_name":"Tanah Tinggi","distance":2028,"line":5,"transit":false,"station_id":"TTI","i_long":106.64657,"is_transit":false}],[{"station_name":"Citayam","i_lat":-6.448811,"line":2,"station_id":"CTA","i_long":106.800298,"transit":false,"time":0,"distance":0,"is_transit":false},{"distance":5084,"station_id":"DP","line":2,"i_long":106.816926,"i_lat":-6.405256,"is_transit":false,"transit":false,"station_name":"Depok","time":6},{"line":2,"station_id":"DPB","i_long":106.819451,"station_name":"Depokbaru","i_lat":-6.391065,"distance":1584,"transit":false,"is_transit":false,"time":3},{"time":4,"station_id":"POC","i_long":106.831114,"line":2,"distance":2727,"is_transit":false,"i_lat":-6.369073,"transit":false,"station_name":"Pondok Cina"},{"time":2,"line":2,"transit":false,"is_transit":false,"distance":1109,"station_name":"Univ. Indonesia","i_lat":-6.360749,"station_id":"UI","i_long":106.831474},{"i_long":106.834175,"transit":false,"is_transit":false,"time":3,"i_lat":-6.339291,"distance":2264,"line":2,"station_name":"Univ. Pancasila","station_id":"UP"},{"station_name":"Lenteng Agung","time":2,"station_id":"LNA","is_transit":false,"distance":1029,"i_long":106.832616,"i_lat":-6.330363,"line":2,"transit":false},{"transit":false,"station_id":"TNT","is_transit":false,"time":3,"station_name":"Tanjung Barat","i_lat":-6.3080680000000005,"distance":2671,"line":2,"i_long":106.838896},{"station_name":"Pasar Minggu","station_id":"PSM","is_transit":false,"transit":false,"distance":2820,"i_long":106.843999,"line":2,"i_lat":-6.2842400000000005,"time":4},{"station_id":"PSMB","is_transit":false,"time":2,"i_lat":-6.263214,"station_name":"Pasar Minggu Baru","transit":false,"distance":2380,"i_long":106.851577,"line":2},{"is_transit":false,"i_lat":-6.255332,"transit":false,"station_id":"DRN","distance":824,"station_name":"Duren Kalibata","i_long":106.85449,"time":2,"line":2},{"line":2,"distance":1546,"transit":false,"station_name":"Cawang","is_transit":false,"time":3,"station_id":"CW","i_long":106.856607,"i_lat":-6.242512},{"transit":false,"time":2,"i_lat":-6.226659,"station_name":"Tebet","line":2,"is_transit":false,"distance":1230,"station_id":"TEB","i_long":106.857948},{"i_long":106.84912,"station_name":"Manggarai","is_transit":true,"station_id":"MRI","distance":2610,"line":2,"time":4,"i_lat":-6.209883,"transit":true},{"transit":false,"line":1,"i_lat":-6.212485,"station_name":"Matraman","distance":1275,"is_transit":false,"i_long":106.858896,"time":2,"station_id":"MTR"},{"station_id":"JNG","i_lat":-6.215091,"time":8,"distance":1377,"line":1,"station_name":"Jatinegara","i_long":106.86807400000001,"is_transit":true,"transit":true},{"station_name":"Pondok Jati","i_long":106.861737,"is_transit":false,"time":2,"station_id":"POK","transit":false,"distance":1236,"i_lat":-6.209188,"line":11},{"distance":1829,"transit":false,"i_lat":-6.193792,"i_long":106.855437,"station_id":"KMT","line":11,"is_transit":false,"station_name":"Kramat","time":2},{"i_long":106.850107,"transit":false,"station_id":"GST","station_name":"Gang Sentiong","is_transit":false,"distance":973,"time":1,"i_lat":-6.185975,"line":11},{"line":11,"time":8,"is_transit":false,"distance":1567,"station_name":"Pasar Senen","station_id":"PSE","transit":false,"i_lat":-6.174784,"i_long":106.84368},{"transit":false,"time":4,"distance":1436,"i_lat":-6.161728,"i_long":106.839204,"is_transit":false,"line":11,"station_id":"KMO","station_name":"Kemayoran"},{"i_lat":-6.14505,"is_transit":false,"distance":1901,"time":5,"line":11,"transit":false,"station_name":"Rajawali","station_id":"RJW","i_long":106.836569},{"time":3,"distance":1444,"station_id":"KPB","transit":true,"i_lat":-6.132549,"i_long":106.826365,"is_transit":true,"line":4,"station_name":"Kampung Bandan"},{"i_lat":-6.144674,"station_id":"AK","i_long":106.79867,"is_transit":false,"time":9,"line":1,"transit":false,"station_name":"Angke","distance":4102},{"time":4,"distance":1230,"is_transit":true,"transit":true,"station_name":"Duri","i_lat":-6.155215,"i_long":106.800832,"line":1,"station_id":"DU"},{"i_long":106.788277,"station_name":"Grogol","distance":1700,"transit":false,"station_id":"GGL","i_lat":-6.162021,"is_transit":false,"line":5,"time":3},{"station_id":"PSG","i_long":106.771379,"is_transit":false,"distance":2036,"time":2,"line":5,"transit":false,"station_name":"Pesing","i_lat":-6.161433},{"line":5,"i_lat":-6.1587309999999995,"distance":1614,"i_long":106.756522,"is_transit":false,"station_id":"TKO","time":2,"station_name":"Taman Kota","transit":false},{"line":5,"time":2,"i_long":106.737035,"i_lat":-6.159876,"station_id":"BOI","station_name":"Bojongindah","is_transit":false,"transit":false,"distance":2334},{"time":4,"station_name":"Rawa Buaya","station_id":"RW","distance":1152,"i_long":106.723064,"line":5,"is_transit":false,"transit":false,"i_lat":-6.162758},{"line":5,"transit":false,"is_transit":false,"distance":2504,"station_id":"KDS","i_long":106.701612,"station_name":"Kalideres","time":3,"i_lat":-6.166068},{"is_transit":false,"i_lat":-6.169933,"time":3,"station_name":"Poris","i_long":106.679458,"transit":false,"distance":2548,"line":5,"station_id":"PI"},{"line":5,"i_lat":-6.171811,"station_id":"BPR","transit":false,"station_name":"Batuceper","is_transit":false,"i_long":106.665036,"time":3,"distance":1834},{"is_transit":false,"i_lat":-6.17331,"station_name":"Tanah Tinggi","line":5,"station_id":"TTI","i_long":106.64657,"transit":false,"distance":2028,"time":3}]]}