{"data":[[{"i_lat":-6.448811,"station_id":"CTA","i_long":106.800298,"time":0,"transit":false,"is_transit":true,"distance":0,"line":1,"station_name":"Citayam"},{"is_transit":false,"time":6,"station_name":"Depok","i_lat":-6.405256,"transit":false,"line":0,"i_long":106.816926,"station_id":"DP","distance":5084},{"station_name":"Depokbaru","transit":false,"i_long":106.819451,"line":0,"i_lat":-6.391065,"station_id":"DPB","distance":1584,"is_transit":false,"time":3},{"i_lat":-6.369073,"station_id":"POC","distance":2727,"is_transit":false,"time":4,"transit":false,"station_name":"Pondok Cina","line":2,"i_long":106.831114},{"transit":false,"distance":1109,"station_name":"Univ. Indonesia","i_lat":-6.360749,"time":2,"i_long":106.831474,"line":2,"station_id":"UI","is_transit":false},{"transit":false,"distance":2264,"station_name":"Univ. Pancasila","time":3,"line":2,"station_id":"UP","is_transit":false,"i_lat":-6.339291,"i_long":106.834175},{"station_id":"LNA","line":2,"is_transit":false,"transit":false,"station_name":"Lenteng Agung","i_long":106.832616,"distance":1029,"i_lat":-6.330363,"time":2},{"time":3,"i_lat":-6.3080680000000005,"station_id":"TNT","is_transit":false,"i_long":106.838896,"distance":2671,"line":2,"transit":false,"station_name":"Tanjung Barat"},{"distance":2820,"transit":false,"station_id":"PSM","station_name":"Pasar Minggu","i_lat":-6.2842400000000005,"is_transit":false,"time":4,"i_long":106.843999,"line":2},{"distance":2380,"is_transit":false,"station_name":"Pasar Minggu Baru","i_long":106.851577,"station_id":"PSMB","time":2,"line":2,"transit":false,"i_lat":-6.263214},{"station_id":"DRN","is_transit":false,"station_name":"Duren Kalibata","line":0,"i_lat":-6.255332,"distance":824,"transit":false,"i_long":106.85449,"time":2},{"line":0,"is_transit":false,"time":3,"station_name":"Cawang","i_lat":-6.242512,"station_id":"CW","i_long":106.856607,"transit":false,"distance":1546},{"i_lat":-6.226659,"station_name":"Tebet","i_long":106.857948,"distance":1230,"is_transit":false,"transit":false,"line":2,"time":2,"station_id":"TEB"},{"station_id":"MRI","is_transit":true,"station_name":"Manggarai","line":0,"time":4,"i_long":106.84912,"i_lat":-6.209883,"distance":2610,"transit":true},{"i_long":106.858896,"line":1,"is_transit":false,"station_name":"Matraman","i_lat":-6.212485,"time":2,"station_id":"MTR","transit":false,"distance":1275},{"time":8,"i_long":106.86807400000001,"line":0,"station_id":"JNG","transit":false,"is_transit":true,"i_lat":-6.215091,"distance":1377,"station_name":"Jatinegara"},{"station_id":"KLD","i_long":106.899548,"line":1,"distance":3395,"station_name":"Klender","transit":false,"is_transit":false,"i_lat":-6.2135,"time":3},{"i_lat":-6.215568,"station_id":"BUA","transit":false,"distance":3100,"time":2,"station_name":"Buaran","line":0,"i_long":106.922662,"is_transit":false},{"distance":1305,"station_id":"KLDB","line":1,"station_name":"Klenderbaru","i_lat":-6.217455,"transit":false,"time":1,"is_transit":false,"i_long":106.939679}],[{"distance":0,"is_transit":true,"station_name":"Citayam","transit":false,"i_long":106.800298,"i_lat":-6.448811,"line":1,"station_id":"CTA","time":0},{"station_name":"Depok","station_id":"DP","distance":5084,"line":0,"i_long":106.816926,"transit":false,"time":6,"i_lat":-6.405256,"is_transit":false},{"transit":false,"time":3,"station_name":"Depokbaru","is_transit":false,"i_long":106.819451,"i_lat":-6.391065,"station_id":"DPB","line":0,"distance":1584},{"time":4,"line":2,"i_long":106.831114,"i_lat":-6.369073,"station_name":"Pondok Cina","is_transit":false,"transit":false,"station_id":"POC","distance":2727},{"station_name":"Univ. Indonesia","line":2,"i_long":106.831474,"i_lat":-6.360749,"is_transit":false,"station_id":"UI","transit":false,"time":2,"distance":1109},{"line":2,"is_transit":false,"distance":2264,"time":3,"station_name":"Univ. Pancasila","i_lat":-6.339291,"i_long":106.834175,"station_id":"UP","transit":false},{"station_id":"LNA","transit":false,"station_name":"Lenteng Agung","i_lat":-6.330363,"i_long":106.832616,"time":2,"distance":1029,"line":2,"is_transit":false},{"transit":false,"i_long":106.838896,"station_name":"Tanjung Barat","time":3,"line":2,"is_transit":false,"station_id":"TNT","i_lat":-6.3080680000000005,"distance":2671},{"station_name":"Pasar Minggu","i_long":106.843999,"line":2,"distance":2820,"i_lat":-6.2842400000000005,"transit":false,"station_id":"PSM","is_transit":false,"time":4},{"line":2,"distance":2380,"station_name":"Pasar Minggu Baru","i_lat":-6.263214,"is_transit":false,"time":2,"station_id":"PSMB","transit":false,"i_long":106.851577},{"time":2,"i_lat":-6.255332,"line":0,"station_id":"DRN","is_transit":false,"station_name":"Duren Kalibata","transit":false,"i_long":106.85449,"distance":824},{"i_lat":-6.242512,"distance":1546,"station_name":"Cawang","i_long":106.856607,"station_id":"CW","is_transit":false,"line":0,"transit":false,"time":3},{"i_lat":-6.226659,"distance":1230,"is_transit":false,"station_id":"TEB","time":2,"i_long":106.857948,"transit":false,"station_name":"Tebet","line":2},{"station_id":"MRI","is_transit":true,"time":4,"distance":2610,"transit":true,"line":0,"station_name":"Manggarai","i_lat":-6.209883,"i_long":106.84912},{"time":4,"transit":false,"distance":3186,"is_transit":false,"i_lat":-6.202263,"station_id":"SUD","station_name":"Sudirman","line":1,"i_long":106.822649},{"station_name":"Sudirman Baru","distance":280,"time":1,"i_lat":-6.201433,"is_transit":false,"line":1,"station_id":"SUDB","transit":false,"i_long":106.819881},{"transit":false,"is_transit":false,"station_id":"KAT","distance":471,"station_name":"Karet","time":1,"i_lat":-6.20132,"i_long":106.816351,"line":1},{"station_name":"Tanah Abang","line":1,"time":5,"i_lat":-6.185545,"transit":false,"station_id":"THB","distance":2029,"is_transit":true,"i_long":106.811091},{"time":8,"station_name":"Duri","i_long":106.800832,"line":1,"i_lat":-6.155215,"station_id":"DU","is_transit":true,"transit":true,"distance":3632},{"station_id":"AK","transit":false,"distance":1230,"is_transit":false,"i_lat":-6.144674,"line":0,"i_long":106.79867,"time":4,"station_name":"Angke"},{"distance":4102,"is_transit":true,"station_name":"Kampung Bandan","transit":true,"time":9,"line":0,"i_long":106.826365,"station_id":"KPB","i_lat":-6.132549},{"i_lat":-6.14505,"station_id":"RJW","distance":1444,"station_name":"Rajawali","is_transit":false,"transit":false,"time":3,"i_long":106.836569,"line":11},{"station_name":"Kemayoran","transit":false,"time":5,"distance":1901,"i_long":106.839204,"is_transit":false,"line":11,"station_id":"KMO","i_lat":-6.161728},{"station_id":"PSE","i_long":106.84368,"is_transit":false,"line":11,"distance":1436,"time":4,"transit":false,"i_lat":-6.174784,"station_name":"Pasar Senen"},{"i_long":106.850107,"station_id":"GST","distance":1567,"transit":false,"is_transit":false,"station_name":"Gang Sentiong","i_lat":-6.185975,"line":11,"time":8},{"is_transit":false,"time":1,"line":11,"station_id":"KMT","station_name":"Kramat","i_long":106.855437,"distance":973,"i_lat":-6.193792,"transit":false},{"line":11,"i_long":106.861737,"time":2,"is_transit":false,"station_id":"POK","i_lat":-6.209188,"transit":false,"station_name":"Pondok Jati","distance":1829},{"is_transit":true,"transit":true,"i_long":106.86807400000001,"i_lat":-6.215091,"time":9,"line":0,"distance":1236,"station_id":"JNG","station_name":"Jatinegara"},{"line":1,"transit":false,"time":3,"i_lat":-6.2135,"station_id":"KLD","distance":3395,"is_transit":false,"station_name":"Klender","i_long":106.899548},{"line":0,"time":2,"transit":false,"is_transit":false,"station_id":"BUA","distance":3100,"station_name":"Buaran","i_lat":-6.215568,"i_long":106.922662},{"i_long":106.939679,"station_id":"KLDB","line":1,"time":1,"station_name":"Klenderbaru","i_lat":-6.217455,"distance":1305,"transit":false,"is_transit":false}],[{"i_lat":-6.448811,"station_id":"CTA","line":1,"station_name":"Citayam","time":0,"is_transit":true,"transit":false,"i_long":106.800298,"distance":0},{"station_id":"DP","station_name":"Depok","is_transit":false,"i_lat":-6.405256,"line":0,"i_long":106.816926,"transit":false,"distance":5084,"time":6},{"line":0,"distance":1584,"transit":false,"is_transit":false,"i_lat":-6.391065,"i_long":106.819451,"time":3,"station_id":"DPB","station_name":"Depokbaru"},{"station_name":"Pondok Cina","time":4,"i_long":106.831114,"i_lat":-6.369073,"transit":false,"distance":2727,"is_transit":false,"station_id":"POC","line":2},{"distance":1109,"line":2,"transit":false,"i_long":106.831474,"time":2,"station_name":"Univ. Indonesia","station_id":"UI","i_lat":-6.360749,"is_transit":false},{"station_id":"UP","is_transit":false,"station_name":"Univ. Pancasila","i_lat":-6.339291,"line":2,"i_long":106.834175,"distance":2264,"time":3,"transit":false},{"time":2,"distance":1029,"is_transit":false,"station_name":"Lenteng Agung","i_long":106.832616,"line":2,"transit":false,"i_lat":-6.330363,"station_id":"LNA"},{"line":2,"distance":2671,"i_lat":-6.3080680000000005,"time":3,"is_transit":false,"transit":false,"station_id":"TNT","station_name":"Tanjung Barat","i_long":106.838896},{"station_name":"Pasar Minggu","is_transit":false,"i_lat":-6.2842400000000005,"line":2,"station_id":"PSM","i_long":106.843999,"transit":false,"time":4,"distance":2820},{"distance":2380,"station_id":"PSMB","transit":false,"i_lat":-6.263214,"station_name":"Pasar Minggu Baru","i_long":106.851577,"line":2,"is_transit":false,"time":2},{"i_long":106.85449,"station_name":"Duren Kalibata","transit":false,"station_id":"DRN","distance":824,"is_transit":false,"i_lat":-6.255332,"time":2,"line":0},{"line":0,"distance":1546,"time":3,"i_lat":-6.242512,"i_long":106.856607,"station_id":"CW","is_transit":false,"station_name":"Cawang","transit":false},{"line":2,"distance":1230,"transit":false,"i_long":106.857948,"time":2,"is_transit":false,"i_lat":-6.226659,"station_id":"TEB","station_name":"Tebet"},{"line":0,"time":4,"i_long":106.84912,"transit":true,"i_lat":-6.209883,"station_id":"MRI","distance":2610,"is_transit":true,"station_name":"Manggarai"},{"station_id":"CKI","distance":1590,"line":0,"is_transit":false,"i_lat":-6.198556,"time":4,"transit":false,"station_name":"Cikini","i_long":106.840169},{"station_id":"GDD","i_lat":-6.186295,"transit":false,"station_name":"Gondangdia","is_transit":false,"line":2,"distance":1750,"time":3,"i_long":106.832183},{"time":4,"i_long":106.828284,"transit":false,"station_id":"JUA","is_transit":false,"distance":2015,"station_name":"Juanda","i_lat":-6.166716,"line":2},{"i_lat":-6.160725,"time":2,"line":2,"is_transit":false,"station_id":"SW","transit":false,"distance":1149,"station_name":"Sawah Besar","i_long":106.827103},{"line":2,"transit":false,"station_name":"Manggabesar","i_lat":-6.149769,"time":2,"station_id":"MGB","is_transit":false,"i_long":106.82482,"distance":906},{"line":7,"transit":false,"distance":1080,"time":2,"i_long":106.820901,"station_id":"JAY","station_name":"Jayakarta","i_lat":-6.141205,"is_transit":false},{"i_lat":-6.137569,"line":0,"transit":true,"distance":1264,"i_long":106.812439,"is_transit":true,"station_id":"JAKK","time":4,"station_name":"Jakarta Kota"},{"i_long":106.826365,"line":0,"station_name":"Kampung Bandan","station_id":"KPB","transit":true,"is_transit":true,"time":3,"i_lat":-6.132549,"distance":1364},{"is_transit":false,"time":3,"line":11,"station_name":"Rajawali","transit":false,"distance":1444,"i_lat":-6.14505,"station_id":"RJW","i_long":106.836569},{"i_lat":-6.161728,"line":11,"transit":false,"station_id":"KMO","distance":1901,"i_long":106.839204,"station_name":"Kemayoran","is_transit":false,"time":5},{"i_long":106.84368,"line":11,"station_id":"PSE","is_transit":false,"time":4,"distance":1436,"transit":false,"i_lat":-6.174784,"station_name":"Pasar Senen"},{"station_id":"GST","is_transit":false,"time":8,"i_lat":-6.185975,"distance":1567,"i_long":106.850107,"line":11,"transit":false,"station_name":"Gang Sentiong"},{"i_lat":-6.193792,"distance":973,"transit":false,"line":11,"station_id":"KMT","station_name":"Kramat","is_transit":false,"time":1,"i_long":106.855437},{"transit":false,"time":2,"is_transit":false,"station_id":"POK","station_name":"Pondok Jati","distance":1829,"i_lat":-6.209188,"i_long":106.861737,"line":11},{"distance":1236,"i_long":106.86807400000001,"transit":true,"line":0,"is_transit":true,"station_name":"Jatinegara","time":9,"i_lat":-6.215091,"station_id":"JNG"},{"transit":false,"is_transit":false,"distance":3395,"i_lat":-6.2135,"station_id":"KLD","i_long":106.899548,"time":3,"station_name":"Klender","line":1},{"station_id":"BUA","i_lat":-6.215568,"is_transit":false,"time":2,"i_long":106.922662,"transit":false,"distance":3100,"line":0,"station_name":"Buaran"},{"transit":false,"time":1,"i_lat":-6.217455,"station_id":"KLDB","distance":1305,"line":1,"station_name":"Klenderbaru","is_transit":false,"i_long":106.939679}]]}