{"data":[[{"line":2,"i_long":106.800298,"station_id":"CTA","distance":0,"transit":false,"i_lat":-6.448811,"station_name":"Citayam","is_transit":false,"time":0},{"time":6,"line":2,"station_id":"DP","is_transit":false,"transit":false,"i_lat":-6.405256,"i_long":106.816926,"distance":5084,"station_name":"Depok"},{"transit":false,"i_long":106.819451,"station_name":"Depokbaru","line":2,"time":3,"station_id":"DPB","i_lat":-6.391065,"distance":1584,"is_transit":false},{"station_id":"POC","station_name":"Pondok Cina","i_lat":-6.369073,"time":4,"i_long":106.831114,"distance":2727,"transit":false,"is_transit":false,"line":2},{"i_lat":-6.360749,"time":2,"is_transit":false,"line":2,"station_id":"UI","distance":1109,"i_long":106.831474,"transit":false,"station_name":"Univ. Indonesia"},{"transit":false,"time":3,"i_lat":-6.339291,"distance":2264,"is_transit":false,"i_long":106.834175,"station_name":"Univ. Pancasila","station_id":"UP","line":2},{"station_id":"LNA","time":2,"i_lat":-6.330363,"distance":1029,"is_transit":false,"i_long":106.832616,"station_name":"Lenteng Agung","transit":false,"line":2},{"i_lat":-6.3080680000000005,"is_transit":false,"line":2,"i_long":106.838896,"time":3,"station_name":"Tanjung Barat","station_id":"TNT","transit":false,"distance":2671},{"time":4,"distance":2820,"is_transit":false,"line":2,"station_name":"Pasar Minggu","i_long":106.843999,"transit":false,"i_lat":-6.2842400000000005,"station_id":"PSM"},{"station_id":"PSMB","distance":2380,"station_name":"Pasar Minggu Baru","i_lat":-6.263214,"is_transit":false,"time":2,"line":2,"transit":false,"i_long":106.851577},{"distance":824,"transit":false,"i_long":106.85449,"station_id":"DRN","station_name":"Duren Kalibata","is_transit":false,"i_lat":-6.255332,"line":2,"time":2},{"is_transit":false,"time":3,"distance":1546,"transit":false,"i_long":106.856607,"station_id":"CW","station_name":"Cawang","i_lat":-6.242512,"line":2},{"station_name":"Tebet","time":2,"station_id":"TEB","is_transit":false,"i_lat":-6.226659,"i_long":106.857948,"transit":false,"distance":1230,"line":2},{"i_lat":-6.209883,"i_long":106.84912,"line":2,"station_id":"MRI","time":4,"distance":2610,"is_transit":true,"station_name":"Manggarai","transit":true},{"time":4,"line":1,"station_id":"SUD","distance":3186,"i_long":106.822649,"is_transit":false,"transit":false,"station_name":"Sudirman","i_lat":-6.202263},{"i_long":106.819881,"i_lat":-6.201433,"transit":false,"distance":280,"line":1,"time":1,"station_name":"Sudirman Baru","station_id":"SUDB","is_transit":false},{"is_transit":false,"time":1,"i_lat":-6.20132,"transit":false,"station_name":"Karet","distance":471,"i_long":106.816351,"line":1,"station_id":"KAT"},{"i_long":106.811091,"line":1,"i_lat":-6.185545,"station_name":"Tanah Abang","time":5,"transit":true,"station_id":"THB","distance":2029,"is_transit":true},{"is_transit":false,"line":6,"station_id":"PLM","i_lat":-6.207404,"transit":false,"station_name":"Palmerah","distance":3191,"time":6,"i_long":106.79689},{"distance":3737,"transit":false,"station_id":"KBY","station_name":"Kebayoran","is_transit":false,"i_long":106.780334,"time":7,"line":6,"i_lat":-6.237242},{"transit":false,"i_lat":-6.276362,"line":6,"station_name":"Pondokranji","station_id":"PDJ","distance":6218,"is_transit":false,"i_long":106.74273,"time":8},{"station_name":"Jurangmangu","is_transit":false,"distance":2179,"station_id":"JMU","time":3,"i_lat":-6.288927,"i_long":106.728916,"transit":false,"line":6},{"distance":1994,"i_lat":-6.296963,"station_id":"SDM","is_transit":false,"station_name":"Sudimara","time":4,"transit":false,"line":6,"i_long":106.712277},{"station_id":"RU","i_lat":-6.314823,"distance":4566,"station_name":"Rawa Buntu","line":6,"is_transit":false,"i_long":106.675475,"transit":false,"time":6},{"distance":2413,"station_name":"Serpong","transit":false,"station_id":"SRP","time":4,"is_transit":false,"i_lat":-6.319871,"i_long":106.66566,"line":6},{"transit":false,"i_long":106.640411,"i_lat":-6.32484,"distance":1784,"is_transit":false,"station_name":"Cisauk","line":3,"station_id":"CSK","time":4},{"is_transit":false,"station_name":"Cicayur","transit":false,"station_id":"CC","time":4,"i_lat":-6.329547,"line":3,"distance":2519,"i_long":106.617853},{"transit":false,"time":8,"i_lat":-6.3441410000000005,"is_transit":false,"station_name":"Parung Panjang","i_long":106.568863,"distance":5968,"station_id":"PRP","line":6},{"i_lat":-6.354349,"i_long":106.508482,"line":3,"station_id":"CJT","distance":7025,"transit":false,"station_name":"Cilejit","is_transit":false,"time":9},{"i_long":106.491338,"time":6,"station_name":"Daru","line":0,"i_lat":-6.338021,"distance":2675,"transit":false,"station_id":"DAR","is_transit":false},{"time":5,"station_id":"TEJ","transit":false,"line":6,"station_name":"Tenjo","i_long":106.460812,"distance":3902,"is_transit":false,"i_lat":-6.327251}],[{"i_lat":-6.448811,"station_name":"Citayam","station_id":"CTA","transit":false,"is_transit":false,"distance":0,"time":0,"line":2,"i_long":106.800298},{"time":6,"transit":false,"is_transit":false,"i_lat":-6.405256,"distance":5084,"line":2,"i_long":106.816926,"station_id":"DP","station_name":"Depok"},{"station_id":"DPB","line":2,"is_transit":false,"station_name":"Depokbaru","distance":1584,"transit":false,"time":3,"i_lat":-6.391065,"i_long":106.819451},{"transit":false,"i_lat":-6.369073,"line":2,"is_transit":false,"distance":2727,"station_id":"POC","station_name":"Pondok Cina","i_long":106.831114,"time":4},{"transit":false,"is_transit":false,"line":2,"time":2,"i_long":106.831474,"distance":1109,"station_id":"UI","station_name":"Univ. Indonesia","i_lat":-6.360749},{"line":2,"is_transit":false,"distance":2264,"i_lat":-6.339291,"station_name":"Univ. Pancasila","i_long":106.834175,"time":3,"station_id":"UP","transit":false},{"time":2,"i_long":106.832616,"transit":false,"distance":1029,"station_id":"LNA","i_lat":-6.330363,"is_transit":false,"station_name":"Lenteng Agung","line":2},{"i_long":106.838896,"is_transit":false,"transit":false,"time":3,"station_id":"TNT","line":2,"i_lat":-6.3080680000000005,"distance":2671,"station_name":"Tanjung Barat"},{"time":4,"i_lat":-6.2842400000000005,"distance":2820,"is_transit":false,"i_long":106.843999,"station_id":"PSM","line":2,"transit":false,"station_name":"Pasar Minggu"},{"i_long":106.851577,"distance":2380,"station_name":"Pasar Minggu Baru","transit":false,"is_transit":false,"time":2,"i_lat":-6.263214,"station_id":"PSMB","line":2},{"distance":824,"is_transit":false,"station_name":"Duren Kalibata","i_long":106.85449,"line":2,"transit":false,"station_id":"DRN","time":2,"i_lat":-6.255332},{"distance":1546,"time":3,"station_name":"Cawang","i_long":106.856607,"i_lat":-6.242512,"transit":false,"station_id":"CW","is_transit":false,"line":2},{"transit":false,"time":2,"i_lat":-6.226659,"line":2,"station_id":"TEB","is_transit":false,"station_name":"Tebet","distance":1230,"i_long":106.857948},{"transit":false,"distance":2610,"station_name":"Manggarai","line":2,"time":4,"i_lat":-6.209883,"is_transit":false,"station_id":"MRI","i_long":106.84912},{"transit":false,"i_lat":-6.198556,"station_name":"Cikini","i_long":106.840169,"distance":1590,"station_id":"CKI","is_transit":false,"line":2,"time":4},{"i_lat":-6.186295,"is_transit":false,"time":3,"line":2,"transit":false,"distance":1750,"i_long":106.832183,"station_id":"GDD","station_name":"Gondangdia"},{"distance":2015,"line":2,"is_transit":false,"transit":false,"station_name":"Juanda","i_lat":-6.166716,"station_id":"JUA","time":4,"i_long":106.828284},{"station_id":"SW","is_transit":false,"station_name":"Sawah Besar","i_lat":-6.160725,"i_long":106.827103,"transit":false,"line":2,"time":2,"distance":1149},{"time":2,"distance":906,"station_name":"Manggabesar","transit":false,"i_lat":-6.149769,"line":2,"station_id":"MGB","is_transit":false,"i_long":106.82482},{"time":2,"i_long":106.820901,"transit":false,"is_transit":false,"line":2,"station_name":"Jayakarta","distance":1080,"station_id":"JAY","i_lat":-6.141205},{"distance":1264,"station_name":"Jakarta Kota","i_long":106.812439,"line":2,"i_lat":-6.137569,"time":4,"station_id":"JAKK","is_transit":true,"transit":true},{"transit":true,"station_id":"KPB","is_transit":true,"time":3,"i_long":106.826365,"line":4,"distance":1364,"station_name":"Kampung Bandan","i_lat":-6.132549},{"transit":false,"time":9,"line":1,"distance":4102,"station_id":"AK","is_transit":false,"i_lat":-6.144674,"i_long":106.79867,"station_name":"Angke"},{"station_id":"DU","time":4,"transit":false,"distance":1230,"is_transit":false,"i_lat":-6.155215,"i_long":106.800832,"station_name":"Duri","line":1},{"i_lat":-6.185545,"station_name":"Tanah Abang","i_long":106.811091,"transit":true,"station_id":"THB","line":1,"distance":3632,"time":8,"is_transit":true},{"transit":false,"distance":3191,"i_lat":-6.207404,"line":6,"station_id":"PLM","station_name":"Palmerah","is_transit":false,"i_long":106.79689,"time":6},{"transit":false,"distance":3737,"is_transit":false,"station_name":"Kebayoran","station_id":"KBY","time":7,"i_lat":-6.237242,"i_long":106.780334,"line":6},{"is_transit":false,"distance":6218,"i_lat":-6.276362,"transit":false,"line":6,"i_long":106.74273,"station_name":"Pondokranji","station_id":"PDJ","time":8},{"station_name":"Jurangmangu","i_lat":-6.288927,"is_transit":false,"i_long":106.728916,"distance":2179,"transit":false,"time":3,"line":6,"station_id":"JMU"},{"station_name":"Sudimara","line":6,"distance":1994,"time":4,"station_id":"SDM","i_long":106.712277,"i_lat":-6.296963,"transit":false,"is_transit":false},{"station_name":"Rawa Buntu","line":6,"i_long":106.675475,"transit":false,"station_id":"RU","distance":4566,"is_transit":false,"i_lat":-6.314823,"time":6},{"transit":false,"line":6,"i_long":106.66566,"distance":2413,"station_id":"SRP","is_transit":false,"station_name":"Serpong","time":4,"i_lat":-6.319871},{"transit":false,"station_name":"Cisauk","line":3,"is_transit":false,"i_long":106.640411,"distance":1784,"station_id":"CSK","time":4,"i_lat":-6.32484},{"transit":false,"distance":2519,"line":3,"is_transit":false,"station_name":"Cicayur","station_id":"CC","time":4,"i_lat":-6.329547,"i_long":106.617853},{"station_id":"PRP","transit":false,"is_transit":false,"line":6,"distance":5968,"station_name":"Parung Panjang","time":8,"i_lat":-6.3441410000000005,"i_long":106.568863},{"time":9,"station_id":"CJT","is_transit":false,"i_lat":-6.354349,"line":3,"i_long":106.508482,"station_name":"Cilejit","transit":false,"distance":7025},{"station_name":"Daru","transit":false,"line":0,"is_transit":false,"station_id":"DAR","time":6,"i_lat":-6.338021,"distance":2675,"i_long":106.491338},{"line":6,"is_transit":false,"transit":false,"distance":3902,"station_id":"TEJ","station_name":"Tenjo","time":5,"i_lat":-6.327251,"i_long":106.460812}],[{"station_id":"CTA","line":2,"is_transit":false,"distance":0,"i_long":106.800298,"i_lat":-6.448811,"transit":false,"station_name":"Citayam","time":0},{"line":2,"transit":false,"i_long":106.816926,"station_id":"DP","i_lat":-6.405256,"distance":5084,"is_transit":false,"time":6,"station_name":"Depok"},{"line":2,"i_lat":-6.391065,"station_name":"Depokbaru","i_long":106.819451,"station_id":"DPB","distance":1584,"is_transit":false,"transit":false,"time":3},{"station_name":"Pondok Cina","i_lat":-6.369073,"station_id":"POC","i_long":106.831114,"is_transit":false,"line":2,"time":4,"transit":false,"distance":2727},{"transit":false,"distance":1109,"is_transit":false,"time":2,"station_id":"UI","station_name":"Univ. Indonesia","i_lat":-6.360749,"i_long":106.831474,"line":2},{"i_lat":-6.339291,"transit":false,"i_long":106.834175,"time":3,"is_transit":false,"line":2,"distance":2264,"station_id":"UP","station_name":"Univ. Pancasila"},{"i_long":106.832616,"line":2,"transit":false,"time":2,"station_id":"LNA","is_transit":false,"distance":1029,"i_lat":-6.330363,"station_name":"Lenteng Agung"},{"is_transit":false,"i_lat":-6.3080680000000005,"i_long":106.838896,"station_id":"TNT","time":3,"line":2,"station_name":"Tanjung Barat","transit":false,"distance":2671},{"is_transit":false,"station_id":"PSM","time":4,"station_name":"Pasar Minggu","i_lat":-6.2842400000000005,"transit":false,"i_long":106.843999,"line":2,"distance":2820},{"line":2,"i_lat":-6.263214,"station_id":"PSMB","distance":2380,"transit":false,"i_long":106.851577,"station_name":"Pasar Minggu Baru","time":2,"is_transit":false},{"distance":824,"i_lat":-6.255332,"is_transit":false,"i_long":106.85449,"station_name":"Duren Kalibata","transit":false,"time":2,"station_id":"DRN","line":2},{"i_lat":-6.242512,"distance":1546,"station_name":"Cawang","station_id":"CW","i_long":106.856607,"transit":false,"is_transit":false,"time":3,"line":2},{"transit":false,"i_lat":-6.226659,"is_transit":false,"station_name":"Tebet","distance":1230,"line":2,"time":2,"i_long":106.857948,"station_id":"TEB"},{"is_transit":true,"transit":true,"station_id":"MRI","time":4,"i_lat":-6.209883,"distance":2610,"i_long":106.84912,"line":2,"station_name":"Manggarai"},{"station_id":"MTR","distance":1275,"line":1,"station_name":"Matraman","time":2,"i_long":106.858896,"transit":false,"i_lat":-6.212485,"is_transit":false},{"line":1,"distance":1377,"station_id":"JNG","i_lat":-6.215091,"transit":true,"i_long":106.86807400000001,"station_name":"Jatinegara","is_transit":true,"time":8},{"station_name":"Pondok Jati","i_lat":-6.209188,"i_long":106.861737,"line":11,"distance":1236,"is_transit":false,"transit":false,"time":2,"station_id":"POK"},{"line":11,"time":2,"distance":1829,"is_transit":false,"i_lat":-6.193792,"i_long":106.855437,"station_id":"KMT","transit":false,"station_name":"Kramat"},{"transit":false,"time":1,"line":11,"i_long":106.850107,"station_name":"Gang Sentiong","station_id":"GST","is_transit":false,"i_lat":-6.185975,"distance":973},{"line":11,"station_id":"PSE","time":8,"station_name":"Pasar Senen","i_long":106.84368,"transit":false,"i_lat":-6.174784,"distance":1567,"is_transit":false},{"i_long":106.839204,"line":11,"transit":false,"i_lat":-6.161728,"station_id":"KMO","time":4,"station_name":"Kemayoran","is_transit":false,"distance":1436},{"is_transit":false,"i_long":106.836569,"distance":1901,"transit":false,"station_id":"RJW","i_lat":-6.14505,"time":5,"line":11,"station_name":"Rajawali"},{"station_name":"Kampung Bandan","time":3,"i_lat":-6.132549,"distance":1444,"station_id":"KPB","transit":true,"line":4,"i_long":106.826365,"is_transit":true},{"is_transit":false,"station_id":"AK","station_name":"Angke","line":1,"time":9,"i_long":106.79867,"distance":4102,"transit":false,"i_lat":-6.144674},{"distance":1230,"i_lat":-6.155215,"station_id":"DU","station_name":"Duri","transit":false,"line":1,"i_long":106.800832,"is_transit":false,"time":4},{"distance":3632,"is_transit":true,"line":1,"i_long":106.811091,"time":8,"transit":true,"station_id":"THB","station_name":"Tanah Abang","i_lat":-6.185545},{"i_lat":-6.207404,"i_long":106.79689,"line":6,"distance":3191,"transit":false,"station_name":"Palmerah","time":6,"station_id":"PLM","is_transit":false},{"is_transit":false,"i_long":106.780334,"i_lat":-6.237242,"line":6,"distance":3737,"station_name":"Kebayoran","station_id":"KBY","transit":false,"time":7},{"i_lat":-6.276362,"time":8,"line":6,"is_transit":false,"distance":6218,"transit":false,"station_name":"Pondokranji","i_long":106.74273,"station_id":"PDJ"},{"station_name":"Jurangmangu","i_long":106.728916,"line":6,"is_transit":false,"time":3,"station_id":"JMU","transit":false,"distance":2179,"i_lat":-6.288927},{"station_name":"Sudimara","transit":false,"i_lat":-6.296963,"time":4,"line":6,"is_transit":false,"station_id":"SDM","distance":1994,"i_long":106.712277},{"transit":false,"is_transit":false,"i_lat":-6.314823,"i_long":106.675475,"time":6,"line":6,"distance":4566,"station_id":"RU","station_name":"Rawa Buntu"},{"line":6,"distance":2413,"transit":false,"station_name":"Serpong","i_lat":-6.319871,"i_long":106.66566,"time":4,"is_transit":false,"station_id":"SRP"},{"station_id":"CSK","transit":false,"station_name":"Cisauk","line":3,"i_lat":-6.32484,"time":4,"is_transit":false,"i_long":106.640411,"distance":1784},{"station_name":"Cicayur","time":4,"station_id":"CC","is_transit":false,"line":3,"transit":false,"i_lat":-6.329547,"i_long":106.617853,"distance":2519},{"is_transit":false,"station_name":"Parung Panjang","transit":false,"time":8,"distance":5968,"i_lat":-6.3441410000000005,"station_id":"PRP","line":6,"i_long":106.568863},{"is_transit":false,"time":9,"transit":false,"i_long":106.508482,"station_id":"CJT","distance":7025,"i_lat":-6.354349,"station_name":"Cilejit","line":3},{"i_lat":-6.338021,"i_long":106.491338,"time":6,"line":0,"transit":false,"station_id":"DAR","distance":2675,"is_transit":false,"station_name":"Daru"},{"distance":3902,"line":6,"transit":false,"time":5,"i_lat":-6.327251,"station_id":"TEJ","is_transit":false,"i_long":106.460812,"station_name":"Tenjo"}]]}