{"data":[[{"time":0,"transit":false,"line":2,"station_id":"CTA","distance":0,"station_name":"Citayam","is_transit":false,"i_lat":-6.448811,"i_long":106.800298},{"time":6,"i_long":106.816926,"line":2,"distance":5084,"station_name":"Depok","station_id":"DP","transit":false,"i_lat":-6.405256,"is_transit":false},{"time":3,"station_id":"DPB","i_lat":-6.391065,"is_transit":false,"line":2,"i_long":106.819451,"distance":1584,"station_name":"Depokbaru","transit":false},{"i_lat":-6.369073,"time":4,"line":2,"distance":2727,"station_id":"POC","i_long":106.831114,"transit":false,"is_transit":false,"station_name":"Pondok Cina"},{"i_lat":-6.360749,"station_id":"UI","station_name":"Univ. Indonesia","is_transit":false,"i_long":106.831474,"transit":false,"distance":1109,"line":2,"time":2},{"transit":false,"i_lat":-6.339291,"line":2,"time":3,"station_id":"UP","station_name":"Univ. Pancasila","distance":2264,"is_transit":false,"i_long":106.834175},{"is_transit":false,"time":2,"station_id":"LNA","i_long":106.832616,"line":2,"i_lat":-6.330363,"transit":false,"distance":1029,"station_name":"Lenteng Agung"},{"station_id":"TNT","station_name":"Tanjung Barat","is_transit":false,"distance":2671,"i_lat":-6.3080680000000005,"time":3,"transit":false,"i_long":106.838896,"line":2},{"station_id":"PSM","line":2,"is_transit":false,"distance":2820,"i_lat":-6.2842400000000005,"time":4,"i_long":106.843999,"station_name":"Pasar Minggu","transit":false},{"line":2,"is_transit":false,"i_lat":-6.263214,"station_name":"Pasar Minggu Baru","distance":2380,"i_long":106.851577,"station_id":"PSMB","transit":false,"time":2},{"is_transit":false,"transit":false,"distance":824,"i_lat":-6.255332,"i_long":106.85449,"line":2,"station_id":"DRN","station_name":"Duren Kalibata","time":2},{"distance":1546,"time":3,"is_transit":false,"transit":false,"i_lat":-6.242512,"i_long":106.856607,"line":2,"station_id":"CW","station_name":"Cawang"},{"distance":1230,"station_name":"Tebet","is_transit":false,"i_lat":-6.226659,"transit":false,"time":2,"line":2,"station_id":"TEB","i_long":106.857948},{"transit":true,"i_lat":-6.209883,"is_transit":true,"time":4,"station_id":"MRI","line":2,"station_name":"Manggarai","distance":2610,"i_long":106.84912},{"distance":3186,"i_lat":-6.202263,"line":1,"station_id":"SUD","is_transit":false,"i_long":106.822649,"transit":false,"time":4,"station_name":"Sudirman"},{"i_lat":-6.201433,"time":1,"is_transit":false,"station_name":"Sudirman Baru","i_long":106.819881,"station_id":"SUDB","transit":false,"line":1,"distance":280},{"line":1,"i_long":106.816351,"distance":471,"time":1,"is_transit":false,"station_name":"Karet","transit":false,"station_id":"KAT","i_lat":-6.20132},{"station_id":"THB","is_transit":true,"transit":true,"i_lat":-6.185545,"time":5,"distance":2029,"line":1,"i_long":106.811091,"station_name":"Tanah Abang"},{"transit":false,"line":6,"time":6,"i_long":106.79689,"station_name":"Palmerah","station_id":"PLM","i_lat":-6.207404,"distance":3191,"is_transit":false},{"time":7,"station_name":"Kebayoran","line":6,"is_transit":false,"i_lat":-6.237242,"distance":3737,"i_long":106.780334,"station_id":"KBY","transit":false},{"is_transit":false,"transit":false,"distance":6218,"station_name":"Pondokranji","i_lat":-6.276362,"line":6,"time":8,"i_long":106.74273,"station_id":"PDJ"},{"transit":false,"time":3,"i_long":106.728916,"i_lat":-6.288927,"station_name":"Jurangmangu","station_id":"JMU","is_transit":false,"line":6,"distance":2179},{"is_transit":false,"line":6,"i_long":106.712277,"transit":false,"time":4,"i_lat":-6.296963,"station_id":"SDM","station_name":"Sudimara","distance":1994},{"distance":4566,"time":6,"is_transit":false,"i_lat":-6.314823,"station_name":"Rawa Buntu","line":6,"station_id":"RU","transit":false,"i_long":106.675475},{"time":4,"i_lat":-6.319871,"is_transit":false,"transit":false,"line":6,"distance":2413,"station_name":"Serpong","i_long":106.66566,"station_id":"SRP"},{"transit":false,"i_lat":-6.32484,"station_name":"Cisauk","time":4,"distance":1784,"is_transit":false,"line":3,"station_id":"CSK","i_long":106.640411},{"time":4,"station_id":"CC","i_long":106.617853,"distance":2519,"station_name":"Cicayur","is_transit":false,"transit":false,"line":3,"i_lat":-6.329547},{"time":8,"station_id":"PRP","transit":false,"station_name":"Parung Panjang","distance":5968,"is_transit":false,"i_lat":-6.3441410000000005,"i_long":106.568863,"line":6}],[{"line":2,"distance":0,"time":0,"is_transit":false,"station_id":"CTA","i_lat":-6.448811,"station_name":"Citayam","transit":false,"i_long":106.800298},{"i_long":106.816926,"transit":false,"is_transit":false,"station_name":"Depok","i_lat":-6.405256,"time":6,"station_id":"DP","line":2,"distance":5084},{"transit":false,"time":3,"station_id":"DPB","i_lat":-6.391065,"distance":1584,"i_long":106.819451,"station_name":"Depokbaru","is_transit":false,"line":2},{"station_id":"POC","station_name":"Pondok Cina","i_long":106.831114,"time":4,"distance":2727,"is_transit":false,"i_lat":-6.369073,"transit":false,"line":2},{"time":2,"is_transit":false,"station_id":"UI","station_name":"Univ. Indonesia","distance":1109,"line":2,"i_long":106.831474,"transit":false,"i_lat":-6.360749},{"distance":2264,"i_lat":-6.339291,"station_name":"Univ. Pancasila","transit":false,"i_long":106.834175,"station_id":"UP","time":3,"line":2,"is_transit":false},{"time":2,"distance":1029,"line":2,"transit":false,"station_id":"LNA","i_lat":-6.330363,"i_long":106.832616,"station_name":"Lenteng Agung","is_transit":false},{"time":3,"station_name":"Tanjung Barat","is_transit":false,"i_long":106.838896,"distance":2671,"i_lat":-6.3080680000000005,"station_id":"TNT","transit":false,"line":2},{"time":4,"transit":false,"station_name":"Pasar Minggu","station_id":"PSM","distance":2820,"is_transit":false,"i_lat":-6.2842400000000005,"line":2,"i_long":106.843999},{"line":2,"i_lat":-6.263214,"time":2,"transit":false,"i_long":106.851577,"station_name":"Pasar Minggu Baru","is_transit":false,"station_id":"PSMB","distance":2380},{"time":2,"station_id":"DRN","station_name":"Duren Kalibata","is_transit":false,"i_lat":-6.255332,"i_long":106.85449,"distance":824,"line":2,"transit":false},{"line":2,"time":3,"transit":false,"station_name":"Cawang","is_transit":false,"i_lat":-6.242512,"station_id":"CW","distance":1546,"i_long":106.856607},{"time":2,"station_name":"Tebet","distance":1230,"i_long":106.857948,"line":2,"is_transit":false,"transit":false,"i_lat":-6.226659,"station_id":"TEB"},{"is_transit":false,"distance":2610,"i_lat":-6.209883,"station_id":"MRI","time":4,"station_name":"Manggarai","transit":false,"i_long":106.84912,"line":2},{"transit":false,"line":2,"station_id":"CKI","distance":1590,"i_long":106.840169,"time":4,"station_name":"Cikini","i_lat":-6.198556,"is_transit":false},{"time":3,"station_id":"GDD","is_transit":false,"station_name":"Gondangdia","distance":1750,"i_lat":-6.186295,"i_long":106.832183,"transit":false,"line":2},{"station_id":"JUA","transit":false,"distance":2015,"time":4,"line":2,"station_name":"Juanda","is_transit":false,"i_lat":-6.166716,"i_long":106.828284},{"distance":1149,"transit":false,"i_long":106.827103,"station_name":"Sawah Besar","line":2,"station_id":"SW","time":2,"is_transit":false,"i_lat":-6.160725},{"transit":false,"i_long":106.82482,"line":2,"distance":906,"i_lat":-6.149769,"station_id":"MGB","time":2,"is_transit":false,"station_name":"Manggabesar"},{"distance":1080,"transit":false,"i_long":106.820901,"time":2,"is_transit":false,"station_name":"Jayakarta","line":2,"i_lat":-6.141205,"station_id":"JAY"},{"station_name":"Jakarta Kota","station_id":"JAKK","is_transit":true,"transit":true,"i_long":106.812439,"time":4,"distance":1264,"line":2,"i_lat":-6.137569},{"station_name":"Kampung Bandan","i_lat":-6.132549,"distance":1364,"station_id":"KPB","time":3,"is_transit":true,"i_long":106.826365,"transit":true,"line":4},{"is_transit":false,"transit":false,"station_id":"AK","station_name":"Angke","i_long":106.79867,"time":9,"distance":4102,"i_lat":-6.144674,"line":1},{"time":4,"station_name":"Duri","distance":1230,"i_long":106.800832,"station_id":"DU","i_lat":-6.155215,"transit":false,"is_transit":false,"line":1},{"time":8,"station_name":"Tanah Abang","i_lat":-6.185545,"transit":true,"distance":3632,"station_id":"THB","is_transit":true,"i_long":106.811091,"line":1},{"station_id":"PLM","time":6,"station_name":"Palmerah","distance":3191,"is_transit":false,"i_lat":-6.207404,"i_long":106.79689,"line":6,"transit":false},{"station_name":"Kebayoran","i_long":106.780334,"time":7,"i_lat":-6.237242,"line":6,"is_transit":false,"transit":false,"station_id":"KBY","distance":3737},{"station_id":"PDJ","station_name":"Pondokranji","transit":false,"is_transit":false,"distance":6218,"line":6,"time":8,"i_lat":-6.276362,"i_long":106.74273},{"i_long":106.728916,"transit":false,"i_lat":-6.288927,"station_id":"JMU","time":3,"distance":2179,"station_name":"Jurangmangu","line":6,"is_transit":false},{"i_lat":-6.296963,"i_long":106.712277,"line":6,"station_name":"Sudimara","transit":false,"station_id":"SDM","time":4,"distance":1994,"is_transit":false},{"distance":4566,"is_transit":false,"time":6,"station_id":"RU","i_lat":-6.314823,"i_long":106.675475,"transit":false,"line":6,"station_name":"Rawa Buntu"},{"line":6,"i_lat":-6.319871,"station_name":"Serpong","station_id":"SRP","is_transit":false,"transit":false,"distance":2413,"time":4,"i_long":106.66566},{"time":4,"distance":1784,"transit":false,"station_id":"CSK","i_lat":-6.32484,"line":3,"is_transit":false,"i_long":106.640411,"station_name":"Cisauk"},{"transit":false,"i_lat":-6.329547,"i_long":106.617853,"station_id":"CC","station_name":"Cicayur","is_transit":false,"line":3,"distance":2519,"time":4},{"is_transit":false,"distance":5968,"time":8,"i_lat":-6.3441410000000005,"station_name":"Parung Panjang","transit":false,"line":6,"station_id":"PRP","i_long":106.568863}],[{"line":2,"station_name":"Citayam","station_id":"CTA","i_lat":-6.448811,"time":0,"i_long":106.800298,"distance":0,"is_transit":false,"transit":false},{"is_transit":false,"transit":false,"distance":5084,"station_id":"DP","line":2,"station_name":"Depok","time":6,"i_lat":-6.405256,"i_long":106.816926},{"time":3,"is_transit":false,"station_name":"Depokbaru","transit":false,"distance":1584,"i_lat":-6.391065,"station_id":"DPB","i_long":106.819451,"line":2},{"is_transit":false,"station_id":"POC","station_name":"Pondok Cina","transit":false,"i_long":106.831114,"distance":2727,"time":4,"i_lat":-6.369073,"line":2},{"i_long":106.831474,"station_id":"UI","line":2,"transit":false,"distance":1109,"i_lat":-6.360749,"is_transit":false,"time":2,"station_name":"Univ. Indonesia"},{"is_transit":false,"transit":false,"distance":2264,"i_lat":-6.339291,"time":3,"i_long":106.834175,"station_id":"UP","line":2,"station_name":"Univ. Pancasila"},{"distance":1029,"i_long":106.832616,"line":2,"station_id":"LNA","i_lat":-6.330363,"is_transit":false,"station_name":"Lenteng Agung","transit":false,"time":2},{"i_long":106.838896,"line":2,"station_name":"Tanjung Barat","is_transit":false,"transit":false,"station_id":"TNT","distance":2671,"i_lat":-6.3080680000000005,"time":3},{"station_id":"PSM","time":4,"line":2,"i_lat":-6.2842400000000005,"station_name":"Pasar Minggu","distance":2820,"transit":false,"i_long":106.843999,"is_transit":false},{"transit":false,"station_id":"PSMB","line":2,"i_long":106.851577,"station_name":"Pasar Minggu Baru","distance":2380,"time":2,"i_lat":-6.263214,"is_transit":false},{"transit":false,"time":2,"station_id":"DRN","i_long":106.85449,"station_name":"Duren Kalibata","i_lat":-6.255332,"line":2,"is_transit":false,"distance":824},{"station_id":"CW","transit":false,"is_transit":false,"station_name":"Cawang","i_lat":-6.242512,"line":2,"i_long":106.856607,"time":3,"distance":1546},{"time":2,"is_transit":false,"distance":1230,"i_lat":-6.226659,"i_long":106.857948,"station_id":"TEB","station_name":"Tebet","transit":false,"line":2},{"i_lat":-6.209883,"station_id":"MRI","is_transit":true,"station_name":"Manggarai","transit":true,"i_long":106.84912,"time":4,"line":2,"distance":2610},{"line":1,"distance":1275,"station_id":"MTR","time":2,"station_name":"Matraman","is_transit":false,"i_long":106.858896,"i_lat":-6.212485,"transit":false},{"station_id":"JNG","station_name":"Jatinegara","i_lat":-6.215091,"line":1,"transit":true,"i_long":106.86807400000001,"time":8,"is_transit":true,"distance":1377},{"i_long":106.861737,"line":11,"i_lat":-6.209188,"station_name":"Pondok Jati","distance":1236,"station_id":"POK","time":2,"is_transit":false,"transit":false},{"time":2,"is_transit":false,"station_name":"Kramat","transit":false,"i_lat":-6.193792,"line":11,"station_id":"KMT","distance":1829,"i_long":106.855437},{"distance":973,"line":11,"station_name":"Gang Sentiong","time":1,"is_transit":false,"transit":false,"i_long":106.850107,"station_id":"GST","i_lat":-6.185975},{"i_lat":-6.174784,"station_name":"Pasar Senen","i_long":106.84368,"line":11,"time":8,"transit":false,"station_id":"PSE","is_transit":false,"distance":1567},{"line":11,"distance":1436,"time":4,"is_transit":false,"i_long":106.839204,"transit":false,"station_id":"KMO","station_name":"Kemayoran","i_lat":-6.161728},{"is_transit":false,"distance":1901,"transit":false,"station_id":"RJW","time":5,"station_name":"Rajawali","i_lat":-6.14505,"line":11,"i_long":106.836569},{"transit":true,"time":3,"i_lat":-6.132549,"is_transit":true,"distance":1444,"station_id":"KPB","station_name":"Kampung Bandan","i_long":106.826365,"line":4},{"is_transit":false,"line":1,"time":9,"i_lat":-6.144674,"station_id":"AK","station_name":"Angke","transit":false,"distance":4102,"i_long":106.79867},{"distance":1230,"transit":false,"time":4,"is_transit":false,"station_id":"DU","station_name":"Duri","i_lat":-6.155215,"i_long":106.800832,"line":1},{"distance":3632,"i_lat":-6.185545,"is_transit":true,"i_long":106.811091,"line":1,"time":8,"station_id":"THB","transit":true,"station_name":"Tanah Abang"},{"is_transit":false,"distance":3191,"line":6,"station_name":"Palmerah","i_lat":-6.207404,"time":6,"station_id":"PLM","transit":false,"i_long":106.79689},{"distance":3737,"is_transit":false,"i_lat":-6.237242,"station_id":"KBY","station_name":"Kebayoran","transit":false,"time":7,"i_long":106.780334,"line":6},{"i_lat":-6.276362,"i_long":106.74273,"is_transit":false,"station_name":"Pondokranji","time":8,"transit":false,"line":6,"distance":6218,"station_id":"PDJ"},{"station_id":"JMU","is_transit":false,"time":3,"line":6,"transit":false,"i_long":106.728916,"distance":2179,"i_lat":-6.288927,"station_name":"Jurangmangu"},{"time":4,"transit":false,"line":6,"is_transit":false,"distance":1994,"station_name":"Sudimara","station_id":"SDM","i_lat":-6.296963,"i_long":106.712277},{"is_transit":false,"line":6,"station_id":"RU","i_lat":-6.314823,"station_name":"Rawa Buntu","distance":4566,"time":6,"transit":false,"i_long":106.675475},{"i_lat":-6.319871,"time":4,"station_name":"Serpong","is_transit":false,"distance":2413,"station_id":"SRP","line":6,"transit":false,"i_long":106.66566},{"station_id":"CSK","time":4,"station_name":"Cisauk","is_transit":false,"transit":false,"i_long":106.640411,"distance":1784,"i_lat":-6.32484,"line":3},{"is_transit":false,"i_lat":-6.329547,"i_long":106.617853,"transit":false,"station_id":"CC","time":4,"distance":2519,"line":3,"station_name":"Cicayur"},{"i_long":106.568863,"station_name":"Parung Panjang","i_lat":-6.3441410000000005,"is_transit":false,"line":6,"time":8,"transit":false,"station_id":"PRP","distance":5968}]]}