{"data":[[{"distance":0,"i_long":106.800298,"line":2,"station_id":"CTA","time":0,"i_lat":-6.448811,"station_name":"Citayam","is_transit":false,"transit":false},{"station_id":"DP","i_lat":-6.405256,"transit":false,"distance":5084,"station_name":"Depok","i_long":106.816926,"time":6,"line":2,"is_transit":false},{"line":2,"distance":1584,"i_lat":-6.391065,"station_id":"DPB","i_long":106.819451,"is_transit":false,"time":3,"transit":false,"station_name":"Depokbaru"},{"is_transit":false,"i_lat":-6.369073,"line":2,"i_long":106.831114,"time":4,"station_id":"POC","transit":false,"station_name":"Pondok Cina","distance":2727},{"transit":false,"station_name":"Univ. Indonesia","time":2,"i_long":106.831474,"i_lat":-6.360749,"is_transit":false,"distance":1109,"station_id":"UI","line":2},{"distance":2264,"i_long":106.834175,"station_name":"Univ. Pancasila","station_id":"UP","transit":false,"time":3,"i_lat":-6.339291,"line":2,"is_transit":false},{"distance":1029,"is_transit":false,"station_name":"Lenteng Agung","time":2,"transit":false,"station_id":"LNA","line":2,"i_long":106.832616,"i_lat":-6.330363},{"station_id":"TNT","i_lat":-6.3080680000000005,"station_name":"Tanjung Barat","is_transit":false,"transit":false,"time":3,"line":2,"i_long":106.838896,"distance":2671},{"is_transit":false,"station_name":"Pasar Minggu","time":4,"i_long":106.843999,"transit":false,"distance":2820,"i_lat":-6.2842400000000005,"station_id":"PSM","line":2},{"station_name":"Pasar Minggu Baru","distance":2380,"i_lat":-6.263214,"transit":false,"station_id":"PSMB","line":2,"time":2,"is_transit":false,"i_long":106.851577},{"time":2,"i_long":106.85449,"distance":824,"i_lat":-6.255332,"is_transit":false,"station_name":"Duren Kalibata","line":2,"transit":false,"station_id":"DRN"},{"time":3,"i_lat":-6.242512,"i_long":106.856607,"station_id":"CW","is_transit":false,"line":2,"transit":false,"distance":1546,"station_name":"Cawang"},{"is_transit":false,"station_name":"Tebet","transit":false,"time":2,"i_lat":-6.226659,"distance":1230,"i_long":106.857948,"line":2,"station_id":"TEB"},{"distance":2610,"station_name":"Manggarai","time":4,"i_lat":-6.209883,"transit":true,"line":2,"is_transit":true,"station_id":"MRI","i_long":106.84912},{"line":1,"station_id":"SUD","i_long":106.822649,"time":4,"station_name":"Sudirman","distance":3186,"transit":false,"i_lat":-6.202263,"is_transit":false},{"time":1,"i_lat":-6.201433,"is_transit":false,"transit":false,"distance":280,"station_id":"SUDB","i_long":106.819881,"line":1,"station_name":"Sudirman Baru"},{"i_lat":-6.20132,"distance":471,"line":1,"time":1,"station_name":"Karet","i_long":106.816351,"is_transit":false,"transit":false,"station_id":"KAT"}],[{"i_lat":-6.448811,"is_transit":false,"transit":false,"line":2,"station_name":"Citayam","i_long":106.800298,"time":0,"distance":0,"station_id":"CTA"},{"is_transit":false,"time":6,"i_long":106.816926,"transit":false,"line":2,"distance":5084,"i_lat":-6.405256,"station_id":"DP","station_name":"Depok"},{"distance":1584,"transit":false,"is_transit":false,"station_id":"DPB","time":3,"line":2,"station_name":"Depokbaru","i_lat":-6.391065,"i_long":106.819451},{"station_name":"Pondok Cina","time":4,"i_long":106.831114,"station_id":"POC","i_lat":-6.369073,"transit":false,"line":2,"is_transit":false,"distance":2727},{"station_name":"Univ. Indonesia","distance":1109,"line":2,"is_transit":false,"station_id":"UI","time":2,"i_lat":-6.360749,"i_long":106.831474,"transit":false},{"i_lat":-6.339291,"time":3,"i_long":106.834175,"line":2,"is_transit":false,"distance":2264,"station_name":"Univ. Pancasila","station_id":"UP","transit":false},{"is_transit":false,"transit":false,"time":2,"i_lat":-6.330363,"i_long":106.832616,"station_name":"Lenteng Agung","line":2,"distance":1029,"station_id":"LNA"},{"i_lat":-6.3080680000000005,"i_long":106.838896,"station_name":"Tanjung Barat","transit":false,"station_id":"TNT","line":2,"distance":2671,"time":3,"is_transit":false},{"station_name":"Pasar Minggu","i_long":106.843999,"is_transit":false,"line":2,"transit":false,"distance":2820,"time":4,"station_id":"PSM","i_lat":-6.2842400000000005},{"time":2,"station_id":"PSMB","is_transit":false,"line":2,"i_lat":-6.263214,"transit":false,"station_name":"Pasar Minggu Baru","i_long":106.851577,"distance":2380},{"station_name":"Duren Kalibata","time":2,"transit":false,"is_transit":false,"distance":824,"station_id":"DRN","i_lat":-6.255332,"line":2,"i_long":106.85449},{"station_id":"CW","station_name":"Cawang","i_long":106.856607,"is_transit":false,"time":3,"i_lat":-6.242512,"line":2,"distance":1546,"transit":false},{"i_lat":-6.226659,"distance":1230,"is_transit":false,"station_id":"TEB","time":2,"station_name":"Tebet","i_long":106.857948,"line":2,"transit":false},{"is_transit":false,"distance":2610,"transit":false,"station_id":"MRI","time":4,"i_lat":-6.209883,"i_long":106.84912,"station_name":"Manggarai","line":2},{"i_lat":-6.198556,"distance":1590,"transit":false,"station_id":"CKI","line":2,"i_long":106.840169,"station_name":"Cikini","is_transit":false,"time":4},{"line":2,"i_long":106.832183,"time":3,"i_lat":-6.186295,"transit":false,"distance":1750,"is_transit":false,"station_id":"GDD","station_name":"Gondangdia"},{"transit":false,"i_long":106.828284,"distance":2015,"line":2,"i_lat":-6.166716,"station_id":"JUA","station_name":"Juanda","time":4,"is_transit":false},{"distance":1149,"i_long":106.827103,"station_name":"Sawah Besar","is_transit":false,"time":2,"line":2,"transit":false,"station_id":"SW","i_lat":-6.160725},{"station_name":"Manggabesar","time":2,"station_id":"MGB","i_lat":-6.149769,"is_transit":false,"transit":false,"distance":906,"i_long":106.82482,"line":2},{"line":2,"station_id":"JAY","i_lat":-6.141205,"i_long":106.820901,"distance":1080,"station_name":"Jayakarta","is_transit":false,"transit":false,"time":2},{"station_id":"JAKK","is_transit":true,"i_lat":-6.137569,"distance":1264,"i_long":106.812439,"station_name":"Jakarta Kota","time":4,"transit":true,"line":2},{"i_long":106.826365,"line":4,"is_transit":true,"distance":1364,"transit":true,"time":3,"station_name":"Kampung Bandan","i_lat":-6.132549,"station_id":"KPB"},{"i_lat":-6.144674,"time":9,"transit":false,"distance":4102,"station_id":"AK","is_transit":false,"line":1,"station_name":"Angke","i_long":106.79867},{"station_name":"Duri","i_long":106.800832,"i_lat":-6.155215,"line":1,"distance":1230,"station_id":"DU","time":4,"is_transit":false,"transit":false},{"is_transit":false,"i_long":106.811091,"station_id":"THB","time":8,"distance":3632,"line":1,"transit":false,"station_name":"Tanah Abang","i_lat":-6.185545},{"station_name":"Karet","line":1,"i_lat":-6.20132,"is_transit":false,"distance":2029,"transit":false,"station_id":"KAT","time":5,"i_long":106.816351}],[{"station_id":"CTA","is_transit":false,"time":0,"transit":false,"i_long":106.800298,"line":2,"distance":0,"i_lat":-6.448811,"station_name":"Citayam"},{"station_name":"Depok","time":6,"i_lat":-6.405256,"i_long":106.816926,"transit":false,"distance":5084,"is_transit":false,"line":2,"station_id":"DP"},{"station_id":"DPB","time":3,"line":2,"i_lat":-6.391065,"distance":1584,"is_transit":false,"i_long":106.819451,"transit":false,"station_name":"Depokbaru"},{"time":4,"distance":2727,"station_id":"POC","i_lat":-6.369073,"transit":false,"line":2,"is_transit":false,"station_name":"Pondok Cina","i_long":106.831114},{"distance":1109,"time":2,"line":2,"station_id":"UI","i_lat":-6.360749,"is_transit":false,"transit":false,"station_name":"Univ. Indonesia","i_long":106.831474},{"i_long":106.834175,"distance":2264,"transit":false,"line":2,"is_transit":false,"station_id":"UP","time":3,"i_lat":-6.339291,"station_name":"Univ. Pancasila"},{"station_id":"LNA","time":2,"distance":1029,"i_lat":-6.330363,"i_long":106.832616,"is_transit":false,"transit":false,"line":2,"station_name":"Lenteng Agung"},{"station_name":"Tanjung Barat","distance":2671,"i_long":106.838896,"is_transit":false,"line":2,"station_id":"TNT","i_lat":-6.3080680000000005,"time":3,"transit":false},{"line":2,"station_name":"Pasar Minggu","i_lat":-6.2842400000000005,"transit":false,"is_transit":false,"distance":2820,"station_id":"PSM","time":4,"i_long":106.843999},{"is_transit":false,"station_id":"PSMB","transit":false,"i_long":106.851577,"line":2,"i_lat":-6.263214,"time":2,"distance":2380,"station_name":"Pasar Minggu Baru"},{"station_name":"Duren Kalibata","station_id":"DRN","transit":false,"i_long":106.85449,"line":2,"is_transit":false,"time":2,"distance":824,"i_lat":-6.255332},{"station_name":"Cawang","i_lat":-6.242512,"transit":false,"station_id":"CW","i_long":106.856607,"is_transit":false,"line":2,"time":3,"distance":1546},{"line":2,"i_long":106.857948,"is_transit":false,"distance":1230,"station_name":"Tebet","station_id":"TEB","time":2,"i_lat":-6.226659,"transit":false},{"station_name":"Manggarai","station_id":"MRI","line":2,"transit":true,"time":4,"i_long":106.84912,"is_transit":true,"i_lat":-6.209883,"distance":2610},{"transit":false,"i_lat":-6.212485,"station_id":"MTR","i_long":106.858896,"distance":1275,"line":1,"station_name":"Matraman","is_transit":false,"time":2},{"is_transit":true,"i_lat":-6.215091,"time":8,"distance":1377,"line":1,"station_id":"JNG","transit":true,"i_long":106.86807400000001,"station_name":"Jatinegara"},{"station_name":"Pondok Jati","distance":1236,"i_lat":-6.209188,"station_id":"POK","line":11,"time":2,"i_long":106.861737,"transit":false,"is_transit":false},{"distance":1829,"i_long":106.855437,"is_transit":false,"i_lat":-6.193792,"time":2,"transit":false,"station_name":"Kramat","station_id":"KMT","line":11},{"is_transit":false,"time":1,"i_lat":-6.185975,"line":11,"i_long":106.850107,"station_name":"Gang Sentiong","transit":false,"distance":973,"station_id":"GST"},{"i_lat":-6.174784,"distance":1567,"station_name":"Pasar Senen","transit":false,"station_id":"PSE","i_long":106.84368,"is_transit":false,"line":11,"time":8},{"i_long":106.839204,"is_transit":false,"time":4,"transit":false,"line":11,"distance":1436,"station_id":"KMO","station_name":"Kemayoran","i_lat":-6.161728},{"is_transit":false,"station_id":"RJW","time":5,"line":11,"i_lat":-6.14505,"i_long":106.836569,"distance":1901,"transit":false,"station_name":"Rajawali"},{"time":3,"i_long":106.826365,"is_transit":true,"transit":true,"station_id":"KPB","line":4,"i_lat":-6.132549,"station_name":"Kampung Bandan","distance":1444},{"station_id":"AK","i_lat":-6.144674,"i_long":106.79867,"line":1,"station_name":"Angke","time":9,"is_transit":false,"transit":false,"distance":4102},{"is_transit":false,"time":4,"station_name":"Duri","line":1,"i_lat":-6.155215,"distance":1230,"station_id":"DU","transit":false,"i_long":106.800832},{"i_lat":-6.185545,"transit":false,"line":1,"i_long":106.811091,"distance":3632,"station_name":"Tanah Abang","time":8,"is_transit":false,"station_id":"THB"},{"time":5,"station_id":"KAT","station_name":"Karet","line":1,"distance":2029,"transit":false,"is_transit":false,"i_long":106.816351,"i_lat":-6.20132}]]}