{"data":[[{"is_transit":false,"time":0,"station_name":"Citayam","station_id":"CTA","i_long":106.800298,"i_lat":-6.448811,"distance":0,"line":2,"transit":false},{"i_long":106.816926,"station_name":"Depok","distance":5084,"i_lat":-6.405256,"station_id":"DP","line":2,"is_transit":false,"transit":false,"time":6},{"station_id":"DPB","time":3,"i_long":106.819451,"transit":false,"station_name":"Depokbaru","distance":1584,"line":2,"i_lat":-6.391065,"is_transit":false},{"is_transit":false,"time":4,"distance":2727,"i_lat":-6.369073,"station_name":"Pondok Cina","transit":false,"station_id":"POC","line":2,"i_long":106.831114},{"station_id":"UI","i_long":106.831474,"station_name":"Univ. Indonesia","is_transit":false,"time":2,"distance":1109,"transit":false,"line":2,"i_lat":-6.360749},{"i_lat":-6.339291,"line":2,"time":3,"station_id":"UP","distance":2264,"station_name":"Univ. Pancasila","is_transit":false,"transit":false,"i_long":106.834175},{"i_long":106.832616,"transit":false,"line":2,"time":2,"is_transit":false,"distance":1029,"station_id":"LNA","station_name":"Lenteng Agung","i_lat":-6.330363},{"is_transit":false,"distance":2671,"station_id":"TNT","line":2,"station_name":"Tanjung Barat","transit":false,"i_lat":-6.3080680000000005,"time":3,"i_long":106.838896},{"is_transit":false,"station_name":"Pasar Minggu","i_lat":-6.2842400000000005,"transit":false,"time":4,"distance":2820,"station_id":"PSM","i_long":106.843999,"line":2},{"time":2,"is_transit":false,"i_lat":-6.263214,"distance":2380,"station_name":"Pasar Minggu Baru","i_long":106.851577,"station_id":"PSMB","transit":false,"line":2},{"transit":false,"station_id":"DRN","station_name":"Duren Kalibata","distance":824,"time":2,"i_long":106.85449,"i_lat":-6.255332,"line":2,"is_transit":false},{"line":2,"is_transit":false,"station_id":"CW","distance":1546,"transit":false,"i_lat":-6.242512,"time":3,"station_name":"Cawang","i_long":106.856607},{"i_lat":-6.226659,"line":2,"i_long":106.857948,"is_transit":false,"distance":1230,"transit":false,"time":2,"station_name":"Tebet","station_id":"TEB"},{"time":4,"station_name":"Manggarai","is_transit":true,"station_id":"MRI","transit":true,"i_long":106.84912,"distance":2610,"i_lat":-6.209883,"line":2},{"station_id":"SUD","transit":false,"i_lat":-6.202263,"is_transit":false,"i_long":106.822649,"time":4,"distance":3186,"line":1,"station_name":"Sudirman"},{"station_name":"Sudirman Baru","is_transit":false,"transit":false,"time":1,"distance":280,"station_id":"SUDB","i_lat":-6.201433,"line":1,"i_long":106.819881},{"is_transit":false,"i_lat":-6.20132,"i_long":106.816351,"transit":false,"station_name":"Karet","distance":471,"line":1,"time":1,"station_id":"KAT"}],[{"line":2,"distance":0,"is_transit":false,"station_id":"CTA","time":0,"i_lat":-6.448811,"transit":false,"i_long":106.800298,"station_name":"Citayam"},{"time":6,"distance":5084,"i_lat":-6.405256,"station_name":"Depok","line":2,"i_long":106.816926,"is_transit":false,"transit":false,"station_id":"DP"},{"distance":1584,"station_id":"DPB","station_name":"Depokbaru","is_transit":false,"time":3,"i_lat":-6.391065,"transit":false,"i_long":106.819451,"line":2},{"i_long":106.831114,"is_transit":false,"station_name":"Pondok Cina","line":2,"time":4,"i_lat":-6.369073,"distance":2727,"transit":false,"station_id":"POC"},{"distance":1109,"time":2,"is_transit":false,"station_id":"UI","i_long":106.831474,"line":2,"station_name":"Univ. Indonesia","i_lat":-6.360749,"transit":false},{"is_transit":false,"station_name":"Univ. Pancasila","i_long":106.834175,"i_lat":-6.339291,"station_id":"UP","time":3,"transit":false,"line":2,"distance":2264},{"station_id":"LNA","i_lat":-6.330363,"i_long":106.832616,"transit":false,"station_name":"Lenteng Agung","is_transit":false,"distance":1029,"time":2,"line":2},{"station_name":"Tanjung Barat","time":3,"distance":2671,"is_transit":false,"station_id":"TNT","i_long":106.838896,"line":2,"i_lat":-6.3080680000000005,"transit":false},{"distance":2820,"time":4,"i_long":106.843999,"is_transit":false,"i_lat":-6.2842400000000005,"line":2,"transit":false,"station_id":"PSM","station_name":"Pasar Minggu"},{"time":2,"station_id":"PSMB","i_lat":-6.263214,"transit":false,"is_transit":false,"line":2,"station_name":"Pasar Minggu Baru","distance":2380,"i_long":106.851577},{"distance":824,"line":2,"station_name":"Duren Kalibata","is_transit":false,"station_id":"DRN","time":2,"transit":false,"i_lat":-6.255332,"i_long":106.85449},{"i_long":106.856607,"transit":false,"time":3,"station_name":"Cawang","is_transit":false,"line":2,"distance":1546,"i_lat":-6.242512,"station_id":"CW"},{"station_name":"Tebet","line":2,"is_transit":false,"distance":1230,"transit":false,"station_id":"TEB","time":2,"i_lat":-6.226659,"i_long":106.857948},{"transit":false,"i_lat":-6.209883,"is_transit":false,"i_long":106.84912,"time":4,"distance":2610,"station_id":"MRI","line":2,"station_name":"Manggarai"},{"i_long":106.840169,"line":2,"station_id":"CKI","time":4,"station_name":"Cikini","i_lat":-6.198556,"distance":1590,"transit":false,"is_transit":false},{"transit":false,"time":3,"distance":1750,"station_id":"GDD","station_name":"Gondangdia","i_lat":-6.186295,"i_long":106.832183,"is_transit":false,"line":2},{"distance":2015,"i_lat":-6.166716,"line":2,"time":4,"is_transit":false,"i_long":106.828284,"station_id":"JUA","transit":false,"station_name":"Juanda"},{"time":2,"station_id":"SW","is_transit":false,"i_lat":-6.160725,"i_long":106.827103,"transit":false,"distance":1149,"station_name":"Sawah Besar","line":2},{"station_name":"Manggabesar","distance":906,"i_lat":-6.149769,"i_long":106.82482,"transit":false,"line":2,"time":2,"station_id":"MGB","is_transit":false},{"i_long":106.820901,"time":2,"distance":1080,"station_id":"JAY","i_lat":-6.141205,"station_name":"Jayakarta","line":2,"transit":false,"is_transit":false},{"station_name":"Jakarta Kota","is_transit":true,"i_long":106.812439,"distance":1264,"station_id":"JAKK","i_lat":-6.137569,"time":4,"line":2,"transit":true},{"i_lat":-6.132549,"line":4,"station_name":"Kampung Bandan","station_id":"KPB","i_long":106.826365,"distance":1364,"time":3,"is_transit":true,"transit":true},{"time":9,"station_id":"AK","i_lat":-6.144674,"line":1,"is_transit":false,"station_name":"Angke","distance":4102,"transit":false,"i_long":106.79867},{"distance":1230,"time":4,"station_name":"Duri","is_transit":false,"station_id":"DU","transit":false,"i_lat":-6.155215,"i_long":106.800832,"line":1},{"i_lat":-6.185545,"transit":false,"line":1,"distance":3632,"i_long":106.811091,"station_name":"Tanah Abang","is_transit":false,"time":8,"station_id":"THB"},{"line":1,"station_id":"KAT","distance":2029,"station_name":"Karet","i_lat":-6.20132,"i_long":106.816351,"is_transit":false,"transit":false,"time":5}],[{"time":0,"i_lat":-6.448811,"line":2,"station_name":"Citayam","is_transit":false,"distance":0,"transit":false,"i_long":106.800298,"station_id":"CTA"},{"time":6,"line":2,"is_transit":false,"distance":5084,"station_name":"Depok","station_id":"DP","i_lat":-6.405256,"transit":false,"i_long":106.816926},{"transit":false,"i_lat":-6.391065,"line":2,"distance":1584,"station_name":"Depokbaru","is_transit":false,"time":3,"station_id":"DPB","i_long":106.819451},{"transit":false,"station_id":"POC","distance":2727,"i_long":106.831114,"is_transit":false,"time":4,"i_lat":-6.369073,"station_name":"Pondok Cina","line":2},{"i_lat":-6.360749,"i_long":106.831474,"station_id":"UI","time":2,"line":2,"is_transit":false,"transit":false,"station_name":"Univ. Indonesia","distance":1109},{"i_lat":-6.339291,"time":3,"is_transit":false,"transit":false,"station_name":"Univ. Pancasila","station_id":"UP","i_long":106.834175,"distance":2264,"line":2},{"is_transit":false,"station_id":"LNA","line":2,"i_long":106.832616,"transit":false,"time":2,"station_name":"Lenteng Agung","distance":1029,"i_lat":-6.330363},{"line":2,"station_name":"Tanjung Barat","i_long":106.838896,"time":3,"transit":false,"distance":2671,"i_lat":-6.3080680000000005,"is_transit":false,"station_id":"TNT"},{"transit":false,"station_id":"PSM","is_transit":false,"line":2,"time":4,"station_name":"Pasar Minggu","i_long":106.843999,"i_lat":-6.2842400000000005,"distance":2820},{"station_name":"Pasar Minggu Baru","station_id":"PSMB","transit":false,"line":2,"i_lat":-6.263214,"time":2,"distance":2380,"is_transit":false,"i_long":106.851577},{"i_lat":-6.255332,"distance":824,"is_transit":false,"line":2,"time":2,"station_id":"DRN","station_name":"Duren Kalibata","i_long":106.85449,"transit":false},{"station_id":"CW","time":3,"i_lat":-6.242512,"i_long":106.856607,"transit":false,"station_name":"Cawang","is_transit":false,"distance":1546,"line":2},{"is_transit":false,"distance":1230,"i_long":106.857948,"station_name":"Tebet","time":2,"line":2,"transit":false,"station_id":"TEB","i_lat":-6.226659},{"station_name":"Manggarai","i_long":106.84912,"station_id":"MRI","line":2,"time":4,"i_lat":-6.209883,"transit":true,"distance":2610,"is_transit":true},{"station_id":"MTR","station_name":"Matraman","transit":false,"line":1,"i_long":106.858896,"is_transit":false,"distance":1275,"i_lat":-6.212485,"time":2},{"station_id":"JNG","distance":1377,"station_name":"Jatinegara","is_transit":true,"transit":true,"i_lat":-6.215091,"i_long":106.86807400000001,"line":1,"time":8},{"station_id":"POK","i_long":106.861737,"distance":1236,"is_transit":false,"i_lat":-6.209188,"line":11,"transit":false,"time":2,"station_name":"Pondok Jati"},{"transit":false,"i_lat":-6.193792,"i_long":106.855437,"distance":1829,"line":11,"station_id":"KMT","is_transit":false,"time":2,"station_name":"Kramat"},{"station_name":"Gang Sentiong","time":1,"transit":false,"i_lat":-6.185975,"is_transit":false,"i_long":106.850107,"station_id":"GST","line":11,"distance":973},{"transit":false,"station_name":"Pasar Senen","station_id":"PSE","is_transit":false,"i_lat":-6.174784,"line":11,"time":8,"distance":1567,"i_long":106.84368},{"distance":1436,"time":4,"station_id":"KMO","transit":false,"station_name":"Kemayoran","i_long":106.839204,"line":11,"is_transit":false,"i_lat":-6.161728},{"i_long":106.836569,"is_transit":false,"transit":false,"station_name":"Rajawali","i_lat":-6.14505,"line":11,"distance":1901,"station_id":"RJW","time":5},{"is_transit":true,"distance":1444,"i_long":106.826365,"line":4,"time":3,"station_name":"Kampung Bandan","transit":true,"i_lat":-6.132549,"station_id":"KPB"},{"time":9,"distance":4102,"station_id":"AK","i_long":106.79867,"i_lat":-6.144674,"transit":false,"line":1,"station_name":"Angke","is_transit":false},{"distance":1230,"station_id":"DU","time":4,"line":1,"station_name":"Duri","i_lat":-6.155215,"i_long":106.800832,"is_transit":false,"transit":false},{"is_transit":false,"station_name":"Tanah Abang","i_lat":-6.185545,"time":8,"station_id":"THB","line":1,"i_long":106.811091,"distance":3632,"transit":false},{"time":5,"is_transit":false,"station_name":"Karet","line":1,"station_id":"KAT","distance":2029,"transit":false,"i_lat":-6.20132,"i_long":106.816351}]]}