{"data":[[{"time":0,"station_id":"CTA","is_transit":false,"station_name":"Citayam","distance":0,"transit":false,"i_lat":-6.448811,"line":2,"i_long":106.800298},{"transit":false,"line":2,"time":6,"station_id":"DP","distance":5084,"is_transit":false,"i_lat":-6.405256,"i_long":106.816926,"station_name":"Depok"},{"station_id":"DPB","i_long":106.819451,"transit":false,"line":2,"is_transit":false,"i_lat":-6.391065,"station_name":"Depokbaru","time":3,"distance":1584},{"is_transit":false,"distance":2727,"station_name":"Pondok Cina","i_lat":-6.369073,"time":4,"station_id":"POC","i_long":106.831114,"line":2,"transit":false},{"station_name":"Univ. Indonesia","i_long":106.831474,"is_transit":false,"line":2,"distance":1109,"station_id":"UI","transit":false,"time":2,"i_lat":-6.360749},{"distance":2264,"station_name":"Univ. Pancasila","transit":false,"i_lat":-6.339291,"station_id":"UP","i_long":106.834175,"line":2,"time":3,"is_transit":false},{"station_id":"LNA","transit":false,"line":2,"time":2,"i_lat":-6.330363,"is_transit":false,"i_long":106.832616,"distance":1029,"station_name":"Lenteng Agung"},{"time":3,"transit":false,"station_id":"TNT","is_transit":false,"line":2,"distance":2671,"station_name":"Tanjung Barat","i_long":106.838896,"i_lat":-6.3080680000000005},{"i_lat":-6.2842400000000005,"station_name":"Pasar Minggu","station_id":"PSM","distance":2820,"is_transit":false,"i_long":106.843999,"line":2,"transit":false,"time":4},{"line":2,"station_id":"PSMB","is_transit":false,"transit":false,"station_name":"Pasar Minggu Baru","distance":2380,"time":2,"i_lat":-6.263214,"i_long":106.851577},{"station_id":"DRN","i_lat":-6.255332,"transit":false,"line":2,"i_long":106.85449,"is_transit":false,"distance":824,"time":2,"station_name":"Duren Kalibata"},{"station_id":"CW","i_long":106.856607,"is_transit":false,"i_lat":-6.242512,"station_name":"Cawang","time":3,"distance":1546,"line":2,"transit":false},{"transit":false,"i_lat":-6.226659,"i_long":106.857948,"line":2,"station_id":"TEB","time":2,"distance":1230,"station_name":"Tebet","is_transit":false},{"station_name":"Manggarai","transit":true,"i_lat":-6.209883,"is_transit":true,"station_id":"MRI","line":2,"i_long":106.84912,"time":4,"distance":2610},{"distance":3186,"is_transit":false,"line":1,"i_long":106.822649,"station_name":"Sudirman","i_lat":-6.202263,"station_id":"SUD","transit":false,"time":4},{"is_transit":false,"i_lat":-6.201433,"station_id":"SUDB","station_name":"Sudirman Baru","line":1,"i_long":106.819881,"transit":false,"distance":280,"time":1},{"distance":471,"is_transit":false,"transit":false,"i_long":106.816351,"station_id":"KAT","line":1,"station_name":"Karet","i_lat":-6.20132,"time":1},{"distance":2029,"i_lat":-6.185545,"station_name":"Tanah Abang","i_long":106.811091,"line":1,"transit":false,"is_transit":false,"time":5,"station_id":"THB"}],[{"transit":false,"i_long":106.800298,"time":0,"distance":0,"i_lat":-6.448811,"station_id":"CTA","line":2,"is_transit":false,"station_name":"Citayam"},{"is_transit":false,"time":6,"i_long":106.816926,"line":2,"distance":5084,"station_id":"DP","station_name":"Depok","transit":false,"i_lat":-6.405256},{"distance":1584,"i_lat":-6.391065,"i_long":106.819451,"station_id":"DPB","transit":false,"is_transit":false,"time":3,"station_name":"Depokbaru","line":2},{"i_lat":-6.369073,"i_long":106.831114,"transit":false,"is_transit":false,"station_id":"POC","line":2,"distance":2727,"station_name":"Pondok Cina","time":4},{"station_id":"UI","station_name":"Univ. Indonesia","is_transit":false,"distance":1109,"i_lat":-6.360749,"time":2,"transit":false,"line":2,"i_long":106.831474},{"is_transit":false,"distance":2264,"line":2,"i_lat":-6.339291,"i_long":106.834175,"station_name":"Univ. Pancasila","station_id":"UP","transit":false,"time":3},{"is_transit":false,"i_long":106.832616,"line":2,"transit":false,"time":2,"station_name":"Lenteng Agung","distance":1029,"station_id":"LNA","i_lat":-6.330363},{"time":3,"transit":false,"station_id":"TNT","is_transit":false,"i_lat":-6.3080680000000005,"i_long":106.838896,"station_name":"Tanjung Barat","line":2,"distance":2671},{"station_id":"PSM","transit":false,"i_lat":-6.2842400000000005,"i_long":106.843999,"is_transit":false,"time":4,"line":2,"station_name":"Pasar Minggu","distance":2820},{"i_lat":-6.263214,"transit":false,"line":2,"station_name":"Pasar Minggu Baru","is_transit":false,"station_id":"PSMB","i_long":106.851577,"distance":2380,"time":2},{"i_long":106.85449,"station_id":"DRN","is_transit":false,"time":2,"i_lat":-6.255332,"line":2,"station_name":"Duren Kalibata","transit":false,"distance":824},{"is_transit":false,"transit":false,"time":3,"station_id":"CW","i_lat":-6.242512,"line":2,"station_name":"Cawang","i_long":106.856607,"distance":1546},{"is_transit":false,"i_lat":-6.226659,"station_name":"Tebet","transit":false,"time":2,"i_long":106.857948,"line":2,"station_id":"TEB","distance":1230},{"is_transit":false,"time":4,"station_name":"Manggarai","i_long":106.84912,"i_lat":-6.209883,"line":2,"station_id":"MRI","transit":false,"distance":2610},{"time":4,"distance":1590,"i_lat":-6.198556,"transit":false,"station_id":"CKI","line":2,"i_long":106.840169,"station_name":"Cikini","is_transit":false},{"i_long":106.832183,"line":2,"station_name":"Gondangdia","station_id":"GDD","transit":false,"time":3,"is_transit":false,"distance":1750,"i_lat":-6.186295},{"time":4,"line":2,"i_long":106.828284,"transit":false,"distance":2015,"is_transit":false,"station_name":"Juanda","station_id":"JUA","i_lat":-6.166716},{"line":2,"distance":1149,"time":2,"i_long":106.827103,"transit":false,"i_lat":-6.160725,"station_id":"SW","is_transit":false,"station_name":"Sawah Besar"},{"is_transit":false,"time":2,"transit":false,"distance":906,"i_lat":-6.149769,"station_id":"MGB","i_long":106.82482,"line":2,"station_name":"Manggabesar"},{"distance":1080,"i_long":106.820901,"station_id":"JAY","transit":false,"station_name":"Jayakarta","time":2,"i_lat":-6.141205,"line":2,"is_transit":false},{"line":2,"station_name":"Jakarta Kota","station_id":"JAKK","i_lat":-6.137569,"transit":true,"i_long":106.812439,"is_transit":true,"time":4,"distance":1264},{"transit":true,"is_transit":true,"line":4,"i_lat":-6.132549,"station_id":"KPB","station_name":"Kampung Bandan","time":3,"i_long":106.826365,"distance":1364},{"transit":false,"line":1,"time":9,"i_lat":-6.144674,"i_long":106.79867,"station_id":"AK","is_transit":false,"distance":4102,"station_name":"Angke"},{"i_lat":-6.155215,"transit":false,"line":1,"distance":1230,"station_name":"Duri","is_transit":false,"i_long":106.800832,"station_id":"DU","time":4},{"i_lat":-6.185545,"transit":false,"i_long":106.811091,"line":1,"station_name":"Tanah Abang","is_transit":false,"distance":3632,"station_id":"THB","time":8}],[{"time":0,"distance":0,"transit":false,"i_long":106.800298,"is_transit":false,"station_id":"CTA","i_lat":-6.448811,"line":2,"station_name":"Citayam"},{"is_transit":false,"station_name":"Depok","distance":5084,"transit":false,"time":6,"station_id":"DP","i_lat":-6.405256,"line":2,"i_long":106.816926},{"i_lat":-6.391065,"line":2,"i_long":106.819451,"is_transit":false,"transit":false,"time":3,"station_id":"DPB","distance":1584,"station_name":"Depokbaru"},{"i_long":106.831114,"station_name":"Pondok Cina","transit":false,"line":2,"is_transit":false,"station_id":"POC","distance":2727,"i_lat":-6.369073,"time":4},{"i_long":106.831474,"time":2,"line":2,"transit":false,"distance":1109,"is_transit":false,"station_name":"Univ. Indonesia","station_id":"UI","i_lat":-6.360749},{"time":3,"station_id":"UP","station_name":"Univ. Pancasila","i_long":106.834175,"is_transit":false,"i_lat":-6.339291,"distance":2264,"line":2,"transit":false},{"i_long":106.832616,"i_lat":-6.330363,"distance":1029,"line":2,"transit":false,"station_id":"LNA","time":2,"station_name":"Lenteng Agung","is_transit":false},{"station_name":"Tanjung Barat","transit":false,"station_id":"TNT","distance":2671,"time":3,"i_lat":-6.3080680000000005,"i_long":106.838896,"line":2,"is_transit":false},{"i_lat":-6.2842400000000005,"station_name":"Pasar Minggu","transit":false,"time":4,"i_long":106.843999,"is_transit":false,"distance":2820,"station_id":"PSM","line":2},{"distance":2380,"station_name":"Pasar Minggu Baru","i_long":106.851577,"is_transit":false,"time":2,"i_lat":-6.263214,"transit":false,"station_id":"PSMB","line":2},{"transit":false,"station_name":"Duren Kalibata","time":2,"distance":824,"i_long":106.85449,"is_transit":false,"i_lat":-6.255332,"line":2,"station_id":"DRN"},{"station_name":"Cawang","i_long":106.856607,"i_lat":-6.242512,"station_id":"CW","transit":false,"is_transit":false,"time":3,"distance":1546,"line":2},{"distance":1230,"i_long":106.857948,"i_lat":-6.226659,"line":2,"transit":false,"time":2,"station_id":"TEB","station_name":"Tebet","is_transit":false},{"distance":2610,"line":2,"station_name":"Manggarai","i_long":106.84912,"is_transit":true,"time":4,"transit":true,"station_id":"MRI","i_lat":-6.209883},{"is_transit":false,"station_name":"Matraman","station_id":"MTR","line":1,"distance":1275,"time":2,"transit":false,"i_lat":-6.212485,"i_long":106.858896},{"time":8,"distance":1377,"line":1,"station_name":"Jatinegara","station_id":"JNG","i_lat":-6.215091,"i_long":106.86807400000001,"transit":true,"is_transit":true},{"is_transit":false,"station_name":"Pondok Jati","i_lat":-6.209188,"i_long":106.861737,"time":2,"distance":1236,"transit":false,"line":11,"station_id":"POK"},{"station_name":"Kramat","is_transit":false,"time":2,"station_id":"KMT","i_lat":-6.193792,"distance":1829,"transit":false,"i_long":106.855437,"line":11},{"time":1,"is_transit":false,"i_lat":-6.185975,"transit":false,"distance":973,"i_long":106.850107,"station_name":"Gang Sentiong","station_id":"GST","line":11},{"station_name":"Pasar Senen","is_transit":false,"distance":1567,"transit":false,"time":8,"i_lat":-6.174784,"line":11,"i_long":106.84368,"station_id":"PSE"},{"i_lat":-6.161728,"station_name":"Kemayoran","i_long":106.839204,"is_transit":false,"transit":false,"distance":1436,"time":4,"line":11,"station_id":"KMO"},{"time":5,"distance":1901,"transit":false,"i_lat":-6.14505,"line":11,"station_name":"Rajawali","is_transit":false,"i_long":106.836569,"station_id":"RJW"},{"time":3,"transit":true,"distance":1444,"station_name":"Kampung Bandan","i_lat":-6.132549,"is_transit":true,"i_long":106.826365,"line":4,"station_id":"KPB"},{"is_transit":false,"time":9,"i_long":106.79867,"transit":false,"distance":4102,"i_lat":-6.144674,"station_id":"AK","line":1,"station_name":"Angke"},{"distance":1230,"i_long":106.800832,"is_transit":false,"station_name":"Duri","time":4,"i_lat":-6.155215,"transit":false,"station_id":"DU","line":1},{"i_lat":-6.185545,"transit":false,"i_long":106.811091,"line":1,"station_id":"THB","station_name":"Tanah Abang","time":8,"distance":3632,"is_transit":false}]]}