{"data":[[{"is_transit":false,"i_long":106.800298,"line":2,"i_lat":-6.448811,"station_id":"CTA","transit":false,"time":0,"station_name":"Citayam","distance":0},{"distance":5084,"is_transit":false,"transit":false,"i_long":106.816926,"station_name":"Depok","time":6,"i_lat":-6.405256,"line":2,"station_id":"DP"},{"is_transit":false,"i_long":106.819451,"station_id":"DPB","line":2,"transit":false,"i_lat":-6.391065,"station_name":"Depokbaru","time":3,"distance":1584},{"transit":false,"station_id":"POC","i_lat":-6.369073,"distance":2727,"time":4,"station_name":"Pondok Cina","is_transit":false,"i_long":106.831114,"line":2},{"distance":1109,"is_transit":false,"transit":false,"station_name":"Univ. Indonesia","i_lat":-6.360749,"i_long":106.831474,"station_id":"UI","line":2,"time":2}]]}