{"data":[[{"line":2,"is_transit":false,"distance":0,"station_name":"Citayam","time":0,"i_lat":-6.448811,"transit":false,"i_long":106.800298,"station_id":"CTA"},{"is_transit":false,"i_lat":-6.405256,"station_id":"DP","line":2,"distance":5084,"station_name":"Depok","i_long":106.816926,"transit":false,"time":6},{"station_name":"Depokbaru","i_lat":-6.391065,"line":2,"station_id":"DPB","distance":1584,"transit":false,"time":3,"is_transit":false,"i_long":106.819451},{"distance":2727,"transit":false,"i_long":106.831114,"line":2,"is_transit":false,"station_id":"POC","i_lat":-6.369073,"time":4,"station_name":"Pondok Cina"},{"transit":false,"station_id":"UI","station_name":"Univ. Indonesia","i_long":106.831474,"time":2,"distance":1109,"i_lat":-6.360749,"line":2,"is_transit":false},{"distance":2264,"i_lat":-6.339291,"station_id":"UP","time":3,"line":2,"i_long":106.834175,"transit":false,"is_transit":false,"station_name":"Univ. Pancasila"},{"transit":false,"is_transit":false,"station_name":"Lenteng Agung","i_lat":-6.330363,"time":2,"line":2,"distance":1029,"i_long":106.832616,"station_id":"LNA"},{"transit":false,"i_lat":-6.3080680000000005,"time":3,"line":2,"station_id":"TNT","i_long":106.838896,"is_transit":false,"distance":2671,"station_name":"Tanjung Barat"},{"distance":2820,"station_name":"Pasar Minggu","station_id":"PSM","i_lat":-6.2842400000000005,"is_transit":false,"i_long":106.843999,"line":2,"time":4,"transit":false},{"transit":false,"time":2,"is_transit":false,"distance":2380,"station_name":"Pasar Minggu Baru","station_id":"PSMB","i_lat":-6.263214,"line":2,"i_long":106.851577},{"i_long":106.85449,"transit":false,"station_id":"DRN","time":2,"distance":824,"i_lat":-6.255332,"line":2,"is_transit":false,"station_name":"Duren Kalibata"},{"i_lat":-6.242512,"time":3,"station_name":"Cawang","distance":1546,"station_id":"CW","line":2,"transit":false,"is_transit":false,"i_long":106.856607},{"time":2,"transit":false,"station_name":"Tebet","is_transit":false,"i_lat":-6.226659,"station_id":"TEB","i_long":106.857948,"line":2,"distance":1230},{"transit":true,"i_lat":-6.209883,"i_long":106.84912,"time":4,"line":2,"station_id":"MRI","distance":2610,"is_transit":true,"station_name":"Manggarai"},{"distance":1275,"i_long":106.858896,"transit":false,"time":2,"station_name":"Matraman","station_id":"MTR","line":1,"is_transit":false,"i_lat":-6.212485},{"distance":1377,"station_id":"JNG","i_lat":-6.215091,"line":1,"i_long":106.86807400000001,"station_name":"Jatinegara","transit":false,"time":8,"is_transit":false},{"station_id":"KLD","i_lat":-6.2135,"station_name":"Klender","line":1,"transit":false,"i_long":106.899548,"distance":3395,"time":3,"is_transit":false},{"is_transit":false,"distance":3100,"time":2,"line":1,"transit":false,"i_lat":-6.215568,"station_name":"Buaran","i_long":106.922662,"station_id":"BUA"},{"transit":false,"line":1,"station_name":"Klenderbaru","distance":1305,"station_id":"KLDB","is_transit":false,"i_long":106.939679,"time":1,"i_lat":-6.217455},{"line":1,"is_transit":false,"station_id":"CUK","distance":1385,"transit":false,"station_name":"Cakung","i_long":106.951283,"i_lat":-6.219053,"time":8},{"time":3,"transit":false,"i_long":106.977657,"is_transit":false,"i_lat":-6.224515,"station_id":"KRI","distance":3097,"line":1,"station_name":"Kranji"},{"station_id":"BKS","i_lat":-6.236616,"is_transit":false,"distance":2520,"station_name":"Bekasi","time":4,"transit":false,"i_long":106.997013,"line":1},{"time":2,"station_name":"Bekasi Timur","transit":false,"i_lat":-6.248029,"i_long":107.016735,"is_transit":false,"distance":2368,"line":1,"station_id":"BKST"},{"station_id":"TB","line":1,"distance":4460,"transit":false,"i_long":107.055722,"i_lat":-6.258864,"time":7,"station_name":"Tambun","is_transit":false},{"is_transit":false,"line":1,"transit":false,"time":3,"i_long":107.083084,"station_name":"Cibitung","station_id":"CIT","i_lat":-6.261877,"distance":3420},{"distance":2800,"line":1,"i_long":107.093313,"station_id":"TLM","station_name":"Metland Telaga Murni","i_lat":-6.262938,"transit":false,"time":2,"is_transit":false},{"i_long":107.144613,"is_transit":false,"station_id":"CKR","station_name":"Cikarang","line":1,"distance":3689,"transit":false,"i_lat":-6.2553149999999995,"time":4}],[{"time":0,"transit":false,"station_id":"CTA","i_long":106.800298,"is_transit":false,"i_lat":-6.448811,"line":2,"distance":0,"station_name":"Citayam"},{"is_transit":false,"station_name":"Depok","station_id":"DP","i_lat":-6.405256,"line":2,"distance":5084,"time":6,"transit":false,"i_long":106.816926},{"station_name":"Depokbaru","transit":false,"line":2,"station_id":"DPB","i_long":106.819451,"i_lat":-6.391065,"distance":1584,"time":3,"is_transit":false},{"distance":2727,"transit":false,"station_id":"POC","i_lat":-6.369073,"i_long":106.831114,"time":4,"line":2,"is_transit":false,"station_name":"Pondok Cina"},{"i_lat":-6.360749,"time":2,"is_transit":false,"i_long":106.831474,"transit":false,"station_name":"Univ. Indonesia","station_id":"UI","line":2,"distance":1109},{"i_lat":-6.339291,"station_id":"UP","time":3,"is_transit":false,"distance":2264,"i_long":106.834175,"transit":false,"station_name":"Univ. Pancasila","line":2},{"is_transit":false,"i_long":106.832616,"i_lat":-6.330363,"distance":1029,"time":2,"station_id":"LNA","transit":false,"station_name":"Lenteng Agung","line":2},{"line":2,"station_name":"Tanjung Barat","distance":2671,"is_transit":false,"station_id":"TNT","i_lat":-6.3080680000000005,"time":3,"transit":false,"i_long":106.838896},{"distance":2820,"is_transit":false,"i_long":106.843999,"time":4,"line":2,"station_id":"PSM","transit":false,"station_name":"Pasar Minggu","i_lat":-6.2842400000000005},{"i_long":106.851577,"is_transit":false,"station_name":"Pasar Minggu Baru","line":2,"station_id":"PSMB","distance":2380,"i_lat":-6.263214,"transit":false,"time":2},{"time":2,"line":2,"station_id":"DRN","i_lat":-6.255332,"distance":824,"station_name":"Duren Kalibata","transit":false,"is_transit":false,"i_long":106.85449},{"line":2,"distance":1546,"station_id":"CW","is_transit":false,"i_long":106.856607,"i_lat":-6.242512,"station_name":"Cawang","time":3,"transit":false},{"is_transit":false,"i_long":106.857948,"station_id":"TEB","distance":1230,"line":2,"transit":false,"i_lat":-6.226659,"station_name":"Tebet","time":2},{"i_long":106.84912,"is_transit":true,"distance":2610,"station_name":"Manggarai","station_id":"MRI","i_lat":-6.209883,"time":4,"line":2,"transit":true},{"distance":3186,"i_lat":-6.202263,"i_long":106.822649,"station_id":"SUD","line":1,"time":4,"transit":false,"is_transit":false,"station_name":"Sudirman"},{"time":1,"is_transit":false,"station_name":"Sudirman Baru","transit":false,"station_id":"SUDB","i_long":106.819881,"line":1,"i_lat":-6.201433,"distance":280},{"time":1,"station_id":"KAT","is_transit":false,"station_name":"Karet","line":1,"transit":false,"i_lat":-6.20132,"i_long":106.816351,"distance":471},{"i_long":106.811091,"distance":2029,"is_transit":false,"i_lat":-6.185545,"transit":false,"time":5,"station_id":"THB","line":1,"station_name":"Tanah Abang"},{"is_transit":false,"station_name":"Duri","time":8,"station_id":"DU","line":1,"i_long":106.800832,"i_lat":-6.155215,"transit":false,"distance":3632},{"i_lat":-6.144674,"i_long":106.79867,"station_name":"Angke","station_id":"AK","line":1,"is_transit":false,"distance":1230,"time":4,"transit":false},{"is_transit":true,"time":9,"line":4,"transit":true,"distance":4102,"station_id":"KPB","station_name":"Kampung Bandan","i_long":106.826365,"i_lat":-6.132549},{"is_transit":false,"station_name":"Rajawali","transit":false,"station_id":"RJW","time":3,"i_lat":-6.14505,"line":11,"distance":1444,"i_long":106.836569},{"i_long":106.839204,"station_name":"Kemayoran","distance":1901,"transit":false,"line":11,"time":5,"station_id":"KMO","i_lat":-6.161728,"is_transit":false},{"line":11,"i_long":106.84368,"time":4,"i_lat":-6.174784,"distance":1436,"is_transit":false,"transit":false,"station_id":"PSE","station_name":"Pasar Senen"},{"station_name":"Gang Sentiong","line":11,"distance":1567,"station_id":"GST","transit":false,"i_long":106.850107,"is_transit":false,"i_lat":-6.185975,"time":8},{"is_transit":false,"distance":973,"transit":false,"i_long":106.855437,"station_id":"KMT","station_name":"Kramat","i_lat":-6.193792,"time":1,"line":11},{"time":2,"i_long":106.861737,"line":11,"i_lat":-6.209188,"is_transit":false,"transit":false,"distance":1829,"station_name":"Pondok Jati","station_id":"POK"},{"station_name":"Jatinegara","time":9,"station_id":"JNG","line":1,"i_long":106.86807400000001,"distance":1236,"i_lat":-6.215091,"is_transit":true,"transit":true},{"is_transit":false,"distance":3395,"station_name":"Klender","transit":false,"i_long":106.899548,"line":1,"i_lat":-6.2135,"station_id":"KLD","time":3},{"transit":false,"station_id":"BUA","station_name":"Buaran","is_transit":false,"distance":3100,"i_long":106.922662,"line":1,"i_lat":-6.215568,"time":2},{"distance":1305,"station_name":"Klenderbaru","time":1,"transit":false,"station_id":"KLDB","i_long":106.939679,"line":1,"is_transit":false,"i_lat":-6.217455},{"station_id":"CUK","time":8,"line":1,"is_transit":false,"distance":1385,"station_name":"Cakung","transit":false,"i_lat":-6.219053,"i_long":106.951283},{"is_transit":false,"i_lat":-6.224515,"i_long":106.977657,"distance":3097,"station_id":"KRI","station_name":"Kranji","time":3,"transit":false,"line":1},{"i_lat":-6.236616,"time":4,"distance":2520,"i_long":106.997013,"station_id":"BKS","line":1,"is_transit":false,"transit":false,"station_name":"Bekasi"},{"is_transit":false,"time":2,"transit":false,"distance":2368,"station_id":"BKST","i_lat":-6.248029,"i_long":107.016735,"line":1,"station_name":"Bekasi Timur"},{"time":7,"transit":false,"station_id":"TB","is_transit":false,"distance":4460,"station_name":"Tambun","i_lat":-6.258864,"i_long":107.055722,"line":1},{"station_id":"CIT","station_name":"Cibitung","i_long":107.083084,"i_lat":-6.261877,"transit":false,"line":1,"distance":3420,"time":3,"is_transit":false},{"is_transit":false,"i_long":107.093313,"i_lat":-6.262938,"distance":2800,"line":1,"station_name":"Metland Telaga Murni","time":2,"transit":false,"station_id":"TLM"},{"distance":3689,"station_name":"Cikarang","i_lat":-6.2553149999999995,"i_long":107.144613,"transit":false,"line":1,"time":4,"is_transit":false,"station_id":"CKR"}],[{"station_id":"CTA","i_long":106.800298,"distance":0,"station_name":"Citayam","time":0,"i_lat":-6.448811,"line":2,"transit":false,"is_transit":false},{"time":6,"station_name":"Depok","transit":false,"is_transit":false,"station_id":"DP","distance":5084,"i_lat":-6.405256,"i_long":106.816926,"line":2},{"station_name":"Depokbaru","time":3,"i_lat":-6.391065,"distance":1584,"is_transit":false,"i_long":106.819451,"station_id":"DPB","line":2,"transit":false},{"distance":2727,"line":2,"is_transit":false,"station_id":"POC","station_name":"Pondok Cina","transit":false,"i_lat":-6.369073,"time":4,"i_long":106.831114},{"i_lat":-6.360749,"line":2,"distance":1109,"is_transit":false,"station_id":"UI","time":2,"transit":false,"station_name":"Univ. Indonesia","i_long":106.831474},{"transit":false,"is_transit":false,"time":3,"line":2,"distance":2264,"i_lat":-6.339291,"station_name":"Univ. Pancasila","i_long":106.834175,"station_id":"UP"},{"time":2,"is_transit":false,"station_name":"Lenteng Agung","i_long":106.832616,"i_lat":-6.330363,"distance":1029,"station_id":"LNA","transit":false,"line":2},{"station_id":"TNT","line":2,"time":3,"station_name":"Tanjung Barat","transit":false,"i_long":106.838896,"i_lat":-6.3080680000000005,"is_transit":false,"distance":2671},{"i_long":106.843999,"line":2,"i_lat":-6.2842400000000005,"station_id":"PSM","distance":2820,"station_name":"Pasar Minggu","transit":false,"time":4,"is_transit":false},{"line":2,"distance":2380,"station_id":"PSMB","i_long":106.851577,"i_lat":-6.263214,"time":2,"transit":false,"is_transit":false,"station_name":"Pasar Minggu Baru"},{"station_name":"Duren Kalibata","time":2,"i_long":106.85449,"transit":false,"line":2,"is_transit":false,"i_lat":-6.255332,"distance":824,"station_id":"DRN"},{"distance":1546,"station_name":"Cawang","is_transit":false,"transit":false,"station_id":"CW","i_long":106.856607,"line":2,"time":3,"i_lat":-6.242512},{"station_name":"Tebet","i_lat":-6.226659,"transit":false,"time":2,"i_long":106.857948,"line":2,"station_id":"TEB","distance":1230,"is_transit":false},{"station_name":"Manggarai","transit":false,"station_id":"MRI","i_lat":-6.209883,"i_long":106.84912,"time":4,"line":2,"is_transit":false,"distance":2610},{"distance":1590,"is_transit":false,"station_name":"Cikini","transit":false,"i_lat":-6.198556,"i_long":106.840169,"line":2,"time":4,"station_id":"CKI"},{"i_long":106.832183,"distance":1750,"time":3,"is_transit":false,"i_lat":-6.186295,"station_id":"GDD","transit":false,"line":2,"station_name":"Gondangdia"},{"i_lat":-6.166716,"i_long":106.828284,"station_id":"JUA","line":2,"is_transit":false,"transit":false,"time":4,"distance":2015,"station_name":"Juanda"},{"line":2,"transit":false,"station_name":"Sawah Besar","i_long":106.827103,"is_transit":false,"distance":1149,"time":2,"i_lat":-6.160725,"station_id":"SW"},{"i_lat":-6.149769,"transit":false,"time":2,"station_id":"MGB","distance":906,"line":2,"station_name":"Manggabesar","is_transit":false,"i_long":106.82482},{"station_name":"Jayakarta","line":2,"is_transit":false,"time":2,"i_long":106.820901,"transit":false,"i_lat":-6.141205,"station_id":"JAY","distance":1080},{"distance":1264,"is_transit":true,"line":2,"station_id":"JAKK","transit":true,"i_long":106.812439,"station_name":"Jakarta Kota","time":4,"i_lat":-6.137569},{"distance":1364,"transit":true,"time":3,"station_name":"Kampung Bandan","is_transit":true,"station_id":"KPB","i_lat":-6.132549,"i_long":106.826365,"line":4},{"i_long":106.836569,"is_transit":false,"distance":1444,"station_name":"Rajawali","station_id":"RJW","time":3,"transit":false,"line":11,"i_lat":-6.14505},{"distance":1901,"i_long":106.839204,"station_name":"Kemayoran","transit":false,"time":5,"line":11,"is_transit":false,"station_id":"KMO","i_lat":-6.161728},{"i_long":106.84368,"line":11,"distance":1436,"time":4,"station_id":"PSE","is_transit":false,"transit":false,"station_name":"Pasar Senen","i_lat":-6.174784},{"transit":false,"line":11,"station_name":"Gang Sentiong","i_lat":-6.185975,"distance":1567,"time":8,"is_transit":false,"i_long":106.850107,"station_id":"GST"},{"station_name":"Kramat","time":1,"station_id":"KMT","transit":false,"i_lat":-6.193792,"i_long":106.855437,"line":11,"is_transit":false,"distance":973},{"time":2,"transit":false,"distance":1829,"i_long":106.861737,"is_transit":false,"i_lat":-6.209188,"line":11,"station_name":"Pondok Jati","station_id":"POK"},{"transit":true,"station_id":"JNG","distance":1236,"time":9,"i_long":106.86807400000001,"is_transit":true,"line":1,"station_name":"Jatinegara","i_lat":-6.215091},{"transit":false,"distance":3395,"i_long":106.899548,"i_lat":-6.2135,"time":3,"is_transit":false,"station_id":"KLD","line":1,"station_name":"Klender"},{"station_name":"Buaran","transit":false,"distance":3100,"is_transit":false,"i_long":106.922662,"line":1,"time":2,"i_lat":-6.215568,"station_id":"BUA"},{"distance":1305,"is_transit":false,"station_name":"Klenderbaru","i_lat":-6.217455,"i_long":106.939679,"line":1,"time":1,"station_id":"KLDB","transit":false},{"station_name":"Cakung","transit":false,"line":1,"is_transit":false,"i_long":106.951283,"station_id":"CUK","distance":1385,"i_lat":-6.219053,"time":8},{"is_transit":false,"transit":false,"station_id":"KRI","line":1,"distance":3097,"i_lat":-6.224515,"time":3,"station_name":"Kranji","i_long":106.977657},{"i_lat":-6.236616,"time":4,"is_transit":false,"station_name":"Bekasi","station_id":"BKS","i_long":106.997013,"line":1,"distance":2520,"transit":false},{"station_id":"BKST","time":2,"i_long":107.016735,"transit":false,"line":1,"i_lat":-6.248029,"station_name":"Bekasi Timur","is_transit":false,"distance":2368},{"is_transit":false,"transit":false,"station_id":"TB","line":1,"distance":4460,"station_name":"Tambun","time":7,"i_lat":-6.258864,"i_long":107.055722},{"is_transit":false,"distance":3420,"station_name":"Cibitung","station_id":"CIT","i_lat":-6.261877,"time":3,"transit":false,"line":1,"i_long":107.083084},{"is_transit":false,"i_long":107.093313,"transit":false,"line":1,"distance":2800,"i_lat":-6.262938,"station_name":"Metland Telaga Murni","station_id":"TLM","time":2},{"i_long":107.144613,"i_lat":-6.2553149999999995,"station_name":"Cikarang","time":4,"line":1,"station_id":"CKR","transit":false,"distance":3689,"is_transit":false}]]}