{"data":[[{"line":2,"distance":0,"transit":false,"is_transit":false,"i_long":106.800298,"time":0,"station_id":"CTA","i_lat":-6.448811,"station_name":"Citayam"},{"time":6,"station_name":"Depok","distance":5084,"i_lat":-6.405256,"is_transit":false,"i_long":106.816926,"transit":false,"line":2,"station_id":"DP"},{"i_lat":-6.391065,"transit":false,"i_long":106.819451,"is_transit":false,"station_id":"DPB","time":3,"distance":1584,"station_name":"Depokbaru","line":2},{"time":4,"station_id":"POC","i_lat":-6.369073,"transit":false,"i_long":106.831114,"distance":2727,"line":2,"station_name":"Pondok Cina","is_transit":false},{"i_lat":-6.360749,"transit":false,"station_id":"UI","station_name":"Univ. Indonesia","distance":1109,"is_transit":false,"time":2,"i_long":106.831474,"line":2},{"i_long":106.834175,"station_name":"Univ. Pancasila","station_id":"UP","distance":2264,"i_lat":-6.339291,"is_transit":false,"transit":false,"time":3,"line":2},{"distance":1029,"line":2,"transit":false,"time":2,"station_id":"LNA","i_lat":-6.330363,"i_long":106.832616,"is_transit":false,"station_name":"Lenteng Agung"},{"station_name":"Tanjung Barat","i_lat":-6.3080680000000005,"i_long":106.838896,"distance":2671,"transit":false,"time":3,"station_id":"TNT","line":2,"is_transit":false},{"transit":false,"line":2,"station_name":"Pasar Minggu","time":4,"station_id":"PSM","i_lat":-6.2842400000000005,"is_transit":false,"distance":2820,"i_long":106.843999},{"station_name":"Pasar Minggu Baru","i_lat":-6.263214,"i_long":106.851577,"line":2,"is_transit":false,"distance":2380,"station_id":"PSMB","transit":false,"time":2},{"time":2,"i_lat":-6.255332,"distance":824,"station_name":"Duren Kalibata","transit":false,"i_long":106.85449,"line":2,"station_id":"DRN","is_transit":false},{"is_transit":false,"station_name":"Cawang","time":3,"line":2,"station_id":"CW","i_long":106.856607,"transit":false,"i_lat":-6.242512,"distance":1546},{"distance":1230,"line":2,"transit":false,"i_lat":-6.226659,"station_id":"TEB","is_transit":false,"station_name":"Tebet","i_long":106.857948,"time":2},{"i_lat":-6.209883,"line":2,"transit":true,"station_name":"Manggarai","station_id":"MRI","i_long":106.84912,"is_transit":true,"time":4,"distance":2610},{"line":1,"station_id":"MTR","distance":1275,"time":2,"i_lat":-6.212485,"is_transit":false,"station_name":"Matraman","transit":false,"i_long":106.858896}],[{"distance":0,"i_lat":-6.448811,"is_transit":false,"transit":false,"station_name":"Citayam","i_long":106.800298,"station_id":"CTA","line":2,"time":0},{"i_long":106.816926,"is_transit":false,"transit":false,"station_id":"DP","line":2,"distance":5084,"i_lat":-6.405256,"station_name":"Depok","time":6},{"station_id":"DPB","is_transit":false,"line":2,"i_long":106.819451,"i_lat":-6.391065,"transit":false,"distance":1584,"station_name":"Depokbaru","time":3},{"time":4,"i_long":106.831114,"station_id":"POC","i_lat":-6.369073,"line":2,"transit":false,"is_transit":false,"station_name":"Pondok Cina","distance":2727},{"time":2,"i_long":106.831474,"transit":false,"station_id":"UI","line":2,"distance":1109,"is_transit":false,"station_name":"Univ. Indonesia","i_lat":-6.360749},{"is_transit":false,"distance":2264,"i_long":106.834175,"line":2,"transit":false,"station_name":"Univ. Pancasila","station_id":"UP","i_lat":-6.339291,"time":3},{"is_transit":false,"transit":false,"distance":1029,"i_lat":-6.330363,"i_long":106.832616,"time":2,"station_name":"Lenteng Agung","line":2,"station_id":"LNA"},{"station_name":"Tanjung Barat","station_id":"TNT","line":2,"is_transit":false,"transit":false,"i_long":106.838896,"i_lat":-6.3080680000000005,"time":3,"distance":2671},{"station_name":"Pasar Minggu","line":2,"station_id":"PSM","distance":2820,"i_long":106.843999,"is_transit":false,"i_lat":-6.2842400000000005,"time":4,"transit":false},{"i_lat":-6.263214,"station_name":"Pasar Minggu Baru","station_id":"PSMB","transit":false,"time":2,"i_long":106.851577,"line":2,"is_transit":false,"distance":2380},{"transit":false,"station_name":"Duren Kalibata","time":2,"station_id":"DRN","is_transit":false,"distance":824,"i_lat":-6.255332,"line":2,"i_long":106.85449},{"is_transit":false,"transit":false,"i_lat":-6.242512,"station_id":"CW","i_long":106.856607,"line":2,"time":3,"distance":1546,"station_name":"Cawang"},{"distance":1230,"station_name":"Tebet","i_long":106.857948,"i_lat":-6.226659,"transit":false,"time":2,"line":2,"station_id":"TEB","is_transit":false},{"station_name":"Manggarai","line":2,"transit":true,"i_lat":-6.209883,"distance":2610,"station_id":"MRI","is_transit":true,"i_long":106.84912,"time":4},{"time":4,"i_lat":-6.202263,"is_transit":false,"station_name":"Sudirman","distance":3186,"station_id":"SUD","i_long":106.822649,"line":1,"transit":false},{"time":1,"i_long":106.819881,"line":1,"station_id":"SUDB","transit":false,"i_lat":-6.201433,"station_name":"Sudirman Baru","is_transit":false,"distance":280},{"station_name":"Karet","i_long":106.816351,"distance":471,"line":1,"is_transit":false,"transit":false,"i_lat":-6.20132,"station_id":"KAT","time":1},{"i_lat":-6.185545,"station_id":"THB","line":1,"is_transit":false,"i_long":106.811091,"transit":false,"station_name":"Tanah Abang","distance":2029,"time":5},{"station_name":"Duri","distance":3632,"transit":false,"is_transit":false,"i_long":106.800832,"line":1,"time":8,"station_id":"DU","i_lat":-6.155215},{"line":1,"time":4,"i_long":106.79867,"is_transit":false,"station_id":"AK","transit":false,"i_lat":-6.144674,"distance":1230,"station_name":"Angke"},{"station_id":"KPB","transit":true,"line":4,"is_transit":true,"i_long":106.826365,"station_name":"Kampung Bandan","time":9,"i_lat":-6.132549,"distance":4102},{"time":3,"transit":false,"station_name":"Rajawali","i_lat":-6.14505,"line":11,"distance":1444,"is_transit":false,"i_long":106.836569,"station_id":"RJW"},{"i_lat":-6.161728,"line":11,"is_transit":false,"time":5,"station_id":"KMO","distance":1901,"station_name":"Kemayoran","transit":false,"i_long":106.839204},{"is_transit":false,"transit":false,"time":4,"line":11,"station_name":"Pasar Senen","i_long":106.84368,"distance":1436,"i_lat":-6.174784,"station_id":"PSE"},{"is_transit":false,"i_lat":-6.185975,"transit":false,"time":8,"i_long":106.850107,"distance":1567,"line":11,"station_id":"GST","station_name":"Gang Sentiong"},{"is_transit":false,"transit":false,"distance":973,"station_name":"Kramat","line":11,"station_id":"KMT","time":1,"i_lat":-6.193792,"i_long":106.855437},{"distance":1829,"station_name":"Pondok Jati","i_lat":-6.209188,"time":2,"transit":false,"station_id":"POK","is_transit":false,"line":11,"i_long":106.861737},{"i_long":106.86807400000001,"transit":true,"distance":1236,"line":1,"is_transit":true,"time":9,"station_id":"JNG","i_lat":-6.215091,"station_name":"Jatinegara"},{"is_transit":false,"station_name":"Matraman","time":2,"transit":false,"i_lat":-6.212485,"i_long":106.858896,"distance":1377,"line":1,"station_id":"MTR"}],[{"time":0,"i_long":106.800298,"line":2,"distance":0,"is_transit":false,"station_name":"Citayam","station_id":"CTA","i_lat":-6.448811,"transit":false},{"is_transit":false,"i_long":106.816926,"station_name":"Depok","transit":false,"distance":5084,"time":6,"i_lat":-6.405256,"station_id":"DP","line":2},{"transit":false,"distance":1584,"time":3,"station_id":"DPB","i_long":106.819451,"line":2,"station_name":"Depokbaru","i_lat":-6.391065,"is_transit":false},{"time":4,"station_name":"Pondok Cina","is_transit":false,"distance":2727,"station_id":"POC","line":2,"transit":false,"i_lat":-6.369073,"i_long":106.831114},{"station_name":"Univ. Indonesia","distance":1109,"line":2,"is_transit":false,"time":2,"station_id":"UI","i_lat":-6.360749,"i_long":106.831474,"transit":false},{"station_id":"UP","time":3,"station_name":"Univ. Pancasila","i_lat":-6.339291,"i_long":106.834175,"distance":2264,"is_transit":false,"transit":false,"line":2},{"distance":1029,"station_name":"Lenteng Agung","is_transit":false,"i_long":106.832616,"station_id":"LNA","i_lat":-6.330363,"line":2,"transit":false,"time":2},{"transit":false,"time":3,"distance":2671,"i_lat":-6.3080680000000005,"station_name":"Tanjung Barat","i_long":106.838896,"line":2,"is_transit":false,"station_id":"TNT"},{"is_transit":false,"time":4,"transit":false,"station_id":"PSM","line":2,"i_lat":-6.2842400000000005,"i_long":106.843999,"distance":2820,"station_name":"Pasar Minggu"},{"i_lat":-6.263214,"distance":2380,"station_id":"PSMB","line":2,"transit":false,"is_transit":false,"i_long":106.851577,"station_name":"Pasar Minggu Baru","time":2},{"i_lat":-6.255332,"i_long":106.85449,"distance":824,"station_name":"Duren Kalibata","line":2,"time":2,"station_id":"DRN","is_transit":false,"transit":false},{"station_name":"Cawang","i_lat":-6.242512,"is_transit":false,"transit":false,"distance":1546,"station_id":"CW","i_long":106.856607,"time":3,"line":2},{"i_lat":-6.226659,"time":2,"station_id":"TEB","line":2,"i_long":106.857948,"transit":false,"distance":1230,"station_name":"Tebet","is_transit":false},{"transit":false,"i_long":106.84912,"is_transit":false,"station_name":"Manggarai","i_lat":-6.209883,"station_id":"MRI","distance":2610,"time":4,"line":2},{"distance":1590,"station_name":"Cikini","i_lat":-6.198556,"transit":false,"time":4,"line":2,"is_transit":false,"station_id":"CKI","i_long":106.840169},{"line":2,"station_id":"GDD","transit":false,"i_lat":-6.186295,"station_name":"Gondangdia","i_long":106.832183,"distance":1750,"is_transit":false,"time":3},{"distance":2015,"station_name":"Juanda","station_id":"JUA","i_long":106.828284,"i_lat":-6.166716,"line":2,"is_transit":false,"transit":false,"time":4},{"distance":1149,"station_name":"Sawah Besar","i_long":106.827103,"line":2,"time":2,"transit":false,"station_id":"SW","i_lat":-6.160725,"is_transit":false},{"station_name":"Manggabesar","i_lat":-6.149769,"i_long":106.82482,"time":2,"line":2,"is_transit":false,"transit":false,"station_id":"MGB","distance":906},{"i_lat":-6.141205,"i_long":106.820901,"line":2,"is_transit":false,"time":2,"station_id":"JAY","transit":false,"distance":1080,"station_name":"Jayakarta"},{"line":2,"is_transit":true,"i_lat":-6.137569,"distance":1264,"station_name":"Jakarta Kota","transit":true,"i_long":106.812439,"station_id":"JAKK","time":4},{"is_transit":true,"transit":true,"i_lat":-6.132549,"line":4,"station_name":"Kampung Bandan","time":3,"distance":1364,"i_long":106.826365,"station_id":"KPB"},{"distance":1444,"station_id":"RJW","is_transit":false,"i_long":106.836569,"transit":false,"line":11,"station_name":"Rajawali","time":3,"i_lat":-6.14505},{"station_name":"Kemayoran","i_long":106.839204,"transit":false,"line":11,"distance":1901,"station_id":"KMO","time":5,"is_transit":false,"i_lat":-6.161728},{"line":11,"station_id":"PSE","i_long":106.84368,"station_name":"Pasar Senen","time":4,"distance":1436,"transit":false,"is_transit":false,"i_lat":-6.174784},{"transit":false,"i_long":106.850107,"line":11,"i_lat":-6.185975,"station_id":"GST","is_transit":false,"station_name":"Gang Sentiong","time":8,"distance":1567},{"i_long":106.855437,"distance":973,"station_name":"Kramat","station_id":"KMT","is_transit":false,"line":11,"i_lat":-6.193792,"time":1,"transit":false},{"station_id":"POK","is_transit":false,"time":2,"station_name":"Pondok Jati","i_long":106.861737,"line":11,"i_lat":-6.209188,"transit":false,"distance":1829},{"distance":1236,"i_long":106.86807400000001,"line":1,"station_id":"JNG","time":9,"transit":true,"station_name":"Jatinegara","i_lat":-6.215091,"is_transit":true},{"station_name":"Matraman","i_long":106.858896,"station_id":"MTR","distance":1377,"i_lat":-6.212485,"time":2,"is_transit":false,"transit":false,"line":1}]]}