{"data":[[{"transit":false,"i_lat":-6.448811,"station_name":"Citayam","is_transit":true,"time":0,"line":1,"distance":0,"station_id":"CTA","i_long":106.800298},{"station_id":"DP","i_lat":-6.405256,"station_name":"Depok","distance":5084,"transit":false,"is_transit":false,"time":6,"i_long":106.816926,"line":0},{"i_lat":-6.391065,"distance":1584,"station_id":"DPB","i_long":106.819451,"station_name":"Depokbaru","transit":false,"is_transit":false,"line":0,"time":3},{"is_transit":false,"distance":2727,"transit":false,"i_long":106.831114,"station_name":"Pondok Cina","i_lat":-6.369073,"time":4,"station_id":"POC","line":2},{"time":2,"i_long":106.831474,"is_transit":false,"distance":1109,"transit":false,"line":2,"station_id":"UI","station_name":"Univ. Indonesia","i_lat":-6.360749},{"i_long":106.834175,"distance":2264,"time":3,"i_lat":-6.339291,"station_id":"UP","station_name":"Univ. Pancasila","transit":false,"is_transit":false,"line":2},{"distance":1029,"line":2,"i_lat":-6.330363,"is_transit":false,"time":2,"transit":false,"station_name":"Lenteng Agung","i_long":106.832616,"station_id":"LNA"},{"transit":false,"distance":2671,"i_lat":-6.3080680000000005,"station_id":"TNT","station_name":"Tanjung Barat","time":3,"i_long":106.838896,"line":2,"is_transit":false},{"time":4,"station_name":"Pasar Minggu","distance":2820,"line":2,"station_id":"PSM","i_lat":-6.2842400000000005,"is_transit":false,"transit":false,"i_long":106.843999},{"time":2,"i_long":106.851577,"distance":2380,"station_id":"PSMB","transit":false,"station_name":"Pasar Minggu Baru","i_lat":-6.263214,"line":2,"is_transit":false},{"distance":824,"station_name":"Duren Kalibata","i_lat":-6.255332,"station_id":"DRN","time":2,"transit":false,"is_transit":false,"line":0,"i_long":106.85449},{"i_lat":-6.242512,"time":3,"distance":1546,"station_name":"Cawang","transit":false,"station_id":"CW","is_transit":false,"line":0,"i_long":106.856607},{"time":2,"is_transit":false,"i_lat":-6.226659,"station_id":"TEB","transit":false,"distance":1230,"station_name":"Tebet","i_long":106.857948,"line":2},{"transit":true,"is_transit":true,"distance":2610,"station_name":"Manggarai","time":4,"line":0,"station_id":"MRI","i_lat":-6.209883,"i_long":106.84912},{"distance":1275,"time":2,"station_id":"MTR","is_transit":false,"i_long":106.858896,"i_lat":-6.212485,"station_name":"Matraman","line":1,"transit":false},{"distance":1377,"time":8,"transit":true,"is_transit":true,"i_lat":-6.215091,"station_name":"Jatinegara","i_long":106.86807400000001,"line":0,"station_id":"JNG"},{"line":11,"station_id":"POK","time":2,"is_transit":false,"transit":false,"i_long":106.861737,"station_name":"Pondok Jati","distance":1236,"i_lat":-6.209188},{"station_id":"KMT","station_name":"Kramat","distance":1829,"time":2,"i_long":106.855437,"is_transit":false,"line":11,"transit":false,"i_lat":-6.193792},{"time":1,"i_lat":-6.185975,"station_name":"Gang Sentiong","station_id":"GST","is_transit":false,"distance":973,"i_long":106.850107,"line":11,"transit":false}],[{"distance":0,"i_long":106.800298,"i_lat":-6.448811,"is_transit":true,"time":0,"line":1,"station_name":"Citayam","transit":false,"station_id":"CTA"},{"transit":false,"i_lat":-6.405256,"time":6,"distance":5084,"station_name":"Depok","i_long":106.816926,"station_id":"DP","is_transit":false,"line":0},{"is_transit":false,"transit":false,"distance":1584,"i_long":106.819451,"station_id":"DPB","line":0,"station_name":"Depokbaru","i_lat":-6.391065,"time":3},{"is_transit":false,"transit":false,"line":2,"distance":2727,"i_lat":-6.369073,"i_long":106.831114,"station_id":"POC","time":4,"station_name":"Pondok Cina"},{"distance":1109,"i_long":106.831474,"station_id":"UI","station_name":"Univ. Indonesia","transit":false,"time":2,"i_lat":-6.360749,"line":2,"is_transit":false},{"station_name":"Univ. Pancasila","i_long":106.834175,"time":3,"i_lat":-6.339291,"distance":2264,"transit":false,"is_transit":false,"line":2,"station_id":"UP"},{"line":2,"is_transit":false,"i_lat":-6.330363,"station_name":"Lenteng Agung","transit":false,"station_id":"LNA","distance":1029,"time":2,"i_long":106.832616},{"i_long":106.838896,"line":2,"station_id":"TNT","time":3,"distance":2671,"i_lat":-6.3080680000000005,"transit":false,"is_transit":false,"station_name":"Tanjung Barat"},{"station_id":"PSM","time":4,"station_name":"Pasar Minggu","is_transit":false,"i_lat":-6.2842400000000005,"line":2,"transit":false,"distance":2820,"i_long":106.843999},{"is_transit":false,"time":2,"i_lat":-6.263214,"i_long":106.851577,"distance":2380,"line":2,"station_id":"PSMB","transit":false,"station_name":"Pasar Minggu Baru"},{"line":0,"is_transit":false,"distance":824,"i_long":106.85449,"station_id":"DRN","i_lat":-6.255332,"station_name":"Duren Kalibata","transit":false,"time":2},{"distance":1546,"i_long":106.856607,"time":3,"is_transit":false,"station_id":"CW","i_lat":-6.242512,"line":0,"station_name":"Cawang","transit":false},{"distance":1230,"i_long":106.857948,"is_transit":false,"time":2,"transit":false,"station_name":"Tebet","station_id":"TEB","i_lat":-6.226659,"line":2},{"station_name":"Manggarai","distance":2610,"i_long":106.84912,"line":0,"transit":true,"is_transit":true,"time":4,"station_id":"MRI","i_lat":-6.209883},{"station_id":"SUD","is_transit":false,"station_name":"Sudirman","i_long":106.822649,"line":1,"i_lat":-6.202263,"time":4,"transit":false,"distance":3186},{"transit":false,"distance":280,"is_transit":false,"line":1,"i_lat":-6.201433,"station_id":"SUDB","time":1,"i_long":106.819881,"station_name":"Sudirman Baru"},{"station_name":"Karet","is_transit":false,"i_lat":-6.20132,"line":1,"distance":471,"time":1,"station_id":"KAT","transit":false,"i_long":106.816351},{"station_name":"Tanah Abang","time":5,"i_lat":-6.185545,"is_transit":true,"distance":2029,"transit":false,"line":1,"i_long":106.811091,"station_id":"THB"},{"distance":3632,"is_transit":true,"line":1,"transit":true,"station_name":"Duri","time":8,"i_lat":-6.155215,"i_long":106.800832,"station_id":"DU"},{"station_id":"AK","is_transit":false,"time":4,"line":0,"transit":false,"i_lat":-6.144674,"station_name":"Angke","i_long":106.79867,"distance":1230},{"is_transit":true,"i_lat":-6.132549,"i_long":106.826365,"line":0,"distance":4102,"station_name":"Kampung Bandan","time":9,"station_id":"KPB","transit":true},{"station_name":"Rajawali","distance":1444,"i_long":106.836569,"line":11,"transit":false,"time":3,"i_lat":-6.14505,"is_transit":false,"station_id":"RJW"},{"time":5,"distance":1901,"transit":false,"line":11,"station_id":"KMO","station_name":"Kemayoran","i_lat":-6.161728,"i_long":106.839204,"is_transit":false},{"transit":false,"i_lat":-6.174784,"is_transit":false,"station_name":"Pasar Senen","distance":1436,"station_id":"PSE","i_long":106.84368,"time":4,"line":11},{"station_id":"GST","time":8,"station_name":"Gang Sentiong","line":11,"transit":false,"distance":1567,"i_lat":-6.185975,"i_long":106.850107,"is_transit":false}],[{"time":0,"i_lat":-6.448811,"line":1,"station_name":"Citayam","station_id":"CTA","transit":false,"is_transit":true,"i_long":106.800298,"distance":0},{"station_name":"Depok","transit":false,"is_transit":false,"i_lat":-6.405256,"line":0,"time":6,"distance":5084,"i_long":106.816926,"station_id":"DP"},{"time":3,"station_name":"Depokbaru","i_long":106.819451,"transit":false,"station_id":"DPB","is_transit":false,"line":0,"distance":1584,"i_lat":-6.391065},{"station_name":"Pondok Cina","time":4,"distance":2727,"line":2,"station_id":"POC","transit":false,"i_lat":-6.369073,"i_long":106.831114,"is_transit":false},{"is_transit":false,"i_long":106.831474,"time":2,"transit":false,"line":2,"station_name":"Univ. Indonesia","distance":1109,"station_id":"UI","i_lat":-6.360749},{"line":2,"i_lat":-6.339291,"i_long":106.834175,"station_id":"UP","is_transit":false,"transit":false,"time":3,"station_name":"Univ. Pancasila","distance":2264},{"distance":1029,"i_long":106.832616,"i_lat":-6.330363,"station_id":"LNA","line":2,"time":2,"station_name":"Lenteng Agung","transit":false,"is_transit":false},{"i_long":106.838896,"station_name":"Tanjung Barat","station_id":"TNT","transit":false,"time":3,"is_transit":false,"distance":2671,"i_lat":-6.3080680000000005,"line":2},{"line":2,"is_transit":false,"station_id":"PSM","time":4,"i_lat":-6.2842400000000005,"transit":false,"station_name":"Pasar Minggu","i_long":106.843999,"distance":2820},{"station_name":"Pasar Minggu Baru","i_long":106.851577,"is_transit":false,"time":2,"station_id":"PSMB","i_lat":-6.263214,"line":2,"distance":2380,"transit":false},{"line":0,"time":2,"station_id":"DRN","distance":824,"transit":false,"station_name":"Duren Kalibata","i_long":106.85449,"is_transit":false,"i_lat":-6.255332},{"distance":1546,"time":3,"transit":false,"i_long":106.856607,"station_id":"CW","station_name":"Cawang","is_transit":false,"i_lat":-6.242512,"line":0},{"i_lat":-6.226659,"station_id":"TEB","station_name":"Tebet","is_transit":false,"distance":1230,"time":2,"transit":false,"i_long":106.857948,"line":2},{"transit":true,"distance":2610,"i_lat":-6.209883,"time":4,"station_id":"MRI","line":0,"i_long":106.84912,"station_name":"Manggarai","is_transit":true},{"i_long":106.840169,"line":0,"is_transit":false,"time":4,"i_lat":-6.198556,"station_id":"CKI","distance":1590,"transit":false,"station_name":"Cikini"},{"transit":false,"is_transit":false,"distance":1750,"i_long":106.832183,"station_id":"GDD","station_name":"Gondangdia","line":2,"i_lat":-6.186295,"time":3},{"is_transit":false,"time":4,"station_name":"Juanda","i_long":106.828284,"line":2,"station_id":"JUA","distance":2015,"i_lat":-6.166716,"transit":false},{"station_name":"Sawah Besar","is_transit":false,"distance":1149,"i_lat":-6.160725,"i_long":106.827103,"line":2,"time":2,"station_id":"SW","transit":false},{"station_name":"Manggabesar","time":2,"i_lat":-6.149769,"is_transit":false,"distance":906,"i_long":106.82482,"line":2,"station_id":"MGB","transit":false},{"line":7,"station_name":"Jayakarta","distance":1080,"i_lat":-6.141205,"station_id":"JAY","time":2,"transit":false,"is_transit":false,"i_long":106.820901},{"time":4,"is_transit":true,"distance":1264,"line":0,"station_id":"JAKK","transit":true,"i_lat":-6.137569,"station_name":"Jakarta Kota","i_long":106.812439},{"line":0,"is_transit":true,"transit":true,"distance":1364,"time":3,"i_lat":-6.132549,"station_id":"KPB","station_name":"Kampung Bandan","i_long":106.826365},{"station_id":"RJW","i_lat":-6.14505,"time":3,"station_name":"Rajawali","distance":1444,"i_long":106.836569,"line":11,"transit":false,"is_transit":false},{"line":11,"i_lat":-6.161728,"station_name":"Kemayoran","transit":false,"is_transit":false,"i_long":106.839204,"time":5,"distance":1901,"station_id":"KMO"},{"line":11,"station_id":"PSE","transit":false,"i_lat":-6.174784,"i_long":106.84368,"station_name":"Pasar Senen","is_transit":false,"time":4,"distance":1436},{"time":8,"station_id":"GST","transit":false,"is_transit":false,"i_long":106.850107,"distance":1567,"line":11,"i_lat":-6.185975,"station_name":"Gang Sentiong"}]]}