{"data":[[{"is_transit":false,"transit":false,"time":0,"distance":0,"line":2,"station_name":"Citayam","station_id":"CTA","i_long":106.800298,"i_lat":-6.448811},{"transit":false,"i_lat":-6.405256,"is_transit":false,"station_name":"Depok","time":6,"station_id":"DP","line":2,"i_long":106.816926,"distance":5084},{"distance":1584,"i_long":106.819451,"is_transit":false,"transit":false,"station_id":"DPB","time":3,"station_name":"Depokbaru","i_lat":-6.391065,"line":2},{"station_name":"Pondok Cina","i_lat":-6.369073,"line":2,"is_transit":false,"station_id":"POC","distance":2727,"transit":false,"i_long":106.831114,"time":4},{"is_transit":false,"i_long":106.831474,"station_name":"Univ. Indonesia","transit":false,"station_id":"UI","distance":1109,"i_lat":-6.360749,"time":2,"line":2},{"i_lat":-6.339291,"distance":2264,"is_transit":false,"line":2,"station_id":"UP","i_long":106.834175,"time":3,"station_name":"Univ. Pancasila","transit":false},{"time":2,"i_long":106.832616,"distance":1029,"station_name":"Lenteng Agung","i_lat":-6.330363,"line":2,"station_id":"LNA","is_transit":false,"transit":false},{"i_lat":-6.3080680000000005,"distance":2671,"station_name":"Tanjung Barat","line":2,"transit":false,"is_transit":false,"i_long":106.838896,"time":3,"station_id":"TNT"},{"line":2,"distance":2820,"i_lat":-6.2842400000000005,"is_transit":false,"station_name":"Pasar Minggu","time":4,"station_id":"PSM","transit":false,"i_long":106.843999},{"station_id":"PSMB","distance":2380,"i_lat":-6.263214,"is_transit":false,"time":2,"transit":false,"i_long":106.851577,"line":2,"station_name":"Pasar Minggu Baru"},{"station_name":"Duren Kalibata","time":2,"distance":824,"station_id":"DRN","transit":false,"i_long":106.85449,"is_transit":false,"i_lat":-6.255332,"line":2},{"distance":1546,"i_lat":-6.242512,"station_id":"CW","is_transit":false,"station_name":"Cawang","transit":false,"i_long":106.856607,"line":2,"time":3},{"i_long":106.857948,"distance":1230,"is_transit":false,"transit":false,"station_id":"TEB","i_lat":-6.226659,"station_name":"Tebet","line":2,"time":2},{"i_lat":-6.209883,"distance":2610,"line":2,"station_id":"MRI","transit":true,"is_transit":true,"station_name":"Manggarai","i_long":106.84912,"time":4},{"line":1,"station_name":"Sudirman","station_id":"SUD","time":4,"transit":false,"distance":3186,"is_transit":false,"i_long":106.822649,"i_lat":-6.202263},{"is_transit":false,"time":1,"distance":280,"line":1,"station_name":"Sudirman Baru","i_long":106.819881,"station_id":"SUDB","i_lat":-6.201433,"transit":false},{"distance":471,"transit":false,"i_long":106.816351,"time":1,"station_id":"KAT","station_name":"Karet","i_lat":-6.20132,"line":1,"is_transit":false},{"time":5,"distance":2029,"line":1,"transit":false,"station_id":"THB","station_name":"Tanah Abang","is_transit":false,"i_long":106.811091,"i_lat":-6.185545},{"time":8,"transit":true,"is_transit":true,"i_lat":-6.155215,"distance":3632,"line":1,"i_long":106.800832,"station_id":"DU","station_name":"Duri"},{"time":3,"station_id":"GGL","station_name":"Grogol","line":5,"transit":false,"i_lat":-6.162021,"distance":1700,"is_transit":false,"i_long":106.788277},{"i_long":106.771379,"distance":2036,"line":5,"is_transit":false,"time":2,"station_id":"PSG","i_lat":-6.161433,"station_name":"Pesing","transit":false},{"is_transit":false,"time":2,"i_long":106.756522,"i_lat":-6.1587309999999995,"station_name":"Taman Kota","distance":1614,"station_id":"TKO","line":5,"transit":false},{"line":5,"distance":2334,"is_transit":false,"station_name":"Bojongindah","i_long":106.737035,"time":2,"transit":false,"station_id":"BOI","i_lat":-6.159876},{"distance":1152,"i_lat":-6.162758,"transit":false,"station_id":"RW","time":4,"is_transit":false,"i_long":106.723064,"line":5,"station_name":"Rawa Buaya"},{"i_lat":-6.166068,"line":5,"station_name":"Kalideres","time":3,"distance":2504,"station_id":"KDS","is_transit":false,"i_long":106.701612,"transit":false},{"i_lat":-6.169933,"distance":2548,"is_transit":false,"i_long":106.679458,"time":3,"transit":false,"line":5,"station_name":"Poris","station_id":"PI"},{"i_long":106.665036,"line":5,"is_transit":false,"station_id":"BPR","i_lat":-6.171811,"distance":1834,"transit":false,"time":3,"station_name":"Batuceper"},{"is_transit":false,"i_lat":-6.17331,"transit":false,"station_name":"Tanah Tinggi","time":3,"distance":2028,"station_id":"TTI","i_long":106.64657,"line":5},{"is_transit":false,"time":3,"transit":false,"line":5,"station_name":"Tangerang","distance":1547,"station_id":"TNG","i_lat":-6.176583,"i_long":106.632761}],[{"i_long":106.800298,"time":0,"is_transit":false,"distance":0,"station_id":"CTA","i_lat":-6.448811,"line":2,"station_name":"Citayam","transit":false},{"i_lat":-6.405256,"station_id":"DP","i_long":106.816926,"line":2,"time":6,"is_transit":false,"transit":false,"station_name":"Depok","distance":5084},{"is_transit":false,"station_name":"Depokbaru","i_long":106.819451,"line":2,"transit":false,"distance":1584,"i_lat":-6.391065,"station_id":"DPB","time":3},{"station_id":"POC","time":4,"station_name":"Pondok Cina","transit":false,"distance":2727,"i_long":106.831114,"is_transit":false,"line":2,"i_lat":-6.369073},{"station_name":"Univ. Indonesia","time":2,"station_id":"UI","is_transit":false,"i_long":106.831474,"line":2,"i_lat":-6.360749,"distance":1109,"transit":false},{"time":3,"i_lat":-6.339291,"station_id":"UP","i_long":106.834175,"distance":2264,"station_name":"Univ. Pancasila","is_transit":false,"transit":false,"line":2},{"transit":false,"is_transit":false,"station_id":"LNA","line":2,"time":2,"distance":1029,"i_lat":-6.330363,"station_name":"Lenteng Agung","i_long":106.832616},{"distance":2671,"line":2,"i_lat":-6.3080680000000005,"transit":false,"i_long":106.838896,"time":3,"station_name":"Tanjung Barat","is_transit":false,"station_id":"TNT"},{"transit":false,"station_id":"PSM","i_lat":-6.2842400000000005,"distance":2820,"i_long":106.843999,"station_name":"Pasar Minggu","time":4,"is_transit":false,"line":2},{"i_long":106.851577,"i_lat":-6.263214,"transit":false,"distance":2380,"station_name":"Pasar Minggu Baru","line":2,"time":2,"station_id":"PSMB","is_transit":false},{"station_name":"Duren Kalibata","i_lat":-6.255332,"transit":false,"is_transit":false,"line":2,"i_long":106.85449,"distance":824,"time":2,"station_id":"DRN"},{"is_transit":false,"transit":false,"i_long":106.856607,"line":2,"time":3,"station_id":"CW","station_name":"Cawang","distance":1546,"i_lat":-6.242512},{"i_lat":-6.226659,"is_transit":false,"station_id":"TEB","i_long":106.857948,"station_name":"Tebet","line":2,"distance":1230,"time":2,"transit":false},{"transit":false,"distance":2610,"station_id":"MRI","i_long":106.84912,"line":2,"i_lat":-6.209883,"time":4,"is_transit":false,"station_name":"Manggarai"},{"distance":1590,"i_lat":-6.198556,"is_transit":false,"station_id":"CKI","i_long":106.840169,"line":2,"station_name":"Cikini","time":4,"transit":false},{"i_lat":-6.186295,"is_transit":false,"station_id":"GDD","distance":1750,"i_long":106.832183,"line":2,"station_name":"Gondangdia","time":3,"transit":false},{"time":4,"is_transit":false,"i_long":106.828284,"transit":false,"station_name":"Juanda","distance":2015,"station_id":"JUA","i_lat":-6.166716,"line":2},{"transit":false,"i_long":106.827103,"station_name":"Sawah Besar","time":2,"i_lat":-6.160725,"station_id":"SW","is_transit":false,"line":2,"distance":1149},{"station_name":"Manggabesar","distance":906,"transit":false,"time":2,"is_transit":false,"i_lat":-6.149769,"i_long":106.82482,"station_id":"MGB","line":2},{"is_transit":false,"distance":1080,"transit":false,"i_lat":-6.141205,"line":2,"time":2,"station_id":"JAY","i_long":106.820901,"station_name":"Jayakarta"},{"station_id":"JAKK","i_long":106.812439,"i_lat":-6.137569,"line":2,"distance":1264,"transit":true,"station_name":"Jakarta Kota","time":4,"is_transit":true},{"time":3,"station_name":"Kampung Bandan","distance":1364,"i_long":106.826365,"transit":true,"line":4,"station_id":"KPB","is_transit":true,"i_lat":-6.132549},{"distance":4102,"i_long":106.79867,"is_transit":false,"line":1,"station_name":"Angke","transit":false,"station_id":"AK","i_lat":-6.144674,"time":9},{"station_id":"DU","distance":1230,"i_lat":-6.155215,"station_name":"Duri","time":4,"transit":true,"is_transit":true,"i_long":106.800832,"line":1},{"is_transit":false,"time":3,"station_name":"Grogol","line":5,"transit":false,"i_long":106.788277,"station_id":"GGL","i_lat":-6.162021,"distance":1700},{"i_lat":-6.161433,"time":2,"distance":2036,"i_long":106.771379,"station_id":"PSG","line":5,"transit":false,"station_name":"Pesing","is_transit":false},{"i_lat":-6.1587309999999995,"station_name":"Taman Kota","transit":false,"line":5,"time":2,"i_long":106.756522,"station_id":"TKO","distance":1614,"is_transit":false},{"i_long":106.737035,"station_name":"Bojongindah","transit":false,"line":5,"time":2,"distance":2334,"is_transit":false,"station_id":"BOI","i_lat":-6.159876},{"is_transit":false,"line":5,"transit":false,"time":4,"distance":1152,"i_lat":-6.162758,"station_name":"Rawa Buaya","i_long":106.723064,"station_id":"RW"},{"line":5,"station_name":"Kalideres","transit":false,"i_long":106.701612,"station_id":"KDS","i_lat":-6.166068,"distance":2504,"time":3,"is_transit":false},{"line":5,"station_name":"Poris","i_lat":-6.169933,"time":3,"station_id":"PI","i_long":106.679458,"distance":2548,"transit":false,"is_transit":false},{"i_lat":-6.171811,"station_name":"Batuceper","is_transit":false,"distance":1834,"line":5,"i_long":106.665036,"transit":false,"time":3,"station_id":"BPR"},{"i_lat":-6.17331,"is_transit":false,"transit":false,"station_id":"TTI","i_long":106.64657,"station_name":"Tanah Tinggi","distance":2028,"line":5,"time":3},{"station_name":"Tangerang","transit":false,"is_transit":false,"line":5,"station_id":"TNG","i_lat":-6.176583,"i_long":106.632761,"time":3,"distance":1547}],[{"station_name":"Citayam","is_transit":false,"station_id":"CTA","i_long":106.800298,"distance":0,"transit":false,"line":2,"i_lat":-6.448811,"time":0},{"time":6,"i_lat":-6.405256,"station_name":"Depok","station_id":"DP","is_transit":false,"i_long":106.816926,"transit":false,"distance":5084,"line":2},{"transit":false,"station_id":"DPB","i_long":106.819451,"i_lat":-6.391065,"distance":1584,"is_transit":false,"station_name":"Depokbaru","time":3,"line":2},{"transit":false,"station_name":"Pondok Cina","i_lat":-6.369073,"i_long":106.831114,"distance":2727,"station_id":"POC","is_transit":false,"line":2,"time":4},{"transit":false,"time":2,"line":2,"is_transit":false,"distance":1109,"station_name":"Univ. Indonesia","station_id":"UI","i_lat":-6.360749,"i_long":106.831474},{"station_id":"UP","time":3,"line":2,"is_transit":false,"transit":false,"i_long":106.834175,"distance":2264,"i_lat":-6.339291,"station_name":"Univ. Pancasila"},{"is_transit":false,"line":2,"transit":false,"station_id":"LNA","time":2,"distance":1029,"i_long":106.832616,"station_name":"Lenteng Agung","i_lat":-6.330363},{"i_lat":-6.3080680000000005,"transit":false,"distance":2671,"is_transit":false,"line":2,"station_name":"Tanjung Barat","time":3,"i_long":106.838896,"station_id":"TNT"},{"station_id":"PSM","transit":false,"i_long":106.843999,"is_transit":false,"line":2,"station_name":"Pasar Minggu","time":4,"distance":2820,"i_lat":-6.2842400000000005},{"distance":2380,"station_name":"Pasar Minggu Baru","line":2,"transit":false,"station_id":"PSMB","i_lat":-6.263214,"time":2,"i_long":106.851577,"is_transit":false},{"station_name":"Duren Kalibata","i_lat":-6.255332,"distance":824,"is_transit":false,"time":2,"transit":false,"station_id":"DRN","i_long":106.85449,"line":2},{"station_id":"CW","i_long":106.856607,"is_transit":false,"line":2,"time":3,"i_lat":-6.242512,"transit":false,"station_name":"Cawang","distance":1546},{"station_name":"Tebet","station_id":"TEB","i_lat":-6.226659,"distance":1230,"is_transit":false,"time":2,"i_long":106.857948,"transit":false,"line":2},{"i_long":106.84912,"station_id":"MRI","distance":2610,"station_name":"Manggarai","is_transit":true,"transit":true,"time":4,"i_lat":-6.209883,"line":2},{"station_name":"Matraman","time":2,"i_long":106.858896,"distance":1275,"transit":false,"station_id":"MTR","i_lat":-6.212485,"line":1,"is_transit":false},{"station_id":"JNG","station_name":"Jatinegara","line":1,"i_lat":-6.215091,"i_long":106.86807400000001,"time":8,"distance":1377,"is_transit":true,"transit":true},{"station_name":"Pondok Jati","time":2,"line":11,"transit":false,"is_transit":false,"distance":1236,"station_id":"POK","i_lat":-6.209188,"i_long":106.861737},{"is_transit":false,"station_id":"KMT","i_lat":-6.193792,"i_long":106.855437,"line":11,"station_name":"Kramat","transit":false,"time":2,"distance":1829},{"station_name":"Gang Sentiong","i_long":106.850107,"time":1,"station_id":"GST","i_lat":-6.185975,"distance":973,"transit":false,"is_transit":false,"line":11},{"is_transit":false,"station_id":"PSE","line":11,"i_long":106.84368,"i_lat":-6.174784,"distance":1567,"station_name":"Pasar Senen","time":8,"transit":false},{"time":4,"is_transit":false,"station_name":"Kemayoran","transit":false,"station_id":"KMO","i_lat":-6.161728,"i_long":106.839204,"line":11,"distance":1436},{"i_long":106.836569,"is_transit":false,"station_name":"Rajawali","time":5,"station_id":"RJW","i_lat":-6.14505,"line":11,"distance":1901,"transit":false},{"line":4,"station_id":"KPB","time":3,"i_long":106.826365,"distance":1444,"station_name":"Kampung Bandan","i_lat":-6.132549,"transit":true,"is_transit":true},{"time":9,"transit":false,"distance":4102,"station_id":"AK","line":1,"i_lat":-6.144674,"i_long":106.79867,"station_name":"Angke","is_transit":false},{"i_long":106.800832,"time":4,"distance":1230,"is_transit":true,"i_lat":-6.155215,"station_id":"DU","line":1,"station_name":"Duri","transit":true},{"i_lat":-6.162021,"i_long":106.788277,"station_name":"Grogol","time":3,"distance":1700,"transit":false,"is_transit":false,"station_id":"GGL","line":5},{"station_id":"PSG","station_name":"Pesing","i_long":106.771379,"time":2,"transit":false,"distance":2036,"i_lat":-6.161433,"is_transit":false,"line":5},{"i_long":106.756522,"line":5,"transit":false,"distance":1614,"station_id":"TKO","station_name":"Taman Kota","time":2,"is_transit":false,"i_lat":-6.1587309999999995},{"is_transit":false,"line":5,"station_id":"BOI","station_name":"Bojongindah","time":2,"transit":false,"distance":2334,"i_lat":-6.159876,"i_long":106.737035},{"i_lat":-6.162758,"i_long":106.723064,"time":4,"station_name":"Rawa Buaya","station_id":"RW","is_transit":false,"transit":false,"distance":1152,"line":5},{"is_transit":false,"station_id":"KDS","i_lat":-6.166068,"line":5,"transit":false,"distance":2504,"i_long":106.701612,"station_name":"Kalideres","time":3},{"station_id":"PI","station_name":"Poris","transit":false,"distance":2548,"is_transit":false,"time":3,"i_lat":-6.169933,"i_long":106.679458,"line":5},{"transit":false,"i_lat":-6.171811,"i_long":106.665036,"time":3,"is_transit":false,"line":5,"station_name":"Batuceper","distance":1834,"station_id":"BPR"},{"transit":false,"line":5,"i_lat":-6.17331,"station_id":"TTI","time":3,"station_name":"Tanah Tinggi","distance":2028,"is_transit":false,"i_long":106.64657},{"i_long":106.632761,"station_name":"Tangerang","station_id":"TNG","distance":1547,"is_transit":false,"i_lat":-6.176583,"transit":false,"time":3,"line":5}]]}