{"data":[[{"distance":0,"station_name":"Citayam","transit":false,"line":2,"is_transit":false,"time":0,"i_long":106.800298,"station_id":"CTA","i_lat":-6.448811},{"station_name":"Depok","distance":5084,"transit":false,"station_id":"DP","is_transit":false,"time":6,"i_lat":-6.405256,"i_long":106.816926,"line":2},{"line":2,"time":3,"station_id":"DPB","distance":1584,"transit":false,"station_name":"Depokbaru","is_transit":false,"i_lat":-6.391065,"i_long":106.819451},{"line":2,"distance":2727,"time":4,"i_lat":-6.369073,"station_id":"POC","is_transit":false,"station_name":"Pondok Cina","i_long":106.831114,"transit":false},{"is_transit":false,"station_id":"UI","i_lat":-6.360749,"station_name":"Univ. Indonesia","distance":1109,"transit":false,"time":2,"i_long":106.831474,"line":2},{"station_id":"UP","time":3,"i_lat":-6.339291,"station_name":"Univ. Pancasila","distance":2264,"is_transit":false,"line":2,"i_long":106.834175,"transit":false},{"time":2,"line":2,"is_transit":false,"i_long":106.832616,"station_id":"LNA","station_name":"Lenteng Agung","distance":1029,"transit":false,"i_lat":-6.330363},{"line":2,"i_lat":-6.3080680000000005,"station_id":"TNT","transit":false,"distance":2671,"is_transit":false,"time":3,"station_name":"Tanjung Barat","i_long":106.838896},{"line":2,"station_name":"Pasar Minggu","station_id":"PSM","is_transit":false,"i_long":106.843999,"transit":false,"time":4,"i_lat":-6.2842400000000005,"distance":2820},{"station_name":"Pasar Minggu Baru","distance":2380,"station_id":"PSMB","is_transit":false,"i_long":106.851577,"transit":false,"time":2,"line":2,"i_lat":-6.263214},{"is_transit":false,"i_long":106.85449,"distance":824,"station_name":"Duren Kalibata","station_id":"DRN","time":2,"i_lat":-6.255332,"line":2,"transit":false},{"distance":1546,"station_id":"CW","time":3,"i_lat":-6.242512,"is_transit":false,"line":2,"station_name":"Cawang","transit":false,"i_long":106.856607},{"time":2,"i_long":106.857948,"distance":1230,"is_transit":false,"transit":false,"station_id":"TEB","station_name":"Tebet","i_lat":-6.226659,"line":2},{"time":4,"distance":2610,"i_long":106.84912,"i_lat":-6.209883,"is_transit":true,"station_id":"MRI","transit":true,"station_name":"Manggarai","line":2},{"station_id":"SUD","transit":false,"i_long":106.822649,"station_name":"Sudirman","distance":3186,"time":4,"line":1,"i_lat":-6.202263,"is_transit":false},{"time":1,"i_lat":-6.201433,"station_name":"Sudirman Baru","is_transit":false,"i_long":106.819881,"distance":280,"station_id":"SUDB","line":1,"transit":false},{"time":1,"i_lat":-6.20132,"distance":471,"i_long":106.816351,"is_transit":false,"station_id":"KAT","transit":false,"station_name":"Karet","line":1},{"i_long":106.811091,"i_lat":-6.185545,"is_transit":true,"transit":true,"line":1,"distance":2029,"station_id":"THB","time":5,"station_name":"Tanah Abang"},{"is_transit":false,"i_long":106.79689,"i_lat":-6.207404,"station_id":"PLM","distance":3191,"line":6,"transit":false,"station_name":"Palmerah","time":6},{"station_name":"Kebayoran","transit":false,"time":7,"i_long":106.780334,"station_id":"KBY","is_transit":false,"i_lat":-6.237242,"distance":3737,"line":6},{"i_long":106.74273,"transit":false,"distance":6218,"line":6,"i_lat":-6.276362,"station_name":"Pondokranji","station_id":"PDJ","is_transit":false,"time":8},{"distance":2179,"i_lat":-6.288927,"transit":false,"station_name":"Jurangmangu","time":3,"line":6,"station_id":"JMU","is_transit":false,"i_long":106.728916},{"i_long":106.712277,"i_lat":-6.296963,"is_transit":false,"station_name":"Sudimara","distance":1994,"station_id":"SDM","transit":false,"line":6,"time":4},{"station_id":"RU","line":6,"is_transit":false,"time":6,"transit":false,"i_long":106.675475,"station_name":"Rawa Buntu","distance":4566,"i_lat":-6.314823},{"is_transit":false,"distance":2413,"station_id":"SRP","station_name":"Serpong","time":4,"i_long":106.66566,"transit":false,"i_lat":-6.319871,"line":6},{"station_id":"CSK","time":4,"transit":false,"i_lat":-6.32484,"i_long":106.640411,"line":3,"distance":1784,"station_name":"Cisauk","is_transit":false},{"time":4,"line":3,"distance":2519,"station_id":"CC","i_long":106.617853,"transit":false,"i_lat":-6.329547,"station_name":"Cicayur","is_transit":false},{"i_long":106.568863,"station_id":"PRP","i_lat":-6.3441410000000005,"transit":false,"time":8,"is_transit":false,"distance":5968,"line":6,"station_name":"Parung Panjang"},{"transit":false,"i_long":106.508482,"line":3,"distance":7025,"is_transit":false,"station_id":"CJT","time":9,"station_name":"Cilejit","i_lat":-6.354349},{"is_transit":false,"transit":false,"time":6,"i_lat":-6.338021,"station_name":"Daru","line":0,"distance":2675,"station_id":"DAR","i_long":106.491338},{"station_id":"TEJ","is_transit":false,"i_lat":-6.327251,"time":5,"distance":3902,"transit":false,"i_long":106.460812,"line":6,"station_name":"Tenjo"}],[{"distance":0,"time":0,"is_transit":false,"i_lat":-6.448811,"transit":false,"i_long":106.800298,"station_id":"CTA","station_name":"Citayam","line":2},{"station_id":"DP","transit":false,"station_name":"Depok","time":6,"i_lat":-6.405256,"line":2,"is_transit":false,"distance":5084,"i_long":106.816926},{"transit":false,"is_transit":false,"station_name":"Depokbaru","time":3,"distance":1584,"station_id":"DPB","i_lat":-6.391065,"line":2,"i_long":106.819451},{"station_name":"Pondok Cina","is_transit":false,"distance":2727,"time":4,"line":2,"transit":false,"i_lat":-6.369073,"station_id":"POC","i_long":106.831114},{"is_transit":false,"i_lat":-6.360749,"i_long":106.831474,"line":2,"station_id":"UI","distance":1109,"station_name":"Univ. Indonesia","transit":false,"time":2},{"line":2,"i_lat":-6.339291,"station_name":"Univ. Pancasila","distance":2264,"is_transit":false,"transit":false,"station_id":"UP","i_long":106.834175,"time":3},{"station_id":"LNA","transit":false,"station_name":"Lenteng Agung","i_lat":-6.330363,"i_long":106.832616,"is_transit":false,"distance":1029,"time":2,"line":2},{"station_id":"TNT","is_transit":false,"time":3,"station_name":"Tanjung Barat","distance":2671,"i_lat":-6.3080680000000005,"i_long":106.838896,"transit":false,"line":2},{"transit":false,"station_id":"PSM","i_lat":-6.2842400000000005,"is_transit":false,"line":2,"station_name":"Pasar Minggu","distance":2820,"time":4,"i_long":106.843999},{"station_name":"Pasar Minggu Baru","i_lat":-6.263214,"transit":false,"time":2,"station_id":"PSMB","distance":2380,"i_long":106.851577,"is_transit":false,"line":2},{"is_transit":false,"i_long":106.85449,"station_id":"DRN","distance":824,"transit":false,"time":2,"i_lat":-6.255332,"station_name":"Duren Kalibata","line":2},{"transit":false,"time":3,"i_lat":-6.242512,"station_id":"CW","i_long":106.856607,"station_name":"Cawang","is_transit":false,"line":2,"distance":1546},{"line":2,"distance":1230,"station_name":"Tebet","transit":false,"time":2,"i_lat":-6.226659,"is_transit":false,"i_long":106.857948,"station_id":"TEB"},{"transit":false,"i_long":106.84912,"time":4,"distance":2610,"line":2,"is_transit":false,"i_lat":-6.209883,"station_name":"Manggarai","station_id":"MRI"},{"i_lat":-6.198556,"station_name":"Cikini","station_id":"CKI","time":4,"is_transit":false,"transit":false,"i_long":106.840169,"line":2,"distance":1590},{"line":2,"distance":1750,"transit":false,"time":3,"station_id":"GDD","is_transit":false,"i_lat":-6.186295,"station_name":"Gondangdia","i_long":106.832183},{"i_lat":-6.166716,"time":4,"is_transit":false,"i_long":106.828284,"station_id":"JUA","line":2,"station_name":"Juanda","transit":false,"distance":2015},{"station_id":"SW","time":2,"i_long":106.827103,"distance":1149,"station_name":"Sawah Besar","i_lat":-6.160725,"is_transit":false,"line":2,"transit":false},{"i_lat":-6.149769,"i_long":106.82482,"station_name":"Manggabesar","line":2,"transit":false,"time":2,"station_id":"MGB","distance":906,"is_transit":false},{"i_long":106.820901,"distance":1080,"line":2,"station_id":"JAY","transit":false,"i_lat":-6.141205,"time":2,"station_name":"Jayakarta","is_transit":false},{"station_name":"Jakarta Kota","transit":true,"station_id":"JAKK","is_transit":true,"i_lat":-6.137569,"distance":1264,"time":4,"i_long":106.812439,"line":2},{"distance":1364,"is_transit":true,"i_lat":-6.132549,"transit":true,"time":3,"station_id":"KPB","station_name":"Kampung Bandan","i_long":106.826365,"line":4},{"i_lat":-6.144674,"station_name":"Angke","distance":4102,"time":9,"i_long":106.79867,"station_id":"AK","transit":false,"is_transit":false,"line":1},{"station_name":"Duri","line":1,"time":4,"i_long":106.800832,"i_lat":-6.155215,"distance":1230,"station_id":"DU","transit":false,"is_transit":false},{"is_transit":true,"time":8,"transit":true,"i_lat":-6.185545,"station_id":"THB","line":1,"i_long":106.811091,"distance":3632,"station_name":"Tanah Abang"},{"is_transit":false,"station_name":"Palmerah","line":6,"time":6,"station_id":"PLM","transit":false,"distance":3191,"i_long":106.79689,"i_lat":-6.207404},{"station_id":"KBY","i_lat":-6.237242,"line":6,"i_long":106.780334,"time":7,"station_name":"Kebayoran","distance":3737,"is_transit":false,"transit":false},{"station_name":"Pondokranji","is_transit":false,"line":6,"time":8,"station_id":"PDJ","i_long":106.74273,"distance":6218,"transit":false,"i_lat":-6.276362},{"i_lat":-6.288927,"is_transit":false,"i_long":106.728916,"station_name":"Jurangmangu","distance":2179,"station_id":"JMU","transit":false,"time":3,"line":6},{"transit":false,"i_long":106.712277,"line":6,"i_lat":-6.296963,"is_transit":false,"station_name":"Sudimara","time":4,"distance":1994,"station_id":"SDM"},{"transit":false,"station_id":"RU","distance":4566,"is_transit":false,"time":6,"station_name":"Rawa Buntu","i_long":106.675475,"line":6,"i_lat":-6.314823},{"station_id":"SRP","station_name":"Serpong","i_long":106.66566,"is_transit":false,"time":4,"i_lat":-6.319871,"distance":2413,"line":6,"transit":false},{"i_lat":-6.32484,"line":3,"transit":false,"time":4,"is_transit":false,"station_id":"CSK","station_name":"Cisauk","distance":1784,"i_long":106.640411},{"transit":false,"distance":2519,"time":4,"i_lat":-6.329547,"station_name":"Cicayur","i_long":106.617853,"line":3,"station_id":"CC","is_transit":false},{"is_transit":false,"time":8,"transit":false,"station_id":"PRP","line":6,"i_lat":-6.3441410000000005,"i_long":106.568863,"distance":5968,"station_name":"Parung Panjang"},{"i_lat":-6.354349,"distance":7025,"station_id":"CJT","line":3,"transit":false,"is_transit":false,"i_long":106.508482,"station_name":"Cilejit","time":9},{"i_lat":-6.338021,"i_long":106.491338,"distance":2675,"station_name":"Daru","line":0,"time":6,"station_id":"DAR","is_transit":false,"transit":false},{"station_name":"Tenjo","i_lat":-6.327251,"is_transit":false,"transit":false,"distance":3902,"station_id":"TEJ","i_long":106.460812,"time":5,"line":6}],[{"i_lat":-6.448811,"time":0,"station_id":"CTA","line":2,"i_long":106.800298,"distance":0,"transit":false,"station_name":"Citayam","is_transit":false},{"transit":false,"i_long":106.816926,"is_transit":false,"station_name":"Depok","i_lat":-6.405256,"station_id":"DP","distance":5084,"time":6,"line":2},{"station_name":"Depokbaru","distance":1584,"i_lat":-6.391065,"transit":false,"time":3,"line":2,"station_id":"DPB","is_transit":false,"i_long":106.819451},{"line":2,"station_id":"POC","transit":false,"i_lat":-6.369073,"station_name":"Pondok Cina","i_long":106.831114,"distance":2727,"is_transit":false,"time":4},{"transit":false,"is_transit":false,"time":2,"i_long":106.831474,"i_lat":-6.360749,"line":2,"station_name":"Univ. Indonesia","distance":1109,"station_id":"UI"},{"station_id":"UP","station_name":"Univ. Pancasila","time":3,"is_transit":false,"line":2,"distance":2264,"i_long":106.834175,"transit":false,"i_lat":-6.339291},{"transit":false,"line":2,"station_id":"LNA","time":2,"distance":1029,"i_lat":-6.330363,"is_transit":false,"station_name":"Lenteng Agung","i_long":106.832616},{"station_id":"TNT","transit":false,"is_transit":false,"i_lat":-6.3080680000000005,"i_long":106.838896,"distance":2671,"line":2,"time":3,"station_name":"Tanjung Barat"},{"i_long":106.843999,"station_id":"PSM","station_name":"Pasar Minggu","distance":2820,"is_transit":false,"line":2,"i_lat":-6.2842400000000005,"transit":false,"time":4},{"distance":2380,"transit":false,"i_long":106.851577,"line":2,"i_lat":-6.263214,"station_name":"Pasar Minggu Baru","is_transit":false,"station_id":"PSMB","time":2},{"transit":false,"time":2,"station_id":"DRN","station_name":"Duren Kalibata","i_lat":-6.255332,"distance":824,"i_long":106.85449,"line":2,"is_transit":false},{"transit":false,"time":3,"station_id":"CW","station_name":"Cawang","distance":1546,"is_transit":false,"i_lat":-6.242512,"line":2,"i_long":106.856607},{"time":2,"is_transit":false,"station_id":"TEB","transit":false,"station_name":"Tebet","distance":1230,"line":2,"i_lat":-6.226659,"i_long":106.857948},{"i_lat":-6.209883,"distance":2610,"station_id":"MRI","time":4,"i_long":106.84912,"station_name":"Manggarai","is_transit":true,"line":2,"transit":true},{"i_lat":-6.212485,"station_id":"MTR","is_transit":false,"i_long":106.858896,"station_name":"Matraman","transit":false,"line":1,"distance":1275,"time":2},{"i_long":106.86807400000001,"is_transit":true,"distance":1377,"transit":true,"line":1,"station_id":"JNG","i_lat":-6.215091,"station_name":"Jatinegara","time":8},{"transit":false,"i_long":106.861737,"time":2,"station_id":"POK","line":11,"station_name":"Pondok Jati","i_lat":-6.209188,"distance":1236,"is_transit":false},{"i_lat":-6.193792,"i_long":106.855437,"time":2,"distance":1829,"line":11,"transit":false,"station_id":"KMT","is_transit":false,"station_name":"Kramat"},{"is_transit":false,"time":1,"i_long":106.850107,"transit":false,"station_name":"Gang Sentiong","i_lat":-6.185975,"line":11,"distance":973,"station_id":"GST"},{"i_lat":-6.174784,"is_transit":false,"station_id":"PSE","distance":1567,"station_name":"Pasar Senen","transit":false,"line":11,"time":8,"i_long":106.84368},{"station_name":"Kemayoran","line":11,"station_id":"KMO","transit":false,"i_long":106.839204,"is_transit":false,"time":4,"i_lat":-6.161728,"distance":1436},{"time":5,"distance":1901,"is_transit":false,"line":11,"station_name":"Rajawali","i_long":106.836569,"transit":false,"station_id":"RJW","i_lat":-6.14505},{"transit":true,"distance":1444,"time":3,"i_lat":-6.132549,"line":4,"is_transit":true,"station_id":"KPB","station_name":"Kampung Bandan","i_long":106.826365},{"station_name":"Angke","distance":4102,"i_long":106.79867,"station_id":"AK","line":1,"is_transit":false,"time":9,"transit":false,"i_lat":-6.144674},{"station_name":"Duri","distance":1230,"time":4,"is_transit":false,"i_long":106.800832,"line":1,"station_id":"DU","i_lat":-6.155215,"transit":false},{"station_id":"THB","i_long":106.811091,"line":1,"distance":3632,"i_lat":-6.185545,"station_name":"Tanah Abang","transit":true,"time":8,"is_transit":true},{"transit":false,"distance":3191,"station_id":"PLM","line":6,"i_long":106.79689,"station_name":"Palmerah","time":6,"is_transit":false,"i_lat":-6.207404},{"distance":3737,"transit":false,"station_name":"Kebayoran","station_id":"KBY","is_transit":false,"time":7,"line":6,"i_long":106.780334,"i_lat":-6.237242},{"is_transit":false,"time":8,"i_lat":-6.276362,"i_long":106.74273,"line":6,"distance":6218,"station_name":"Pondokranji","station_id":"PDJ","transit":false},{"time":3,"distance":2179,"i_lat":-6.288927,"is_transit":false,"station_name":"Jurangmangu","station_id":"JMU","line":6,"i_long":106.728916,"transit":false},{"line":6,"time":4,"station_name":"Sudimara","i_long":106.712277,"is_transit":false,"distance":1994,"station_id":"SDM","transit":false,"i_lat":-6.296963},{"is_transit":false,"time":6,"station_name":"Rawa Buntu","transit":false,"i_lat":-6.314823,"distance":4566,"i_long":106.675475,"station_id":"RU","line":6},{"transit":false,"is_transit":false,"station_name":"Serpong","time":4,"i_lat":-6.319871,"line":6,"i_long":106.66566,"station_id":"SRP","distance":2413},{"time":4,"line":3,"transit":false,"station_name":"Cisauk","is_transit":false,"station_id":"CSK","i_lat":-6.32484,"i_long":106.640411,"distance":1784},{"i_lat":-6.329547,"line":3,"station_name":"Cicayur","time":4,"is_transit":false,"station_id":"CC","transit":false,"distance":2519,"i_long":106.617853},{"distance":5968,"line":6,"station_name":"Parung Panjang","station_id":"PRP","i_lat":-6.3441410000000005,"i_long":106.568863,"transit":false,"is_transit":false,"time":8},{"station_id":"CJT","i_long":106.508482,"transit":false,"line":3,"station_name":"Cilejit","time":9,"is_transit":false,"i_lat":-6.354349,"distance":7025},{"is_transit":false,"station_id":"DAR","line":0,"station_name":"Daru","distance":2675,"transit":false,"time":6,"i_lat":-6.338021,"i_long":106.491338},{"station_id":"TEJ","is_transit":false,"station_name":"Tenjo","distance":3902,"time":5,"i_long":106.460812,"transit":false,"i_lat":-6.327251,"line":6}]]}