{"data":[[{"distance":0,"station_name":"Citayam","i_lat":-6.448811,"i_long":106.800298,"station_id":"CTA","line":2,"time":0,"transit":false,"is_transit":false},{"distance":5084,"i_lat":-6.405256,"is_transit":false,"line":2,"station_name":"Depok","transit":false,"station_id":"DP","i_long":106.816926,"time":6},{"time":3,"distance":1584,"i_lat":-6.391065,"is_transit":false,"line":2,"transit":false,"i_long":106.819451,"station_id":"DPB","station_name":"Depokbaru"},{"distance":2727,"i_lat":-6.369073,"station_id":"POC","is_transit":false,"station_name":"Pondok Cina","transit":false,"line":2,"time":4,"i_long":106.831114},{"i_lat":-6.360749,"station_name":"Univ. Indonesia","transit":false,"time":2,"is_transit":false,"line":2,"station_id":"UI","i_long":106.831474,"distance":1109},{"i_lat":-6.339291,"transit":false,"time":3,"distance":2264,"i_long":106.834175,"line":2,"is_transit":false,"station_name":"Univ. Pancasila","station_id":"UP"},{"distance":1029,"transit":false,"time":2,"i_lat":-6.330363,"line":2,"i_long":106.832616,"station_id":"LNA","station_name":"Lenteng Agung","is_transit":false},{"i_lat":-6.3080680000000005,"time":3,"station_name":"Tanjung Barat","station_id":"TNT","i_long":106.838896,"line":2,"distance":2671,"transit":false,"is_transit":false},{"time":4,"is_transit":false,"distance":2820,"i_lat":-6.2842400000000005,"line":2,"transit":false,"station_name":"Pasar Minggu","i_long":106.843999,"station_id":"PSM"},{"line":2,"transit":false,"i_long":106.851577,"station_name":"Pasar Minggu Baru","is_transit":false,"distance":2380,"i_lat":-6.263214,"station_id":"PSMB","time":2},{"station_id":"DRN","i_lat":-6.255332,"is_transit":false,"station_name":"Duren Kalibata","time":2,"i_long":106.85449,"line":2,"distance":824,"transit":false},{"station_name":"Cawang","i_lat":-6.242512,"transit":false,"station_id":"CW","is_transit":false,"distance":1546,"i_long":106.856607,"line":2,"time":3},{"station_name":"Tebet","transit":false,"i_long":106.857948,"is_transit":false,"station_id":"TEB","time":2,"line":2,"distance":1230,"i_lat":-6.226659},{"transit":true,"is_transit":true,"station_id":"MRI","time":4,"i_lat":-6.209883,"distance":2610,"station_name":"Manggarai","i_long":106.84912,"line":2},{"transit":false,"time":4,"line":1,"i_lat":-6.202263,"distance":3186,"i_long":106.822649,"is_transit":false,"station_id":"SUD","station_name":"Sudirman"},{"station_id":"SUDB","line":1,"distance":280,"i_lat":-6.201433,"is_transit":false,"i_long":106.819881,"station_name":"Sudirman Baru","time":1,"transit":false},{"i_long":106.816351,"is_transit":false,"station_id":"KAT","i_lat":-6.20132,"transit":false,"station_name":"Karet","line":1,"time":1,"distance":471},{"i_lat":-6.185545,"station_name":"Tanah Abang","distance":2029,"transit":true,"i_long":106.811091,"station_id":"THB","line":1,"time":5,"is_transit":true},{"transit":false,"station_name":"Palmerah","is_transit":false,"distance":3191,"i_lat":-6.207404,"i_long":106.79689,"line":6,"station_id":"PLM","time":6},{"time":7,"line":6,"distance":3737,"station_name":"Kebayoran","transit":false,"i_lat":-6.237242,"i_long":106.780334,"is_transit":false,"station_id":"KBY"},{"station_name":"Pondokranji","transit":false,"time":8,"line":6,"i_lat":-6.276362,"station_id":"PDJ","i_long":106.74273,"is_transit":false,"distance":6218},{"i_lat":-6.288927,"station_name":"Jurangmangu","transit":false,"line":6,"distance":2179,"i_long":106.728916,"station_id":"JMU","time":3,"is_transit":false},{"station_id":"SDM","i_long":106.712277,"transit":false,"is_transit":false,"station_name":"Sudimara","distance":1994,"line":6,"i_lat":-6.296963,"time":4},{"i_long":106.675475,"transit":false,"time":6,"distance":4566,"station_name":"Rawa Buntu","line":6,"is_transit":false,"station_id":"RU","i_lat":-6.314823}],[{"distance":0,"station_id":"CTA","i_lat":-6.448811,"i_long":106.800298,"is_transit":false,"station_name":"Citayam","transit":false,"line":2,"time":0},{"transit":false,"time":6,"is_transit":false,"distance":5084,"i_lat":-6.405256,"i_long":106.816926,"station_id":"DP","line":2,"station_name":"Depok"},{"line":2,"time":3,"station_id":"DPB","station_name":"Depokbaru","distance":1584,"transit":false,"i_lat":-6.391065,"i_long":106.819451,"is_transit":false},{"time":4,"i_lat":-6.369073,"is_transit":false,"i_long":106.831114,"line":2,"distance":2727,"station_id":"POC","transit":false,"station_name":"Pondok Cina"},{"time":2,"station_name":"Univ. Indonesia","is_transit":false,"i_long":106.831474,"distance":1109,"transit":false,"station_id":"UI","i_lat":-6.360749,"line":2},{"is_transit":false,"i_long":106.834175,"line":2,"time":3,"i_lat":-6.339291,"station_name":"Univ. Pancasila","station_id":"UP","distance":2264,"transit":false},{"i_lat":-6.330363,"distance":1029,"line":2,"transit":false,"is_transit":false,"i_long":106.832616,"station_name":"Lenteng Agung","station_id":"LNA","time":2},{"time":3,"i_long":106.838896,"line":2,"transit":false,"is_transit":false,"distance":2671,"i_lat":-6.3080680000000005,"station_id":"TNT","station_name":"Tanjung Barat"},{"distance":2820,"time":4,"i_long":106.843999,"i_lat":-6.2842400000000005,"station_id":"PSM","transit":false,"station_name":"Pasar Minggu","line":2,"is_transit":false},{"station_name":"Pasar Minggu Baru","transit":false,"is_transit":false,"time":2,"distance":2380,"station_id":"PSMB","i_lat":-6.263214,"i_long":106.851577,"line":2},{"i_lat":-6.255332,"station_id":"DRN","distance":824,"line":2,"is_transit":false,"transit":false,"station_name":"Duren Kalibata","time":2,"i_long":106.85449},{"is_transit":false,"transit":false,"line":2,"station_id":"CW","distance":1546,"time":3,"station_name":"Cawang","i_lat":-6.242512,"i_long":106.856607},{"i_long":106.857948,"i_lat":-6.226659,"station_id":"TEB","station_name":"Tebet","is_transit":false,"distance":1230,"transit":false,"line":2,"time":2},{"line":2,"station_name":"Manggarai","distance":2610,"i_lat":-6.209883,"station_id":"MRI","time":4,"i_long":106.84912,"transit":false,"is_transit":false},{"i_lat":-6.198556,"distance":1590,"station_name":"Cikini","station_id":"CKI","line":2,"is_transit":false,"i_long":106.840169,"transit":false,"time":4},{"station_name":"Gondangdia","line":2,"time":3,"station_id":"GDD","transit":false,"i_lat":-6.186295,"is_transit":false,"distance":1750,"i_long":106.832183},{"transit":false,"station_name":"Juanda","station_id":"JUA","distance":2015,"i_lat":-6.166716,"i_long":106.828284,"time":4,"is_transit":false,"line":2},{"distance":1149,"i_long":106.827103,"time":2,"line":2,"station_name":"Sawah Besar","transit":false,"is_transit":false,"i_lat":-6.160725,"station_id":"SW"},{"i_long":106.82482,"station_name":"Manggabesar","i_lat":-6.149769,"transit":false,"time":2,"station_id":"MGB","line":2,"is_transit":false,"distance":906},{"i_long":106.820901,"time":2,"distance":1080,"line":2,"station_name":"Jayakarta","i_lat":-6.141205,"is_transit":false,"transit":false,"station_id":"JAY"},{"transit":true,"station_id":"JAKK","i_lat":-6.137569,"line":2,"is_transit":true,"i_long":106.812439,"station_name":"Jakarta Kota","time":4,"distance":1264},{"transit":true,"station_id":"KPB","time":3,"line":4,"is_transit":true,"distance":1364,"i_lat":-6.132549,"i_long":106.826365,"station_name":"Kampung Bandan"},{"station_name":"Angke","i_lat":-6.144674,"transit":false,"i_long":106.79867,"line":1,"station_id":"AK","distance":4102,"time":9,"is_transit":false},{"transit":false,"distance":1230,"station_id":"DU","time":4,"i_long":106.800832,"station_name":"Duri","is_transit":false,"i_lat":-6.155215,"line":1},{"station_name":"Tanah Abang","is_transit":true,"time":8,"i_lat":-6.185545,"transit":true,"distance":3632,"i_long":106.811091,"line":1,"station_id":"THB"},{"is_transit":false,"station_id":"PLM","time":6,"station_name":"Palmerah","i_long":106.79689,"transit":false,"line":6,"distance":3191,"i_lat":-6.207404},{"distance":3737,"station_id":"KBY","i_long":106.780334,"line":6,"time":7,"station_name":"Kebayoran","is_transit":false,"i_lat":-6.237242,"transit":false},{"is_transit":false,"station_id":"PDJ","time":8,"i_lat":-6.276362,"transit":false,"i_long":106.74273,"station_name":"Pondokranji","line":6,"distance":6218},{"station_id":"JMU","distance":2179,"i_long":106.728916,"line":6,"station_name":"Jurangmangu","transit":false,"is_transit":false,"time":3,"i_lat":-6.288927},{"station_name":"Sudimara","time":4,"i_lat":-6.296963,"line":6,"transit":false,"i_long":106.712277,"distance":1994,"station_id":"SDM","is_transit":false},{"station_id":"RU","line":6,"station_name":"Rawa Buntu","transit":false,"distance":4566,"is_transit":false,"time":6,"i_lat":-6.314823,"i_long":106.675475}],[{"line":2,"station_name":"Citayam","i_long":106.800298,"station_id":"CTA","distance":0,"transit":false,"time":0,"i_lat":-6.448811,"is_transit":false},{"transit":false,"distance":5084,"station_name":"Depok","i_lat":-6.405256,"time":6,"is_transit":false,"i_long":106.816926,"station_id":"DP","line":2},{"station_id":"DPB","time":3,"i_lat":-6.391065,"station_name":"Depokbaru","transit":false,"is_transit":false,"distance":1584,"i_long":106.819451,"line":2},{"line":2,"i_lat":-6.369073,"distance":2727,"station_name":"Pondok Cina","station_id":"POC","time":4,"transit":false,"i_long":106.831114,"is_transit":false},{"transit":false,"distance":1109,"is_transit":false,"line":2,"i_lat":-6.360749,"station_name":"Univ. Indonesia","i_long":106.831474,"station_id":"UI","time":2},{"time":3,"transit":false,"i_lat":-6.339291,"line":2,"i_long":106.834175,"is_transit":false,"distance":2264,"station_id":"UP","station_name":"Univ. Pancasila"},{"time":2,"station_name":"Lenteng Agung","distance":1029,"i_lat":-6.330363,"line":2,"i_long":106.832616,"station_id":"LNA","is_transit":false,"transit":false},{"station_name":"Tanjung Barat","distance":2671,"i_lat":-6.3080680000000005,"line":2,"is_transit":false,"transit":false,"station_id":"TNT","time":3,"i_long":106.838896},{"i_lat":-6.2842400000000005,"station_name":"Pasar Minggu","time":4,"distance":2820,"is_transit":false,"station_id":"PSM","transit":false,"i_long":106.843999,"line":2},{"time":2,"transit":false,"line":2,"station_id":"PSMB","station_name":"Pasar Minggu Baru","i_lat":-6.263214,"i_long":106.851577,"is_transit":false,"distance":2380},{"time":2,"distance":824,"i_long":106.85449,"is_transit":false,"station_id":"DRN","line":2,"transit":false,"station_name":"Duren Kalibata","i_lat":-6.255332},{"station_id":"CW","i_lat":-6.242512,"time":3,"station_name":"Cawang","distance":1546,"transit":false,"is_transit":false,"line":2,"i_long":106.856607},{"line":2,"transit":false,"distance":1230,"station_id":"TEB","station_name":"Tebet","time":2,"i_long":106.857948,"is_transit":false,"i_lat":-6.226659},{"distance":2610,"line":2,"is_transit":true,"transit":true,"station_id":"MRI","i_long":106.84912,"time":4,"i_lat":-6.209883,"station_name":"Manggarai"},{"transit":false,"is_transit":false,"time":2,"i_long":106.858896,"station_name":"Matraman","station_id":"MTR","i_lat":-6.212485,"line":1,"distance":1275},{"line":1,"i_lat":-6.215091,"i_long":106.86807400000001,"transit":true,"time":8,"is_transit":true,"station_id":"JNG","station_name":"Jatinegara","distance":1377},{"time":2,"i_lat":-6.209188,"line":11,"distance":1236,"station_name":"Pondok Jati","i_long":106.861737,"transit":false,"is_transit":false,"station_id":"POK"},{"transit":false,"i_lat":-6.193792,"is_transit":false,"line":11,"station_id":"KMT","i_long":106.855437,"time":2,"distance":1829,"station_name":"Kramat"},{"station_id":"GST","i_lat":-6.185975,"distance":973,"station_name":"Gang Sentiong","is_transit":false,"time":1,"i_long":106.850107,"line":11,"transit":false},{"i_long":106.84368,"station_id":"PSE","distance":1567,"line":11,"i_lat":-6.174784,"transit":false,"time":8,"is_transit":false,"station_name":"Pasar Senen"},{"station_id":"KMO","distance":1436,"i_lat":-6.161728,"i_long":106.839204,"time":4,"transit":false,"line":11,"is_transit":false,"station_name":"Kemayoran"},{"i_lat":-6.14505,"transit":false,"distance":1901,"station_id":"RJW","line":11,"i_long":106.836569,"station_name":"Rajawali","time":5,"is_transit":false},{"station_name":"Kampung Bandan","time":3,"i_lat":-6.132549,"line":4,"transit":true,"distance":1444,"is_transit":true,"station_id":"KPB","i_long":106.826365},{"station_id":"AK","i_lat":-6.144674,"time":9,"station_name":"Angke","is_transit":false,"line":1,"transit":false,"distance":4102,"i_long":106.79867},{"station_name":"Duri","i_long":106.800832,"station_id":"DU","distance":1230,"is_transit":false,"transit":false,"time":4,"i_lat":-6.155215,"line":1},{"station_name":"Tanah Abang","line":1,"transit":true,"time":8,"distance":3632,"station_id":"THB","is_transit":true,"i_long":106.811091,"i_lat":-6.185545},{"station_name":"Palmerah","i_long":106.79689,"transit":false,"line":6,"is_transit":false,"station_id":"PLM","distance":3191,"i_lat":-6.207404,"time":6},{"i_long":106.780334,"line":6,"station_name":"Kebayoran","i_lat":-6.237242,"station_id":"KBY","time":7,"transit":false,"distance":3737,"is_transit":false},{"time":8,"is_transit":false,"transit":false,"station_name":"Pondokranji","i_lat":-6.276362,"i_long":106.74273,"line":6,"distance":6218,"station_id":"PDJ"},{"is_transit":false,"station_id":"JMU","time":3,"i_lat":-6.288927,"i_long":106.728916,"line":6,"station_name":"Jurangmangu","transit":false,"distance":2179},{"station_name":"Sudimara","distance":1994,"time":4,"i_long":106.712277,"transit":false,"is_transit":false,"i_lat":-6.296963,"line":6,"station_id":"SDM"},{"is_transit":false,"station_name":"Rawa Buntu","i_lat":-6.314823,"time":6,"distance":4566,"i_long":106.675475,"line":6,"transit":false,"station_id":"RU"}]]}