{"data":[[{"i_long":106.800298,"line":2,"time":0,"transit":false,"distance":0,"is_transit":false,"station_id":"CTA","i_lat":-6.448811,"station_name":"Citayam"},{"transit":false,"line":2,"station_name":"Depok","is_transit":false,"station_id":"DP","i_long":106.816926,"distance":5084,"time":6,"i_lat":-6.405256},{"distance":1584,"i_lat":-6.391065,"time":3,"station_id":"DPB","transit":false,"i_long":106.819451,"line":2,"station_name":"Depokbaru","is_transit":false},{"i_lat":-6.369073,"line":2,"transit":false,"time":4,"distance":2727,"i_long":106.831114,"station_name":"Pondok Cina","station_id":"POC","is_transit":false},{"distance":1109,"station_name":"Univ. Indonesia","transit":false,"is_transit":false,"i_lat":-6.360749,"i_long":106.831474,"line":2,"station_id":"UI","time":2},{"i_long":106.834175,"line":2,"distance":2264,"station_name":"Univ. Pancasila","i_lat":-6.339291,"station_id":"UP","is_transit":false,"time":3,"transit":false},{"i_long":106.832616,"distance":1029,"line":2,"station_name":"Lenteng Agung","transit":false,"time":2,"is_transit":false,"station_id":"LNA","i_lat":-6.330363},{"station_name":"Tanjung Barat","distance":2671,"transit":false,"time":3,"station_id":"TNT","i_long":106.838896,"i_lat":-6.3080680000000005,"is_transit":false,"line":2},{"i_long":106.843999,"line":2,"distance":2820,"transit":false,"station_name":"Pasar Minggu","station_id":"PSM","is_transit":false,"time":4,"i_lat":-6.2842400000000005},{"is_transit":false,"station_id":"PSMB","transit":false,"station_name":"Pasar Minggu Baru","i_lat":-6.263214,"time":2,"distance":2380,"i_long":106.851577,"line":2},{"time":2,"i_lat":-6.255332,"station_name":"Duren Kalibata","is_transit":false,"i_long":106.85449,"line":2,"distance":824,"transit":false,"station_id":"DRN"},{"is_transit":false,"station_name":"Cawang","i_long":106.856607,"line":2,"distance":1546,"transit":false,"station_id":"CW","i_lat":-6.242512,"time":3},{"station_name":"Tebet","transit":false,"is_transit":false,"line":2,"distance":1230,"i_long":106.857948,"station_id":"TEB","time":2,"i_lat":-6.226659},{"station_name":"Manggarai","line":2,"station_id":"MRI","transit":true,"is_transit":true,"i_lat":-6.209883,"time":4,"distance":2610,"i_long":106.84912},{"time":4,"transit":false,"i_lat":-6.202263,"line":1,"is_transit":false,"i_long":106.822649,"distance":3186,"station_id":"SUD","station_name":"Sudirman"},{"is_transit":false,"transit":false,"time":1,"line":1,"station_name":"Sudirman Baru","distance":280,"station_id":"SUDB","i_long":106.819881,"i_lat":-6.201433},{"is_transit":false,"station_name":"Karet","transit":false,"line":1,"time":1,"distance":471,"station_id":"KAT","i_lat":-6.20132,"i_long":106.816351},{"time":5,"i_lat":-6.185545,"i_long":106.811091,"distance":2029,"line":1,"station_id":"THB","transit":false,"is_transit":false,"station_name":"Tanah Abang"},{"distance":3632,"time":8,"transit":true,"station_id":"DU","i_long":106.800832,"is_transit":true,"i_lat":-6.155215,"station_name":"Duri","line":1},{"transit":false,"station_name":"Grogol","i_lat":-6.162021,"time":3,"i_long":106.788277,"distance":1700,"line":5,"station_id":"GGL","is_transit":false},{"i_lat":-6.161433,"transit":false,"i_long":106.771379,"line":5,"time":2,"station_id":"PSG","is_transit":false,"station_name":"Pesing","distance":2036},{"transit":false,"i_long":106.756522,"station_name":"Taman Kota","is_transit":false,"distance":1614,"time":2,"station_id":"TKO","i_lat":-6.1587309999999995,"line":5},{"transit":false,"station_name":"Bojongindah","i_long":106.737035,"line":5,"i_lat":-6.159876,"is_transit":false,"station_id":"BOI","distance":2334,"time":2},{"distance":1152,"time":4,"is_transit":false,"station_name":"Rawa Buaya","station_id":"RW","i_long":106.723064,"i_lat":-6.162758,"line":5,"transit":false},{"is_transit":false,"transit":false,"i_lat":-6.166068,"line":5,"time":3,"station_id":"KDS","distance":2504,"station_name":"Kalideres","i_long":106.701612},{"transit":false,"line":5,"i_lat":-6.169933,"distance":2548,"station_id":"PI","station_name":"Poris","time":3,"is_transit":false,"i_long":106.679458},{"i_lat":-6.171811,"distance":1834,"transit":false,"time":3,"station_id":"BPR","station_name":"Batuceper","is_transit":false,"line":5,"i_long":106.665036},{"distance":2028,"transit":false,"is_transit":false,"i_long":106.64657,"i_lat":-6.17331,"station_id":"TTI","line":5,"time":3,"station_name":"Tanah Tinggi"},{"i_long":106.632761,"line":5,"station_id":"TNG","is_transit":false,"station_name":"Tangerang","time":3,"transit":false,"i_lat":-6.176583,"distance":1547}],[{"station_id":"CTA","i_long":106.800298,"station_name":"Citayam","time":0,"transit":false,"i_lat":-6.448811,"distance":0,"is_transit":false,"line":2},{"station_name":"Depok","distance":5084,"time":6,"i_lat":-6.405256,"i_long":106.816926,"line":2,"station_id":"DP","is_transit":false,"transit":false},{"i_long":106.819451,"distance":1584,"i_lat":-6.391065,"transit":false,"is_transit":false,"time":3,"line":2,"station_name":"Depokbaru","station_id":"DPB"},{"i_lat":-6.369073,"transit":false,"station_name":"Pondok Cina","distance":2727,"time":4,"line":2,"station_id":"POC","is_transit":false,"i_long":106.831114},{"transit":false,"i_long":106.831474,"is_transit":false,"distance":1109,"line":2,"time":2,"station_id":"UI","i_lat":-6.360749,"station_name":"Univ. Indonesia"},{"transit":false,"time":3,"station_id":"UP","is_transit":false,"i_long":106.834175,"i_lat":-6.339291,"distance":2264,"line":2,"station_name":"Univ. Pancasila"},{"i_long":106.832616,"line":2,"i_lat":-6.330363,"station_name":"Lenteng Agung","time":2,"is_transit":false,"transit":false,"distance":1029,"station_id":"LNA"},{"station_name":"Tanjung Barat","transit":false,"line":2,"i_long":106.838896,"is_transit":false,"i_lat":-6.3080680000000005,"distance":2671,"time":3,"station_id":"TNT"},{"station_name":"Pasar Minggu","transit":false,"station_id":"PSM","time":4,"is_transit":false,"i_lat":-6.2842400000000005,"i_long":106.843999,"line":2,"distance":2820},{"i_long":106.851577,"is_transit":false,"station_id":"PSMB","line":2,"time":2,"distance":2380,"i_lat":-6.263214,"station_name":"Pasar Minggu Baru","transit":false},{"distance":824,"station_id":"DRN","station_name":"Duren Kalibata","transit":false,"time":2,"is_transit":false,"i_lat":-6.255332,"line":2,"i_long":106.85449},{"line":2,"time":3,"transit":false,"station_name":"Cawang","i_long":106.856607,"distance":1546,"station_id":"CW","is_transit":false,"i_lat":-6.242512},{"transit":false,"station_name":"Tebet","distance":1230,"time":2,"is_transit":false,"i_lat":-6.226659,"line":2,"i_long":106.857948,"station_id":"TEB"},{"transit":false,"i_long":106.84912,"is_transit":false,"station_id":"MRI","time":4,"station_name":"Manggarai","distance":2610,"i_lat":-6.209883,"line":2},{"station_id":"CKI","is_transit":false,"distance":1590,"i_lat":-6.198556,"line":2,"time":4,"transit":false,"station_name":"Cikini","i_long":106.840169},{"distance":1750,"line":2,"i_long":106.832183,"station_id":"GDD","transit":false,"time":3,"is_transit":false,"station_name":"Gondangdia","i_lat":-6.186295},{"station_id":"JUA","station_name":"Juanda","is_transit":false,"i_lat":-6.166716,"transit":false,"time":4,"i_long":106.828284,"line":2,"distance":2015},{"station_name":"Sawah Besar","is_transit":false,"distance":1149,"i_lat":-6.160725,"transit":false,"i_long":106.827103,"line":2,"time":2,"station_id":"SW"},{"is_transit":false,"i_long":106.82482,"distance":906,"line":2,"time":2,"i_lat":-6.149769,"station_name":"Manggabesar","station_id":"MGB","transit":false},{"time":2,"i_lat":-6.141205,"line":2,"i_long":106.820901,"is_transit":false,"distance":1080,"station_id":"JAY","transit":false,"station_name":"Jayakarta"},{"station_id":"JAKK","transit":true,"distance":1264,"is_transit":true,"i_lat":-6.137569,"time":4,"line":2,"i_long":106.812439,"station_name":"Jakarta Kota"},{"distance":1364,"i_lat":-6.132549,"station_name":"Kampung Bandan","station_id":"KPB","i_long":106.826365,"is_transit":true,"transit":true,"line":4,"time":3},{"time":9,"station_name":"Angke","is_transit":false,"i_lat":-6.144674,"line":1,"station_id":"AK","transit":false,"i_long":106.79867,"distance":4102},{"station_id":"DU","line":1,"transit":true,"is_transit":true,"time":4,"i_long":106.800832,"i_lat":-6.155215,"distance":1230,"station_name":"Duri"},{"i_lat":-6.162021,"i_long":106.788277,"transit":false,"station_id":"GGL","line":5,"is_transit":false,"time":3,"distance":1700,"station_name":"Grogol"},{"time":2,"station_name":"Pesing","distance":2036,"transit":false,"is_transit":false,"line":5,"i_long":106.771379,"station_id":"PSG","i_lat":-6.161433},{"station_name":"Taman Kota","is_transit":false,"distance":1614,"i_lat":-6.1587309999999995,"i_long":106.756522,"station_id":"TKO","time":2,"transit":false,"line":5},{"line":5,"distance":2334,"station_name":"Bojongindah","transit":false,"i_lat":-6.159876,"is_transit":false,"station_id":"BOI","i_long":106.737035,"time":2},{"time":4,"line":5,"transit":false,"i_lat":-6.162758,"i_long":106.723064,"distance":1152,"station_name":"Rawa Buaya","is_transit":false,"station_id":"RW"},{"station_name":"Kalideres","is_transit":false,"line":5,"station_id":"KDS","transit":false,"time":3,"i_lat":-6.166068,"i_long":106.701612,"distance":2504},{"i_long":106.679458,"transit":false,"station_name":"Poris","distance":2548,"is_transit":false,"line":5,"station_id":"PI","time":3,"i_lat":-6.169933},{"line":5,"time":3,"station_name":"Batuceper","i_long":106.665036,"i_lat":-6.171811,"is_transit":false,"distance":1834,"transit":false,"station_id":"BPR"},{"transit":false,"time":3,"line":5,"station_id":"TTI","station_name":"Tanah Tinggi","distance":2028,"is_transit":false,"i_lat":-6.17331,"i_long":106.64657},{"transit":false,"line":5,"i_lat":-6.176583,"time":3,"distance":1547,"station_id":"TNG","station_name":"Tangerang","is_transit":false,"i_long":106.632761}],[{"distance":0,"station_name":"Citayam","is_transit":false,"line":2,"i_lat":-6.448811,"transit":false,"station_id":"CTA","time":0,"i_long":106.800298},{"distance":5084,"station_id":"DP","i_lat":-6.405256,"i_long":106.816926,"transit":false,"is_transit":false,"line":2,"time":6,"station_name":"Depok"},{"transit":false,"time":3,"station_name":"Depokbaru","line":2,"station_id":"DPB","is_transit":false,"i_lat":-6.391065,"i_long":106.819451,"distance":1584},{"i_lat":-6.369073,"time":4,"transit":false,"i_long":106.831114,"line":2,"station_id":"POC","is_transit":false,"station_name":"Pondok Cina","distance":2727},{"i_lat":-6.360749,"distance":1109,"line":2,"i_long":106.831474,"time":2,"is_transit":false,"station_id":"UI","station_name":"Univ. Indonesia","transit":false},{"station_name":"Univ. Pancasila","i_lat":-6.339291,"time":3,"station_id":"UP","distance":2264,"is_transit":false,"i_long":106.834175,"line":2,"transit":false},{"station_name":"Lenteng Agung","i_lat":-6.330363,"station_id":"LNA","i_long":106.832616,"time":2,"distance":1029,"transit":false,"line":2,"is_transit":false},{"i_long":106.838896,"line":2,"distance":2671,"time":3,"transit":false,"is_transit":false,"station_name":"Tanjung Barat","i_lat":-6.3080680000000005,"station_id":"TNT"},{"station_name":"Pasar Minggu","i_lat":-6.2842400000000005,"time":4,"distance":2820,"station_id":"PSM","i_long":106.843999,"is_transit":false,"line":2,"transit":false},{"transit":false,"station_name":"Pasar Minggu Baru","is_transit":false,"line":2,"station_id":"PSMB","distance":2380,"i_long":106.851577,"i_lat":-6.263214,"time":2},{"time":2,"station_name":"Duren Kalibata","line":2,"distance":824,"is_transit":false,"station_id":"DRN","i_lat":-6.255332,"transit":false,"i_long":106.85449},{"station_name":"Cawang","station_id":"CW","is_transit":false,"time":3,"distance":1546,"i_lat":-6.242512,"i_long":106.856607,"transit":false,"line":2},{"i_lat":-6.226659,"line":2,"is_transit":false,"transit":false,"i_long":106.857948,"station_id":"TEB","distance":1230,"time":2,"station_name":"Tebet"},{"station_id":"MRI","transit":true,"distance":2610,"time":4,"station_name":"Manggarai","is_transit":true,"i_long":106.84912,"line":2,"i_lat":-6.209883},{"i_long":106.858896,"time":2,"line":1,"transit":false,"station_name":"Matraman","station_id":"MTR","distance":1275,"is_transit":false,"i_lat":-6.212485},{"station_name":"Jatinegara","station_id":"JNG","is_transit":true,"time":8,"distance":1377,"transit":true,"line":1,"i_long":106.86807400000001,"i_lat":-6.215091},{"station_name":"Pondok Jati","station_id":"POK","distance":1236,"transit":false,"i_lat":-6.209188,"i_long":106.861737,"is_transit":false,"line":11,"time":2},{"i_lat":-6.193792,"line":11,"station_name":"Kramat","time":2,"distance":1829,"station_id":"KMT","is_transit":false,"i_long":106.855437,"transit":false},{"is_transit":false,"station_name":"Gang Sentiong","line":11,"i_long":106.850107,"transit":false,"distance":973,"time":1,"station_id":"GST","i_lat":-6.185975},{"i_lat":-6.174784,"distance":1567,"i_long":106.84368,"station_id":"PSE","line":11,"time":8,"transit":false,"station_name":"Pasar Senen","is_transit":false},{"is_transit":false,"time":4,"transit":false,"i_lat":-6.161728,"station_name":"Kemayoran","station_id":"KMO","i_long":106.839204,"line":11,"distance":1436},{"distance":1901,"time":5,"transit":false,"is_transit":false,"i_lat":-6.14505,"line":11,"i_long":106.836569,"station_name":"Rajawali","station_id":"RJW"},{"station_id":"KPB","station_name":"Kampung Bandan","i_long":106.826365,"i_lat":-6.132549,"distance":1444,"line":4,"is_transit":true,"time":3,"transit":true},{"i_long":106.79867,"i_lat":-6.144674,"transit":false,"station_name":"Angke","distance":4102,"is_transit":false,"station_id":"AK","line":1,"time":9},{"i_long":106.800832,"is_transit":true,"station_name":"Duri","i_lat":-6.155215,"distance":1230,"time":4,"station_id":"DU","line":1,"transit":true},{"i_lat":-6.162021,"line":5,"station_name":"Grogol","i_long":106.788277,"time":3,"transit":false,"station_id":"GGL","is_transit":false,"distance":1700},{"line":5,"distance":2036,"station_name":"Pesing","station_id":"PSG","transit":false,"i_lat":-6.161433,"time":2,"is_transit":false,"i_long":106.771379},{"distance":1614,"i_long":106.756522,"station_name":"Taman Kota","time":2,"transit":false,"i_lat":-6.1587309999999995,"station_id":"TKO","is_transit":false,"line":5},{"station_id":"BOI","time":2,"station_name":"Bojongindah","transit":false,"is_transit":false,"distance":2334,"i_lat":-6.159876,"i_long":106.737035,"line":5},{"transit":false,"distance":1152,"is_transit":false,"i_lat":-6.162758,"i_long":106.723064,"line":5,"time":4,"station_id":"RW","station_name":"Rawa Buaya"},{"i_long":106.701612,"station_name":"Kalideres","is_transit":false,"line":5,"distance":2504,"station_id":"KDS","transit":false,"i_lat":-6.166068,"time":3},{"station_name":"Poris","transit":false,"i_long":106.679458,"station_id":"PI","is_transit":false,"distance":2548,"time":3,"i_lat":-6.169933,"line":5},{"i_long":106.665036,"station_id":"BPR","distance":1834,"station_name":"Batuceper","transit":false,"is_transit":false,"i_lat":-6.171811,"time":3,"line":5},{"i_long":106.64657,"i_lat":-6.17331,"distance":2028,"line":5,"is_transit":false,"station_name":"Tanah Tinggi","time":3,"station_id":"TTI","transit":false},{"station_id":"TNG","line":5,"station_name":"Tangerang","transit":false,"is_transit":false,"i_lat":-6.176583,"distance":1547,"i_long":106.632761,"time":3}]]}