{"data":[[{"line":2,"is_transit":false,"station_name":"Citayam","station_id":"CTA","time":0,"i_long":106.800298,"distance":0,"i_lat":-6.448811,"transit":false},{"transit":false,"is_transit":false,"line":2,"station_name":"Depok","station_id":"DP","time":6,"i_lat":-6.405256,"i_long":106.816926,"distance":5084},{"line":2,"station_id":"DPB","station_name":"Depokbaru","i_long":106.819451,"time":3,"i_lat":-6.391065,"distance":1584,"transit":false,"is_transit":false},{"time":4,"i_long":106.831114,"line":2,"transit":false,"i_lat":-6.369073,"station_id":"POC","station_name":"Pondok Cina","is_transit":false,"distance":2727},{"time":2,"i_lat":-6.360749,"transit":false,"line":2,"station_name":"Univ. Indonesia","station_id":"UI","distance":1109,"i_long":106.831474,"is_transit":false},{"station_name":"Univ. Pancasila","station_id":"UP","is_transit":false,"time":3,"i_lat":-6.339291,"transit":false,"i_long":106.834175,"line":2,"distance":2264},{"station_id":"LNA","i_lat":-6.330363,"distance":1029,"i_long":106.832616,"transit":false,"line":2,"station_name":"Lenteng Agung","is_transit":false,"time":2},{"is_transit":false,"i_long":106.838896,"time":3,"distance":2671,"station_id":"TNT","line":2,"transit":false,"station_name":"Tanjung Barat","i_lat":-6.3080680000000005},{"i_lat":-6.2842400000000005,"i_long":106.843999,"time":4,"station_name":"Pasar Minggu","is_transit":false,"station_id":"PSM","distance":2820,"line":2,"transit":false},{"station_name":"Pasar Minggu Baru","i_long":106.851577,"i_lat":-6.263214,"distance":2380,"transit":false,"line":2,"station_id":"PSMB","is_transit":false,"time":2},{"transit":false,"distance":824,"time":2,"station_name":"Duren Kalibata","station_id":"DRN","is_transit":false,"i_lat":-6.255332,"i_long":106.85449,"line":2},{"is_transit":false,"i_long":106.856607,"station_name":"Cawang","distance":1546,"transit":false,"time":3,"station_id":"CW","i_lat":-6.242512,"line":2},{"station_id":"TEB","distance":1230,"is_transit":false,"i_lat":-6.226659,"line":2,"time":2,"station_name":"Tebet","i_long":106.857948,"transit":false},{"time":4,"i_long":106.84912,"is_transit":true,"transit":true,"station_id":"MRI","distance":2610,"i_lat":-6.209883,"line":2,"station_name":"Manggarai"},{"is_transit":false,"transit":false,"i_long":106.822649,"line":1,"distance":3186,"station_id":"SUD","station_name":"Sudirman","time":4,"i_lat":-6.202263},{"is_transit":false,"time":1,"line":1,"i_lat":-6.201433,"transit":false,"station_name":"Sudirman Baru","i_long":106.819881,"station_id":"SUDB","distance":280},{"is_transit":false,"transit":false,"line":1,"station_id":"KAT","station_name":"Karet","distance":471,"i_lat":-6.20132,"i_long":106.816351,"time":1},{"time":5,"line":1,"station_name":"Tanah Abang","distance":2029,"i_long":106.811091,"station_id":"THB","is_transit":true,"i_lat":-6.185545,"transit":true},{"i_lat":-6.207404,"i_long":106.79689,"is_transit":false,"time":6,"transit":false,"line":6,"station_name":"Palmerah","station_id":"PLM","distance":3191},{"transit":false,"station_id":"KBY","distance":3737,"time":7,"i_lat":-6.237242,"line":6,"station_name":"Kebayoran","is_transit":false,"i_long":106.780334},{"distance":6218,"line":6,"station_name":"Pondokranji","station_id":"PDJ","is_transit":false,"i_lat":-6.276362,"transit":false,"time":8,"i_long":106.74273},{"time":3,"i_lat":-6.288927,"transit":false,"line":6,"is_transit":false,"station_id":"JMU","i_long":106.728916,"distance":2179,"station_name":"Jurangmangu"},{"station_name":"Sudimara","line":6,"transit":false,"is_transit":false,"station_id":"SDM","time":4,"distance":1994,"i_lat":-6.296963,"i_long":106.712277},{"line":6,"station_name":"Rawa Buntu","time":6,"transit":false,"i_lat":-6.314823,"station_id":"RU","i_long":106.675475,"is_transit":false,"distance":4566},{"distance":2413,"line":6,"is_transit":false,"time":4,"transit":false,"i_long":106.66566,"i_lat":-6.319871,"station_name":"Serpong","station_id":"SRP"},{"transit":false,"line":3,"distance":1784,"i_lat":-6.32484,"station_name":"Cisauk","is_transit":false,"time":4,"i_long":106.640411,"station_id":"CSK"},{"distance":2519,"i_lat":-6.329547,"i_long":106.617853,"is_transit":false,"transit":false,"station_id":"CC","line":3,"time":4,"station_name":"Cicayur"},{"i_long":106.568863,"distance":5968,"is_transit":false,"time":8,"i_lat":-6.3441410000000005,"transit":false,"line":6,"station_name":"Parung Panjang","station_id":"PRP"},{"is_transit":false,"line":3,"transit":false,"distance":7025,"station_name":"Cilejit","i_lat":-6.354349,"time":9,"station_id":"CJT","i_long":106.508482},{"line":0,"transit":false,"is_transit":false,"station_id":"DAR","time":6,"i_lat":-6.338021,"distance":2675,"station_name":"Daru","i_long":106.491338},{"i_lat":-6.327251,"station_id":"TEJ","line":6,"distance":3902,"i_long":106.460812,"is_transit":false,"transit":false,"station_name":"Tenjo","time":5}],[{"is_transit":false,"i_long":106.800298,"i_lat":-6.448811,"station_id":"CTA","station_name":"Citayam","distance":0,"line":2,"transit":false,"time":0},{"is_transit":false,"transit":false,"i_long":106.816926,"station_id":"DP","distance":5084,"line":2,"station_name":"Depok","time":6,"i_lat":-6.405256},{"station_name":"Depokbaru","i_lat":-6.391065,"i_long":106.819451,"line":2,"transit":false,"distance":1584,"is_transit":false,"time":3,"station_id":"DPB"},{"transit":false,"i_lat":-6.369073,"station_id":"POC","is_transit":false,"time":4,"distance":2727,"i_long":106.831114,"station_name":"Pondok Cina","line":2},{"transit":false,"station_id":"UI","distance":1109,"time":2,"i_lat":-6.360749,"station_name":"Univ. Indonesia","line":2,"i_long":106.831474,"is_transit":false},{"time":3,"station_name":"Univ. Pancasila","is_transit":false,"line":2,"station_id":"UP","i_long":106.834175,"transit":false,"distance":2264,"i_lat":-6.339291},{"i_lat":-6.330363,"i_long":106.832616,"is_transit":false,"line":2,"station_name":"Lenteng Agung","distance":1029,"time":2,"transit":false,"station_id":"LNA"},{"distance":2671,"station_name":"Tanjung Barat","station_id":"TNT","i_lat":-6.3080680000000005,"time":3,"i_long":106.838896,"transit":false,"is_transit":false,"line":2},{"station_id":"PSM","line":2,"i_long":106.843999,"transit":false,"station_name":"Pasar Minggu","is_transit":false,"time":4,"i_lat":-6.2842400000000005,"distance":2820},{"station_id":"PSMB","line":2,"time":2,"is_transit":false,"i_lat":-6.263214,"i_long":106.851577,"distance":2380,"transit":false,"station_name":"Pasar Minggu Baru"},{"is_transit":false,"line":2,"station_id":"DRN","station_name":"Duren Kalibata","transit":false,"time":2,"i_long":106.85449,"i_lat":-6.255332,"distance":824},{"i_lat":-6.242512,"station_id":"CW","is_transit":false,"i_long":106.856607,"distance":1546,"transit":false,"station_name":"Cawang","line":2,"time":3},{"is_transit":false,"time":2,"transit":false,"i_lat":-6.226659,"line":2,"station_name":"Tebet","station_id":"TEB","i_long":106.857948,"distance":1230},{"i_lat":-6.209883,"line":2,"station_id":"MRI","transit":false,"station_name":"Manggarai","distance":2610,"i_long":106.84912,"is_transit":false,"time":4},{"i_long":106.840169,"distance":1590,"station_name":"Cikini","station_id":"CKI","line":2,"transit":false,"is_transit":false,"i_lat":-6.198556,"time":4},{"line":2,"distance":1750,"station_id":"GDD","i_lat":-6.186295,"time":3,"transit":false,"i_long":106.832183,"station_name":"Gondangdia","is_transit":false},{"time":4,"i_lat":-6.166716,"station_name":"Juanda","transit":false,"i_long":106.828284,"is_transit":false,"distance":2015,"line":2,"station_id":"JUA"},{"distance":1149,"station_name":"Sawah Besar","i_lat":-6.160725,"time":2,"line":2,"transit":false,"station_id":"SW","is_transit":false,"i_long":106.827103},{"is_transit":false,"time":2,"distance":906,"transit":false,"line":2,"i_lat":-6.149769,"i_long":106.82482,"station_id":"MGB","station_name":"Manggabesar"},{"distance":1080,"station_name":"Jayakarta","i_long":106.820901,"line":2,"is_transit":false,"time":2,"i_lat":-6.141205,"transit":false,"station_id":"JAY"},{"i_long":106.812439,"station_id":"JAKK","distance":1264,"station_name":"Jakarta Kota","i_lat":-6.137569,"time":4,"is_transit":true,"transit":true,"line":2},{"transit":true,"distance":1364,"time":3,"station_name":"Kampung Bandan","is_transit":true,"i_lat":-6.132549,"i_long":106.826365,"line":4,"station_id":"KPB"},{"station_name":"Angke","is_transit":false,"transit":false,"time":9,"distance":4102,"i_lat":-6.144674,"line":1,"station_id":"AK","i_long":106.79867},{"distance":1230,"transit":false,"station_id":"DU","line":1,"i_lat":-6.155215,"i_long":106.800832,"is_transit":false,"time":4,"station_name":"Duri"},{"station_name":"Tanah Abang","distance":3632,"line":1,"station_id":"THB","transit":true,"time":8,"i_long":106.811091,"is_transit":true,"i_lat":-6.185545},{"station_name":"Palmerah","time":6,"transit":false,"is_transit":false,"i_lat":-6.207404,"line":6,"station_id":"PLM","distance":3191,"i_long":106.79689},{"distance":3737,"i_lat":-6.237242,"i_long":106.780334,"line":6,"station_name":"Kebayoran","station_id":"KBY","is_transit":false,"transit":false,"time":7},{"transit":false,"is_transit":false,"distance":6218,"station_name":"Pondokranji","time":8,"line":6,"station_id":"PDJ","i_long":106.74273,"i_lat":-6.276362},{"station_name":"Jurangmangu","i_long":106.728916,"is_transit":false,"station_id":"JMU","i_lat":-6.288927,"distance":2179,"transit":false,"time":3,"line":6},{"transit":false,"station_name":"Sudimara","is_transit":false,"i_lat":-6.296963,"station_id":"SDM","time":4,"i_long":106.712277,"distance":1994,"line":6},{"line":6,"is_transit":false,"distance":4566,"time":6,"transit":false,"station_name":"Rawa Buntu","station_id":"RU","i_lat":-6.314823,"i_long":106.675475},{"station_name":"Serpong","i_lat":-6.319871,"station_id":"SRP","time":4,"is_transit":false,"i_long":106.66566,"line":6,"transit":false,"distance":2413},{"i_long":106.640411,"transit":false,"distance":1784,"time":4,"station_id":"CSK","station_name":"Cisauk","is_transit":false,"line":3,"i_lat":-6.32484},{"time":4,"i_lat":-6.329547,"is_transit":false,"station_id":"CC","station_name":"Cicayur","transit":false,"distance":2519,"i_long":106.617853,"line":3},{"station_id":"PRP","distance":5968,"i_lat":-6.3441410000000005,"line":6,"transit":false,"station_name":"Parung Panjang","time":8,"is_transit":false,"i_long":106.568863},{"time":9,"line":3,"i_lat":-6.354349,"transit":false,"station_name":"Cilejit","distance":7025,"station_id":"CJT","i_long":106.508482,"is_transit":false},{"station_id":"DAR","station_name":"Daru","distance":2675,"i_lat":-6.338021,"time":6,"line":0,"transit":false,"i_long":106.491338,"is_transit":false},{"station_name":"Tenjo","station_id":"TEJ","i_lat":-6.327251,"transit":false,"time":5,"i_long":106.460812,"is_transit":false,"line":6,"distance":3902}],[{"i_lat":-6.448811,"line":2,"i_long":106.800298,"station_id":"CTA","time":0,"station_name":"Citayam","distance":0,"transit":false,"is_transit":false},{"time":6,"station_id":"DP","line":2,"i_lat":-6.405256,"station_name":"Depok","transit":false,"is_transit":false,"i_long":106.816926,"distance":5084},{"distance":1584,"line":2,"station_name":"Depokbaru","is_transit":false,"i_long":106.819451,"transit":false,"station_id":"DPB","time":3,"i_lat":-6.391065},{"line":2,"transit":false,"station_name":"Pondok Cina","time":4,"i_long":106.831114,"is_transit":false,"i_lat":-6.369073,"distance":2727,"station_id":"POC"},{"station_name":"Univ. Indonesia","transit":false,"is_transit":false,"line":2,"station_id":"UI","time":2,"distance":1109,"i_lat":-6.360749,"i_long":106.831474},{"line":2,"time":3,"is_transit":false,"transit":false,"i_long":106.834175,"station_id":"UP","station_name":"Univ. Pancasila","distance":2264,"i_lat":-6.339291},{"is_transit":false,"transit":false,"station_id":"LNA","station_name":"Lenteng Agung","time":2,"i_lat":-6.330363,"i_long":106.832616,"distance":1029,"line":2},{"station_id":"TNT","i_long":106.838896,"station_name":"Tanjung Barat","time":3,"line":2,"transit":false,"i_lat":-6.3080680000000005,"distance":2671,"is_transit":false},{"i_long":106.843999,"station_name":"Pasar Minggu","transit":false,"station_id":"PSM","line":2,"distance":2820,"i_lat":-6.2842400000000005,"is_transit":false,"time":4},{"station_id":"PSMB","time":2,"transit":false,"station_name":"Pasar Minggu Baru","i_lat":-6.263214,"i_long":106.851577,"line":2,"distance":2380,"is_transit":false},{"i_lat":-6.255332,"i_long":106.85449,"line":2,"transit":false,"station_id":"DRN","time":2,"distance":824,"station_name":"Duren Kalibata","is_transit":false},{"is_transit":false,"transit":false,"station_id":"CW","station_name":"Cawang","distance":1546,"i_lat":-6.242512,"time":3,"i_long":106.856607,"line":2},{"line":2,"i_lat":-6.226659,"i_long":106.857948,"station_id":"TEB","distance":1230,"transit":false,"time":2,"is_transit":false,"station_name":"Tebet"},{"distance":2610,"is_transit":true,"time":4,"i_long":106.84912,"i_lat":-6.209883,"station_name":"Manggarai","transit":true,"line":2,"station_id":"MRI"},{"station_id":"MTR","line":1,"time":2,"station_name":"Matraman","is_transit":false,"transit":false,"distance":1275,"i_lat":-6.212485,"i_long":106.858896},{"transit":true,"time":8,"station_name":"Jatinegara","line":1,"distance":1377,"i_long":106.86807400000001,"is_transit":true,"i_lat":-6.215091,"station_id":"JNG"},{"time":2,"line":11,"distance":1236,"i_lat":-6.209188,"station_id":"POK","station_name":"Pondok Jati","transit":false,"is_transit":false,"i_long":106.861737},{"transit":false,"i_lat":-6.193792,"is_transit":false,"distance":1829,"i_long":106.855437,"line":11,"station_id":"KMT","station_name":"Kramat","time":2},{"distance":973,"transit":false,"station_name":"Gang Sentiong","time":1,"station_id":"GST","is_transit":false,"i_long":106.850107,"i_lat":-6.185975,"line":11},{"distance":1567,"time":8,"i_long":106.84368,"is_transit":false,"transit":false,"i_lat":-6.174784,"line":11,"station_name":"Pasar Senen","station_id":"PSE"},{"distance":1436,"transit":false,"time":4,"is_transit":false,"i_lat":-6.161728,"line":11,"i_long":106.839204,"station_id":"KMO","station_name":"Kemayoran"},{"station_id":"RJW","is_transit":false,"distance":1901,"i_long":106.836569,"transit":false,"time":5,"i_lat":-6.14505,"line":11,"station_name":"Rajawali"},{"station_name":"Kampung Bandan","is_transit":true,"distance":1444,"line":4,"time":3,"transit":true,"i_lat":-6.132549,"station_id":"KPB","i_long":106.826365},{"i_lat":-6.144674,"station_id":"AK","i_long":106.79867,"transit":false,"line":1,"distance":4102,"station_name":"Angke","time":9,"is_transit":false},{"line":1,"i_long":106.800832,"transit":false,"station_id":"DU","time":4,"is_transit":false,"station_name":"Duri","distance":1230,"i_lat":-6.155215},{"i_lat":-6.185545,"time":8,"i_long":106.811091,"station_name":"Tanah Abang","transit":true,"distance":3632,"is_transit":true,"station_id":"THB","line":1},{"line":6,"transit":false,"i_lat":-6.207404,"i_long":106.79689,"time":6,"station_id":"PLM","distance":3191,"station_name":"Palmerah","is_transit":false},{"station_name":"Kebayoran","is_transit":false,"line":6,"i_long":106.780334,"time":7,"distance":3737,"i_lat":-6.237242,"station_id":"KBY","transit":false},{"time":8,"transit":false,"is_transit":false,"i_long":106.74273,"line":6,"station_id":"PDJ","distance":6218,"station_name":"Pondokranji","i_lat":-6.276362},{"station_name":"Jurangmangu","is_transit":false,"transit":false,"time":3,"distance":2179,"station_id":"JMU","i_lat":-6.288927,"line":6,"i_long":106.728916},{"station_name":"Sudimara","is_transit":false,"i_long":106.712277,"line":6,"time":4,"station_id":"SDM","distance":1994,"i_lat":-6.296963,"transit":false},{"is_transit":false,"i_lat":-6.314823,"transit":false,"station_name":"Rawa Buntu","distance":4566,"i_long":106.675475,"line":6,"time":6,"station_id":"RU"},{"distance":2413,"station_id":"SRP","i_long":106.66566,"transit":false,"i_lat":-6.319871,"time":4,"is_transit":false,"line":6,"station_name":"Serpong"},{"time":4,"station_id":"CSK","transit":false,"i_lat":-6.32484,"i_long":106.640411,"is_transit":false,"distance":1784,"station_name":"Cisauk","line":3},{"line":3,"station_id":"CC","i_lat":-6.329547,"transit":false,"time":4,"distance":2519,"station_name":"Cicayur","is_transit":false,"i_long":106.617853},{"i_long":106.568863,"station_id":"PRP","transit":false,"time":8,"station_name":"Parung Panjang","line":6,"distance":5968,"is_transit":false,"i_lat":-6.3441410000000005},{"i_long":106.508482,"time":9,"distance":7025,"i_lat":-6.354349,"line":3,"is_transit":false,"station_name":"Cilejit","station_id":"CJT","transit":false},{"is_transit":false,"station_id":"DAR","i_long":106.491338,"station_name":"Daru","time":6,"line":0,"transit":false,"i_lat":-6.338021,"distance":2675},{"station_name":"Tenjo","station_id":"TEJ","time":5,"i_lat":-6.327251,"i_long":106.460812,"is_transit":false,"transit":false,"line":6,"distance":3902}]]}