{"data":[[{"transit":false,"i_lat":-6.448811,"is_transit":false,"station_id":"CTA","time":0,"distance":0,"i_long":106.800298,"line":2,"station_name":"Citayam"},{"is_transit":false,"time":6,"line":2,"station_id":"DP","transit":false,"i_lat":-6.405256,"i_long":106.816926,"station_name":"Depok","distance":5084},{"i_long":106.819451,"line":2,"i_lat":-6.391065,"station_id":"DPB","station_name":"Depokbaru","time":3,"distance":1584,"is_transit":false,"transit":false},{"transit":false,"distance":2727,"station_id":"POC","station_name":"Pondok Cina","is_transit":false,"i_long":106.831114,"line":2,"time":4,"i_lat":-6.369073},{"transit":false,"time":2,"is_transit":false,"station_name":"Univ. Indonesia","distance":1109,"line":2,"station_id":"UI","i_long":106.831474,"i_lat":-6.360749},{"i_lat":-6.339291,"station_id":"UP","line":2,"i_long":106.834175,"time":3,"distance":2264,"is_transit":false,"transit":false,"station_name":"Univ. Pancasila"},{"transit":false,"time":2,"i_long":106.832616,"station_name":"Lenteng Agung","distance":1029,"station_id":"LNA","is_transit":false,"i_lat":-6.330363,"line":2},{"i_lat":-6.3080680000000005,"time":3,"distance":2671,"station_id":"TNT","i_long":106.838896,"line":2,"transit":false,"station_name":"Tanjung Barat","is_transit":false},{"time":4,"distance":2820,"i_long":106.843999,"line":2,"station_name":"Pasar Minggu","is_transit":false,"i_lat":-6.2842400000000005,"station_id":"PSM","transit":false},{"transit":false,"i_lat":-6.263214,"i_long":106.851577,"time":2,"line":2,"distance":2380,"station_name":"Pasar Minggu Baru","is_transit":false,"station_id":"PSMB"},{"line":2,"i_lat":-6.255332,"time":2,"distance":824,"station_id":"DRN","transit":false,"i_long":106.85449,"is_transit":false,"station_name":"Duren Kalibata"},{"transit":false,"station_id":"CW","i_long":106.856607,"time":3,"distance":1546,"i_lat":-6.242512,"station_name":"Cawang","line":2,"is_transit":false},{"station_id":"TEB","station_name":"Tebet","is_transit":false,"i_long":106.857948,"time":2,"transit":false,"line":2,"distance":1230,"i_lat":-6.226659},{"station_name":"Manggarai","time":4,"transit":true,"i_lat":-6.209883,"is_transit":true,"i_long":106.84912,"distance":2610,"line":2,"station_id":"MRI"},{"i_long":106.822649,"time":4,"distance":3186,"i_lat":-6.202263,"line":1,"station_id":"SUD","station_name":"Sudirman","transit":false,"is_transit":false},{"line":1,"time":1,"distance":280,"station_name":"Sudirman Baru","transit":false,"i_long":106.819881,"station_id":"SUDB","is_transit":false,"i_lat":-6.201433},{"time":1,"transit":false,"distance":471,"station_id":"KAT","station_name":"Karet","i_lat":-6.20132,"is_transit":false,"i_long":106.816351,"line":1},{"i_lat":-6.185545,"transit":true,"is_transit":true,"distance":2029,"time":5,"line":1,"station_id":"THB","station_name":"Tanah Abang","i_long":106.811091},{"distance":3191,"transit":false,"time":6,"i_long":106.79689,"line":6,"is_transit":false,"i_lat":-6.207404,"station_name":"Palmerah","station_id":"PLM"},{"is_transit":false,"station_name":"Kebayoran","i_lat":-6.237242,"i_long":106.780334,"transit":false,"line":6,"distance":3737,"time":7,"station_id":"KBY"},{"station_name":"Pondokranji","i_long":106.74273,"distance":6218,"station_id":"PDJ","time":8,"transit":false,"is_transit":false,"i_lat":-6.276362,"line":6},{"station_id":"JMU","is_transit":false,"distance":2179,"time":3,"i_lat":-6.288927,"i_long":106.728916,"line":6,"transit":false,"station_name":"Jurangmangu"},{"i_lat":-6.296963,"transit":false,"time":4,"distance":1994,"i_long":106.712277,"station_name":"Sudimara","station_id":"SDM","is_transit":false,"line":6},{"time":6,"line":6,"distance":4566,"i_long":106.675475,"is_transit":false,"transit":false,"station_name":"Rawa Buntu","station_id":"RU","i_lat":-6.314823},{"station_name":"Serpong","transit":false,"i_lat":-6.319871,"station_id":"SRP","distance":2413,"i_long":106.66566,"is_transit":false,"line":6,"time":4},{"transit":false,"station_name":"Cisauk","distance":1784,"station_id":"CSK","time":4,"i_lat":-6.32484,"line":3,"i_long":106.640411,"is_transit":false},{"transit":false,"station_name":"Cicayur","i_long":106.617853,"i_lat":-6.329547,"time":4,"distance":2519,"station_id":"CC","is_transit":false,"line":3},{"station_name":"Parung Panjang","i_lat":-6.3441410000000005,"distance":5968,"i_long":106.568863,"transit":false,"station_id":"PRP","is_transit":false,"time":8,"line":6},{"line":3,"time":9,"distance":7025,"is_transit":false,"station_name":"Cilejit","transit":false,"station_id":"CJT","i_lat":-6.354349,"i_long":106.508482},{"line":0,"i_long":106.491338,"transit":false,"is_transit":false,"time":6,"distance":2675,"station_name":"Daru","station_id":"DAR","i_lat":-6.338021},{"transit":false,"line":6,"i_lat":-6.327251,"station_name":"Tenjo","time":5,"station_id":"TEJ","is_transit":false,"i_long":106.460812,"distance":3902},{"station_id":"TGS","i_lat":-6.328533,"line":6,"distance":2974,"i_long":106.425991,"is_transit":false,"time":5,"transit":false,"station_name":"Tigaraksa"},{"i_lat":-6.33561,"station_id":"CKY","station_name":"Cikoya","line":3,"i_long":106.411216,"distance":2651,"time":3,"is_transit":false,"transit":false},{"i_long":106.394373,"station_name":"Maja","station_id":"MJ","is_transit":false,"line":6,"i_lat":-6.332307,"transit":false,"distance":1853,"time":4},{"i_long":106.332092,"station_id":"CTR","i_lat":-6.334892,"station_name":"Citeras","time":10,"line":3,"distance":7293,"transit":false,"is_transit":false}],[{"station_id":"CTA","transit":false,"line":2,"i_long":106.800298,"time":0,"is_transit":false,"station_name":"Citayam","distance":0,"i_lat":-6.448811},{"station_id":"DP","is_transit":false,"transit":false,"station_name":"Depok","distance":5084,"time":6,"i_lat":-6.405256,"i_long":106.816926,"line":2},{"is_transit":false,"distance":1584,"time":3,"i_long":106.819451,"station_id":"DPB","station_name":"Depokbaru","transit":false,"i_lat":-6.391065,"line":2},{"i_long":106.831114,"line":2,"is_transit":false,"station_id":"POC","time":4,"distance":2727,"transit":false,"station_name":"Pondok Cina","i_lat":-6.369073},{"station_name":"Univ. Indonesia","is_transit":false,"transit":false,"i_lat":-6.360749,"i_long":106.831474,"line":2,"distance":1109,"time":2,"station_id":"UI"},{"line":2,"i_lat":-6.339291,"station_id":"UP","i_long":106.834175,"transit":false,"station_name":"Univ. Pancasila","distance":2264,"time":3,"is_transit":false},{"transit":false,"station_id":"LNA","time":2,"i_lat":-6.330363,"line":2,"station_name":"Lenteng Agung","distance":1029,"is_transit":false,"i_long":106.832616},{"distance":2671,"station_id":"TNT","station_name":"Tanjung Barat","is_transit":false,"i_lat":-6.3080680000000005,"transit":false,"time":3,"i_long":106.838896,"line":2},{"line":2,"station_name":"Pasar Minggu","transit":false,"i_lat":-6.2842400000000005,"i_long":106.843999,"time":4,"distance":2820,"station_id":"PSM","is_transit":false},{"time":2,"station_name":"Pasar Minggu Baru","is_transit":false,"transit":false,"line":2,"i_long":106.851577,"i_lat":-6.263214,"distance":2380,"station_id":"PSMB"},{"station_name":"Duren Kalibata","line":2,"i_lat":-6.255332,"distance":824,"station_id":"DRN","is_transit":false,"time":2,"i_long":106.85449,"transit":false},{"distance":1546,"station_name":"Cawang","is_transit":false,"i_lat":-6.242512,"time":3,"line":2,"transit":false,"station_id":"CW","i_long":106.856607},{"i_long":106.857948,"line":2,"i_lat":-6.226659,"station_name":"Tebet","station_id":"TEB","distance":1230,"transit":false,"is_transit":false,"time":2},{"transit":false,"station_name":"Manggarai","line":2,"time":4,"distance":2610,"station_id":"MRI","i_lat":-6.209883,"i_long":106.84912,"is_transit":false},{"i_long":106.840169,"is_transit":false,"time":4,"station_name":"Cikini","line":2,"i_lat":-6.198556,"distance":1590,"station_id":"CKI","transit":false},{"time":3,"distance":1750,"i_lat":-6.186295,"is_transit":false,"station_id":"GDD","transit":false,"line":2,"i_long":106.832183,"station_name":"Gondangdia"},{"distance":2015,"time":4,"i_lat":-6.166716,"is_transit":false,"station_name":"Juanda","transit":false,"i_long":106.828284,"station_id":"JUA","line":2},{"distance":1149,"station_name":"Sawah Besar","line":2,"transit":false,"is_transit":false,"i_lat":-6.160725,"time":2,"station_id":"SW","i_long":106.827103},{"station_id":"MGB","is_transit":false,"i_lat":-6.149769,"distance":906,"transit":false,"time":2,"station_name":"Manggabesar","i_long":106.82482,"line":2},{"station_name":"Jayakarta","line":2,"transit":false,"i_long":106.820901,"time":2,"i_lat":-6.141205,"distance":1080,"station_id":"JAY","is_transit":false},{"is_transit":true,"distance":1264,"line":2,"transit":true,"station_id":"JAKK","i_lat":-6.137569,"i_long":106.812439,"time":4,"station_name":"Jakarta Kota"},{"i_lat":-6.132549,"distance":1364,"transit":true,"station_id":"KPB","line":4,"station_name":"Kampung Bandan","i_long":106.826365,"time":3,"is_transit":true},{"line":1,"is_transit":false,"transit":false,"distance":4102,"time":9,"i_lat":-6.144674,"station_name":"Angke","station_id":"AK","i_long":106.79867},{"distance":1230,"station_id":"DU","line":1,"is_transit":false,"transit":false,"station_name":"Duri","time":4,"i_long":106.800832,"i_lat":-6.155215},{"i_lat":-6.185545,"time":8,"is_transit":true,"i_long":106.811091,"station_name":"Tanah Abang","line":1,"distance":3632,"transit":true,"station_id":"THB"},{"time":6,"station_id":"PLM","distance":3191,"station_name":"Palmerah","i_long":106.79689,"transit":false,"is_transit":false,"line":6,"i_lat":-6.207404},{"station_name":"Kebayoran","i_lat":-6.237242,"transit":false,"is_transit":false,"time":7,"distance":3737,"i_long":106.780334,"line":6,"station_id":"KBY"},{"time":8,"is_transit":false,"station_id":"PDJ","i_lat":-6.276362,"line":6,"transit":false,"i_long":106.74273,"station_name":"Pondokranji","distance":6218},{"station_name":"Jurangmangu","i_lat":-6.288927,"transit":false,"i_long":106.728916,"distance":2179,"is_transit":false,"station_id":"JMU","time":3,"line":6},{"station_name":"Sudimara","station_id":"SDM","transit":false,"time":4,"distance":1994,"i_long":106.712277,"is_transit":false,"i_lat":-6.296963,"line":6},{"transit":false,"station_name":"Rawa Buntu","time":6,"i_lat":-6.314823,"line":6,"station_id":"RU","is_transit":false,"distance":4566,"i_long":106.675475},{"station_id":"SRP","station_name":"Serpong","line":6,"distance":2413,"i_lat":-6.319871,"transit":false,"time":4,"i_long":106.66566,"is_transit":false},{"distance":1784,"station_id":"CSK","i_lat":-6.32484,"time":4,"i_long":106.640411,"line":3,"is_transit":false,"transit":false,"station_name":"Cisauk"},{"time":4,"line":3,"i_lat":-6.329547,"distance":2519,"station_id":"CC","is_transit":false,"station_name":"Cicayur","i_long":106.617853,"transit":false},{"time":8,"i_long":106.568863,"station_name":"Parung Panjang","line":6,"distance":5968,"i_lat":-6.3441410000000005,"station_id":"PRP","is_transit":false,"transit":false},{"station_name":"Cilejit","i_long":106.508482,"i_lat":-6.354349,"time":9,"transit":false,"station_id":"CJT","is_transit":false,"line":3,"distance":7025},{"time":6,"station_id":"DAR","i_lat":-6.338021,"distance":2675,"transit":false,"i_long":106.491338,"is_transit":false,"station_name":"Daru","line":0},{"transit":false,"line":6,"station_name":"Tenjo","i_lat":-6.327251,"distance":3902,"i_long":106.460812,"station_id":"TEJ","is_transit":false,"time":5},{"station_name":"Tigaraksa","transit":false,"i_long":106.425991,"line":6,"station_id":"TGS","time":5,"is_transit":false,"i_lat":-6.328533,"distance":2974},{"i_lat":-6.33561,"station_name":"Cikoya","i_long":106.411216,"is_transit":false,"time":3,"distance":2651,"transit":false,"line":3,"station_id":"CKY"},{"station_id":"MJ","i_long":106.394373,"is_transit":false,"station_name":"Maja","distance":1853,"transit":false,"line":6,"i_lat":-6.332307,"time":4},{"time":10,"line":3,"distance":7293,"is_transit":false,"i_long":106.332092,"i_lat":-6.334892,"transit":false,"station_name":"Citeras","station_id":"CTR"}],[{"time":0,"i_long":106.800298,"i_lat":-6.448811,"line":2,"station_name":"Citayam","station_id":"CTA","distance":0,"transit":false,"is_transit":false},{"station_name":"Depok","i_long":106.816926,"line":2,"distance":5084,"time":6,"transit":false,"is_transit":false,"i_lat":-6.405256,"station_id":"DP"},{"transit":false,"distance":1584,"time":3,"i_lat":-6.391065,"station_name":"Depokbaru","i_long":106.819451,"is_transit":false,"line":2,"station_id":"DPB"},{"is_transit":false,"time":4,"station_name":"Pondok Cina","distance":2727,"transit":false,"i_lat":-6.369073,"i_long":106.831114,"station_id":"POC","line":2},{"i_lat":-6.360749,"i_long":106.831474,"distance":1109,"transit":false,"time":2,"line":2,"station_id":"UI","station_name":"Univ. Indonesia","is_transit":false},{"is_transit":false,"station_id":"UP","transit":false,"i_lat":-6.339291,"station_name":"Univ. Pancasila","i_long":106.834175,"distance":2264,"time":3,"line":2},{"transit":false,"station_id":"LNA","is_transit":false,"i_lat":-6.330363,"time":2,"i_long":106.832616,"line":2,"station_name":"Lenteng Agung","distance":1029},{"station_name":"Tanjung Barat","i_lat":-6.3080680000000005,"time":3,"transit":false,"line":2,"station_id":"TNT","is_transit":false,"i_long":106.838896,"distance":2671},{"line":2,"i_long":106.843999,"station_name":"Pasar Minggu","is_transit":false,"time":4,"i_lat":-6.2842400000000005,"distance":2820,"station_id":"PSM","transit":false},{"station_name":"Pasar Minggu Baru","distance":2380,"i_lat":-6.263214,"i_long":106.851577,"station_id":"PSMB","time":2,"is_transit":false,"transit":false,"line":2},{"station_id":"DRN","i_long":106.85449,"distance":824,"transit":false,"time":2,"line":2,"station_name":"Duren Kalibata","is_transit":false,"i_lat":-6.255332},{"distance":1546,"is_transit":false,"time":3,"line":2,"station_id":"CW","station_name":"Cawang","transit":false,"i_lat":-6.242512,"i_long":106.856607},{"is_transit":false,"line":2,"time":2,"station_name":"Tebet","distance":1230,"transit":false,"i_lat":-6.226659,"i_long":106.857948,"station_id":"TEB"},{"station_id":"MRI","is_transit":true,"line":2,"transit":true,"station_name":"Manggarai","time":4,"i_long":106.84912,"i_lat":-6.209883,"distance":2610},{"station_id":"MTR","i_long":106.858896,"station_name":"Matraman","time":2,"transit":false,"line":1,"distance":1275,"i_lat":-6.212485,"is_transit":false},{"i_long":106.86807400000001,"time":8,"line":1,"station_name":"Jatinegara","is_transit":true,"distance":1377,"transit":true,"station_id":"JNG","i_lat":-6.215091},{"station_name":"Pondok Jati","time":2,"i_long":106.861737,"is_transit":false,"distance":1236,"i_lat":-6.209188,"line":11,"station_id":"POK","transit":false},{"is_transit":false,"i_long":106.855437,"time":2,"station_name":"Kramat","transit":false,"line":11,"i_lat":-6.193792,"station_id":"KMT","distance":1829},{"i_lat":-6.185975,"i_long":106.850107,"station_name":"Gang Sentiong","line":11,"is_transit":false,"station_id":"GST","time":1,"distance":973,"transit":false},{"time":8,"distance":1567,"is_transit":false,"station_id":"PSE","i_long":106.84368,"line":11,"transit":false,"i_lat":-6.174784,"station_name":"Pasar Senen"},{"distance":1436,"transit":false,"station_name":"Kemayoran","station_id":"KMO","time":4,"i_long":106.839204,"is_transit":false,"i_lat":-6.161728,"line":11},{"time":5,"station_name":"Rajawali","transit":false,"i_long":106.836569,"station_id":"RJW","is_transit":false,"i_lat":-6.14505,"line":11,"distance":1901},{"i_lat":-6.132549,"i_long":106.826365,"is_transit":true,"transit":true,"station_id":"KPB","time":3,"distance":1444,"line":4,"station_name":"Kampung Bandan"},{"distance":4102,"time":9,"line":1,"transit":false,"station_id":"AK","station_name":"Angke","is_transit":false,"i_long":106.79867,"i_lat":-6.144674},{"is_transit":false,"transit":false,"time":4,"i_lat":-6.155215,"distance":1230,"line":1,"i_long":106.800832,"station_id":"DU","station_name":"Duri"},{"time":8,"station_id":"THB","station_name":"Tanah Abang","line":1,"transit":true,"i_lat":-6.185545,"distance":3632,"is_transit":true,"i_long":106.811091},{"i_long":106.79689,"distance":3191,"line":6,"is_transit":false,"station_id":"PLM","time":6,"i_lat":-6.207404,"station_name":"Palmerah","transit":false},{"is_transit":false,"time":7,"i_long":106.780334,"i_lat":-6.237242,"distance":3737,"station_id":"KBY","station_name":"Kebayoran","line":6,"transit":false},{"line":6,"distance":6218,"is_transit":false,"station_name":"Pondokranji","i_long":106.74273,"transit":false,"time":8,"station_id":"PDJ","i_lat":-6.276362},{"distance":2179,"i_lat":-6.288927,"transit":false,"station_id":"JMU","time":3,"is_transit":false,"i_long":106.728916,"line":6,"station_name":"Jurangmangu"},{"i_lat":-6.296963,"line":6,"distance":1994,"station_id":"SDM","station_name":"Sudimara","time":4,"is_transit":false,"i_long":106.712277,"transit":false},{"i_lat":-6.314823,"distance":4566,"is_transit":false,"i_long":106.675475,"transit":false,"time":6,"line":6,"station_name":"Rawa Buntu","station_id":"RU"},{"i_long":106.66566,"line":6,"station_id":"SRP","is_transit":false,"i_lat":-6.319871,"distance":2413,"transit":false,"time":4,"station_name":"Serpong"},{"i_long":106.640411,"distance":1784,"is_transit":false,"station_name":"Cisauk","transit":false,"line":3,"station_id":"CSK","i_lat":-6.32484,"time":4},{"distance":2519,"is_transit":false,"i_long":106.617853,"i_lat":-6.329547,"transit":false,"station_id":"CC","time":4,"line":3,"station_name":"Cicayur"},{"time":8,"distance":5968,"station_name":"Parung Panjang","i_lat":-6.3441410000000005,"is_transit":false,"line":6,"transit":false,"i_long":106.568863,"station_id":"PRP"},{"distance":7025,"transit":false,"station_id":"CJT","is_transit":false,"time":9,"i_lat":-6.354349,"line":3,"station_name":"Cilejit","i_long":106.508482},{"line":0,"distance":2675,"time":6,"i_long":106.491338,"transit":false,"i_lat":-6.338021,"station_id":"DAR","is_transit":false,"station_name":"Daru"},{"is_transit":false,"time":5,"distance":3902,"transit":false,"i_lat":-6.327251,"station_id":"TEJ","i_long":106.460812,"line":6,"station_name":"Tenjo"},{"distance":2974,"i_long":106.425991,"station_id":"TGS","transit":false,"station_name":"Tigaraksa","time":5,"i_lat":-6.328533,"line":6,"is_transit":false},{"line":3,"station_name":"Cikoya","station_id":"CKY","i_lat":-6.33561,"transit":false,"i_long":106.411216,"is_transit":false,"time":3,"distance":2651},{"transit":false,"is_transit":false,"line":6,"i_lat":-6.332307,"station_id":"MJ","station_name":"Maja","time":4,"i_long":106.394373,"distance":1853},{"transit":false,"line":3,"time":10,"i_lat":-6.334892,"i_long":106.332092,"station_id":"CTR","is_transit":false,"distance":7293,"station_name":"Citeras"}]]}