{"data":[[{"line":2,"i_long":106.800298,"i_lat":-6.448811,"transit":false,"station_name":"Citayam","is_transit":false,"station_id":"CTA","time":0,"distance":0},{"transit":false,"distance":5084,"i_lat":-6.405256,"time":6,"station_id":"DP","is_transit":false,"line":2,"station_name":"Depok","i_long":106.816926},{"time":3,"distance":1584,"i_long":106.819451,"line":2,"station_id":"DPB","transit":false,"station_name":"Depokbaru","is_transit":false,"i_lat":-6.391065},{"line":2,"is_transit":false,"station_id":"POC","distance":2727,"station_name":"Pondok Cina","transit":false,"time":4,"i_lat":-6.369073,"i_long":106.831114},{"time":2,"distance":1109,"is_transit":false,"line":2,"station_id":"UI","transit":false,"station_name":"Univ. Indonesia","i_lat":-6.360749,"i_long":106.831474},{"i_long":106.834175,"is_transit":false,"line":2,"station_name":"Univ. Pancasila","time":3,"distance":2264,"station_id":"UP","transit":false,"i_lat":-6.339291},{"time":2,"station_id":"LNA","distance":1029,"station_name":"Lenteng Agung","i_lat":-6.330363,"i_long":106.832616,"transit":false,"is_transit":false,"line":2},{"i_lat":-6.3080680000000005,"time":3,"station_id":"TNT","station_name":"Tanjung Barat","distance":2671,"is_transit":false,"transit":false,"line":2,"i_long":106.838896},{"distance":2820,"station_name":"Pasar Minggu","is_transit":false,"i_long":106.843999,"i_lat":-6.2842400000000005,"line":2,"station_id":"PSM","time":4,"transit":false},{"is_transit":false,"i_lat":-6.263214,"station_id":"PSMB","transit":false,"station_name":"Pasar Minggu Baru","i_long":106.851577,"line":2,"distance":2380,"time":2},{"station_id":"DRN","station_name":"Duren Kalibata","is_transit":false,"transit":false,"i_long":106.85449,"i_lat":-6.255332,"distance":824,"time":2,"line":2},{"i_lat":-6.242512,"time":3,"transit":false,"distance":1546,"station_name":"Cawang","i_long":106.856607,"is_transit":false,"line":2,"station_id":"CW"},{"transit":false,"i_lat":-6.226659,"i_long":106.857948,"station_id":"TEB","is_transit":false,"time":2,"station_name":"Tebet","distance":1230,"line":2},{"time":4,"distance":2610,"is_transit":true,"line":2,"i_lat":-6.209883,"station_name":"Manggarai","transit":true,"station_id":"MRI","i_long":106.84912},{"line":1,"transit":false,"i_long":106.858896,"distance":1275,"station_name":"Matraman","is_transit":false,"station_id":"MTR","time":2,"i_lat":-6.212485},{"i_lat":-6.215091,"line":1,"distance":1377,"i_long":106.86807400000001,"is_transit":false,"time":8,"station_id":"JNG","station_name":"Jatinegara","transit":false},{"station_id":"KLD","i_lat":-6.2135,"time":3,"distance":3395,"i_long":106.899548,"line":1,"station_name":"Klender","is_transit":false,"transit":false},{"i_long":106.922662,"i_lat":-6.215568,"is_transit":false,"station_id":"BUA","time":2,"distance":3100,"line":1,"station_name":"Buaran","transit":false},{"transit":false,"i_long":106.939679,"station_id":"KLDB","time":1,"station_name":"Klenderbaru","i_lat":-6.217455,"distance":1305,"line":1,"is_transit":false},{"station_id":"CUK","station_name":"Cakung","is_transit":false,"i_long":106.951283,"line":1,"time":8,"distance":1385,"transit":false,"i_lat":-6.219053},{"is_transit":false,"line":1,"i_lat":-6.224515,"i_long":106.977657,"distance":3097,"station_name":"Kranji","time":3,"station_id":"KRI","transit":false}],[{"line":2,"station_name":"Citayam","i_lat":-6.448811,"is_transit":false,"transit":false,"time":0,"distance":0,"station_id":"CTA","i_long":106.800298},{"station_id":"DP","distance":5084,"is_transit":false,"station_name":"Depok","time":6,"i_lat":-6.405256,"i_long":106.816926,"line":2,"transit":false},{"station_name":"Depokbaru","i_lat":-6.391065,"station_id":"DPB","is_transit":false,"i_long":106.819451,"transit":false,"line":2,"distance":1584,"time":3},{"time":4,"i_lat":-6.369073,"distance":2727,"station_name":"Pondok Cina","line":2,"is_transit":false,"station_id":"POC","i_long":106.831114,"transit":false},{"station_name":"Univ. Indonesia","station_id":"UI","distance":1109,"transit":false,"time":2,"i_lat":-6.360749,"i_long":106.831474,"line":2,"is_transit":false},{"line":2,"time":3,"i_lat":-6.339291,"i_long":106.834175,"is_transit":false,"station_id":"UP","transit":false,"station_name":"Univ. Pancasila","distance":2264},{"time":2,"station_name":"Lenteng Agung","transit":false,"i_long":106.832616,"line":2,"is_transit":false,"i_lat":-6.330363,"station_id":"LNA","distance":1029},{"is_transit":false,"time":3,"distance":2671,"station_id":"TNT","line":2,"station_name":"Tanjung Barat","transit":false,"i_lat":-6.3080680000000005,"i_long":106.838896},{"station_name":"Pasar Minggu","transit":false,"time":4,"station_id":"PSM","distance":2820,"i_long":106.843999,"i_lat":-6.2842400000000005,"is_transit":false,"line":2},{"is_transit":false,"time":2,"station_id":"PSMB","i_long":106.851577,"distance":2380,"i_lat":-6.263214,"transit":false,"line":2,"station_name":"Pasar Minggu Baru"},{"station_id":"DRN","line":2,"i_long":106.85449,"is_transit":false,"time":2,"i_lat":-6.255332,"distance":824,"transit":false,"station_name":"Duren Kalibata"},{"time":3,"station_name":"Cawang","i_lat":-6.242512,"i_long":106.856607,"transit":false,"is_transit":false,"station_id":"CW","distance":1546,"line":2},{"station_id":"TEB","i_lat":-6.226659,"line":2,"distance":1230,"station_name":"Tebet","transit":false,"time":2,"is_transit":false,"i_long":106.857948},{"i_lat":-6.209883,"transit":true,"i_long":106.84912,"distance":2610,"station_id":"MRI","is_transit":true,"time":4,"station_name":"Manggarai","line":2},{"i_lat":-6.202263,"line":1,"station_name":"Sudirman","distance":3186,"station_id":"SUD","transit":false,"time":4,"is_transit":false,"i_long":106.822649},{"station_name":"Sudirman Baru","time":1,"station_id":"SUDB","i_lat":-6.201433,"is_transit":false,"transit":false,"distance":280,"i_long":106.819881,"line":1},{"station_name":"Karet","i_long":106.816351,"is_transit":false,"time":1,"transit":false,"distance":471,"i_lat":-6.20132,"line":1,"station_id":"KAT"},{"is_transit":false,"transit":false,"distance":2029,"station_name":"Tanah Abang","i_lat":-6.185545,"line":1,"time":5,"i_long":106.811091,"station_id":"THB"},{"transit":false,"time":8,"i_long":106.800832,"i_lat":-6.155215,"station_name":"Duri","station_id":"DU","is_transit":false,"line":1,"distance":3632},{"is_transit":false,"line":1,"i_long":106.79867,"transit":false,"time":4,"i_lat":-6.144674,"station_name":"Angke","station_id":"AK","distance":1230},{"distance":4102,"is_transit":true,"time":9,"i_lat":-6.132549,"station_name":"Kampung Bandan","line":4,"transit":true,"station_id":"KPB","i_long":106.826365},{"time":3,"i_lat":-6.14505,"transit":false,"is_transit":false,"line":11,"distance":1444,"station_name":"Rajawali","i_long":106.836569,"station_id":"RJW"},{"transit":false,"i_lat":-6.161728,"station_name":"Kemayoran","time":5,"is_transit":false,"distance":1901,"line":11,"station_id":"KMO","i_long":106.839204},{"time":4,"station_id":"PSE","i_long":106.84368,"transit":false,"station_name":"Pasar Senen","is_transit":false,"distance":1436,"line":11,"i_lat":-6.174784},{"time":8,"station_id":"GST","transit":false,"station_name":"Gang Sentiong","distance":1567,"is_transit":false,"i_lat":-6.185975,"i_long":106.850107,"line":11},{"line":11,"distance":973,"time":1,"is_transit":false,"station_id":"KMT","i_lat":-6.193792,"station_name":"Kramat","transit":false,"i_long":106.855437},{"i_long":106.861737,"transit":false,"is_transit":false,"station_name":"Pondok Jati","i_lat":-6.209188,"time":2,"station_id":"POK","line":11,"distance":1829},{"transit":true,"time":9,"station_id":"JNG","i_lat":-6.215091,"distance":1236,"i_long":106.86807400000001,"station_name":"Jatinegara","is_transit":true,"line":1},{"station_id":"KLD","station_name":"Klender","i_long":106.899548,"is_transit":false,"time":3,"distance":3395,"i_lat":-6.2135,"transit":false,"line":1},{"is_transit":false,"time":2,"station_name":"Buaran","station_id":"BUA","distance":3100,"line":1,"i_long":106.922662,"transit":false,"i_lat":-6.215568},{"distance":1305,"i_lat":-6.217455,"station_name":"Klenderbaru","transit":false,"i_long":106.939679,"station_id":"KLDB","time":1,"line":1,"is_transit":false},{"time":8,"distance":1385,"line":1,"transit":false,"station_id":"CUK","i_lat":-6.219053,"i_long":106.951283,"station_name":"Cakung","is_transit":false},{"station_name":"Kranji","is_transit":false,"time":3,"i_long":106.977657,"distance":3097,"i_lat":-6.224515,"station_id":"KRI","transit":false,"line":1}],[{"station_id":"CTA","distance":0,"line":2,"station_name":"Citayam","transit":false,"i_long":106.800298,"time":0,"is_transit":false,"i_lat":-6.448811},{"i_lat":-6.405256,"station_name":"Depok","distance":5084,"line":2,"station_id":"DP","transit":false,"is_transit":false,"i_long":106.816926,"time":6},{"i_lat":-6.391065,"station_name":"Depokbaru","time":3,"station_id":"DPB","i_long":106.819451,"is_transit":false,"transit":false,"distance":1584,"line":2},{"time":4,"distance":2727,"transit":false,"line":2,"i_lat":-6.369073,"is_transit":false,"station_id":"POC","i_long":106.831114,"station_name":"Pondok Cina"},{"time":2,"distance":1109,"i_long":106.831474,"line":2,"transit":false,"is_transit":false,"station_name":"Univ. Indonesia","station_id":"UI","i_lat":-6.360749},{"station_id":"UP","station_name":"Univ. Pancasila","is_transit":false,"i_long":106.834175,"line":2,"time":3,"distance":2264,"i_lat":-6.339291,"transit":false},{"line":2,"station_name":"Lenteng Agung","transit":false,"distance":1029,"i_long":106.832616,"is_transit":false,"station_id":"LNA","time":2,"i_lat":-6.330363},{"distance":2671,"line":2,"transit":false,"i_long":106.838896,"is_transit":false,"i_lat":-6.3080680000000005,"station_id":"TNT","time":3,"station_name":"Tanjung Barat"},{"transit":false,"time":4,"i_long":106.843999,"i_lat":-6.2842400000000005,"distance":2820,"line":2,"station_name":"Pasar Minggu","is_transit":false,"station_id":"PSM"},{"line":2,"time":2,"transit":false,"is_transit":false,"i_long":106.851577,"i_lat":-6.263214,"distance":2380,"station_id":"PSMB","station_name":"Pasar Minggu Baru"},{"is_transit":false,"transit":false,"i_lat":-6.255332,"time":2,"i_long":106.85449,"distance":824,"station_name":"Duren Kalibata","line":2,"station_id":"DRN"},{"i_long":106.856607,"time":3,"distance":1546,"line":2,"station_id":"CW","station_name":"Cawang","transit":false,"is_transit":false,"i_lat":-6.242512},{"time":2,"i_lat":-6.226659,"distance":1230,"i_long":106.857948,"line":2,"station_name":"Tebet","station_id":"TEB","is_transit":false,"transit":false},{"is_transit":false,"i_lat":-6.209883,"i_long":106.84912,"station_id":"MRI","time":4,"station_name":"Manggarai","distance":2610,"line":2,"transit":false},{"distance":1590,"station_id":"CKI","is_transit":false,"i_lat":-6.198556,"i_long":106.840169,"transit":false,"line":2,"station_name":"Cikini","time":4},{"transit":false,"i_long":106.832183,"line":2,"station_id":"GDD","is_transit":false,"time":3,"distance":1750,"i_lat":-6.186295,"station_name":"Gondangdia"},{"line":2,"i_lat":-6.166716,"transit":false,"station_name":"Juanda","i_long":106.828284,"station_id":"JUA","is_transit":false,"time":4,"distance":2015},{"i_lat":-6.160725,"i_long":106.827103,"line":2,"station_id":"SW","is_transit":false,"time":2,"transit":false,"distance":1149,"station_name":"Sawah Besar"},{"i_long":106.82482,"station_id":"MGB","station_name":"Manggabesar","time":2,"i_lat":-6.149769,"line":2,"is_transit":false,"distance":906,"transit":false},{"distance":1080,"i_lat":-6.141205,"time":2,"station_name":"Jayakarta","station_id":"JAY","i_long":106.820901,"line":2,"is_transit":false,"transit":false},{"i_long":106.812439,"station_name":"Jakarta Kota","line":2,"time":4,"i_lat":-6.137569,"station_id":"JAKK","transit":true,"is_transit":true,"distance":1264},{"line":4,"time":3,"i_long":106.826365,"station_name":"Kampung Bandan","is_transit":true,"transit":true,"distance":1364,"i_lat":-6.132549,"station_id":"KPB"},{"is_transit":false,"time":3,"station_name":"Rajawali","distance":1444,"i_long":106.836569,"station_id":"RJW","transit":false,"line":11,"i_lat":-6.14505},{"time":5,"station_id":"KMO","is_transit":false,"station_name":"Kemayoran","distance":1901,"transit":false,"i_lat":-6.161728,"i_long":106.839204,"line":11},{"station_id":"PSE","i_long":106.84368,"is_transit":false,"time":4,"station_name":"Pasar Senen","transit":false,"i_lat":-6.174784,"distance":1436,"line":11},{"station_name":"Gang Sentiong","i_lat":-6.185975,"time":8,"station_id":"GST","is_transit":false,"i_long":106.850107,"line":11,"transit":false,"distance":1567},{"station_name":"Kramat","station_id":"KMT","time":1,"is_transit":false,"transit":false,"i_lat":-6.193792,"i_long":106.855437,"distance":973,"line":11},{"time":2,"i_lat":-6.209188,"i_long":106.861737,"transit":false,"is_transit":false,"station_name":"Pondok Jati","line":11,"station_id":"POK","distance":1829},{"line":1,"station_name":"Jatinegara","i_long":106.86807400000001,"i_lat":-6.215091,"station_id":"JNG","is_transit":true,"time":9,"transit":true,"distance":1236},{"station_name":"Klender","station_id":"KLD","is_transit":false,"distance":3395,"i_long":106.899548,"line":1,"i_lat":-6.2135,"transit":false,"time":3},{"i_lat":-6.215568,"line":1,"i_long":106.922662,"time":2,"station_id":"BUA","is_transit":false,"station_name":"Buaran","distance":3100,"transit":false},{"line":1,"is_transit":false,"distance":1305,"station_id":"KLDB","i_lat":-6.217455,"i_long":106.939679,"station_name":"Klenderbaru","time":1,"transit":false},{"is_transit":false,"time":8,"station_id":"CUK","i_lat":-6.219053,"i_long":106.951283,"line":1,"station_name":"Cakung","transit":false,"distance":1385},{"i_lat":-6.224515,"time":3,"line":1,"is_transit":false,"distance":3097,"station_name":"Kranji","station_id":"KRI","transit":false,"i_long":106.977657}]]}