{"data":[[{"line":2,"i_long":106.800298,"station_name":"Citayam","i_lat":-6.448811,"transit":false,"distance":0,"time":0,"is_transit":false,"station_id":"CTA"},{"line":2,"time":6,"station_id":"DP","is_transit":false,"i_lat":-6.405256,"transit":false,"distance":5084,"station_name":"Depok","i_long":106.816926},{"i_lat":-6.391065,"station_name":"Depokbaru","time":3,"transit":false,"station_id":"DPB","line":2,"i_long":106.819451,"is_transit":false,"distance":1584},{"is_transit":false,"time":4,"distance":2727,"station_id":"POC","line":2,"station_name":"Pondok Cina","transit":false,"i_long":106.831114,"i_lat":-6.369073},{"is_transit":false,"station_id":"UI","station_name":"Univ. Indonesia","distance":1109,"i_long":106.831474,"line":2,"time":2,"i_lat":-6.360749,"transit":false},{"i_lat":-6.339291,"i_long":106.834175,"line":2,"time":3,"distance":2264,"station_id":"UP","station_name":"Univ. Pancasila","transit":false,"is_transit":false},{"transit":false,"station_id":"LNA","station_name":"Lenteng Agung","i_lat":-6.330363,"time":2,"is_transit":false,"distance":1029,"line":2,"i_long":106.832616},{"time":3,"transit":false,"station_id":"TNT","i_lat":-6.3080680000000005,"station_name":"Tanjung Barat","distance":2671,"is_transit":false,"i_long":106.838896,"line":2},{"transit":false,"time":4,"station_id":"PSM","distance":2820,"line":2,"station_name":"Pasar Minggu","i_lat":-6.2842400000000005,"i_long":106.843999,"is_transit":false},{"time":2,"i_lat":-6.263214,"station_id":"PSMB","line":2,"distance":2380,"is_transit":false,"transit":false,"station_name":"Pasar Minggu Baru","i_long":106.851577},{"station_name":"Duren Kalibata","is_transit":false,"i_lat":-6.255332,"time":2,"distance":824,"transit":false,"station_id":"DRN","i_long":106.85449,"line":2},{"line":2,"station_id":"CW","i_lat":-6.242512,"time":3,"distance":1546,"is_transit":false,"transit":false,"station_name":"Cawang","i_long":106.856607}]]}