{"data":[[{"is_transit":false,"time":0,"transit":false,"i_long":106.800298,"line":2,"i_lat":-6.448811,"distance":0,"station_id":"CTA","station_name":"Citayam"},{"is_transit":false,"i_lat":-6.405256,"i_long":106.816926,"station_name":"Depok","transit":false,"time":6,"distance":5084,"line":2,"station_id":"DP"},{"station_id":"DPB","i_lat":-6.391065,"station_name":"Depokbaru","time":3,"distance":1584,"line":2,"i_long":106.819451,"is_transit":false,"transit":false},{"i_long":106.831114,"station_name":"Pondok Cina","time":4,"transit":false,"station_id":"POC","line":2,"is_transit":false,"i_lat":-6.369073,"distance":2727},{"distance":1109,"station_name":"Univ. Indonesia","i_long":106.831474,"station_id":"UI","time":2,"is_transit":false,"transit":false,"line":2,"i_lat":-6.360749},{"time":3,"is_transit":false,"station_name":"Univ. Pancasila","line":2,"transit":false,"i_lat":-6.339291,"station_id":"UP","i_long":106.834175,"distance":2264},{"line":2,"distance":1029,"i_long":106.832616,"station_id":"LNA","station_name":"Lenteng Agung","i_lat":-6.330363,"time":2,"transit":false,"is_transit":false},{"i_lat":-6.3080680000000005,"transit":false,"time":3,"i_long":106.838896,"line":2,"station_name":"Tanjung Barat","is_transit":false,"station_id":"TNT","distance":2671},{"distance":2820,"i_lat":-6.2842400000000005,"time":4,"line":2,"i_long":106.843999,"station_id":"PSM","station_name":"Pasar Minggu","transit":false,"is_transit":false},{"i_long":106.851577,"time":2,"transit":false,"is_transit":false,"distance":2380,"station_name":"Pasar Minggu Baru","line":2,"station_id":"PSMB","i_lat":-6.263214},{"i_lat":-6.255332,"distance":824,"station_id":"DRN","is_transit":false,"i_long":106.85449,"transit":false,"time":2,"line":2,"station_name":"Duren Kalibata"},{"distance":1546,"is_transit":false,"i_lat":-6.242512,"line":2,"transit":false,"station_id":"CW","time":3,"station_name":"Cawang","i_long":106.856607},{"distance":1230,"transit":false,"time":2,"station_id":"TEB","i_lat":-6.226659,"i_long":106.857948,"station_name":"Tebet","is_transit":false,"line":2},{"station_id":"MRI","line":2,"i_lat":-6.209883,"transit":true,"i_long":106.84912,"time":4,"distance":2610,"is_transit":true,"station_name":"Manggarai"},{"transit":false,"station_name":"Sudirman","i_long":106.822649,"i_lat":-6.202263,"line":1,"time":4,"is_transit":false,"station_id":"SUD","distance":3186},{"time":1,"is_transit":false,"station_id":"SUDB","i_lat":-6.201433,"transit":false,"line":1,"distance":280,"station_name":"Sudirman Baru","i_long":106.819881},{"i_lat":-6.20132,"transit":false,"i_long":106.816351,"line":1,"station_name":"Karet","distance":471,"is_transit":false,"time":1,"station_id":"KAT"},{"station_id":"THB","station_name":"Tanah Abang","i_long":106.811091,"line":1,"is_transit":true,"i_lat":-6.185545,"time":5,"transit":true,"distance":2029},{"transit":false,"i_lat":-6.207404,"is_transit":false,"distance":3191,"i_long":106.79689,"station_name":"Palmerah","time":6,"station_id":"PLM","line":6},{"time":7,"i_long":106.780334,"i_lat":-6.237242,"distance":3737,"station_id":"KBY","is_transit":false,"line":6,"station_name":"Kebayoran","transit":false},{"i_lat":-6.276362,"station_name":"Pondokranji","time":8,"distance":6218,"transit":false,"i_long":106.74273,"station_id":"PDJ","line":6,"is_transit":false},{"distance":2179,"time":3,"is_transit":false,"i_lat":-6.288927,"i_long":106.728916,"transit":false,"station_id":"JMU","line":6,"station_name":"Jurangmangu"},{"is_transit":false,"distance":1994,"station_id":"SDM","i_long":106.712277,"line":6,"i_lat":-6.296963,"station_name":"Sudimara","time":4,"transit":false},{"i_long":106.675475,"time":6,"is_transit":false,"distance":4566,"line":6,"i_lat":-6.314823,"station_name":"Rawa Buntu","transit":false,"station_id":"RU"},{"station_name":"Serpong","is_transit":false,"i_long":106.66566,"time":4,"i_lat":-6.319871,"transit":false,"station_id":"SRP","line":6,"distance":2413},{"i_lat":-6.32484,"time":4,"i_long":106.640411,"distance":1784,"line":3,"station_id":"CSK","is_transit":false,"station_name":"Cisauk","transit":false},{"time":4,"distance":2519,"transit":false,"station_name":"Cicayur","station_id":"CC","is_transit":false,"line":3,"i_lat":-6.329547,"i_long":106.617853},{"station_id":"PRP","time":8,"station_name":"Parung Panjang","i_long":106.568863,"line":6,"is_transit":false,"transit":false,"distance":5968,"i_lat":-6.3441410000000005}],[{"i_long":106.800298,"distance":0,"station_name":"Citayam","line":2,"time":0,"is_transit":false,"transit":false,"station_id":"CTA","i_lat":-6.448811},{"i_lat":-6.405256,"i_long":106.816926,"is_transit":false,"distance":5084,"station_id":"DP","transit":false,"station_name":"Depok","line":2,"time":6},{"is_transit":false,"time":3,"station_name":"Depokbaru","distance":1584,"line":2,"station_id":"DPB","transit":false,"i_lat":-6.391065,"i_long":106.819451},{"time":4,"i_long":106.831114,"distance":2727,"is_transit":false,"line":2,"transit":false,"station_name":"Pondok Cina","i_lat":-6.369073,"station_id":"POC"},{"station_name":"Univ. Indonesia","distance":1109,"line":2,"time":2,"is_transit":false,"station_id":"UI","i_lat":-6.360749,"transit":false,"i_long":106.831474},{"line":2,"distance":2264,"transit":false,"is_transit":false,"i_long":106.834175,"time":3,"station_id":"UP","i_lat":-6.339291,"station_name":"Univ. Pancasila"},{"time":2,"station_name":"Lenteng Agung","distance":1029,"i_lat":-6.330363,"is_transit":false,"i_long":106.832616,"transit":false,"line":2,"station_id":"LNA"},{"i_lat":-6.3080680000000005,"transit":false,"i_long":106.838896,"is_transit":false,"station_id":"TNT","time":3,"distance":2671,"station_name":"Tanjung Barat","line":2},{"is_transit":false,"station_id":"PSM","i_lat":-6.2842400000000005,"transit":false,"i_long":106.843999,"distance":2820,"line":2,"station_name":"Pasar Minggu","time":4},{"i_lat":-6.263214,"transit":false,"station_id":"PSMB","station_name":"Pasar Minggu Baru","distance":2380,"is_transit":false,"time":2,"i_long":106.851577,"line":2},{"i_long":106.85449,"station_name":"Duren Kalibata","station_id":"DRN","distance":824,"i_lat":-6.255332,"transit":false,"is_transit":false,"time":2,"line":2},{"distance":1546,"line":2,"transit":false,"time":3,"station_id":"CW","i_lat":-6.242512,"i_long":106.856607,"is_transit":false,"station_name":"Cawang"},{"station_name":"Tebet","i_lat":-6.226659,"i_long":106.857948,"distance":1230,"transit":false,"time":2,"station_id":"TEB","line":2,"is_transit":false},{"transit":false,"line":2,"station_name":"Manggarai","time":4,"station_id":"MRI","i_lat":-6.209883,"is_transit":false,"distance":2610,"i_long":106.84912},{"station_name":"Cikini","i_lat":-6.198556,"i_long":106.840169,"line":2,"is_transit":false,"distance":1590,"station_id":"CKI","transit":false,"time":4},{"time":3,"i_lat":-6.186295,"distance":1750,"station_name":"Gondangdia","transit":false,"i_long":106.832183,"line":2,"station_id":"GDD","is_transit":false},{"is_transit":false,"station_name":"Juanda","time":4,"line":2,"station_id":"JUA","i_long":106.828284,"transit":false,"i_lat":-6.166716,"distance":2015},{"is_transit":false,"station_id":"SW","time":2,"station_name":"Sawah Besar","i_lat":-6.160725,"line":2,"distance":1149,"i_long":106.827103,"transit":false},{"i_long":106.82482,"time":2,"is_transit":false,"distance":906,"line":2,"station_id":"MGB","i_lat":-6.149769,"station_name":"Manggabesar","transit":false},{"time":2,"transit":false,"is_transit":false,"station_id":"JAY","distance":1080,"station_name":"Jayakarta","i_lat":-6.141205,"line":2,"i_long":106.820901},{"i_long":106.812439,"line":2,"time":4,"station_name":"Jakarta Kota","i_lat":-6.137569,"transit":true,"distance":1264,"is_transit":true,"station_id":"JAKK"},{"i_long":106.826365,"line":4,"time":3,"station_name":"Kampung Bandan","station_id":"KPB","distance":1364,"i_lat":-6.132549,"transit":true,"is_transit":true},{"transit":false,"is_transit":false,"i_lat":-6.144674,"station_id":"AK","station_name":"Angke","time":9,"distance":4102,"i_long":106.79867,"line":1},{"i_long":106.800832,"transit":false,"distance":1230,"station_name":"Duri","is_transit":false,"i_lat":-6.155215,"line":1,"station_id":"DU","time":4},{"distance":3632,"i_long":106.811091,"is_transit":true,"line":1,"station_id":"THB","time":8,"i_lat":-6.185545,"transit":true,"station_name":"Tanah Abang"},{"i_long":106.79689,"is_transit":false,"station_id":"PLM","time":6,"i_lat":-6.207404,"line":6,"transit":false,"station_name":"Palmerah","distance":3191},{"is_transit":false,"i_lat":-6.237242,"i_long":106.780334,"distance":3737,"station_id":"KBY","time":7,"station_name":"Kebayoran","transit":false,"line":6},{"i_long":106.74273,"time":8,"station_name":"Pondokranji","i_lat":-6.276362,"line":6,"transit":false,"is_transit":false,"distance":6218,"station_id":"PDJ"},{"time":3,"is_transit":false,"i_long":106.728916,"distance":2179,"station_name":"Jurangmangu","station_id":"JMU","line":6,"i_lat":-6.288927,"transit":false},{"i_long":106.712277,"distance":1994,"line":6,"i_lat":-6.296963,"station_name":"Sudimara","time":4,"transit":false,"is_transit":false,"station_id":"SDM"},{"i_lat":-6.314823,"time":6,"is_transit":false,"distance":4566,"station_name":"Rawa Buntu","line":6,"transit":false,"station_id":"RU","i_long":106.675475},{"station_id":"SRP","transit":false,"line":6,"is_transit":false,"i_lat":-6.319871,"i_long":106.66566,"station_name":"Serpong","time":4,"distance":2413},{"time":4,"station_id":"CSK","station_name":"Cisauk","i_long":106.640411,"distance":1784,"line":3,"is_transit":false,"transit":false,"i_lat":-6.32484},{"i_lat":-6.329547,"is_transit":false,"transit":false,"distance":2519,"line":3,"i_long":106.617853,"time":4,"station_name":"Cicayur","station_id":"CC"},{"time":8,"transit":false,"is_transit":false,"i_long":106.568863,"line":6,"i_lat":-6.3441410000000005,"station_id":"PRP","station_name":"Parung Panjang","distance":5968}],[{"i_long":106.800298,"transit":false,"station_id":"CTA","time":0,"station_name":"Citayam","is_transit":false,"line":2,"i_lat":-6.448811,"distance":0},{"i_long":106.816926,"distance":5084,"line":2,"is_transit":false,"transit":false,"time":6,"station_id":"DP","station_name":"Depok","i_lat":-6.405256},{"line":2,"time":3,"transit":false,"distance":1584,"station_name":"Depokbaru","i_lat":-6.391065,"station_id":"DPB","is_transit":false,"i_long":106.819451},{"transit":false,"i_lat":-6.369073,"is_transit":false,"line":2,"distance":2727,"station_id":"POC","time":4,"station_name":"Pondok Cina","i_long":106.831114},{"time":2,"station_id":"UI","distance":1109,"i_lat":-6.360749,"line":2,"station_name":"Univ. Indonesia","i_long":106.831474,"is_transit":false,"transit":false},{"is_transit":false,"station_id":"UP","transit":false,"line":2,"time":3,"i_lat":-6.339291,"i_long":106.834175,"distance":2264,"station_name":"Univ. Pancasila"},{"transit":false,"station_id":"LNA","time":2,"line":2,"distance":1029,"is_transit":false,"i_lat":-6.330363,"station_name":"Lenteng Agung","i_long":106.832616},{"i_lat":-6.3080680000000005,"is_transit":false,"station_id":"TNT","distance":2671,"time":3,"i_long":106.838896,"station_name":"Tanjung Barat","line":2,"transit":false},{"time":4,"is_transit":false,"station_name":"Pasar Minggu","station_id":"PSM","i_lat":-6.2842400000000005,"transit":false,"line":2,"i_long":106.843999,"distance":2820},{"line":2,"is_transit":false,"transit":false,"distance":2380,"i_lat":-6.263214,"i_long":106.851577,"station_name":"Pasar Minggu Baru","station_id":"PSMB","time":2},{"line":2,"is_transit":false,"distance":824,"station_id":"DRN","station_name":"Duren Kalibata","i_lat":-6.255332,"transit":false,"i_long":106.85449,"time":2},{"station_name":"Cawang","i_lat":-6.242512,"station_id":"CW","distance":1546,"is_transit":false,"transit":false,"time":3,"line":2,"i_long":106.856607},{"is_transit":false,"distance":1230,"station_name":"Tebet","station_id":"TEB","transit":false,"i_lat":-6.226659,"line":2,"time":2,"i_long":106.857948},{"station_name":"Manggarai","i_long":106.84912,"distance":2610,"is_transit":true,"transit":true,"line":2,"time":4,"station_id":"MRI","i_lat":-6.209883},{"time":2,"station_id":"MTR","i_lat":-6.212485,"i_long":106.858896,"distance":1275,"transit":false,"is_transit":false,"station_name":"Matraman","line":1},{"station_id":"JNG","transit":true,"station_name":"Jatinegara","line":1,"time":8,"i_long":106.86807400000001,"is_transit":true,"i_lat":-6.215091,"distance":1377},{"station_name":"Pondok Jati","station_id":"POK","i_lat":-6.209188,"transit":false,"time":2,"is_transit":false,"distance":1236,"i_long":106.861737,"line":11},{"i_long":106.855437,"transit":false,"is_transit":false,"station_name":"Kramat","distance":1829,"line":11,"i_lat":-6.193792,"time":2,"station_id":"KMT"},{"transit":false,"is_transit":false,"station_id":"GST","i_lat":-6.185975,"distance":973,"i_long":106.850107,"line":11,"time":1,"station_name":"Gang Sentiong"},{"i_lat":-6.174784,"i_long":106.84368,"transit":false,"time":8,"line":11,"station_id":"PSE","station_name":"Pasar Senen","is_transit":false,"distance":1567},{"transit":false,"line":11,"time":4,"station_id":"KMO","is_transit":false,"i_long":106.839204,"station_name":"Kemayoran","distance":1436,"i_lat":-6.161728},{"station_name":"Rajawali","distance":1901,"transit":false,"time":5,"i_lat":-6.14505,"line":11,"is_transit":false,"i_long":106.836569,"station_id":"RJW"},{"distance":1444,"i_lat":-6.132549,"is_transit":true,"station_name":"Kampung Bandan","line":4,"time":3,"i_long":106.826365,"transit":true,"station_id":"KPB"},{"i_long":106.79867,"transit":false,"station_name":"Angke","is_transit":false,"distance":4102,"line":1,"station_id":"AK","time":9,"i_lat":-6.144674},{"time":4,"station_name":"Duri","i_long":106.800832,"line":1,"transit":false,"station_id":"DU","distance":1230,"is_transit":false,"i_lat":-6.155215},{"transit":true,"station_id":"THB","is_transit":true,"time":8,"line":1,"i_lat":-6.185545,"distance":3632,"station_name":"Tanah Abang","i_long":106.811091},{"i_lat":-6.207404,"distance":3191,"i_long":106.79689,"is_transit":false,"transit":false,"station_id":"PLM","line":6,"time":6,"station_name":"Palmerah"},{"i_lat":-6.237242,"line":6,"station_name":"Kebayoran","transit":false,"i_long":106.780334,"distance":3737,"station_id":"KBY","time":7,"is_transit":false},{"distance":6218,"i_lat":-6.276362,"is_transit":false,"transit":false,"time":8,"station_id":"PDJ","station_name":"Pondokranji","i_long":106.74273,"line":6},{"time":3,"line":6,"station_id":"JMU","distance":2179,"transit":false,"i_long":106.728916,"station_name":"Jurangmangu","is_transit":false,"i_lat":-6.288927},{"distance":1994,"station_name":"Sudimara","line":6,"transit":false,"station_id":"SDM","is_transit":false,"i_lat":-6.296963,"time":4,"i_long":106.712277},{"station_name":"Rawa Buntu","i_lat":-6.314823,"i_long":106.675475,"line":6,"is_transit":false,"time":6,"station_id":"RU","distance":4566,"transit":false},{"station_id":"SRP","i_long":106.66566,"is_transit":false,"transit":false,"line":6,"distance":2413,"time":4,"station_name":"Serpong","i_lat":-6.319871},{"line":3,"transit":false,"is_transit":false,"station_id":"CSK","station_name":"Cisauk","distance":1784,"i_lat":-6.32484,"time":4,"i_long":106.640411},{"line":3,"station_id":"CC","time":4,"distance":2519,"i_lat":-6.329547,"i_long":106.617853,"is_transit":false,"transit":false,"station_name":"Cicayur"},{"station_id":"PRP","i_lat":-6.3441410000000005,"i_long":106.568863,"station_name":"Parung Panjang","transit":false,"is_transit":false,"distance":5968,"line":6,"time":8}]]}