{"data":[[{"is_transit":false,"transit":false,"line":2,"i_long":106.800298,"station_name":"Citayam","distance":0,"station_id":"CTA","time":0,"i_lat":-6.448811},{"station_name":"Depok","time":6,"is_transit":false,"distance":5084,"station_id":"DP","transit":false,"i_lat":-6.405256,"line":2,"i_long":106.816926},{"time":3,"line":2,"distance":1584,"i_lat":-6.391065,"transit":false,"i_long":106.819451,"station_id":"DPB","is_transit":false,"station_name":"Depokbaru"},{"time":4,"distance":2727,"transit":false,"is_transit":false,"station_name":"Pondok Cina","station_id":"POC","i_long":106.831114,"line":2,"i_lat":-6.369073},{"time":2,"station_id":"UI","distance":1109,"i_lat":-6.360749,"transit":false,"line":2,"i_long":106.831474,"is_transit":false,"station_name":"Univ. Indonesia"},{"i_lat":-6.339291,"distance":2264,"station_name":"Univ. Pancasila","station_id":"UP","transit":false,"line":2,"i_long":106.834175,"time":3,"is_transit":false},{"station_name":"Lenteng Agung","transit":false,"line":2,"i_lat":-6.330363,"i_long":106.832616,"time":2,"station_id":"LNA","is_transit":false,"distance":1029},{"transit":false,"i_long":106.838896,"line":2,"i_lat":-6.3080680000000005,"station_id":"TNT","distance":2671,"time":3,"station_name":"Tanjung Barat","is_transit":false},{"is_transit":false,"station_id":"PSM","transit":false,"i_lat":-6.2842400000000005,"line":2,"i_long":106.843999,"station_name":"Pasar Minggu","distance":2820,"time":4},{"time":2,"station_id":"PSMB","i_long":106.851577,"is_transit":false,"i_lat":-6.263214,"line":2,"distance":2380,"station_name":"Pasar Minggu Baru","transit":false},{"station_name":"Duren Kalibata","time":2,"is_transit":false,"distance":824,"i_lat":-6.255332,"transit":false,"i_long":106.85449,"station_id":"DRN","line":2},{"transit":false,"is_transit":false,"time":3,"station_id":"CW","i_lat":-6.242512,"station_name":"Cawang","distance":1546,"line":2,"i_long":106.856607},{"is_transit":false,"line":2,"i_long":106.857948,"station_id":"TEB","distance":1230,"transit":false,"i_lat":-6.226659,"station_name":"Tebet","time":2},{"time":4,"is_transit":true,"station_id":"MRI","i_lat":-6.209883,"distance":2610,"transit":true,"i_long":106.84912,"station_name":"Manggarai","line":2},{"is_transit":false,"distance":3186,"transit":false,"station_name":"Sudirman","i_lat":-6.202263,"i_long":106.822649,"station_id":"SUD","time":4,"line":1},{"is_transit":false,"i_lat":-6.201433,"transit":false,"distance":280,"time":1,"station_name":"Sudirman Baru","i_long":106.819881,"station_id":"SUDB","line":1},{"station_name":"Karet","line":1,"transit":false,"time":1,"distance":471,"i_long":106.816351,"i_lat":-6.20132,"is_transit":false,"station_id":"KAT"}],[{"station_id":"CTA","transit":false,"i_long":106.800298,"line":2,"is_transit":false,"distance":0,"i_lat":-6.448811,"station_name":"Citayam","time":0},{"distance":5084,"time":6,"is_transit":false,"transit":false,"line":2,"i_long":106.816926,"i_lat":-6.405256,"station_name":"Depok","station_id":"DP"},{"line":2,"time":3,"station_id":"DPB","is_transit":false,"i_long":106.819451,"distance":1584,"transit":false,"station_name":"Depokbaru","i_lat":-6.391065},{"is_transit":false,"i_long":106.831114,"station_name":"Pondok Cina","i_lat":-6.369073,"station_id":"POC","time":4,"transit":false,"distance":2727,"line":2},{"is_transit":false,"i_lat":-6.360749,"i_long":106.831474,"station_name":"Univ. Indonesia","distance":1109,"line":2,"transit":false,"time":2,"station_id":"UI"},{"transit":false,"station_name":"Univ. Pancasila","i_lat":-6.339291,"station_id":"UP","time":3,"i_long":106.834175,"distance":2264,"line":2,"is_transit":false},{"i_long":106.832616,"transit":false,"station_name":"Lenteng Agung","line":2,"station_id":"LNA","is_transit":false,"distance":1029,"i_lat":-6.330363,"time":2},{"i_long":106.838896,"station_name":"Tanjung Barat","is_transit":false,"line":2,"i_lat":-6.3080680000000005,"distance":2671,"time":3,"station_id":"TNT","transit":false},{"i_long":106.843999,"i_lat":-6.2842400000000005,"station_name":"Pasar Minggu","station_id":"PSM","line":2,"time":4,"distance":2820,"transit":false,"is_transit":false},{"transit":false,"distance":2380,"time":2,"is_transit":false,"station_id":"PSMB","i_lat":-6.263214,"line":2,"i_long":106.851577,"station_name":"Pasar Minggu Baru"},{"station_name":"Duren Kalibata","transit":false,"station_id":"DRN","line":2,"time":2,"distance":824,"i_long":106.85449,"i_lat":-6.255332,"is_transit":false},{"transit":false,"line":2,"distance":1546,"station_id":"CW","is_transit":false,"i_long":106.856607,"station_name":"Cawang","time":3,"i_lat":-6.242512},{"i_lat":-6.226659,"station_name":"Tebet","is_transit":false,"transit":false,"line":2,"station_id":"TEB","i_long":106.857948,"distance":1230,"time":2},{"i_lat":-6.209883,"distance":2610,"i_long":106.84912,"line":2,"transit":false,"station_id":"MRI","station_name":"Manggarai","time":4,"is_transit":false},{"distance":1590,"i_long":106.840169,"is_transit":false,"line":2,"transit":false,"time":4,"station_id":"CKI","station_name":"Cikini","i_lat":-6.198556},{"distance":1750,"transit":false,"station_name":"Gondangdia","station_id":"GDD","i_long":106.832183,"line":2,"is_transit":false,"i_lat":-6.186295,"time":3},{"line":2,"i_lat":-6.166716,"time":4,"station_id":"JUA","is_transit":false,"i_long":106.828284,"station_name":"Juanda","distance":2015,"transit":false},{"transit":false,"distance":1149,"station_id":"SW","i_lat":-6.160725,"station_name":"Sawah Besar","is_transit":false,"line":2,"i_long":106.827103,"time":2},{"station_id":"MGB","i_long":106.82482,"time":2,"is_transit":false,"station_name":"Manggabesar","transit":false,"distance":906,"i_lat":-6.149769,"line":2},{"distance":1080,"is_transit":false,"transit":false,"station_name":"Jayakarta","time":2,"station_id":"JAY","i_lat":-6.141205,"i_long":106.820901,"line":2},{"line":2,"time":4,"transit":true,"station_id":"JAKK","i_lat":-6.137569,"station_name":"Jakarta Kota","is_transit":true,"i_long":106.812439,"distance":1264},{"is_transit":true,"station_name":"Kampung Bandan","time":3,"transit":true,"distance":1364,"i_long":106.826365,"line":4,"station_id":"KPB","i_lat":-6.132549},{"station_name":"Angke","transit":false,"line":1,"i_long":106.79867,"is_transit":false,"time":9,"i_lat":-6.144674,"distance":4102,"station_id":"AK"},{"station_name":"Duri","time":4,"distance":1230,"station_id":"DU","i_long":106.800832,"line":1,"transit":false,"is_transit":false,"i_lat":-6.155215},{"station_id":"THB","is_transit":false,"station_name":"Tanah Abang","time":8,"transit":false,"distance":3632,"i_long":106.811091,"line":1,"i_lat":-6.185545},{"time":5,"i_lat":-6.20132,"i_long":106.816351,"station_id":"KAT","is_transit":false,"line":1,"distance":2029,"station_name":"Karet","transit":false}],[{"is_transit":false,"i_lat":-6.448811,"station_name":"Citayam","station_id":"CTA","transit":false,"time":0,"i_long":106.800298,"line":2,"distance":0},{"distance":5084,"i_long":106.816926,"transit":false,"station_id":"DP","is_transit":false,"time":6,"line":2,"station_name":"Depok","i_lat":-6.405256},{"distance":1584,"station_name":"Depokbaru","time":3,"station_id":"DPB","i_long":106.819451,"line":2,"is_transit":false,"transit":false,"i_lat":-6.391065},{"station_id":"POC","distance":2727,"time":4,"station_name":"Pondok Cina","is_transit":false,"i_lat":-6.369073,"i_long":106.831114,"line":2,"transit":false},{"line":2,"station_id":"UI","is_transit":false,"station_name":"Univ. Indonesia","distance":1109,"i_lat":-6.360749,"i_long":106.831474,"time":2,"transit":false},{"line":2,"distance":2264,"i_long":106.834175,"time":3,"is_transit":false,"station_name":"Univ. Pancasila","transit":false,"station_id":"UP","i_lat":-6.339291},{"time":2,"is_transit":false,"i_long":106.832616,"i_lat":-6.330363,"station_name":"Lenteng Agung","transit":false,"distance":1029,"station_id":"LNA","line":2},{"i_lat":-6.3080680000000005,"i_long":106.838896,"station_id":"TNT","line":2,"time":3,"transit":false,"station_name":"Tanjung Barat","is_transit":false,"distance":2671},{"station_id":"PSM","transit":false,"is_transit":false,"station_name":"Pasar Minggu","line":2,"distance":2820,"time":4,"i_long":106.843999,"i_lat":-6.2842400000000005},{"i_long":106.851577,"line":2,"transit":false,"station_name":"Pasar Minggu Baru","time":2,"is_transit":false,"distance":2380,"station_id":"PSMB","i_lat":-6.263214},{"transit":false,"station_name":"Duren Kalibata","i_lat":-6.255332,"is_transit":false,"line":2,"time":2,"distance":824,"station_id":"DRN","i_long":106.85449},{"station_id":"CW","time":3,"line":2,"distance":1546,"i_lat":-6.242512,"transit":false,"station_name":"Cawang","is_transit":false,"i_long":106.856607},{"time":2,"i_long":106.857948,"transit":false,"distance":1230,"i_lat":-6.226659,"line":2,"station_name":"Tebet","station_id":"TEB","is_transit":false},{"line":2,"i_lat":-6.209883,"distance":2610,"i_long":106.84912,"transit":true,"station_name":"Manggarai","station_id":"MRI","is_transit":true,"time":4},{"station_id":"MTR","i_long":106.858896,"distance":1275,"is_transit":false,"i_lat":-6.212485,"transit":false,"line":1,"station_name":"Matraman","time":2},{"i_long":106.86807400000001,"station_name":"Jatinegara","time":8,"distance":1377,"line":1,"station_id":"JNG","transit":true,"is_transit":true,"i_lat":-6.215091},{"station_name":"Pondok Jati","line":11,"distance":1236,"i_lat":-6.209188,"i_long":106.861737,"time":2,"transit":false,"station_id":"POK","is_transit":false},{"transit":false,"is_transit":false,"i_long":106.855437,"i_lat":-6.193792,"line":11,"station_id":"KMT","station_name":"Kramat","distance":1829,"time":2},{"station_name":"Gang Sentiong","station_id":"GST","time":1,"line":11,"transit":false,"i_lat":-6.185975,"distance":973,"is_transit":false,"i_long":106.850107},{"i_lat":-6.174784,"transit":false,"distance":1567,"line":11,"station_name":"Pasar Senen","station_id":"PSE","is_transit":false,"i_long":106.84368,"time":8},{"transit":false,"is_transit":false,"station_name":"Kemayoran","i_lat":-6.161728,"station_id":"KMO","i_long":106.839204,"time":4,"distance":1436,"line":11},{"transit":false,"i_long":106.836569,"i_lat":-6.14505,"station_id":"RJW","distance":1901,"line":11,"station_name":"Rajawali","time":5,"is_transit":false},{"station_id":"KPB","time":3,"distance":1444,"transit":true,"line":4,"i_lat":-6.132549,"station_name":"Kampung Bandan","i_long":106.826365,"is_transit":true},{"time":9,"station_id":"AK","station_name":"Angke","i_long":106.79867,"is_transit":false,"line":1,"distance":4102,"i_lat":-6.144674,"transit":false},{"i_lat":-6.155215,"transit":false,"time":4,"distance":1230,"station_id":"DU","is_transit":false,"station_name":"Duri","i_long":106.800832,"line":1},{"time":8,"line":1,"i_lat":-6.185545,"distance":3632,"i_long":106.811091,"is_transit":false,"station_name":"Tanah Abang","transit":false,"station_id":"THB"},{"transit":false,"station_name":"Karet","distance":2029,"station_id":"KAT","i_long":106.816351,"line":1,"i_lat":-6.20132,"is_transit":false,"time":5}]]}