{"data":[[{"i_long":106.800298,"line":1,"distance":0,"is_transit":true,"i_lat":-6.448811,"time":0,"station_name":"Citayam","transit":false,"station_id":"CTA"},{"transit":false,"i_long":106.816926,"i_lat":-6.405256,"distance":5084,"time":6,"station_name":"Depok","station_id":"DP","is_transit":false,"line":0},{"is_transit":false,"i_long":106.819451,"transit":false,"line":0,"station_name":"Depokbaru","distance":1584,"time":3,"i_lat":-6.391065,"station_id":"DPB"},{"transit":false,"i_long":106.831114,"time":4,"i_lat":-6.369073,"is_transit":false,"station_id":"POC","line":2,"distance":2727,"station_name":"Pondok Cina"},{"i_lat":-6.360749,"time":2,"i_long":106.831474,"station_name":"Univ. Indonesia","line":2,"transit":false,"distance":1109,"is_transit":false,"station_id":"UI"},{"station_name":"Univ. Pancasila","transit":false,"time":3,"distance":2264,"line":2,"i_lat":-6.339291,"i_long":106.834175,"station_id":"UP","is_transit":false},{"is_transit":false,"distance":1029,"station_id":"LNA","transit":false,"i_long":106.832616,"line":2,"time":2,"station_name":"Lenteng Agung","i_lat":-6.330363},{"station_name":"Tanjung Barat","i_lat":-6.3080680000000005,"line":2,"station_id":"TNT","i_long":106.838896,"is_transit":false,"time":3,"distance":2671,"transit":false},{"distance":2820,"is_transit":false,"i_long":106.843999,"station_name":"Pasar Minggu","time":4,"station_id":"PSM","i_lat":-6.2842400000000005,"transit":false,"line":2},{"time":2,"i_long":106.851577,"station_name":"Pasar Minggu Baru","is_transit":false,"station_id":"PSMB","i_lat":-6.263214,"line":2,"transit":false,"distance":2380},{"station_id":"DRN","i_lat":-6.255332,"station_name":"Duren Kalibata","transit":false,"distance":824,"line":0,"i_long":106.85449,"is_transit":false,"time":2},{"i_lat":-6.242512,"is_transit":false,"time":3,"station_id":"CW","station_name":"Cawang","i_long":106.856607,"line":0,"distance":1546,"transit":false},{"i_lat":-6.226659,"line":2,"distance":1230,"transit":false,"station_name":"Tebet","time":2,"i_long":106.857948,"is_transit":false,"station_id":"TEB"},{"i_lat":-6.209883,"station_id":"MRI","transit":true,"distance":2610,"i_long":106.84912,"is_transit":true,"line":0,"time":4,"station_name":"Manggarai"},{"i_long":106.858896,"station_name":"Matraman","is_transit":false,"distance":1275,"i_lat":-6.212485,"line":1,"station_id":"MTR","transit":false,"time":2},{"time":8,"station_name":"Jatinegara","transit":false,"i_lat":-6.215091,"i_long":106.86807400000001,"station_id":"JNG","distance":1377,"is_transit":true,"line":0},{"time":3,"i_long":106.899548,"distance":3395,"is_transit":false,"transit":false,"station_name":"Klender","line":1,"station_id":"KLD","i_lat":-6.2135},{"i_lat":-6.215568,"is_transit":false,"distance":3100,"time":2,"station_id":"BUA","transit":false,"line":0,"station_name":"Buaran","i_long":106.922662},{"line":1,"i_lat":-6.217455,"distance":1305,"transit":false,"station_id":"KLDB","i_long":106.939679,"is_transit":false,"station_name":"Klenderbaru","time":1},{"station_name":"Cakung","station_id":"CUK","transit":false,"time":8,"distance":1385,"i_lat":-6.219053,"is_transit":false,"i_long":106.951283,"line":0},{"i_lat":-6.224515,"transit":false,"is_transit":false,"station_id":"KRI","distance":3097,"line":1,"i_long":106.977657,"station_name":"Kranji","time":3},{"i_lat":-6.236616,"station_name":"Bekasi","line":0,"i_long":106.997013,"time":4,"transit":false,"distance":2520,"is_transit":false,"station_id":"BKS"},{"is_transit":false,"i_long":107.016735,"station_id":"BKST","i_lat":-6.248029,"line":0,"transit":false,"time":2,"station_name":"Bekasi Timur","distance":2368},{"time":7,"i_lat":-6.258864,"i_long":107.055722,"station_name":"Tambun","transit":false,"distance":4460,"station_id":"TB","line":1,"is_transit":false},{"station_name":"Cibitung","distance":3420,"time":3,"is_transit":false,"transit":false,"station_id":"CIT","line":0,"i_lat":-6.261877,"i_long":107.083084},{"station_name":"Metland Telaga Murni","i_long":107.093313,"distance":2800,"transit":false,"station_id":"TLM","is_transit":false,"i_lat":-6.262938,"line":1,"time":2},{"transit":false,"distance":3689,"i_long":107.144613,"station_name":"Cikarang","line":0,"is_transit":false,"time":4,"i_lat":-6.2553149999999995,"station_id":"CKR"}],[{"distance":0,"station_id":"CTA","i_lat":-6.448811,"i_long":106.800298,"line":1,"is_transit":true,"station_name":"Citayam","time":0,"transit":false},{"line":0,"is_transit":false,"i_lat":-6.405256,"distance":5084,"station_id":"DP","station_name":"Depok","i_long":106.816926,"transit":false,"time":6},{"transit":false,"distance":1584,"time":3,"station_name":"Depokbaru","i_long":106.819451,"i_lat":-6.391065,"station_id":"DPB","is_transit":false,"line":0},{"is_transit":false,"time":4,"distance":2727,"i_long":106.831114,"i_lat":-6.369073,"line":2,"station_name":"Pondok Cina","transit":false,"station_id":"POC"},{"station_name":"Univ. Indonesia","distance":1109,"time":2,"station_id":"UI","is_transit":false,"transit":false,"i_lat":-6.360749,"i_long":106.831474,"line":2},{"time":3,"station_name":"Univ. Pancasila","transit":false,"station_id":"UP","distance":2264,"i_long":106.834175,"line":2,"is_transit":false,"i_lat":-6.339291},{"time":2,"i_long":106.832616,"station_id":"LNA","distance":1029,"transit":false,"is_transit":false,"station_name":"Lenteng Agung","line":2,"i_lat":-6.330363},{"line":2,"station_id":"TNT","distance":2671,"i_lat":-6.3080680000000005,"i_long":106.838896,"time":3,"station_name":"Tanjung Barat","transit":false,"is_transit":false},{"i_lat":-6.2842400000000005,"station_name":"Pasar Minggu","is_transit":false,"station_id":"PSM","line":2,"distance":2820,"i_long":106.843999,"time":4,"transit":false},{"time":2,"distance":2380,"station_id":"PSMB","is_transit":false,"station_name":"Pasar Minggu Baru","i_long":106.851577,"transit":false,"i_lat":-6.263214,"line":2},{"is_transit":false,"distance":824,"line":0,"station_name":"Duren Kalibata","i_lat":-6.255332,"time":2,"station_id":"DRN","i_long":106.85449,"transit":false},{"time":3,"distance":1546,"line":0,"transit":false,"station_name":"Cawang","is_transit":false,"i_lat":-6.242512,"station_id":"CW","i_long":106.856607},{"i_long":106.857948,"line":2,"distance":1230,"transit":false,"i_lat":-6.226659,"time":2,"station_id":"TEB","is_transit":false,"station_name":"Tebet"},{"distance":2610,"is_transit":true,"station_name":"Manggarai","station_id":"MRI","i_lat":-6.209883,"i_long":106.84912,"transit":true,"time":4,"line":0},{"distance":3186,"station_id":"SUD","is_transit":false,"station_name":"Sudirman","transit":false,"time":4,"line":1,"i_lat":-6.202263,"i_long":106.822649},{"i_long":106.819881,"time":1,"distance":280,"station_id":"SUDB","station_name":"Sudirman Baru","line":1,"i_lat":-6.201433,"transit":false,"is_transit":false},{"i_lat":-6.20132,"station_name":"Karet","distance":471,"is_transit":false,"line":1,"time":1,"transit":false,"i_long":106.816351,"station_id":"KAT"},{"transit":false,"i_long":106.811091,"time":5,"i_lat":-6.185545,"line":1,"is_transit":true,"distance":2029,"station_id":"THB","station_name":"Tanah Abang"},{"i_lat":-6.155215,"transit":true,"i_long":106.800832,"time":8,"station_name":"Duri","line":1,"distance":3632,"is_transit":true,"station_id":"DU"},{"station_id":"AK","is_transit":false,"station_name":"Angke","transit":false,"line":0,"time":4,"i_lat":-6.144674,"distance":1230,"i_long":106.79867},{"station_id":"KPB","station_name":"Kampung Bandan","distance":4102,"line":0,"i_long":106.826365,"time":9,"transit":true,"i_lat":-6.132549,"is_transit":true},{"transit":false,"i_lat":-6.14505,"i_long":106.836569,"time":3,"distance":1444,"line":11,"station_id":"RJW","station_name":"Rajawali","is_transit":false},{"i_lat":-6.161728,"is_transit":false,"station_name":"Kemayoran","time":5,"transit":false,"distance":1901,"station_id":"KMO","line":11,"i_long":106.839204},{"station_id":"PSE","line":11,"is_transit":false,"time":4,"station_name":"Pasar Senen","i_long":106.84368,"transit":false,"distance":1436,"i_lat":-6.174784},{"is_transit":false,"i_long":106.850107,"line":11,"time":8,"distance":1567,"i_lat":-6.185975,"transit":false,"station_name":"Gang Sentiong","station_id":"GST"},{"line":11,"station_name":"Kramat","distance":973,"is_transit":false,"i_long":106.855437,"station_id":"KMT","transit":false,"i_lat":-6.193792,"time":1},{"i_lat":-6.209188,"i_long":106.861737,"line":11,"station_name":"Pondok Jati","time":2,"station_id":"POK","distance":1829,"transit":false,"is_transit":false},{"station_id":"JNG","time":9,"i_long":106.86807400000001,"distance":1236,"transit":true,"i_lat":-6.215091,"line":0,"is_transit":true,"station_name":"Jatinegara"},{"station_name":"Klender","i_lat":-6.2135,"distance":3395,"i_long":106.899548,"line":1,"time":3,"transit":false,"station_id":"KLD","is_transit":false},{"line":0,"is_transit":false,"station_id":"BUA","i_long":106.922662,"time":2,"distance":3100,"station_name":"Buaran","i_lat":-6.215568,"transit":false},{"time":1,"distance":1305,"station_id":"KLDB","station_name":"Klenderbaru","i_long":106.939679,"line":1,"i_lat":-6.217455,"is_transit":false,"transit":false},{"i_lat":-6.219053,"station_id":"CUK","time":8,"transit":false,"is_transit":false,"station_name":"Cakung","distance":1385,"i_long":106.951283,"line":0},{"station_id":"KRI","time":3,"is_transit":false,"distance":3097,"transit":false,"station_name":"Kranji","i_lat":-6.224515,"i_long":106.977657,"line":1},{"distance":2520,"time":4,"transit":false,"i_lat":-6.236616,"i_long":106.997013,"line":0,"station_name":"Bekasi","station_id":"BKS","is_transit":false},{"distance":2368,"station_name":"Bekasi Timur","line":0,"transit":false,"is_transit":false,"time":2,"i_long":107.016735,"station_id":"BKST","i_lat":-6.248029},{"i_long":107.055722,"is_transit":false,"station_name":"Tambun","transit":false,"distance":4460,"i_lat":-6.258864,"line":1,"time":7,"station_id":"TB"},{"station_name":"Cibitung","time":3,"station_id":"CIT","i_long":107.083084,"line":0,"distance":3420,"i_lat":-6.261877,"transit":false,"is_transit":false},{"station_id":"TLM","time":2,"transit":false,"distance":2800,"is_transit":false,"i_lat":-6.262938,"line":1,"i_long":107.093313,"station_name":"Metland Telaga Murni"},{"distance":3689,"time":4,"i_lat":-6.2553149999999995,"station_id":"CKR","is_transit":false,"line":0,"i_long":107.144613,"station_name":"Cikarang","transit":false}],[{"time":0,"is_transit":true,"station_name":"Citayam","i_lat":-6.448811,"i_long":106.800298,"line":1,"distance":0,"transit":false,"station_id":"CTA"},{"line":0,"station_id":"DP","station_name":"Depok","distance":5084,"i_long":106.816926,"time":6,"i_lat":-6.405256,"is_transit":false,"transit":false},{"i_long":106.819451,"distance":1584,"line":0,"time":3,"station_id":"DPB","station_name":"Depokbaru","i_lat":-6.391065,"transit":false,"is_transit":false},{"i_lat":-6.369073,"distance":2727,"i_long":106.831114,"line":2,"station_name":"Pondok Cina","transit":false,"is_transit":false,"time":4,"station_id":"POC"},{"distance":1109,"station_id":"UI","time":2,"i_lat":-6.360749,"is_transit":false,"i_long":106.831474,"line":2,"station_name":"Univ. Indonesia","transit":false},{"distance":2264,"station_id":"UP","time":3,"station_name":"Univ. Pancasila","line":2,"transit":false,"is_transit":false,"i_lat":-6.339291,"i_long":106.834175},{"transit":false,"distance":1029,"is_transit":false,"station_name":"Lenteng Agung","time":2,"station_id":"LNA","i_lat":-6.330363,"i_long":106.832616,"line":2},{"i_long":106.838896,"is_transit":false,"time":3,"line":2,"station_name":"Tanjung Barat","transit":false,"station_id":"TNT","distance":2671,"i_lat":-6.3080680000000005},{"station_name":"Pasar Minggu","line":2,"is_transit":false,"station_id":"PSM","time":4,"i_lat":-6.2842400000000005,"transit":false,"distance":2820,"i_long":106.843999},{"is_transit":false,"station_id":"PSMB","i_lat":-6.263214,"distance":2380,"i_long":106.851577,"line":2,"transit":false,"time":2,"station_name":"Pasar Minggu Baru"},{"transit":false,"i_long":106.85449,"i_lat":-6.255332,"station_id":"DRN","line":0,"is_transit":false,"distance":824,"time":2,"station_name":"Duren Kalibata"},{"distance":1546,"station_id":"CW","station_name":"Cawang","i_lat":-6.242512,"line":0,"is_transit":false,"time":3,"transit":false,"i_long":106.856607},{"i_lat":-6.226659,"is_transit":false,"i_long":106.857948,"station_id":"TEB","transit":false,"line":2,"station_name":"Tebet","time":2,"distance":1230},{"i_long":106.84912,"i_lat":-6.209883,"station_name":"Manggarai","is_transit":true,"transit":true,"time":4,"station_id":"MRI","line":0,"distance":2610},{"time":4,"station_name":"Cikini","line":0,"is_transit":false,"i_lat":-6.198556,"i_long":106.840169,"transit":false,"station_id":"CKI","distance":1590},{"transit":false,"i_long":106.832183,"station_name":"Gondangdia","i_lat":-6.186295,"station_id":"GDD","is_transit":false,"line":2,"time":3,"distance":1750},{"i_lat":-6.166716,"transit":false,"time":4,"station_id":"JUA","distance":2015,"is_transit":false,"station_name":"Juanda","i_long":106.828284,"line":2},{"i_long":106.827103,"station_id":"SW","is_transit":false,"distance":1149,"line":2,"station_name":"Sawah Besar","i_lat":-6.160725,"transit":false,"time":2},{"line":2,"transit":false,"distance":906,"station_name":"Manggabesar","i_lat":-6.149769,"is_transit":false,"station_id":"MGB","i_long":106.82482,"time":2},{"transit":false,"distance":1080,"i_lat":-6.141205,"i_long":106.820901,"station_id":"JAY","is_transit":false,"time":2,"station_name":"Jayakarta","line":7},{"is_transit":true,"station_id":"JAKK","transit":true,"time":4,"i_long":106.812439,"line":0,"station_name":"Jakarta Kota","i_lat":-6.137569,"distance":1264},{"line":0,"i_lat":-6.132549,"time":3,"station_id":"KPB","is_transit":true,"distance":1364,"transit":true,"station_name":"Kampung Bandan","i_long":106.826365},{"time":3,"line":11,"i_lat":-6.14505,"i_long":106.836569,"is_transit":false,"transit":false,"station_id":"RJW","distance":1444,"station_name":"Rajawali"},{"time":5,"i_long":106.839204,"transit":false,"station_id":"KMO","is_transit":false,"line":11,"station_name":"Kemayoran","i_lat":-6.161728,"distance":1901},{"station_name":"Pasar Senen","station_id":"PSE","is_transit":false,"distance":1436,"line":11,"time":4,"i_lat":-6.174784,"transit":false,"i_long":106.84368},{"station_id":"GST","line":11,"i_long":106.850107,"station_name":"Gang Sentiong","transit":false,"distance":1567,"is_transit":false,"i_lat":-6.185975,"time":8},{"distance":973,"is_transit":false,"time":1,"i_long":106.855437,"line":11,"transit":false,"station_id":"KMT","i_lat":-6.193792,"station_name":"Kramat"},{"distance":1829,"station_name":"Pondok Jati","station_id":"POK","i_long":106.861737,"i_lat":-6.209188,"line":11,"time":2,"is_transit":false,"transit":false},{"transit":true,"station_name":"Jatinegara","time":9,"is_transit":true,"station_id":"JNG","i_lat":-6.215091,"line":0,"distance":1236,"i_long":106.86807400000001},{"is_transit":false,"time":3,"station_name":"Klender","distance":3395,"i_lat":-6.2135,"station_id":"KLD","transit":false,"i_long":106.899548,"line":1},{"station_id":"BUA","i_lat":-6.215568,"station_name":"Buaran","line":0,"transit":false,"i_long":106.922662,"time":2,"is_transit":false,"distance":3100},{"distance":1305,"station_id":"KLDB","time":1,"transit":false,"is_transit":false,"station_name":"Klenderbaru","i_lat":-6.217455,"i_long":106.939679,"line":1},{"distance":1385,"i_lat":-6.219053,"i_long":106.951283,"time":8,"line":0,"station_id":"CUK","is_transit":false,"transit":false,"station_name":"Cakung"},{"i_lat":-6.224515,"station_id":"KRI","line":1,"distance":3097,"i_long":106.977657,"transit":false,"station_name":"Kranji","is_transit":false,"time":3},{"is_transit":false,"i_lat":-6.236616,"transit":false,"station_id":"BKS","line":0,"distance":2520,"i_long":106.997013,"time":4,"station_name":"Bekasi"},{"line":0,"distance":2368,"transit":false,"station_name":"Bekasi Timur","is_transit":false,"i_lat":-6.248029,"i_long":107.016735,"time":2,"station_id":"BKST"},{"station_name":"Tambun","transit":false,"i_long":107.055722,"time":7,"distance":4460,"is_transit":false,"station_id":"TB","i_lat":-6.258864,"line":1},{"time":3,"distance":3420,"is_transit":false,"station_id":"CIT","station_name":"Cibitung","line":0,"transit":false,"i_long":107.083084,"i_lat":-6.261877},{"i_lat":-6.262938,"station_name":"Metland Telaga Murni","is_transit":false,"time":2,"transit":false,"station_id":"TLM","distance":2800,"i_long":107.093313,"line":1},{"station_id":"CKR","line":0,"transit":false,"i_long":107.144613,"time":4,"distance":3689,"station_name":"Cikarang","is_transit":false,"i_lat":-6.2553149999999995}]]}