{"data":[[{"time":0,"line":2,"transit":false,"i_lat":-6.448811,"is_transit":false,"station_id":"CTA","i_long":106.800298,"station_name":"Citayam","distance":0},{"transit":false,"station_name":"Depok","is_transit":false,"i_long":106.816926,"line":2,"distance":5084,"time":6,"i_lat":-6.405256,"station_id":"DP"},{"distance":1584,"is_transit":false,"i_lat":-6.391065,"transit":false,"time":3,"i_long":106.819451,"line":2,"station_name":"Depokbaru","station_id":"DPB"},{"station_name":"Pondok Cina","time":4,"line":2,"i_long":106.831114,"transit":false,"is_transit":false,"station_id":"POC","i_lat":-6.369073,"distance":2727},{"transit":false,"time":2,"station_id":"UI","is_transit":false,"i_long":106.831474,"line":2,"i_lat":-6.360749,"station_name":"Univ. Indonesia","distance":1109},{"is_transit":false,"time":3,"i_lat":-6.339291,"transit":false,"distance":2264,"line":2,"station_id":"UP","station_name":"Univ. Pancasila","i_long":106.834175},{"line":2,"transit":false,"i_lat":-6.330363,"is_transit":false,"i_long":106.832616,"station_name":"Lenteng Agung","time":2,"distance":1029,"station_id":"LNA"}]]}