{"data":[[{"distance":0,"i_long":106.800298,"is_transit":false,"station_name":"Citayam","line":2,"time":0,"i_lat":-6.448811,"station_id":"CTA","transit":false},{"transit":false,"line":2,"station_id":"DP","is_transit":false,"time":6,"station_name":"Depok","distance":5084,"i_lat":-6.405256,"i_long":106.816926},{"station_name":"Depokbaru","is_transit":false,"i_long":106.819451,"time":3,"i_lat":-6.391065,"transit":false,"line":2,"station_id":"DPB","distance":1584},{"i_lat":-6.369073,"i_long":106.831114,"line":2,"time":4,"station_id":"POC","station_name":"Pondok Cina","is_transit":false,"transit":false,"distance":2727},{"station_name":"Univ. Indonesia","time":2,"distance":1109,"transit":false,"i_lat":-6.360749,"line":2,"station_id":"UI","i_long":106.831474,"is_transit":false},{"time":3,"station_id":"UP","is_transit":false,"transit":false,"station_name":"Univ. Pancasila","distance":2264,"i_lat":-6.339291,"line":2,"i_long":106.834175},{"i_long":106.832616,"transit":false,"is_transit":false,"time":2,"station_name":"Lenteng Agung","line":2,"distance":1029,"i_lat":-6.330363,"station_id":"LNA"},{"distance":2671,"transit":false,"station_name":"Tanjung Barat","line":2,"is_transit":false,"station_id":"TNT","i_long":106.838896,"time":3,"i_lat":-6.3080680000000005},{"station_name":"Pasar Minggu","is_transit":false,"transit":false,"i_lat":-6.2842400000000005,"i_long":106.843999,"distance":2820,"station_id":"PSM","time":4,"line":2},{"station_id":"PSMB","station_name":"Pasar Minggu Baru","transit":false,"time":2,"is_transit":false,"distance":2380,"i_lat":-6.263214,"i_long":106.851577,"line":2},{"station_name":"Duren Kalibata","line":2,"distance":824,"time":2,"i_lat":-6.255332,"i_long":106.85449,"is_transit":false,"transit":false,"station_id":"DRN"},{"station_name":"Cawang","station_id":"CW","distance":1546,"i_lat":-6.242512,"transit":false,"line":2,"i_long":106.856607,"is_transit":false,"time":3},{"station_id":"TEB","distance":1230,"i_lat":-6.226659,"i_long":106.857948,"is_transit":false,"line":2,"transit":false,"station_name":"Tebet","time":2},{"i_long":106.84912,"distance":2610,"station_id":"MRI","line":2,"transit":true,"station_name":"Manggarai","i_lat":-6.209883,"time":4,"is_transit":true},{"station_name":"Matraman","i_long":106.858896,"transit":false,"is_transit":false,"station_id":"MTR","i_lat":-6.212485,"line":1,"distance":1275,"time":2},{"time":8,"line":1,"transit":false,"i_long":106.86807400000001,"station_name":"Jatinegara","distance":1377,"is_transit":false,"i_lat":-6.215091,"station_id":"JNG"},{"transit":false,"i_long":106.899548,"line":1,"distance":3395,"station_name":"Klender","station_id":"KLD","time":3,"is_transit":false,"i_lat":-6.2135},{"station_id":"BUA","i_long":106.922662,"transit":false,"i_lat":-6.215568,"station_name":"Buaran","is_transit":false,"line":1,"time":2,"distance":3100},{"station_name":"Klenderbaru","i_lat":-6.217455,"line":1,"time":1,"station_id":"KLDB","i_long":106.939679,"transit":false,"is_transit":false,"distance":1305},{"is_transit":false,"i_long":106.951283,"station_name":"Cakung","line":1,"i_lat":-6.219053,"distance":1385,"transit":false,"station_id":"CUK","time":8},{"transit":false,"i_long":106.977657,"is_transit":false,"station_id":"KRI","distance":3097,"i_lat":-6.224515,"line":1,"time":3,"station_name":"Kranji"},{"i_long":106.997013,"i_lat":-6.236616,"line":1,"time":4,"transit":false,"distance":2520,"station_name":"Bekasi","is_transit":false,"station_id":"BKS"},{"i_long":107.016735,"is_transit":false,"i_lat":-6.248029,"station_id":"BKST","station_name":"Bekasi Timur","distance":2368,"transit":false,"time":2,"line":1},{"station_id":"TB","i_long":107.055722,"station_name":"Tambun","i_lat":-6.258864,"distance":4460,"is_transit":false,"time":7,"transit":false,"line":1},{"i_lat":-6.261877,"line":1,"distance":3420,"transit":false,"station_id":"CIT","station_name":"Cibitung","is_transit":false,"i_long":107.083084,"time":3},{"i_long":107.093313,"is_transit":false,"time":2,"line":1,"distance":2800,"station_id":"TLM","transit":false,"i_lat":-6.262938,"station_name":"Metland Telaga Murni"},{"transit":false,"station_name":"Cikarang","station_id":"CKR","time":4,"is_transit":false,"i_long":107.144613,"distance":3689,"line":1,"i_lat":-6.2553149999999995}],[{"time":0,"distance":0,"i_lat":-6.448811,"station_name":"Citayam","transit":false,"is_transit":false,"i_long":106.800298,"line":2,"station_id":"CTA"},{"station_name":"Depok","time":6,"distance":5084,"transit":false,"i_long":106.816926,"i_lat":-6.405256,"line":2,"is_transit":false,"station_id":"DP"},{"i_long":106.819451,"line":2,"transit":false,"distance":1584,"station_name":"Depokbaru","station_id":"DPB","time":3,"i_lat":-6.391065,"is_transit":false},{"i_long":106.831114,"station_id":"POC","time":4,"station_name":"Pondok Cina","distance":2727,"line":2,"is_transit":false,"i_lat":-6.369073,"transit":false},{"is_transit":false,"i_lat":-6.360749,"i_long":106.831474,"distance":1109,"station_name":"Univ. Indonesia","line":2,"transit":false,"station_id":"UI","time":2},{"time":3,"i_lat":-6.339291,"station_id":"UP","line":2,"distance":2264,"is_transit":false,"station_name":"Univ. Pancasila","transit":false,"i_long":106.834175},{"is_transit":false,"distance":1029,"time":2,"station_name":"Lenteng Agung","i_lat":-6.330363,"transit":false,"station_id":"LNA","line":2,"i_long":106.832616},{"station_name":"Tanjung Barat","time":3,"transit":false,"station_id":"TNT","distance":2671,"i_long":106.838896,"is_transit":false,"line":2,"i_lat":-6.3080680000000005},{"line":2,"station_name":"Pasar Minggu","distance":2820,"i_lat":-6.2842400000000005,"transit":false,"i_long":106.843999,"station_id":"PSM","is_transit":false,"time":4},{"station_name":"Pasar Minggu Baru","time":2,"i_lat":-6.263214,"i_long":106.851577,"line":2,"station_id":"PSMB","distance":2380,"is_transit":false,"transit":false},{"time":2,"station_name":"Duren Kalibata","distance":824,"i_lat":-6.255332,"i_long":106.85449,"line":2,"station_id":"DRN","transit":false,"is_transit":false},{"time":3,"i_lat":-6.242512,"line":2,"station_name":"Cawang","i_long":106.856607,"is_transit":false,"distance":1546,"station_id":"CW","transit":false},{"is_transit":false,"i_lat":-6.226659,"station_name":"Tebet","transit":false,"time":2,"i_long":106.857948,"line":2,"station_id":"TEB","distance":1230},{"line":2,"i_lat":-6.209883,"i_long":106.84912,"station_name":"Manggarai","is_transit":true,"time":4,"station_id":"MRI","transit":true,"distance":2610},{"line":1,"station_id":"SUD","time":4,"distance":3186,"transit":false,"is_transit":false,"i_long":106.822649,"i_lat":-6.202263,"station_name":"Sudirman"},{"is_transit":false,"station_name":"Sudirman Baru","i_lat":-6.201433,"time":1,"transit":false,"i_long":106.819881,"station_id":"SUDB","distance":280,"line":1},{"i_lat":-6.20132,"transit":false,"station_name":"Karet","line":1,"is_transit":false,"time":1,"i_long":106.816351,"station_id":"KAT","distance":471},{"i_lat":-6.185545,"i_long":106.811091,"station_id":"THB","line":1,"is_transit":false,"time":5,"distance":2029,"transit":false,"station_name":"Tanah Abang"},{"line":1,"time":8,"station_name":"Duri","is_transit":false,"station_id":"DU","i_long":106.800832,"i_lat":-6.155215,"transit":false,"distance":3632},{"time":4,"station_name":"Angke","distance":1230,"station_id":"AK","i_lat":-6.144674,"i_long":106.79867,"transit":false,"is_transit":false,"line":1},{"station_id":"KPB","station_name":"Kampung Bandan","i_lat":-6.132549,"i_long":106.826365,"line":4,"transit":true,"time":9,"is_transit":true,"distance":4102},{"i_lat":-6.14505,"transit":false,"is_transit":false,"distance":1444,"station_name":"Rajawali","line":11,"station_id":"RJW","time":3,"i_long":106.836569},{"station_name":"Kemayoran","time":5,"i_lat":-6.161728,"line":11,"distance":1901,"transit":false,"station_id":"KMO","is_transit":false,"i_long":106.839204},{"station_id":"PSE","i_lat":-6.174784,"is_transit":false,"distance":1436,"station_name":"Pasar Senen","time":4,"i_long":106.84368,"line":11,"transit":false},{"station_name":"Gang Sentiong","station_id":"GST","distance":1567,"time":8,"line":11,"is_transit":false,"i_lat":-6.185975,"i_long":106.850107,"transit":false},{"time":1,"distance":973,"station_id":"KMT","transit":false,"is_transit":false,"station_name":"Kramat","i_lat":-6.193792,"line":11,"i_long":106.855437},{"i_lat":-6.209188,"time":2,"transit":false,"station_id":"POK","distance":1829,"i_long":106.861737,"line":11,"station_name":"Pondok Jati","is_transit":false},{"time":9,"is_transit":true,"distance":1236,"i_lat":-6.215091,"station_name":"Jatinegara","i_long":106.86807400000001,"station_id":"JNG","transit":true,"line":1},{"i_long":106.899548,"is_transit":false,"transit":false,"station_name":"Klender","station_id":"KLD","distance":3395,"i_lat":-6.2135,"line":1,"time":3},{"station_id":"BUA","i_lat":-6.215568,"line":1,"transit":false,"i_long":106.922662,"is_transit":false,"time":2,"distance":3100,"station_name":"Buaran"},{"transit":false,"line":1,"is_transit":false,"time":1,"distance":1305,"i_lat":-6.217455,"i_long":106.939679,"station_id":"KLDB","station_name":"Klenderbaru"},{"i_long":106.951283,"station_name":"Cakung","time":8,"line":1,"station_id":"CUK","transit":false,"i_lat":-6.219053,"is_transit":false,"distance":1385},{"station_name":"Kranji","i_long":106.977657,"time":3,"station_id":"KRI","is_transit":false,"i_lat":-6.224515,"line":1,"transit":false,"distance":3097},{"station_name":"Bekasi","distance":2520,"line":1,"i_long":106.997013,"i_lat":-6.236616,"time":4,"station_id":"BKS","transit":false,"is_transit":false},{"is_transit":false,"distance":2368,"station_id":"BKST","station_name":"Bekasi Timur","time":2,"line":1,"i_long":107.016735,"transit":false,"i_lat":-6.248029},{"distance":4460,"station_id":"TB","transit":false,"station_name":"Tambun","time":7,"i_lat":-6.258864,"i_long":107.055722,"line":1,"is_transit":false},{"station_id":"CIT","i_lat":-6.261877,"transit":false,"is_transit":false,"line":1,"station_name":"Cibitung","time":3,"distance":3420,"i_long":107.083084},{"is_transit":false,"distance":2800,"i_lat":-6.262938,"line":1,"station_id":"TLM","i_long":107.093313,"time":2,"station_name":"Metland Telaga Murni","transit":false},{"is_transit":false,"line":1,"time":4,"transit":false,"station_name":"Cikarang","station_id":"CKR","i_long":107.144613,"distance":3689,"i_lat":-6.2553149999999995}],[{"time":0,"station_name":"Citayam","station_id":"CTA","i_lat":-6.448811,"i_long":106.800298,"is_transit":false,"transit":false,"line":2,"distance":0},{"transit":false,"is_transit":false,"station_name":"Depok","station_id":"DP","line":2,"i_lat":-6.405256,"i_long":106.816926,"distance":5084,"time":6},{"is_transit":false,"line":2,"time":3,"i_long":106.819451,"distance":1584,"i_lat":-6.391065,"station_name":"Depokbaru","transit":false,"station_id":"DPB"},{"line":2,"station_id":"POC","is_transit":false,"distance":2727,"station_name":"Pondok Cina","i_lat":-6.369073,"i_long":106.831114,"time":4,"transit":false},{"distance":1109,"station_id":"UI","time":2,"is_transit":false,"i_lat":-6.360749,"line":2,"i_long":106.831474,"station_name":"Univ. Indonesia","transit":false},{"station_id":"UP","transit":false,"distance":2264,"line":2,"i_long":106.834175,"time":3,"i_lat":-6.339291,"station_name":"Univ. Pancasila","is_transit":false},{"line":2,"station_name":"Lenteng Agung","i_long":106.832616,"station_id":"LNA","time":2,"transit":false,"i_lat":-6.330363,"is_transit":false,"distance":1029},{"is_transit":false,"i_lat":-6.3080680000000005,"i_long":106.838896,"station_id":"TNT","time":3,"station_name":"Tanjung Barat","transit":false,"distance":2671,"line":2},{"station_name":"Pasar Minggu","time":4,"line":2,"station_id":"PSM","transit":false,"is_transit":false,"i_lat":-6.2842400000000005,"i_long":106.843999,"distance":2820},{"transit":false,"i_lat":-6.263214,"station_id":"PSMB","time":2,"i_long":106.851577,"distance":2380,"line":2,"is_transit":false,"station_name":"Pasar Minggu Baru"},{"is_transit":false,"station_name":"Duren Kalibata","time":2,"transit":false,"distance":824,"i_lat":-6.255332,"i_long":106.85449,"line":2,"station_id":"DRN"},{"is_transit":false,"station_name":"Cawang","i_lat":-6.242512,"line":2,"transit":false,"station_id":"CW","distance":1546,"time":3,"i_long":106.856607},{"transit":false,"station_name":"Tebet","time":2,"distance":1230,"i_long":106.857948,"is_transit":false,"station_id":"TEB","line":2,"i_lat":-6.226659},{"station_name":"Manggarai","i_long":106.84912,"transit":false,"is_transit":false,"time":4,"i_lat":-6.209883,"distance":2610,"line":2,"station_id":"MRI"},{"time":4,"station_name":"Cikini","line":2,"distance":1590,"i_lat":-6.198556,"i_long":106.840169,"transit":false,"station_id":"CKI","is_transit":false},{"transit":false,"i_long":106.832183,"distance":1750,"station_name":"Gondangdia","line":2,"station_id":"GDD","is_transit":false,"time":3,"i_lat":-6.186295},{"time":4,"station_id":"JUA","i_lat":-6.166716,"transit":false,"station_name":"Juanda","is_transit":false,"i_long":106.828284,"line":2,"distance":2015},{"station_name":"Sawah Besar","distance":1149,"i_long":106.827103,"line":2,"is_transit":false,"station_id":"SW","time":2,"i_lat":-6.160725,"transit":false},{"line":2,"i_long":106.82482,"station_id":"MGB","station_name":"Manggabesar","transit":false,"is_transit":false,"time":2,"distance":906,"i_lat":-6.149769},{"station_name":"Jayakarta","station_id":"JAY","i_long":106.820901,"transit":false,"i_lat":-6.141205,"is_transit":false,"distance":1080,"line":2,"time":2},{"is_transit":true,"i_long":106.812439,"station_id":"JAKK","distance":1264,"line":2,"time":4,"transit":true,"station_name":"Jakarta Kota","i_lat":-6.137569},{"station_name":"Kampung Bandan","transit":true,"station_id":"KPB","time":3,"is_transit":true,"i_lat":-6.132549,"line":4,"distance":1364,"i_long":106.826365},{"station_id":"RJW","is_transit":false,"i_lat":-6.14505,"distance":1444,"transit":false,"i_long":106.836569,"line":11,"time":3,"station_name":"Rajawali"},{"i_long":106.839204,"i_lat":-6.161728,"station_name":"Kemayoran","station_id":"KMO","time":5,"distance":1901,"line":11,"is_transit":false,"transit":false},{"station_name":"Pasar Senen","distance":1436,"time":4,"i_lat":-6.174784,"is_transit":false,"i_long":106.84368,"station_id":"PSE","transit":false,"line":11},{"station_id":"GST","distance":1567,"line":11,"time":8,"i_lat":-6.185975,"is_transit":false,"station_name":"Gang Sentiong","transit":false,"i_long":106.850107},{"station_id":"KMT","distance":973,"transit":false,"i_long":106.855437,"i_lat":-6.193792,"is_transit":false,"time":1,"line":11,"station_name":"Kramat"},{"is_transit":false,"i_lat":-6.209188,"line":11,"transit":false,"station_name":"Pondok Jati","i_long":106.861737,"distance":1829,"time":2,"station_id":"POK"},{"is_transit":true,"transit":true,"station_id":"JNG","time":9,"line":1,"i_long":106.86807400000001,"distance":1236,"i_lat":-6.215091,"station_name":"Jatinegara"},{"transit":false,"station_name":"Klender","station_id":"KLD","i_lat":-6.2135,"i_long":106.899548,"time":3,"line":1,"distance":3395,"is_transit":false},{"transit":false,"i_long":106.922662,"station_name":"Buaran","i_lat":-6.215568,"is_transit":false,"time":2,"distance":3100,"line":1,"station_id":"BUA"},{"is_transit":false,"time":1,"station_name":"Klenderbaru","station_id":"KLDB","i_lat":-6.217455,"line":1,"distance":1305,"i_long":106.939679,"transit":false},{"transit":false,"station_name":"Cakung","station_id":"CUK","distance":1385,"i_long":106.951283,"line":1,"is_transit":false,"time":8,"i_lat":-6.219053},{"time":3,"transit":false,"station_id":"KRI","distance":3097,"i_lat":-6.224515,"i_long":106.977657,"line":1,"is_transit":false,"station_name":"Kranji"},{"line":1,"i_lat":-6.236616,"station_id":"BKS","is_transit":false,"distance":2520,"station_name":"Bekasi","transit":false,"time":4,"i_long":106.997013},{"station_id":"BKST","time":2,"transit":false,"line":1,"station_name":"Bekasi Timur","is_transit":false,"distance":2368,"i_lat":-6.248029,"i_long":107.016735},{"time":7,"station_name":"Tambun","transit":false,"is_transit":false,"distance":4460,"i_long":107.055722,"line":1,"i_lat":-6.258864,"station_id":"TB"},{"i_lat":-6.261877,"line":1,"distance":3420,"station_name":"Cibitung","transit":false,"station_id":"CIT","is_transit":false,"time":3,"i_long":107.083084},{"line":1,"station_name":"Metland Telaga Murni","time":2,"i_long":107.093313,"transit":false,"station_id":"TLM","distance":2800,"is_transit":false,"i_lat":-6.262938},{"station_id":"CKR","distance":3689,"i_lat":-6.2553149999999995,"transit":false,"time":4,"station_name":"Cikarang","i_long":107.144613,"line":1,"is_transit":false}]]}