{"data":[[{"time":0,"transit":false,"distance":0,"station_id":"CTA","station_name":"Citayam","line":1,"is_transit":true,"i_lat":-6.448811,"i_long":106.800298},{"line":0,"station_id":"DP","transit":false,"i_lat":-6.405256,"station_name":"Depok","is_transit":false,"i_long":106.816926,"time":6,"distance":5084},{"i_long":106.819451,"time":3,"distance":1584,"is_transit":false,"station_name":"Depokbaru","line":0,"transit":false,"station_id":"DPB","i_lat":-6.391065},{"station_id":"POC","is_transit":false,"transit":false,"i_long":106.831114,"line":2,"station_name":"Pondok Cina","time":4,"distance":2727,"i_lat":-6.369073},{"i_lat":-6.360749,"distance":1109,"i_long":106.831474,"line":2,"transit":false,"is_transit":false,"time":2,"station_id":"UI","station_name":"Univ. Indonesia"},{"station_id":"UP","distance":2264,"is_transit":false,"station_name":"Univ. Pancasila","i_long":106.834175,"i_lat":-6.339291,"time":3,"transit":false,"line":2},{"transit":false,"i_lat":-6.330363,"time":2,"station_id":"LNA","i_long":106.832616,"distance":1029,"is_transit":false,"line":2,"station_name":"Lenteng Agung"},{"station_name":"Tanjung Barat","distance":2671,"line":2,"time":3,"transit":false,"i_long":106.838896,"i_lat":-6.3080680000000005,"station_id":"TNT","is_transit":false},{"time":4,"station_id":"PSM","transit":false,"station_name":"Pasar Minggu","i_lat":-6.2842400000000005,"line":2,"i_long":106.843999,"distance":2820,"is_transit":false},{"distance":2380,"time":2,"is_transit":false,"transit":false,"i_long":106.851577,"i_lat":-6.263214,"line":2,"station_id":"PSMB","station_name":"Pasar Minggu Baru"},{"i_long":106.85449,"line":0,"transit":false,"time":2,"distance":824,"i_lat":-6.255332,"station_name":"Duren Kalibata","station_id":"DRN","is_transit":false},{"i_lat":-6.242512,"transit":false,"station_id":"CW","station_name":"Cawang","i_long":106.856607,"line":0,"is_transit":false,"time":3,"distance":1546},{"i_lat":-6.226659,"station_name":"Tebet","is_transit":false,"time":2,"transit":false,"distance":1230,"i_long":106.857948,"line":2,"station_id":"TEB"},{"i_long":106.84912,"line":0,"transit":true,"distance":2610,"station_id":"MRI","is_transit":true,"time":4,"i_lat":-6.209883,"station_name":"Manggarai"},{"is_transit":false,"i_long":106.822649,"transit":false,"station_name":"Sudirman","time":4,"distance":3186,"line":1,"station_id":"SUD","i_lat":-6.202263},{"is_transit":false,"i_long":106.819881,"station_id":"SUDB","i_lat":-6.201433,"transit":false,"line":1,"time":1,"station_name":"Sudirman Baru","distance":280},{"station_name":"Karet","is_transit":false,"station_id":"KAT","i_long":106.816351,"time":1,"line":1,"i_lat":-6.20132,"transit":false,"distance":471},{"time":5,"station_id":"THB","i_lat":-6.185545,"i_long":106.811091,"line":1,"distance":2029,"is_transit":true,"station_name":"Tanah Abang","transit":true},{"i_lat":-6.207404,"time":6,"line":6,"distance":3191,"station_name":"Palmerah","i_long":106.79689,"transit":false,"is_transit":false,"station_id":"PLM"},{"time":7,"i_long":106.780334,"line":6,"distance":3737,"station_id":"KBY","transit":false,"station_name":"Kebayoran","is_transit":false,"i_lat":-6.237242},{"station_id":"PDJ","i_long":106.74273,"is_transit":false,"station_name":"Pondokranji","distance":6218,"transit":false,"line":6,"time":8,"i_lat":-6.276362},{"i_long":106.728916,"transit":false,"station_name":"Jurangmangu","line":6,"distance":2179,"is_transit":false,"station_id":"JMU","time":3,"i_lat":-6.288927},{"is_transit":false,"distance":1994,"station_id":"SDM","i_long":106.712277,"i_lat":-6.296963,"time":4,"line":6,"transit":false,"station_name":"Sudimara"},{"is_transit":false,"time":6,"transit":false,"distance":4566,"i_long":106.675475,"station_name":"Rawa Buntu","i_lat":-6.314823,"station_id":"RU","line":6},{"i_long":106.66566,"is_transit":false,"line":6,"i_lat":-6.319871,"distance":2413,"station_name":"Serpong","time":4,"station_id":"SRP","transit":false},{"i_lat":-6.32484,"i_long":106.640411,"station_id":"CSK","transit":false,"is_transit":false,"distance":1784,"time":4,"line":0,"station_name":"Cisauk"},{"is_transit":false,"i_lat":-6.329547,"station_id":"CC","line":0,"time":4,"station_name":"Cicayur","transit":false,"i_long":106.617853,"distance":2519},{"is_transit":false,"i_long":106.568863,"time":8,"station_name":"Parung Panjang","i_lat":-6.3441410000000005,"distance":5968,"station_id":"PRP","line":6,"transit":false}],[{"distance":0,"station_id":"CTA","is_transit":true,"time":0,"transit":false,"station_name":"Citayam","i_lat":-6.448811,"i_long":106.800298,"line":1},{"line":0,"transit":false,"is_transit":false,"time":6,"i_long":106.816926,"station_name":"Depok","distance":5084,"station_id":"DP","i_lat":-6.405256},{"time":3,"distance":1584,"station_id":"DPB","i_long":106.819451,"line":0,"is_transit":false,"transit":false,"station_name":"Depokbaru","i_lat":-6.391065},{"time":4,"distance":2727,"station_id":"POC","transit":false,"i_lat":-6.369073,"line":2,"is_transit":false,"station_name":"Pondok Cina","i_long":106.831114},{"line":2,"i_lat":-6.360749,"station_name":"Univ. Indonesia","distance":1109,"time":2,"station_id":"UI","is_transit":false,"transit":false,"i_long":106.831474},{"i_lat":-6.339291,"time":3,"transit":false,"station_id":"UP","line":2,"is_transit":false,"station_name":"Univ. Pancasila","distance":2264,"i_long":106.834175},{"line":2,"distance":1029,"station_id":"LNA","time":2,"station_name":"Lenteng Agung","i_lat":-6.330363,"is_transit":false,"transit":false,"i_long":106.832616},{"transit":false,"time":3,"station_id":"TNT","is_transit":false,"station_name":"Tanjung Barat","line":2,"i_long":106.838896,"i_lat":-6.3080680000000005,"distance":2671},{"transit":false,"is_transit":false,"time":4,"i_lat":-6.2842400000000005,"station_id":"PSM","i_long":106.843999,"line":2,"station_name":"Pasar Minggu","distance":2820},{"station_id":"PSMB","is_transit":false,"i_long":106.851577,"line":2,"distance":2380,"i_lat":-6.263214,"time":2,"station_name":"Pasar Minggu Baru","transit":false},{"station_id":"DRN","transit":false,"line":0,"time":2,"i_long":106.85449,"i_lat":-6.255332,"station_name":"Duren Kalibata","is_transit":false,"distance":824},{"station_id":"CW","i_long":106.856607,"line":0,"i_lat":-6.242512,"time":3,"is_transit":false,"transit":false,"distance":1546,"station_name":"Cawang"},{"station_name":"Tebet","i_long":106.857948,"transit":false,"time":2,"distance":1230,"i_lat":-6.226659,"station_id":"TEB","is_transit":false,"line":2},{"time":4,"i_long":106.84912,"station_id":"MRI","i_lat":-6.209883,"station_name":"Manggarai","line":0,"transit":true,"distance":2610,"is_transit":true},{"transit":false,"i_lat":-6.198556,"is_transit":false,"line":0,"station_name":"Cikini","distance":1590,"time":4,"i_long":106.840169,"station_id":"CKI"},{"time":3,"i_long":106.832183,"line":2,"i_lat":-6.186295,"station_id":"GDD","station_name":"Gondangdia","distance":1750,"transit":false,"is_transit":false},{"time":4,"i_long":106.828284,"transit":false,"station_name":"Juanda","is_transit":false,"line":2,"distance":2015,"i_lat":-6.166716,"station_id":"JUA"},{"is_transit":false,"i_lat":-6.160725,"station_name":"Sawah Besar","time":2,"station_id":"SW","i_long":106.827103,"distance":1149,"line":2,"transit":false},{"line":2,"transit":false,"i_long":106.82482,"station_name":"Manggabesar","is_transit":false,"distance":906,"station_id":"MGB","i_lat":-6.149769,"time":2},{"i_long":106.820901,"i_lat":-6.141205,"station_id":"JAY","distance":1080,"transit":false,"is_transit":false,"time":2,"station_name":"Jayakarta","line":7},{"i_long":106.812439,"i_lat":-6.137569,"station_id":"JAKK","station_name":"Jakarta Kota","time":4,"is_transit":true,"transit":true,"line":0,"distance":1264},{"station_name":"Kampung Bandan","i_long":106.826365,"i_lat":-6.132549,"transit":false,"line":0,"time":3,"station_id":"KPB","distance":1364,"is_transit":true},{"line":0,"is_transit":false,"i_lat":-6.144674,"transit":false,"i_long":106.79867,"station_name":"Angke","distance":4102,"time":9,"station_id":"AK"},{"i_long":106.800832,"line":1,"distance":1230,"is_transit":true,"transit":true,"station_id":"DU","time":4,"i_lat":-6.155215,"station_name":"Duri"},{"line":1,"transit":true,"station_id":"THB","distance":3632,"station_name":"Tanah Abang","i_lat":-6.185545,"i_long":106.811091,"is_transit":true,"time":8},{"is_transit":false,"i_lat":-6.207404,"time":6,"station_id":"PLM","transit":false,"i_long":106.79689,"line":6,"station_name":"Palmerah","distance":3191},{"station_id":"KBY","i_lat":-6.237242,"time":7,"transit":false,"distance":3737,"is_transit":false,"i_long":106.780334,"station_name":"Kebayoran","line":6},{"distance":6218,"station_id":"PDJ","line":6,"station_name":"Pondokranji","is_transit":false,"i_lat":-6.276362,"i_long":106.74273,"transit":false,"time":8},{"distance":2179,"time":3,"station_id":"JMU","station_name":"Jurangmangu","i_long":106.728916,"transit":false,"is_transit":false,"i_lat":-6.288927,"line":6},{"is_transit":false,"i_lat":-6.296963,"transit":false,"station_name":"Sudimara","distance":1994,"station_id":"SDM","i_long":106.712277,"time":4,"line":6},{"station_id":"RU","i_lat":-6.314823,"transit":false,"station_name":"Rawa Buntu","is_transit":false,"line":6,"distance":4566,"time":6,"i_long":106.675475},{"station_id":"SRP","line":6,"i_lat":-6.319871,"i_long":106.66566,"is_transit":false,"transit":false,"station_name":"Serpong","time":4,"distance":2413},{"station_name":"Cisauk","line":0,"time":4,"i_long":106.640411,"distance":1784,"station_id":"CSK","i_lat":-6.32484,"transit":false,"is_transit":false},{"time":4,"transit":false,"i_long":106.617853,"is_transit":false,"line":0,"station_name":"Cicayur","distance":2519,"station_id":"CC","i_lat":-6.329547},{"line":6,"station_id":"PRP","time":8,"station_name":"Parung Panjang","i_long":106.568863,"is_transit":false,"distance":5968,"transit":false,"i_lat":-6.3441410000000005}],[{"line":1,"i_lat":-6.448811,"transit":false,"station_name":"Citayam","distance":0,"time":0,"i_long":106.800298,"is_transit":true,"station_id":"CTA"},{"time":6,"i_long":106.816926,"transit":false,"distance":5084,"is_transit":false,"line":0,"i_lat":-6.405256,"station_name":"Depok","station_id":"DP"},{"station_id":"DPB","station_name":"Depokbaru","time":3,"transit":false,"i_lat":-6.391065,"i_long":106.819451,"distance":1584,"line":0,"is_transit":false},{"time":4,"distance":2727,"station_id":"POC","i_lat":-6.369073,"i_long":106.831114,"line":2,"station_name":"Pondok Cina","is_transit":false,"transit":false},{"station_id":"UI","is_transit":false,"transit":false,"station_name":"Univ. Indonesia","distance":1109,"i_lat":-6.360749,"line":2,"i_long":106.831474,"time":2},{"i_long":106.834175,"station_name":"Univ. Pancasila","station_id":"UP","is_transit":false,"time":3,"distance":2264,"transit":false,"line":2,"i_lat":-6.339291},{"station_name":"Lenteng Agung","i_long":106.832616,"distance":1029,"time":2,"line":2,"station_id":"LNA","i_lat":-6.330363,"is_transit":false,"transit":false},{"station_id":"TNT","is_transit":false,"line":2,"distance":2671,"time":3,"i_long":106.838896,"station_name":"Tanjung Barat","i_lat":-6.3080680000000005,"transit":false},{"line":2,"i_long":106.843999,"time":4,"transit":false,"station_name":"Pasar Minggu","distance":2820,"i_lat":-6.2842400000000005,"is_transit":false,"station_id":"PSM"},{"transit":false,"distance":2380,"line":2,"time":2,"i_long":106.851577,"is_transit":false,"station_name":"Pasar Minggu Baru","i_lat":-6.263214,"station_id":"PSMB"},{"transit":false,"distance":824,"station_id":"DRN","time":2,"is_transit":false,"station_name":"Duren Kalibata","i_long":106.85449,"i_lat":-6.255332,"line":0},{"is_transit":false,"time":3,"station_name":"Cawang","station_id":"CW","i_lat":-6.242512,"distance":1546,"transit":false,"i_long":106.856607,"line":0},{"time":2,"station_name":"Tebet","station_id":"TEB","i_lat":-6.226659,"line":2,"transit":false,"is_transit":false,"distance":1230,"i_long":106.857948},{"line":0,"i_lat":-6.209883,"distance":2610,"is_transit":true,"station_id":"MRI","i_long":106.84912,"time":4,"station_name":"Manggarai","transit":true},{"time":2,"station_id":"MTR","line":1,"distance":1275,"is_transit":false,"transit":false,"station_name":"Matraman","i_long":106.858896,"i_lat":-6.212485},{"i_lat":-6.215091,"distance":1377,"station_name":"Jatinegara","is_transit":true,"i_long":106.86807400000001,"line":0,"time":8,"transit":true,"station_id":"JNG"},{"station_name":"Pondok Jati","is_transit":false,"transit":false,"i_long":106.861737,"line":11,"distance":1236,"time":2,"i_lat":-6.209188,"station_id":"POK"},{"time":2,"station_name":"Kramat","i_long":106.855437,"line":11,"transit":false,"i_lat":-6.193792,"distance":1829,"is_transit":false,"station_id":"KMT"},{"time":1,"transit":false,"station_id":"GST","station_name":"Gang Sentiong","distance":973,"is_transit":false,"i_lat":-6.185975,"i_long":106.850107,"line":11},{"time":8,"transit":false,"i_long":106.84368,"station_id":"PSE","station_name":"Pasar Senen","is_transit":false,"i_lat":-6.174784,"distance":1567,"line":11},{"station_id":"KMO","is_transit":false,"i_lat":-6.161728,"time":4,"line":11,"station_name":"Kemayoran","i_long":106.839204,"distance":1436,"transit":false},{"is_transit":false,"time":5,"station_id":"RJW","transit":false,"station_name":"Rajawali","distance":1901,"line":11,"i_long":106.836569,"i_lat":-6.14505},{"station_id":"KPB","transit":true,"distance":1444,"time":3,"line":0,"i_lat":-6.132549,"i_long":106.826365,"is_transit":true,"station_name":"Kampung Bandan"},{"i_long":106.79867,"is_transit":false,"distance":4102,"station_id":"AK","i_lat":-6.144674,"line":0,"transit":false,"station_name":"Angke","time":9},{"transit":true,"time":4,"i_long":106.800832,"line":1,"is_transit":true,"station_name":"Duri","distance":1230,"i_lat":-6.155215,"station_id":"DU"},{"i_long":106.811091,"line":1,"time":8,"is_transit":true,"i_lat":-6.185545,"station_id":"THB","distance":3632,"station_name":"Tanah Abang","transit":true},{"transit":false,"i_lat":-6.207404,"time":6,"distance":3191,"station_name":"Palmerah","line":6,"is_transit":false,"station_id":"PLM","i_long":106.79689},{"i_lat":-6.237242,"time":7,"is_transit":false,"station_id":"KBY","distance":3737,"station_name":"Kebayoran","i_long":106.780334,"line":6,"transit":false},{"distance":6218,"station_id":"PDJ","i_lat":-6.276362,"transit":false,"line":6,"i_long":106.74273,"is_transit":false,"time":8,"station_name":"Pondokranji"},{"is_transit":false,"time":3,"distance":2179,"i_lat":-6.288927,"transit":false,"i_long":106.728916,"station_id":"JMU","line":6,"station_name":"Jurangmangu"},{"is_transit":false,"i_lat":-6.296963,"time":4,"station_name":"Sudimara","transit":false,"distance":1994,"i_long":106.712277,"line":6,"station_id":"SDM"},{"transit":false,"i_lat":-6.314823,"i_long":106.675475,"line":6,"station_name":"Rawa Buntu","is_transit":false,"time":6,"distance":4566,"station_id":"RU"},{"transit":false,"i_lat":-6.319871,"station_id":"SRP","station_name":"Serpong","line":6,"is_transit":false,"time":4,"distance":2413,"i_long":106.66566},{"i_long":106.640411,"i_lat":-6.32484,"time":4,"transit":false,"station_id":"CSK","is_transit":false,"distance":1784,"station_name":"Cisauk","line":0},{"i_lat":-6.329547,"i_long":106.617853,"transit":false,"distance":2519,"is_transit":false,"time":4,"line":0,"station_name":"Cicayur","station_id":"CC"},{"is_transit":false,"line":6,"transit":false,"station_id":"PRP","i_lat":-6.3441410000000005,"i_long":106.568863,"distance":5968,"time":8,"station_name":"Parung Panjang"}]]}