{"data":[[{"is_transit":false,"station_name":"Citayam","i_long":106.800298,"line":2,"distance":0,"transit":false,"station_id":"CTA","time":0,"i_lat":-6.448811},{"distance":5084,"i_lat":-6.405256,"time":6,"i_long":106.816926,"is_transit":false,"station_id":"DP","transit":false,"station_name":"Depok","line":2},{"time":3,"station_name":"Depokbaru","line":2,"distance":1584,"i_long":106.819451,"is_transit":false,"transit":false,"station_id":"DPB","i_lat":-6.391065},{"i_lat":-6.369073,"time":4,"station_id":"POC","distance":2727,"is_transit":false,"station_name":"Pondok Cina","line":2,"transit":false,"i_long":106.831114},{"station_id":"UI","time":2,"line":2,"distance":1109,"is_transit":false,"transit":false,"i_lat":-6.360749,"station_name":"Univ. Indonesia","i_long":106.831474},{"distance":2264,"station_name":"Univ. Pancasila","station_id":"UP","i_lat":-6.339291,"time":3,"i_long":106.834175,"transit":false,"is_transit":false,"line":2},{"i_long":106.832616,"line":2,"i_lat":-6.330363,"station_name":"Lenteng Agung","distance":1029,"station_id":"LNA","transit":false,"is_transit":false,"time":2}]]}