{"data":[[{"is_transit":true,"transit":false,"i_long":106.800298,"time":0,"distance":0,"station_id":"CTA","line":1,"station_name":"Citayam","i_lat":-6.448811},{"time":6,"i_long":106.816926,"station_name":"Depok","station_id":"DP","i_lat":-6.405256,"transit":false,"is_transit":false,"line":0,"distance":5084},{"line":0,"transit":false,"distance":1584,"is_transit":false,"i_lat":-6.391065,"station_id":"DPB","i_long":106.819451,"time":3,"station_name":"Depokbaru"},{"station_name":"Pondok Cina","i_lat":-6.369073,"distance":2727,"station_id":"POC","i_long":106.831114,"line":2,"is_transit":false,"time":4,"transit":false},{"line":2,"time":2,"is_transit":false,"i_lat":-6.360749,"distance":1109,"station_name":"Univ. Indonesia","transit":false,"station_id":"UI","i_long":106.831474},{"station_id":"UP","distance":2264,"line":2,"time":3,"i_long":106.834175,"station_name":"Univ. Pancasila","i_lat":-6.339291,"transit":false,"is_transit":false},{"distance":1029,"station_id":"LNA","is_transit":false,"time":2,"transit":false,"i_lat":-6.330363,"station_name":"Lenteng Agung","i_long":106.832616,"line":2},{"transit":false,"station_id":"TNT","time":3,"distance":2671,"station_name":"Tanjung Barat","is_transit":false,"i_lat":-6.3080680000000005,"i_long":106.838896,"line":2},{"i_long":106.843999,"i_lat":-6.2842400000000005,"station_name":"Pasar Minggu","transit":false,"is_transit":false,"line":2,"distance":2820,"time":4,"station_id":"PSM"},{"line":2,"station_name":"Pasar Minggu Baru","transit":false,"distance":2380,"time":2,"is_transit":false,"i_lat":-6.263214,"station_id":"PSMB","i_long":106.851577},{"transit":false,"i_lat":-6.255332,"distance":824,"time":2,"station_name":"Duren Kalibata","line":0,"i_long":106.85449,"station_id":"DRN","is_transit":false},{"is_transit":false,"station_id":"CW","line":0,"distance":1546,"transit":false,"i_long":106.856607,"station_name":"Cawang","time":3,"i_lat":-6.242512},{"station_name":"Tebet","i_lat":-6.226659,"time":2,"station_id":"TEB","distance":1230,"is_transit":false,"transit":false,"i_long":106.857948,"line":2},{"line":0,"is_transit":true,"distance":2610,"station_id":"MRI","i_long":106.84912,"transit":true,"station_name":"Manggarai","time":4,"i_lat":-6.209883},{"is_transit":false,"station_id":"SUD","distance":3186,"station_name":"Sudirman","time":4,"transit":false,"i_lat":-6.202263,"i_long":106.822649,"line":1},{"distance":280,"station_name":"Sudirman Baru","transit":false,"i_long":106.819881,"is_transit":false,"line":1,"station_id":"SUDB","time":1,"i_lat":-6.201433},{"station_id":"KAT","transit":false,"i_long":106.816351,"distance":471,"line":1,"time":1,"station_name":"Karet","is_transit":false,"i_lat":-6.20132},{"station_name":"Tanah Abang","line":1,"i_long":106.811091,"time":5,"distance":2029,"transit":false,"i_lat":-6.185545,"is_transit":true,"station_id":"THB"},{"line":1,"station_name":"Duri","station_id":"DU","i_long":106.800832,"distance":3632,"i_lat":-6.155215,"time":8,"transit":true,"is_transit":true},{"i_long":106.788277,"station_id":"GGL","line":5,"i_lat":-6.162021,"station_name":"Grogol","transit":false,"distance":1700,"is_transit":false,"time":3},{"station_id":"PSG","time":2,"transit":false,"station_name":"Pesing","distance":2036,"is_transit":false,"i_lat":-6.161433,"line":5,"i_long":106.771379}],[{"distance":0,"time":0,"station_id":"CTA","line":1,"station_name":"Citayam","transit":false,"i_lat":-6.448811,"is_transit":true,"i_long":106.800298},{"time":6,"line":0,"is_transit":false,"station_name":"Depok","transit":false,"i_lat":-6.405256,"distance":5084,"station_id":"DP","i_long":106.816926},{"station_name":"Depokbaru","is_transit":false,"station_id":"DPB","line":0,"distance":1584,"i_long":106.819451,"i_lat":-6.391065,"time":3,"transit":false},{"is_transit":false,"i_lat":-6.369073,"distance":2727,"station_name":"Pondok Cina","time":4,"station_id":"POC","i_long":106.831114,"transit":false,"line":2},{"time":2,"i_long":106.831474,"station_name":"Univ. Indonesia","i_lat":-6.360749,"line":2,"station_id":"UI","distance":1109,"transit":false,"is_transit":false},{"distance":2264,"transit":false,"is_transit":false,"i_long":106.834175,"i_lat":-6.339291,"line":2,"station_name":"Univ. Pancasila","station_id":"UP","time":3},{"i_long":106.832616,"transit":false,"i_lat":-6.330363,"is_transit":false,"station_id":"LNA","line":2,"distance":1029,"station_name":"Lenteng Agung","time":2},{"distance":2671,"time":3,"station_id":"TNT","i_lat":-6.3080680000000005,"line":2,"station_name":"Tanjung Barat","transit":false,"is_transit":false,"i_long":106.838896},{"transit":false,"distance":2820,"i_lat":-6.2842400000000005,"is_transit":false,"line":2,"i_long":106.843999,"time":4,"station_name":"Pasar Minggu","station_id":"PSM"},{"station_name":"Pasar Minggu Baru","transit":false,"is_transit":false,"distance":2380,"time":2,"i_lat":-6.263214,"i_long":106.851577,"line":2,"station_id":"PSMB"},{"i_lat":-6.255332,"line":0,"i_long":106.85449,"distance":824,"station_id":"DRN","station_name":"Duren Kalibata","is_transit":false,"transit":false,"time":2},{"station_id":"CW","i_long":106.856607,"station_name":"Cawang","time":3,"i_lat":-6.242512,"is_transit":false,"transit":false,"distance":1546,"line":0},{"is_transit":false,"transit":false,"i_long":106.857948,"distance":1230,"line":2,"i_lat":-6.226659,"station_id":"TEB","time":2,"station_name":"Tebet"},{"distance":2610,"i_lat":-6.209883,"time":4,"station_id":"MRI","line":0,"transit":true,"is_transit":true,"i_long":106.84912,"station_name":"Manggarai"},{"station_id":"CKI","station_name":"Cikini","i_long":106.840169,"is_transit":false,"i_lat":-6.198556,"distance":1590,"transit":false,"time":4,"line":0},{"distance":1750,"i_long":106.832183,"station_name":"Gondangdia","station_id":"GDD","is_transit":false,"time":3,"i_lat":-6.186295,"line":2,"transit":false},{"time":4,"i_lat":-6.166716,"station_name":"Juanda","distance":2015,"is_transit":false,"line":2,"i_long":106.828284,"transit":false,"station_id":"JUA"},{"distance":1149,"station_id":"SW","transit":false,"station_name":"Sawah Besar","i_lat":-6.160725,"line":2,"is_transit":false,"time":2,"i_long":106.827103},{"station_name":"Manggabesar","distance":906,"station_id":"MGB","transit":false,"time":2,"i_long":106.82482,"is_transit":false,"line":2,"i_lat":-6.149769},{"transit":false,"i_long":106.820901,"is_transit":false,"line":7,"time":2,"distance":1080,"i_lat":-6.141205,"station_name":"Jayakarta","station_id":"JAY"},{"transit":true,"station_id":"JAKK","distance":1264,"time":4,"station_name":"Jakarta Kota","is_transit":true,"i_lat":-6.137569,"line":0,"i_long":106.812439},{"line":0,"transit":false,"i_lat":-6.132549,"station_id":"KPB","station_name":"Kampung Bandan","distance":1364,"time":3,"i_long":106.826365,"is_transit":true},{"i_lat":-6.144674,"is_transit":false,"distance":4102,"i_long":106.79867,"line":0,"transit":false,"station_name":"Angke","time":9,"station_id":"AK"},{"station_name":"Duri","time":4,"station_id":"DU","transit":true,"distance":1230,"i_long":106.800832,"is_transit":true,"i_lat":-6.155215,"line":1},{"time":3,"line":5,"transit":false,"i_lat":-6.162021,"station_id":"GGL","station_name":"Grogol","i_long":106.788277,"is_transit":false,"distance":1700},{"distance":2036,"station_name":"Pesing","time":2,"line":5,"i_long":106.771379,"i_lat":-6.161433,"is_transit":false,"transit":false,"station_id":"PSG"}],[{"i_long":106.800298,"i_lat":-6.448811,"station_id":"CTA","station_name":"Citayam","distance":0,"time":0,"line":1,"transit":false,"is_transit":true},{"transit":false,"time":6,"i_lat":-6.405256,"distance":5084,"line":0,"station_id":"DP","is_transit":false,"station_name":"Depok","i_long":106.816926},{"distance":1584,"is_transit":false,"station_name":"Depokbaru","line":0,"time":3,"i_long":106.819451,"station_id":"DPB","i_lat":-6.391065,"transit":false},{"line":2,"station_name":"Pondok Cina","station_id":"POC","i_long":106.831114,"distance":2727,"time":4,"i_lat":-6.369073,"is_transit":false,"transit":false},{"distance":1109,"line":2,"station_name":"Univ. Indonesia","i_long":106.831474,"i_lat":-6.360749,"transit":false,"is_transit":false,"station_id":"UI","time":2},{"time":3,"i_long":106.834175,"is_transit":false,"distance":2264,"i_lat":-6.339291,"line":2,"station_id":"UP","transit":false,"station_name":"Univ. Pancasila"},{"i_lat":-6.330363,"line":2,"distance":1029,"station_name":"Lenteng Agung","time":2,"transit":false,"i_long":106.832616,"station_id":"LNA","is_transit":false},{"time":3,"is_transit":false,"station_name":"Tanjung Barat","transit":false,"distance":2671,"line":2,"station_id":"TNT","i_lat":-6.3080680000000005,"i_long":106.838896},{"distance":2820,"station_id":"PSM","i_lat":-6.2842400000000005,"line":2,"station_name":"Pasar Minggu","i_long":106.843999,"transit":false,"time":4,"is_transit":false},{"station_name":"Pasar Minggu Baru","line":2,"is_transit":false,"transit":false,"station_id":"PSMB","time":2,"i_long":106.851577,"distance":2380,"i_lat":-6.263214},{"line":0,"is_transit":false,"station_name":"Duren Kalibata","time":2,"distance":824,"station_id":"DRN","i_lat":-6.255332,"transit":false,"i_long":106.85449},{"transit":false,"station_name":"Cawang","is_transit":false,"time":3,"station_id":"CW","line":0,"i_long":106.856607,"distance":1546,"i_lat":-6.242512},{"station_name":"Tebet","i_lat":-6.226659,"i_long":106.857948,"distance":1230,"station_id":"TEB","is_transit":false,"time":2,"transit":false,"line":2},{"time":4,"transit":true,"station_name":"Manggarai","i_long":106.84912,"i_lat":-6.209883,"line":0,"is_transit":true,"distance":2610,"station_id":"MRI"},{"i_lat":-6.212485,"i_long":106.858896,"line":1,"station_name":"Matraman","transit":false,"station_id":"MTR","time":2,"distance":1275,"is_transit":false},{"distance":1377,"transit":true,"is_transit":true,"station_name":"Jatinegara","i_long":106.86807400000001,"line":0,"i_lat":-6.215091,"time":8,"station_id":"JNG"},{"transit":false,"station_id":"POK","i_lat":-6.209188,"i_long":106.861737,"is_transit":false,"distance":1236,"line":11,"station_name":"Pondok Jati","time":2},{"time":2,"i_lat":-6.193792,"i_long":106.855437,"transit":false,"station_name":"Kramat","is_transit":false,"station_id":"KMT","line":11,"distance":1829},{"i_long":106.850107,"distance":973,"line":11,"is_transit":false,"transit":false,"i_lat":-6.185975,"station_name":"Gang Sentiong","station_id":"GST","time":1},{"distance":1567,"line":11,"is_transit":false,"i_long":106.84368,"time":8,"i_lat":-6.174784,"transit":false,"station_id":"PSE","station_name":"Pasar Senen"},{"distance":1436,"transit":false,"station_name":"Kemayoran","time":4,"line":11,"station_id":"KMO","is_transit":false,"i_long":106.839204,"i_lat":-6.161728},{"line":11,"station_name":"Rajawali","distance":1901,"time":5,"station_id":"RJW","transit":false,"i_lat":-6.14505,"is_transit":false,"i_long":106.836569},{"transit":true,"distance":1444,"i_lat":-6.132549,"i_long":106.826365,"time":3,"line":0,"is_transit":true,"station_name":"Kampung Bandan","station_id":"KPB"},{"is_transit":false,"station_id":"AK","i_lat":-6.144674,"transit":false,"time":9,"i_long":106.79867,"distance":4102,"station_name":"Angke","line":0},{"station_name":"Duri","time":4,"station_id":"DU","i_long":106.800832,"is_transit":true,"i_lat":-6.155215,"distance":1230,"line":1,"transit":true},{"station_id":"GGL","i_long":106.788277,"distance":1700,"transit":false,"station_name":"Grogol","is_transit":false,"time":3,"i_lat":-6.162021,"line":5},{"time":2,"i_lat":-6.161433,"line":5,"station_id":"PSG","distance":2036,"station_name":"Pesing","is_transit":false,"i_long":106.771379,"transit":false}]]}