{"data":[[{"time":0,"i_long":106.800298,"i_lat":-6.448811,"station_name":"Citayam","line":2,"station_id":"CTA","is_transit":false,"distance":0,"transit":false},{"time":6,"station_id":"DP","distance":5084,"station_name":"Depok","i_lat":-6.405256,"i_long":106.816926,"is_transit":false,"line":2,"transit":false},{"transit":false,"time":3,"i_long":106.819451,"is_transit":false,"i_lat":-6.391065,"station_name":"Depokbaru","distance":1584,"line":2,"station_id":"DPB"},{"line":2,"distance":2727,"is_transit":false,"time":4,"i_long":106.831114,"transit":false,"station_name":"Pondok Cina","station_id":"POC","i_lat":-6.369073},{"station_id":"UI","distance":1109,"i_long":106.831474,"is_transit":false,"transit":false,"line":2,"station_name":"Univ. Indonesia","time":2,"i_lat":-6.360749},{"i_lat":-6.339291,"i_long":106.834175,"station_name":"Univ. Pancasila","transit":false,"line":2,"is_transit":false,"distance":2264,"station_id":"UP","time":3},{"line":2,"station_id":"LNA","is_transit":false,"time":2,"transit":false,"i_long":106.832616,"station_name":"Lenteng Agung","i_lat":-6.330363,"distance":1029},{"i_long":106.838896,"distance":2671,"station_name":"Tanjung Barat","line":2,"station_id":"TNT","transit":false,"i_lat":-6.3080680000000005,"is_transit":false,"time":3},{"i_long":106.843999,"station_name":"Pasar Minggu","transit":false,"station_id":"PSM","time":4,"distance":2820,"line":2,"is_transit":false,"i_lat":-6.2842400000000005},{"i_long":106.851577,"station_name":"Pasar Minggu Baru","time":2,"station_id":"PSMB","i_lat":-6.263214,"is_transit":false,"line":2,"transit":false,"distance":2380}]]}