{"data":[[{"distance":0,"transit":false,"i_lat":-6.448811,"i_long":106.800298,"line":1,"station_name":"Citayam","station_id":"CTA","time":0,"is_transit":true},{"time":6,"station_id":"DP","i_lat":-6.405256,"i_long":106.816926,"transit":false,"station_name":"Depok","line":0,"distance":5084,"is_transit":false},{"i_lat":-6.391065,"station_id":"DPB","transit":false,"i_long":106.819451,"station_name":"Depokbaru","is_transit":false,"time":3,"distance":1584,"line":0},{"line":2,"distance":2727,"i_lat":-6.369073,"i_long":106.831114,"is_transit":false,"time":4,"transit":false,"station_name":"Pondok Cina","station_id":"POC"},{"i_long":106.831474,"time":2,"is_transit":false,"station_id":"UI","station_name":"Univ. Indonesia","transit":false,"i_lat":-6.360749,"distance":1109,"line":2},{"distance":2264,"is_transit":false,"i_long":106.834175,"line":2,"transit":false,"station_name":"Univ. Pancasila","time":3,"i_lat":-6.339291,"station_id":"UP"},{"line":2,"station_id":"LNA","transit":false,"time":2,"station_name":"Lenteng Agung","is_transit":false,"i_lat":-6.330363,"distance":1029,"i_long":106.832616},{"i_lat":-6.3080680000000005,"is_transit":false,"i_long":106.838896,"transit":false,"station_name":"Tanjung Barat","station_id":"TNT","line":2,"distance":2671,"time":3},{"station_id":"PSM","is_transit":false,"transit":false,"i_lat":-6.2842400000000005,"time":4,"i_long":106.843999,"line":2,"station_name":"Pasar Minggu","distance":2820},{"i_lat":-6.263214,"distance":2380,"line":2,"transit":false,"i_long":106.851577,"station_name":"Pasar Minggu Baru","station_id":"PSMB","time":2,"is_transit":false},{"station_name":"Duren Kalibata","is_transit":false,"station_id":"DRN","transit":false,"i_long":106.85449,"line":0,"time":2,"distance":824,"i_lat":-6.255332},{"is_transit":false,"transit":false,"station_id":"CW","time":3,"i_lat":-6.242512,"station_name":"Cawang","i_long":106.856607,"line":0,"distance":1546}]]}