{"data":[[{"line":2,"i_lat":-6.448811,"station_id":"CTA","transit":false,"is_transit":false,"time":0,"i_long":106.800298,"station_name":"Citayam","distance":0},{"is_transit":false,"time":6,"station_name":"Depok","i_lat":-6.405256,"station_id":"DP","transit":false,"distance":5084,"i_long":106.816926,"line":2},{"is_transit":false,"station_id":"DPB","distance":1584,"transit":false,"station_name":"Depokbaru","i_lat":-6.391065,"line":2,"i_long":106.819451,"time":3},{"transit":false,"station_name":"Pondok Cina","station_id":"POC","i_lat":-6.369073,"time":4,"line":2,"is_transit":false,"distance":2727,"i_long":106.831114},{"distance":1109,"time":2,"is_transit":false,"line":2,"transit":false,"station_id":"UI","station_name":"Univ. Indonesia","i_lat":-6.360749,"i_long":106.831474},{"transit":false,"i_long":106.834175,"i_lat":-6.339291,"time":3,"station_id":"UP","line":2,"is_transit":false,"distance":2264,"station_name":"Univ. Pancasila"},{"transit":false,"is_transit":false,"distance":1029,"i_lat":-6.330363,"i_long":106.832616,"line":2,"time":2,"station_id":"LNA","station_name":"Lenteng Agung"},{"distance":2671,"i_long":106.838896,"station_name":"Tanjung Barat","time":3,"transit":false,"line":2,"is_transit":false,"i_lat":-6.3080680000000005,"station_id":"TNT"},{"transit":false,"i_long":106.843999,"station_name":"Pasar Minggu","time":4,"is_transit":false,"distance":2820,"i_lat":-6.2842400000000005,"station_id":"PSM","line":2},{"i_lat":-6.263214,"line":2,"time":2,"transit":false,"station_id":"PSMB","station_name":"Pasar Minggu Baru","i_long":106.851577,"is_transit":false,"distance":2380},{"distance":824,"time":2,"transit":false,"station_id":"DRN","i_lat":-6.255332,"is_transit":false,"station_name":"Duren Kalibata","i_long":106.85449,"line":2},{"is_transit":false,"time":3,"line":2,"i_lat":-6.242512,"i_long":106.856607,"transit":false,"station_name":"Cawang","station_id":"CW","distance":1546},{"i_long":106.857948,"is_transit":false,"line":2,"i_lat":-6.226659,"transit":false,"station_name":"Tebet","distance":1230,"station_id":"TEB","time":2},{"is_transit":true,"line":2,"i_lat":-6.209883,"i_long":106.84912,"transit":true,"distance":2610,"station_name":"Manggarai","station_id":"MRI","time":4},{"is_transit":false,"station_id":"SUD","transit":false,"i_lat":-6.202263,"i_long":106.822649,"distance":3186,"line":1,"time":4,"station_name":"Sudirman"},{"time":1,"station_name":"Sudirman Baru","line":1,"i_lat":-6.201433,"is_transit":false,"i_long":106.819881,"distance":280,"transit":false,"station_id":"SUDB"},{"is_transit":false,"i_long":106.816351,"time":1,"line":1,"transit":false,"station_name":"Karet","i_lat":-6.20132,"station_id":"KAT","distance":471},{"is_transit":true,"distance":2029,"line":1,"station_name":"Tanah Abang","transit":true,"i_long":106.811091,"time":5,"i_lat":-6.185545,"station_id":"THB"},{"line":6,"transit":false,"station_id":"PLM","i_lat":-6.207404,"time":6,"distance":3191,"i_long":106.79689,"station_name":"Palmerah","is_transit":false},{"station_id":"KBY","transit":false,"time":7,"i_lat":-6.237242,"distance":3737,"station_name":"Kebayoran","line":6,"i_long":106.780334,"is_transit":false}],[{"i_long":106.800298,"station_name":"Citayam","time":0,"line":2,"station_id":"CTA","is_transit":false,"distance":0,"transit":false,"i_lat":-6.448811},{"time":6,"station_name":"Depok","i_long":106.816926,"is_transit":false,"transit":false,"i_lat":-6.405256,"station_id":"DP","distance":5084,"line":2},{"station_name":"Depokbaru","transit":false,"distance":1584,"i_long":106.819451,"line":2,"time":3,"is_transit":false,"i_lat":-6.391065,"station_id":"DPB"},{"line":2,"station_id":"POC","transit":false,"i_lat":-6.369073,"time":4,"i_long":106.831114,"distance":2727,"is_transit":false,"station_name":"Pondok Cina"},{"station_id":"UI","distance":1109,"i_lat":-6.360749,"transit":false,"time":2,"is_transit":false,"i_long":106.831474,"station_name":"Univ. Indonesia","line":2},{"i_lat":-6.339291,"station_name":"Univ. Pancasila","i_long":106.834175,"is_transit":false,"station_id":"UP","line":2,"transit":false,"time":3,"distance":2264},{"i_long":106.832616,"line":2,"is_transit":false,"station_id":"LNA","distance":1029,"i_lat":-6.330363,"station_name":"Lenteng Agung","transit":false,"time":2},{"is_transit":false,"i_lat":-6.3080680000000005,"i_long":106.838896,"station_name":"Tanjung Barat","transit":false,"distance":2671,"line":2,"station_id":"TNT","time":3},{"time":4,"i_lat":-6.2842400000000005,"station_name":"Pasar Minggu","distance":2820,"transit":false,"is_transit":false,"station_id":"PSM","line":2,"i_long":106.843999},{"station_id":"PSMB","station_name":"Pasar Minggu Baru","distance":2380,"line":2,"i_long":106.851577,"transit":false,"time":2,"is_transit":false,"i_lat":-6.263214},{"line":2,"i_long":106.85449,"transit":false,"distance":824,"station_name":"Duren Kalibata","is_transit":false,"station_id":"DRN","time":2,"i_lat":-6.255332},{"i_lat":-6.242512,"station_name":"Cawang","transit":false,"line":2,"time":3,"is_transit":false,"i_long":106.856607,"station_id":"CW","distance":1546},{"i_long":106.857948,"time":2,"transit":false,"station_name":"Tebet","station_id":"TEB","is_transit":false,"i_lat":-6.226659,"line":2,"distance":1230},{"distance":2610,"station_name":"Manggarai","i_lat":-6.209883,"i_long":106.84912,"station_id":"MRI","line":2,"time":4,"transit":false,"is_transit":false},{"distance":1590,"i_lat":-6.198556,"is_transit":false,"line":2,"station_name":"Cikini","transit":false,"station_id":"CKI","i_long":106.840169,"time":4},{"time":3,"distance":1750,"i_lat":-6.186295,"is_transit":false,"line":2,"transit":false,"i_long":106.832183,"station_id":"GDD","station_name":"Gondangdia"},{"distance":2015,"i_lat":-6.166716,"station_id":"JUA","station_name":"Juanda","is_transit":false,"transit":false,"line":2,"time":4,"i_long":106.828284},{"transit":false,"station_id":"SW","is_transit":false,"i_lat":-6.160725,"line":2,"i_long":106.827103,"station_name":"Sawah Besar","time":2,"distance":1149},{"is_transit":false,"i_long":106.82482,"time":2,"i_lat":-6.149769,"line":2,"station_name":"Manggabesar","distance":906,"station_id":"MGB","transit":false},{"is_transit":false,"station_id":"JAY","line":2,"time":2,"transit":false,"i_long":106.820901,"distance":1080,"i_lat":-6.141205,"station_name":"Jayakarta"},{"distance":1264,"station_id":"JAKK","i_long":106.812439,"transit":true,"time":4,"is_transit":true,"station_name":"Jakarta Kota","line":2,"i_lat":-6.137569},{"distance":1364,"station_id":"KPB","i_lat":-6.132549,"transit":true,"i_long":106.826365,"station_name":"Kampung Bandan","is_transit":true,"time":3,"line":4},{"distance":4102,"time":9,"is_transit":false,"line":1,"station_name":"Angke","station_id":"AK","transit":false,"i_lat":-6.144674,"i_long":106.79867},{"time":4,"i_long":106.800832,"is_transit":false,"transit":false,"station_id":"DU","distance":1230,"line":1,"station_name":"Duri","i_lat":-6.155215},{"station_id":"THB","i_long":106.811091,"transit":true,"station_name":"Tanah Abang","is_transit":true,"i_lat":-6.185545,"line":1,"distance":3632,"time":8},{"station_name":"Palmerah","time":6,"i_lat":-6.207404,"line":6,"is_transit":false,"station_id":"PLM","distance":3191,"i_long":106.79689,"transit":false},{"i_long":106.780334,"transit":false,"distance":3737,"i_lat":-6.237242,"line":6,"is_transit":false,"station_name":"Kebayoran","station_id":"KBY","time":7}],[{"line":2,"i_long":106.800298,"station_name":"Citayam","transit":false,"distance":0,"time":0,"is_transit":false,"station_id":"CTA","i_lat":-6.448811},{"station_id":"DP","is_transit":false,"i_lat":-6.405256,"station_name":"Depok","i_long":106.816926,"transit":false,"time":6,"distance":5084,"line":2},{"time":3,"is_transit":false,"station_id":"DPB","station_name":"Depokbaru","transit":false,"i_lat":-6.391065,"distance":1584,"i_long":106.819451,"line":2},{"i_lat":-6.369073,"station_name":"Pondok Cina","distance":2727,"transit":false,"i_long":106.831114,"station_id":"POC","line":2,"time":4,"is_transit":false},{"station_name":"Univ. Indonesia","transit":false,"is_transit":false,"distance":1109,"i_lat":-6.360749,"i_long":106.831474,"line":2,"time":2,"station_id":"UI"},{"time":3,"line":2,"distance":2264,"station_name":"Univ. Pancasila","transit":false,"i_lat":-6.339291,"i_long":106.834175,"is_transit":false,"station_id":"UP"},{"station_name":"Lenteng Agung","time":2,"transit":false,"line":2,"i_lat":-6.330363,"station_id":"LNA","i_long":106.832616,"is_transit":false,"distance":1029},{"i_lat":-6.3080680000000005,"station_name":"Tanjung Barat","transit":false,"line":2,"distance":2671,"i_long":106.838896,"station_id":"TNT","time":3,"is_transit":false},{"station_id":"PSM","i_long":106.843999,"transit":false,"station_name":"Pasar Minggu","distance":2820,"is_transit":false,"line":2,"i_lat":-6.2842400000000005,"time":4},{"i_long":106.851577,"time":2,"transit":false,"distance":2380,"station_name":"Pasar Minggu Baru","line":2,"is_transit":false,"station_id":"PSMB","i_lat":-6.263214},{"distance":824,"station_id":"DRN","i_lat":-6.255332,"i_long":106.85449,"is_transit":false,"station_name":"Duren Kalibata","transit":false,"line":2,"time":2},{"transit":false,"time":3,"distance":1546,"is_transit":false,"i_lat":-6.242512,"i_long":106.856607,"station_id":"CW","line":2,"station_name":"Cawang"},{"line":2,"time":2,"station_id":"TEB","station_name":"Tebet","distance":1230,"transit":false,"i_lat":-6.226659,"i_long":106.857948,"is_transit":false},{"time":4,"i_lat":-6.209883,"is_transit":true,"i_long":106.84912,"line":2,"distance":2610,"station_id":"MRI","transit":true,"station_name":"Manggarai"},{"time":2,"station_name":"Matraman","is_transit":false,"i_long":106.858896,"distance":1275,"transit":false,"station_id":"MTR","i_lat":-6.212485,"line":1},{"is_transit":true,"i_long":106.86807400000001,"line":1,"time":8,"i_lat":-6.215091,"station_name":"Jatinegara","station_id":"JNG","distance":1377,"transit":true},{"i_lat":-6.209188,"distance":1236,"line":11,"transit":false,"is_transit":false,"i_long":106.861737,"station_name":"Pondok Jati","station_id":"POK","time":2},{"i_long":106.855437,"i_lat":-6.193792,"line":11,"transit":false,"is_transit":false,"station_id":"KMT","station_name":"Kramat","time":2,"distance":1829},{"time":1,"transit":false,"station_name":"Gang Sentiong","station_id":"GST","i_long":106.850107,"distance":973,"i_lat":-6.185975,"line":11,"is_transit":false},{"i_long":106.84368,"station_name":"Pasar Senen","time":8,"transit":false,"distance":1567,"is_transit":false,"i_lat":-6.174784,"station_id":"PSE","line":11},{"transit":false,"is_transit":false,"i_long":106.839204,"station_id":"KMO","time":4,"distance":1436,"line":11,"station_name":"Kemayoran","i_lat":-6.161728},{"station_name":"Rajawali","time":5,"station_id":"RJW","i_long":106.836569,"transit":false,"distance":1901,"i_lat":-6.14505,"line":11,"is_transit":false},{"station_id":"KPB","station_name":"Kampung Bandan","i_long":106.826365,"distance":1444,"time":3,"is_transit":true,"line":4,"i_lat":-6.132549,"transit":true},{"distance":4102,"station_name":"Angke","i_lat":-6.144674,"time":9,"line":1,"station_id":"AK","is_transit":false,"transit":false,"i_long":106.79867},{"transit":false,"i_long":106.800832,"is_transit":false,"station_id":"DU","i_lat":-6.155215,"station_name":"Duri","distance":1230,"line":1,"time":4},{"station_name":"Tanah Abang","distance":3632,"transit":true,"i_lat":-6.185545,"time":8,"line":1,"i_long":106.811091,"station_id":"THB","is_transit":true},{"i_long":106.79689,"transit":false,"time":6,"station_id":"PLM","is_transit":false,"station_name":"Palmerah","distance":3191,"i_lat":-6.207404,"line":6},{"distance":3737,"i_long":106.780334,"time":7,"line":6,"station_name":"Kebayoran","transit":false,"is_transit":false,"i_lat":-6.237242,"station_id":"KBY"}]]}