{"data":[[{"time":0,"distance":0,"line":2,"transit":false,"is_transit":false,"i_long":106.800298,"station_name":"Citayam","station_id":"CTA","i_lat":-6.448811},{"station_id":"DP","distance":5084,"i_long":106.816926,"transit":false,"i_lat":-6.405256,"time":6,"station_name":"Depok","line":2,"is_transit":false},{"i_long":106.819451,"distance":1584,"transit":false,"time":3,"line":2,"station_name":"Depokbaru","is_transit":false,"station_id":"DPB","i_lat":-6.391065},{"time":4,"station_id":"POC","is_transit":false,"i_lat":-6.369073,"station_name":"Pondok Cina","distance":2727,"i_long":106.831114,"transit":false,"line":2},{"station_id":"UI","line":2,"is_transit":false,"i_lat":-6.360749,"station_name":"Univ. Indonesia","distance":1109,"i_long":106.831474,"time":2,"transit":false}]]}