{"data":[[{"is_transit":true,"time":0,"station_name":"Citayam","transit":false,"line":1,"distance":0,"station_id":"CTA","i_long":106.800298,"i_lat":-6.448811},{"line":0,"i_long":106.816926,"station_name":"Depok","i_lat":-6.405256,"distance":5084,"station_id":"DP","time":6,"is_transit":false,"transit":false},{"is_transit":false,"time":3,"i_long":106.819451,"distance":1584,"transit":false,"station_id":"DPB","station_name":"Depokbaru","i_lat":-6.391065,"line":0},{"time":4,"line":2,"station_name":"Pondok Cina","i_lat":-6.369073,"i_long":106.831114,"is_transit":false,"station_id":"POC","distance":2727,"transit":false},{"station_id":"UI","i_long":106.831474,"station_name":"Univ. Indonesia","time":2,"distance":1109,"transit":false,"i_lat":-6.360749,"line":2,"is_transit":false},{"time":3,"distance":2264,"transit":false,"station_name":"Univ. Pancasila","station_id":"UP","i_lat":-6.339291,"i_long":106.834175,"is_transit":false,"line":2},{"line":2,"distance":1029,"station_id":"LNA","i_long":106.832616,"time":2,"is_transit":false,"station_name":"Lenteng Agung","i_lat":-6.330363,"transit":false},{"distance":2671,"is_transit":false,"i_lat":-6.3080680000000005,"i_long":106.838896,"station_name":"Tanjung Barat","line":2,"time":3,"transit":false,"station_id":"TNT"},{"station_name":"Pasar Minggu","station_id":"PSM","i_lat":-6.2842400000000005,"transit":false,"time":4,"distance":2820,"i_long":106.843999,"line":2,"is_transit":false},{"is_transit":false,"line":2,"station_id":"PSMB","i_long":106.851577,"distance":2380,"transit":false,"station_name":"Pasar Minggu Baru","i_lat":-6.263214,"time":2},{"station_name":"Duren Kalibata","is_transit":false,"distance":824,"station_id":"DRN","line":0,"time":2,"i_lat":-6.255332,"transit":false,"i_long":106.85449},{"is_transit":false,"distance":1546,"station_name":"Cawang","time":3,"station_id":"CW","line":0,"i_long":106.856607,"i_lat":-6.242512,"transit":false},{"transit":false,"time":2,"station_id":"TEB","distance":1230,"is_transit":false,"i_long":106.857948,"station_name":"Tebet","line":2,"i_lat":-6.226659},{"line":0,"distance":2610,"station_id":"MRI","station_name":"Manggarai","time":4,"transit":true,"is_transit":true,"i_lat":-6.209883,"i_long":106.84912},{"is_transit":false,"i_lat":-6.202263,"transit":false,"i_long":106.822649,"station_name":"Sudirman","distance":3186,"time":4,"line":1,"station_id":"SUD"},{"station_name":"Sudirman Baru","is_transit":false,"i_long":106.819881,"i_lat":-6.201433,"line":1,"station_id":"SUDB","distance":280,"transit":false,"time":1},{"i_long":106.816351,"distance":471,"line":1,"time":1,"transit":false,"is_transit":false,"station_id":"KAT","i_lat":-6.20132,"station_name":"Karet"},{"line":1,"i_lat":-6.185545,"is_transit":true,"i_long":106.811091,"station_id":"THB","station_name":"Tanah Abang","distance":2029,"time":5,"transit":true},{"is_transit":false,"station_name":"Palmerah","line":6,"time":6,"station_id":"PLM","distance":3191,"transit":false,"i_lat":-6.207404,"i_long":106.79689},{"transit":false,"i_long":106.780334,"line":6,"i_lat":-6.237242,"station_id":"KBY","is_transit":false,"time":7,"station_name":"Kebayoran","distance":3737},{"station_id":"PDJ","line":6,"station_name":"Pondokranji","time":8,"is_transit":false,"i_lat":-6.276362,"distance":6218,"i_long":106.74273,"transit":false},{"i_lat":-6.288927,"line":6,"distance":2179,"station_name":"Jurangmangu","transit":false,"i_long":106.728916,"time":3,"station_id":"JMU","is_transit":false},{"distance":1994,"i_lat":-6.296963,"i_long":106.712277,"line":6,"time":4,"is_transit":false,"station_name":"Sudimara","transit":false,"station_id":"SDM"},{"transit":false,"i_lat":-6.314823,"i_long":106.675475,"distance":4566,"station_id":"RU","line":6,"is_transit":false,"station_name":"Rawa Buntu","time":6},{"transit":false,"time":4,"distance":2413,"i_lat":-6.319871,"i_long":106.66566,"is_transit":false,"line":6,"station_id":"SRP","station_name":"Serpong"},{"station_name":"Cisauk","transit":false,"i_lat":-6.32484,"i_long":106.640411,"station_id":"CSK","line":0,"time":4,"is_transit":false,"distance":1784},{"i_lat":-6.329547,"station_name":"Cicayur","distance":2519,"is_transit":false,"time":4,"transit":false,"station_id":"CC","i_long":106.617853,"line":0},{"time":8,"transit":false,"i_lat":-6.3441410000000005,"is_transit":false,"station_name":"Parung Panjang","station_id":"PRP","i_long":106.568863,"distance":5968,"line":6},{"station_id":"CJT","is_transit":false,"time":9,"station_name":"Cilejit","line":0,"i_long":106.508482,"distance":7025,"transit":false,"i_lat":-6.354349},{"station_id":"DAR","transit":false,"i_long":106.491338,"distance":2675,"i_lat":-6.338021,"station_name":"Daru","line":0,"time":6,"is_transit":false},{"transit":false,"distance":3902,"i_lat":-6.327251,"i_long":106.460812,"line":6,"time":5,"station_name":"Tenjo","is_transit":false,"station_id":"TEJ"}],[{"time":0,"distance":0,"station_id":"CTA","station_name":"Citayam","i_long":106.800298,"is_transit":true,"transit":false,"i_lat":-6.448811,"line":1},{"is_transit":false,"station_name":"Depok","i_lat":-6.405256,"line":0,"station_id":"DP","distance":5084,"time":6,"i_long":106.816926,"transit":false},{"transit":false,"distance":1584,"time":3,"i_lat":-6.391065,"i_long":106.819451,"station_id":"DPB","line":0,"is_transit":false,"station_name":"Depokbaru"},{"station_id":"POC","is_transit":false,"i_lat":-6.369073,"line":2,"station_name":"Pondok Cina","i_long":106.831114,"transit":false,"distance":2727,"time":4},{"distance":1109,"is_transit":false,"time":2,"transit":false,"station_id":"UI","i_lat":-6.360749,"i_long":106.831474,"station_name":"Univ. Indonesia","line":2},{"station_id":"UP","distance":2264,"is_transit":false,"time":3,"i_lat":-6.339291,"line":2,"i_long":106.834175,"station_name":"Univ. Pancasila","transit":false},{"line":2,"distance":1029,"i_long":106.832616,"i_lat":-6.330363,"station_id":"LNA","time":2,"station_name":"Lenteng Agung","transit":false,"is_transit":false},{"line":2,"distance":2671,"transit":false,"i_lat":-6.3080680000000005,"i_long":106.838896,"is_transit":false,"time":3,"station_id":"TNT","station_name":"Tanjung Barat"},{"is_transit":false,"station_id":"PSM","station_name":"Pasar Minggu","time":4,"transit":false,"distance":2820,"line":2,"i_lat":-6.2842400000000005,"i_long":106.843999},{"line":2,"time":2,"distance":2380,"i_lat":-6.263214,"i_long":106.851577,"is_transit":false,"transit":false,"station_name":"Pasar Minggu Baru","station_id":"PSMB"},{"is_transit":false,"transit":false,"i_long":106.85449,"line":0,"station_id":"DRN","distance":824,"time":2,"i_lat":-6.255332,"station_name":"Duren Kalibata"},{"i_long":106.856607,"transit":false,"station_id":"CW","time":3,"line":0,"station_name":"Cawang","i_lat":-6.242512,"distance":1546,"is_transit":false},{"time":2,"distance":1230,"is_transit":false,"i_lat":-6.226659,"station_name":"Tebet","station_id":"TEB","i_long":106.857948,"line":2,"transit":false},{"station_id":"MRI","i_long":106.84912,"i_lat":-6.209883,"time":4,"is_transit":true,"station_name":"Manggarai","distance":2610,"transit":true,"line":0},{"transit":false,"line":0,"distance":1590,"time":4,"station_id":"CKI","is_transit":false,"station_name":"Cikini","i_lat":-6.198556,"i_long":106.840169},{"i_lat":-6.186295,"line":2,"station_id":"GDD","i_long":106.832183,"distance":1750,"station_name":"Gondangdia","transit":false,"time":3,"is_transit":false},{"i_long":106.828284,"i_lat":-6.166716,"distance":2015,"station_name":"Juanda","line":2,"transit":false,"is_transit":false,"station_id":"JUA","time":4},{"is_transit":false,"station_name":"Sawah Besar","time":2,"i_long":106.827103,"distance":1149,"line":2,"station_id":"SW","i_lat":-6.160725,"transit":false},{"transit":false,"line":2,"i_long":106.82482,"time":2,"station_id":"MGB","is_transit":false,"distance":906,"i_lat":-6.149769,"station_name":"Manggabesar"},{"transit":false,"time":2,"i_long":106.820901,"distance":1080,"line":7,"i_lat":-6.141205,"station_name":"Jayakarta","station_id":"JAY","is_transit":false},{"i_long":106.812439,"distance":1264,"station_name":"Jakarta Kota","station_id":"JAKK","line":0,"i_lat":-6.137569,"time":4,"is_transit":true,"transit":true},{"transit":false,"line":0,"station_id":"KPB","i_lat":-6.132549,"time":3,"i_long":106.826365,"is_transit":true,"distance":1364,"station_name":"Kampung Bandan"},{"line":0,"i_lat":-6.144674,"station_name":"Angke","time":9,"transit":false,"i_long":106.79867,"is_transit":false,"distance":4102,"station_id":"AK"},{"station_name":"Duri","i_long":106.800832,"transit":true,"station_id":"DU","i_lat":-6.155215,"is_transit":true,"line":1,"time":4,"distance":1230},{"i_lat":-6.185545,"i_long":106.811091,"time":8,"station_id":"THB","distance":3632,"transit":true,"line":1,"is_transit":true,"station_name":"Tanah Abang"},{"is_transit":false,"distance":3191,"i_lat":-6.207404,"transit":false,"time":6,"line":6,"i_long":106.79689,"station_id":"PLM","station_name":"Palmerah"},{"time":7,"transit":false,"line":6,"station_id":"KBY","station_name":"Kebayoran","i_lat":-6.237242,"distance":3737,"is_transit":false,"i_long":106.780334},{"i_lat":-6.276362,"station_id":"PDJ","transit":false,"distance":6218,"time":8,"i_long":106.74273,"line":6,"is_transit":false,"station_name":"Pondokranji"},{"is_transit":false,"distance":2179,"station_id":"JMU","line":6,"i_lat":-6.288927,"transit":false,"time":3,"i_long":106.728916,"station_name":"Jurangmangu"},{"i_lat":-6.296963,"line":6,"i_long":106.712277,"is_transit":false,"time":4,"distance":1994,"station_name":"Sudimara","transit":false,"station_id":"SDM"},{"i_lat":-6.314823,"station_name":"Rawa Buntu","line":6,"station_id":"RU","distance":4566,"i_long":106.675475,"time":6,"is_transit":false,"transit":false},{"line":6,"station_id":"SRP","distance":2413,"transit":false,"i_long":106.66566,"station_name":"Serpong","i_lat":-6.319871,"time":4,"is_transit":false},{"i_long":106.640411,"time":4,"distance":1784,"station_id":"CSK","i_lat":-6.32484,"transit":false,"is_transit":false,"line":0,"station_name":"Cisauk"},{"distance":2519,"station_name":"Cicayur","i_long":106.617853,"i_lat":-6.329547,"is_transit":false,"line":0,"time":4,"station_id":"CC","transit":false},{"line":6,"station_id":"PRP","time":8,"distance":5968,"station_name":"Parung Panjang","transit":false,"i_long":106.568863,"i_lat":-6.3441410000000005,"is_transit":false},{"station_id":"CJT","i_long":106.508482,"station_name":"Cilejit","transit":false,"time":9,"is_transit":false,"line":0,"i_lat":-6.354349,"distance":7025},{"is_transit":false,"distance":2675,"station_name":"Daru","i_long":106.491338,"station_id":"DAR","transit":false,"i_lat":-6.338021,"line":0,"time":6},{"is_transit":false,"distance":3902,"i_lat":-6.327251,"i_long":106.460812,"line":6,"station_id":"TEJ","time":5,"station_name":"Tenjo","transit":false}],[{"distance":0,"i_long":106.800298,"transit":false,"i_lat":-6.448811,"is_transit":true,"time":0,"station_name":"Citayam","station_id":"CTA","line":1},{"distance":5084,"station_name":"Depok","transit":false,"i_lat":-6.405256,"line":0,"station_id":"DP","time":6,"i_long":106.816926,"is_transit":false},{"station_name":"Depokbaru","i_lat":-6.391065,"transit":false,"time":3,"station_id":"DPB","i_long":106.819451,"distance":1584,"line":0,"is_transit":false},{"station_name":"Pondok Cina","i_long":106.831114,"line":2,"time":4,"distance":2727,"i_lat":-6.369073,"transit":false,"station_id":"POC","is_transit":false},{"distance":1109,"station_id":"UI","time":2,"station_name":"Univ. Indonesia","is_transit":false,"transit":false,"i_lat":-6.360749,"line":2,"i_long":106.831474},{"distance":2264,"station_name":"Univ. Pancasila","time":3,"transit":false,"is_transit":false,"i_long":106.834175,"line":2,"station_id":"UP","i_lat":-6.339291},{"time":2,"i_lat":-6.330363,"station_id":"LNA","transit":false,"distance":1029,"line":2,"is_transit":false,"station_name":"Lenteng Agung","i_long":106.832616},{"line":2,"time":3,"transit":false,"distance":2671,"station_name":"Tanjung Barat","station_id":"TNT","is_transit":false,"i_lat":-6.3080680000000005,"i_long":106.838896},{"transit":false,"distance":2820,"i_long":106.843999,"i_lat":-6.2842400000000005,"station_name":"Pasar Minggu","is_transit":false,"time":4,"line":2,"station_id":"PSM"},{"i_lat":-6.263214,"line":2,"i_long":106.851577,"station_name":"Pasar Minggu Baru","is_transit":false,"transit":false,"time":2,"distance":2380,"station_id":"PSMB"},{"distance":824,"time":2,"is_transit":false,"transit":false,"i_long":106.85449,"station_name":"Duren Kalibata","line":0,"station_id":"DRN","i_lat":-6.255332},{"time":3,"transit":false,"station_id":"CW","station_name":"Cawang","is_transit":false,"distance":1546,"i_lat":-6.242512,"line":0,"i_long":106.856607},{"i_long":106.857948,"is_transit":false,"line":2,"time":2,"distance":1230,"station_name":"Tebet","transit":false,"station_id":"TEB","i_lat":-6.226659},{"i_lat":-6.209883,"is_transit":true,"station_name":"Manggarai","distance":2610,"transit":true,"station_id":"MRI","line":0,"time":4,"i_long":106.84912},{"station_name":"Matraman","time":2,"is_transit":false,"line":1,"transit":false,"i_lat":-6.212485,"distance":1275,"i_long":106.858896,"station_id":"MTR"},{"distance":1377,"is_transit":true,"transit":true,"time":8,"station_name":"Jatinegara","station_id":"JNG","i_lat":-6.215091,"line":0,"i_long":106.86807400000001},{"transit":false,"station_name":"Pondok Jati","i_lat":-6.209188,"is_transit":false,"time":2,"line":11,"distance":1236,"station_id":"POK","i_long":106.861737},{"time":2,"i_lat":-6.193792,"station_name":"Kramat","i_long":106.855437,"station_id":"KMT","distance":1829,"line":11,"is_transit":false,"transit":false},{"i_lat":-6.185975,"line":11,"station_name":"Gang Sentiong","transit":false,"station_id":"GST","is_transit":false,"i_long":106.850107,"distance":973,"time":1},{"i_long":106.84368,"i_lat":-6.174784,"distance":1567,"time":8,"station_name":"Pasar Senen","transit":false,"station_id":"PSE","line":11,"is_transit":false},{"line":11,"time":4,"station_id":"KMO","transit":false,"i_lat":-6.161728,"i_long":106.839204,"station_name":"Kemayoran","is_transit":false,"distance":1436},{"distance":1901,"i_long":106.836569,"i_lat":-6.14505,"time":5,"line":11,"station_name":"Rajawali","is_transit":false,"station_id":"RJW","transit":false},{"time":3,"distance":1444,"station_name":"Kampung Bandan","transit":true,"station_id":"KPB","line":0,"is_transit":true,"i_long":106.826365,"i_lat":-6.132549},{"transit":false,"time":9,"distance":4102,"station_id":"AK","i_lat":-6.144674,"i_long":106.79867,"station_name":"Angke","line":0,"is_transit":false},{"station_name":"Duri","is_transit":true,"i_long":106.800832,"i_lat":-6.155215,"line":1,"transit":true,"time":4,"station_id":"DU","distance":1230},{"transit":true,"is_transit":true,"distance":3632,"i_lat":-6.185545,"line":1,"time":8,"station_name":"Tanah Abang","station_id":"THB","i_long":106.811091},{"station_id":"PLM","i_long":106.79689,"is_transit":false,"transit":false,"distance":3191,"time":6,"i_lat":-6.207404,"station_name":"Palmerah","line":6},{"distance":3737,"is_transit":false,"transit":false,"station_name":"Kebayoran","time":7,"station_id":"KBY","i_lat":-6.237242,"i_long":106.780334,"line":6},{"transit":false,"time":8,"i_long":106.74273,"line":6,"is_transit":false,"station_name":"Pondokranji","station_id":"PDJ","distance":6218,"i_lat":-6.276362},{"line":6,"time":3,"transit":false,"is_transit":false,"i_long":106.728916,"distance":2179,"station_id":"JMU","i_lat":-6.288927,"station_name":"Jurangmangu"},{"station_id":"SDM","i_long":106.712277,"time":4,"transit":false,"i_lat":-6.296963,"distance":1994,"line":6,"station_name":"Sudimara","is_transit":false},{"transit":false,"i_long":106.675475,"is_transit":false,"line":6,"station_name":"Rawa Buntu","time":6,"i_lat":-6.314823,"distance":4566,"station_id":"RU"},{"is_transit":false,"line":6,"station_name":"Serpong","transit":false,"station_id":"SRP","i_long":106.66566,"time":4,"distance":2413,"i_lat":-6.319871},{"station_id":"CSK","i_long":106.640411,"distance":1784,"is_transit":false,"station_name":"Cisauk","transit":false,"i_lat":-6.32484,"line":0,"time":4},{"line":0,"transit":false,"is_transit":false,"time":4,"distance":2519,"station_name":"Cicayur","station_id":"CC","i_lat":-6.329547,"i_long":106.617853},{"i_long":106.568863,"transit":false,"line":6,"distance":5968,"station_name":"Parung Panjang","station_id":"PRP","time":8,"i_lat":-6.3441410000000005,"is_transit":false},{"station_name":"Cilejit","line":0,"distance":7025,"i_lat":-6.354349,"i_long":106.508482,"is_transit":false,"time":9,"transit":false,"station_id":"CJT"},{"transit":false,"i_long":106.491338,"station_name":"Daru","is_transit":false,"i_lat":-6.338021,"time":6,"distance":2675,"line":0,"station_id":"DAR"},{"time":5,"distance":3902,"i_lat":-6.327251,"station_id":"TEJ","is_transit":false,"i_long":106.460812,"transit":false,"line":6,"station_name":"Tenjo"}]]}