{"data":[[{"i_lat":-6.448811,"station_id":"CTA","is_transit":false,"transit":false,"distance":0,"line":2,"time":0,"i_long":106.800298,"station_name":"Citayam"},{"i_lat":-6.405256,"line":2,"time":6,"station_name":"Depok","is_transit":false,"transit":false,"distance":5084,"station_id":"DP","i_long":106.816926},{"transit":false,"time":3,"station_name":"Depokbaru","distance":1584,"station_id":"DPB","i_lat":-6.391065,"line":2,"i_long":106.819451,"is_transit":false},{"station_name":"Pondok Cina","station_id":"POC","i_long":106.831114,"distance":2727,"line":2,"is_transit":false,"transit":false,"time":4,"i_lat":-6.369073},{"station_name":"Univ. Indonesia","transit":false,"station_id":"UI","i_long":106.831474,"time":2,"distance":1109,"is_transit":false,"i_lat":-6.360749,"line":2},{"station_id":"UP","i_lat":-6.339291,"i_long":106.834175,"line":2,"transit":false,"distance":2264,"station_name":"Univ. Pancasila","is_transit":false,"time":3},{"i_lat":-6.330363,"distance":1029,"i_long":106.832616,"is_transit":false,"line":2,"transit":false,"time":2,"station_id":"LNA","station_name":"Lenteng Agung"},{"is_transit":false,"time":3,"station_id":"TNT","station_name":"Tanjung Barat","line":2,"i_lat":-6.3080680000000005,"distance":2671,"transit":false,"i_long":106.838896},{"is_transit":false,"i_long":106.843999,"distance":2820,"time":4,"transit":false,"station_name":"Pasar Minggu","i_lat":-6.2842400000000005,"station_id":"PSM","line":2},{"time":2,"station_id":"PSMB","station_name":"Pasar Minggu Baru","is_transit":false,"transit":false,"line":2,"i_lat":-6.263214,"distance":2380,"i_long":106.851577},{"i_long":106.85449,"station_id":"DRN","station_name":"Duren Kalibata","is_transit":false,"i_lat":-6.255332,"distance":824,"line":2,"time":2,"transit":false},{"is_transit":false,"i_lat":-6.242512,"line":2,"station_name":"Cawang","distance":1546,"time":3,"transit":false,"i_long":106.856607,"station_id":"CW"},{"is_transit":false,"station_name":"Tebet","i_lat":-6.226659,"time":2,"i_long":106.857948,"station_id":"TEB","transit":false,"distance":1230,"line":2},{"i_long":106.84912,"distance":2610,"station_name":"Manggarai","time":4,"transit":true,"is_transit":true,"i_lat":-6.209883,"line":2,"station_id":"MRI"},{"time":4,"transit":false,"i_lat":-6.202263,"line":1,"station_id":"SUD","i_long":106.822649,"distance":3186,"station_name":"Sudirman","is_transit":false},{"station_id":"SUDB","station_name":"Sudirman Baru","distance":280,"is_transit":false,"transit":false,"time":1,"i_lat":-6.201433,"line":1,"i_long":106.819881},{"i_long":106.816351,"station_id":"KAT","time":1,"line":1,"i_lat":-6.20132,"distance":471,"station_name":"Karet","transit":false,"is_transit":false},{"i_lat":-6.185545,"station_name":"Tanah Abang","station_id":"THB","distance":2029,"i_long":106.811091,"transit":true,"time":5,"is_transit":true,"line":1},{"distance":3191,"station_id":"PLM","line":6,"i_lat":-6.207404,"transit":false,"time":6,"i_long":106.79689,"station_name":"Palmerah","is_transit":false},{"transit":false,"station_name":"Kebayoran","station_id":"KBY","i_lat":-6.237242,"time":7,"distance":3737,"is_transit":false,"line":6,"i_long":106.780334}],[{"station_id":"CTA","line":2,"i_lat":-6.448811,"is_transit":false,"distance":0,"time":0,"i_long":106.800298,"transit":false,"station_name":"Citayam"},{"transit":false,"station_name":"Depok","line":2,"station_id":"DP","i_lat":-6.405256,"is_transit":false,"i_long":106.816926,"distance":5084,"time":6},{"distance":1584,"line":2,"transit":false,"is_transit":false,"i_long":106.819451,"station_name":"Depokbaru","station_id":"DPB","time":3,"i_lat":-6.391065},{"i_long":106.831114,"station_id":"POC","i_lat":-6.369073,"transit":false,"distance":2727,"station_name":"Pondok Cina","time":4,"is_transit":false,"line":2},{"i_lat":-6.360749,"line":2,"station_name":"Univ. Indonesia","distance":1109,"i_long":106.831474,"station_id":"UI","time":2,"transit":false,"is_transit":false},{"is_transit":false,"station_name":"Univ. Pancasila","distance":2264,"station_id":"UP","i_lat":-6.339291,"time":3,"i_long":106.834175,"line":2,"transit":false},{"distance":1029,"transit":false,"line":2,"station_name":"Lenteng Agung","is_transit":false,"i_lat":-6.330363,"station_id":"LNA","i_long":106.832616,"time":2},{"is_transit":false,"i_lat":-6.3080680000000005,"line":2,"time":3,"distance":2671,"station_name":"Tanjung Barat","transit":false,"station_id":"TNT","i_long":106.838896},{"transit":false,"station_name":"Pasar Minggu","distance":2820,"station_id":"PSM","time":4,"line":2,"i_long":106.843999,"is_transit":false,"i_lat":-6.2842400000000005},{"i_lat":-6.263214,"time":2,"station_name":"Pasar Minggu Baru","line":2,"station_id":"PSMB","is_transit":false,"distance":2380,"transit":false,"i_long":106.851577},{"is_transit":false,"transit":false,"i_long":106.85449,"station_name":"Duren Kalibata","time":2,"line":2,"i_lat":-6.255332,"distance":824,"station_id":"DRN"},{"station_id":"CW","time":3,"line":2,"transit":false,"i_lat":-6.242512,"station_name":"Cawang","distance":1546,"is_transit":false,"i_long":106.856607},{"distance":1230,"station_name":"Tebet","line":2,"transit":false,"i_long":106.857948,"is_transit":false,"time":2,"station_id":"TEB","i_lat":-6.226659},{"line":2,"station_name":"Manggarai","time":4,"transit":false,"i_lat":-6.209883,"station_id":"MRI","i_long":106.84912,"is_transit":false,"distance":2610},{"transit":false,"time":4,"i_long":106.840169,"line":2,"i_lat":-6.198556,"station_name":"Cikini","is_transit":false,"station_id":"CKI","distance":1590},{"transit":false,"i_lat":-6.186295,"i_long":106.832183,"distance":1750,"line":2,"station_name":"Gondangdia","is_transit":false,"station_id":"GDD","time":3},{"station_id":"JUA","i_long":106.828284,"is_transit":false,"transit":false,"time":4,"line":2,"distance":2015,"i_lat":-6.166716,"station_name":"Juanda"},{"i_long":106.827103,"line":2,"is_transit":false,"station_name":"Sawah Besar","distance":1149,"transit":false,"station_id":"SW","time":2,"i_lat":-6.160725},{"transit":false,"line":2,"is_transit":false,"station_name":"Manggabesar","distance":906,"station_id":"MGB","time":2,"i_long":106.82482,"i_lat":-6.149769},{"distance":1080,"i_lat":-6.141205,"i_long":106.820901,"station_name":"Jayakarta","is_transit":false,"time":2,"station_id":"JAY","line":2,"transit":false},{"is_transit":true,"i_lat":-6.137569,"distance":1264,"station_id":"JAKK","time":4,"station_name":"Jakarta Kota","line":2,"i_long":106.812439,"transit":true},{"i_long":106.826365,"i_lat":-6.132549,"transit":true,"distance":1364,"station_id":"KPB","line":4,"is_transit":true,"station_name":"Kampung Bandan","time":3},{"i_lat":-6.144674,"line":1,"station_id":"AK","station_name":"Angke","i_long":106.79867,"transit":false,"is_transit":false,"time":9,"distance":4102},{"transit":false,"station_id":"DU","is_transit":false,"i_long":106.800832,"time":4,"station_name":"Duri","distance":1230,"i_lat":-6.155215,"line":1},{"station_name":"Tanah Abang","line":1,"station_id":"THB","distance":3632,"transit":true,"is_transit":true,"i_long":106.811091,"time":8,"i_lat":-6.185545},{"station_id":"PLM","station_name":"Palmerah","is_transit":false,"i_lat":-6.207404,"i_long":106.79689,"line":6,"transit":false,"time":6,"distance":3191},{"time":7,"transit":false,"distance":3737,"i_long":106.780334,"station_name":"Kebayoran","line":6,"is_transit":false,"i_lat":-6.237242,"station_id":"KBY"}],[{"station_id":"CTA","distance":0,"i_long":106.800298,"station_name":"Citayam","transit":false,"time":0,"i_lat":-6.448811,"line":2,"is_transit":false},{"time":6,"i_long":106.816926,"i_lat":-6.405256,"distance":5084,"station_id":"DP","station_name":"Depok","is_transit":false,"transit":false,"line":2},{"i_lat":-6.391065,"i_long":106.819451,"is_transit":false,"station_name":"Depokbaru","transit":false,"time":3,"line":2,"distance":1584,"station_id":"DPB"},{"i_lat":-6.369073,"time":4,"distance":2727,"is_transit":false,"line":2,"station_id":"POC","i_long":106.831114,"station_name":"Pondok Cina","transit":false},{"station_id":"UI","i_long":106.831474,"line":2,"station_name":"Univ. Indonesia","distance":1109,"transit":false,"is_transit":false,"i_lat":-6.360749,"time":2},{"is_transit":false,"line":2,"i_long":106.834175,"distance":2264,"station_name":"Univ. Pancasila","transit":false,"station_id":"UP","time":3,"i_lat":-6.339291},{"is_transit":false,"transit":false,"station_name":"Lenteng Agung","station_id":"LNA","i_lat":-6.330363,"line":2,"i_long":106.832616,"distance":1029,"time":2},{"time":3,"i_long":106.838896,"i_lat":-6.3080680000000005,"is_transit":false,"line":2,"station_name":"Tanjung Barat","transit":false,"station_id":"TNT","distance":2671},{"time":4,"line":2,"is_transit":false,"station_id":"PSM","i_long":106.843999,"transit":false,"distance":2820,"i_lat":-6.2842400000000005,"station_name":"Pasar Minggu"},{"time":2,"i_lat":-6.263214,"station_id":"PSMB","distance":2380,"i_long":106.851577,"line":2,"is_transit":false,"transit":false,"station_name":"Pasar Minggu Baru"},{"transit":false,"i_lat":-6.255332,"station_id":"DRN","line":2,"i_long":106.85449,"distance":824,"time":2,"is_transit":false,"station_name":"Duren Kalibata"},{"station_name":"Cawang","station_id":"CW","i_lat":-6.242512,"i_long":106.856607,"transit":false,"line":2,"distance":1546,"time":3,"is_transit":false},{"transit":false,"time":2,"station_id":"TEB","is_transit":false,"i_long":106.857948,"line":2,"station_name":"Tebet","distance":1230,"i_lat":-6.226659},{"i_lat":-6.209883,"distance":2610,"station_name":"Manggarai","station_id":"MRI","time":4,"i_long":106.84912,"transit":true,"line":2,"is_transit":true},{"station_id":"MTR","distance":1275,"station_name":"Matraman","i_long":106.858896,"time":2,"transit":false,"line":1,"is_transit":false,"i_lat":-6.212485},{"distance":1377,"line":1,"station_id":"JNG","i_lat":-6.215091,"transit":true,"i_long":106.86807400000001,"station_name":"Jatinegara","time":8,"is_transit":true},{"time":2,"i_lat":-6.209188,"distance":1236,"station_id":"POK","is_transit":false,"transit":false,"line":11,"station_name":"Pondok Jati","i_long":106.861737},{"line":11,"i_lat":-6.193792,"transit":false,"station_name":"Kramat","time":2,"i_long":106.855437,"distance":1829,"station_id":"KMT","is_transit":false},{"time":1,"is_transit":false,"i_lat":-6.185975,"station_name":"Gang Sentiong","i_long":106.850107,"station_id":"GST","distance":973,"transit":false,"line":11},{"is_transit":false,"distance":1567,"i_lat":-6.174784,"transit":false,"station_name":"Pasar Senen","line":11,"i_long":106.84368,"station_id":"PSE","time":8},{"distance":1436,"time":4,"i_long":106.839204,"transit":false,"station_name":"Kemayoran","i_lat":-6.161728,"line":11,"is_transit":false,"station_id":"KMO"},{"transit":false,"is_transit":false,"station_name":"Rajawali","i_long":106.836569,"line":11,"distance":1901,"time":5,"station_id":"RJW","i_lat":-6.14505},{"is_transit":true,"i_lat":-6.132549,"station_id":"KPB","distance":1444,"time":3,"transit":true,"i_long":106.826365,"station_name":"Kampung Bandan","line":4},{"station_name":"Angke","station_id":"AK","distance":4102,"is_transit":false,"time":9,"i_lat":-6.144674,"i_long":106.79867,"transit":false,"line":1},{"i_long":106.800832,"is_transit":false,"distance":1230,"station_id":"DU","line":1,"time":4,"station_name":"Duri","transit":false,"i_lat":-6.155215},{"station_name":"Tanah Abang","station_id":"THB","time":8,"i_lat":-6.185545,"i_long":106.811091,"distance":3632,"line":1,"transit":true,"is_transit":true},{"is_transit":false,"distance":3191,"station_name":"Palmerah","i_lat":-6.207404,"line":6,"transit":false,"station_id":"PLM","i_long":106.79689,"time":6},{"line":6,"time":7,"station_id":"KBY","i_long":106.780334,"is_transit":false,"distance":3737,"transit":false,"station_name":"Kebayoran","i_lat":-6.237242}]]}