{"data":[[{"distance":0,"time":0,"station_name":"Citayam","i_long":106.800298,"transit":false,"station_id":"CTA","line":2,"is_transit":false,"i_lat":-6.448811},{"station_name":"Depok","transit":false,"is_transit":false,"i_lat":-6.405256,"i_long":106.816926,"line":2,"time":6,"station_id":"DP","distance":5084},{"transit":false,"station_id":"DPB","distance":1584,"is_transit":false,"i_lat":-6.391065,"i_long":106.819451,"station_name":"Depokbaru","time":3,"line":2},{"station_name":"Pondok Cina","i_long":106.831114,"line":2,"transit":false,"i_lat":-6.369073,"is_transit":false,"time":4,"distance":2727,"station_id":"POC"},{"time":2,"station_id":"UI","transit":false,"i_lat":-6.360749,"distance":1109,"line":2,"is_transit":false,"i_long":106.831474,"station_name":"Univ. Indonesia"},{"transit":false,"station_id":"UP","time":3,"i_long":106.834175,"i_lat":-6.339291,"line":2,"distance":2264,"station_name":"Univ. Pancasila","is_transit":false},{"transit":false,"station_name":"Lenteng Agung","distance":1029,"i_lat":-6.330363,"station_id":"LNA","time":2,"i_long":106.832616,"line":2,"is_transit":false},{"line":2,"i_lat":-6.3080680000000005,"station_id":"TNT","time":3,"transit":false,"i_long":106.838896,"is_transit":false,"station_name":"Tanjung Barat","distance":2671},{"line":2,"time":4,"i_lat":-6.2842400000000005,"distance":2820,"i_long":106.843999,"transit":false,"station_name":"Pasar Minggu","is_transit":false,"station_id":"PSM"},{"is_transit":false,"transit":false,"distance":2380,"i_long":106.851577,"station_id":"PSMB","time":2,"line":2,"station_name":"Pasar Minggu Baru","i_lat":-6.263214},{"transit":false,"is_transit":false,"distance":824,"station_id":"DRN","line":2,"i_lat":-6.255332,"i_long":106.85449,"station_name":"Duren Kalibata","time":2},{"distance":1546,"i_lat":-6.242512,"i_long":106.856607,"line":2,"transit":false,"is_transit":false,"station_id":"CW","station_name":"Cawang","time":3},{"distance":1230,"i_long":106.857948,"is_transit":false,"station_name":"Tebet","line":2,"transit":false,"time":2,"i_lat":-6.226659,"station_id":"TEB"},{"transit":true,"line":2,"is_transit":true,"station_id":"MRI","distance":2610,"i_lat":-6.209883,"i_long":106.84912,"station_name":"Manggarai","time":4},{"line":1,"station_name":"Sudirman","i_long":106.822649,"is_transit":false,"time":4,"station_id":"SUD","i_lat":-6.202263,"transit":false,"distance":3186},{"i_long":106.819881,"time":1,"distance":280,"i_lat":-6.201433,"station_name":"Sudirman Baru","line":1,"transit":false,"station_id":"SUDB","is_transit":false},{"i_lat":-6.20132,"transit":false,"i_long":106.816351,"line":1,"distance":471,"station_id":"KAT","is_transit":false,"station_name":"Karet","time":1},{"is_transit":true,"i_lat":-6.185545,"distance":2029,"i_long":106.811091,"line":1,"time":5,"transit":true,"station_id":"THB","station_name":"Tanah Abang"},{"i_long":106.79689,"is_transit":false,"distance":3191,"time":6,"transit":false,"i_lat":-6.207404,"line":6,"station_name":"Palmerah","station_id":"PLM"},{"transit":false,"distance":3737,"i_long":106.780334,"i_lat":-6.237242,"station_id":"KBY","line":6,"time":7,"is_transit":false,"station_name":"Kebayoran"},{"time":8,"is_transit":false,"i_lat":-6.276362,"i_long":106.74273,"station_name":"Pondokranji","station_id":"PDJ","transit":false,"distance":6218,"line":6},{"i_long":106.728916,"station_name":"Jurangmangu","station_id":"JMU","time":3,"distance":2179,"is_transit":false,"i_lat":-6.288927,"line":6,"transit":false},{"i_lat":-6.296963,"i_long":106.712277,"is_transit":false,"line":6,"station_id":"SDM","station_name":"Sudimara","time":4,"transit":false,"distance":1994},{"line":6,"transit":false,"time":6,"distance":4566,"station_name":"Rawa Buntu","is_transit":false,"i_lat":-6.314823,"i_long":106.675475,"station_id":"RU"},{"transit":false,"i_lat":-6.319871,"station_id":"SRP","time":4,"is_transit":false,"line":6,"distance":2413,"i_long":106.66566,"station_name":"Serpong"},{"station_name":"Cisauk","station_id":"CSK","is_transit":false,"i_long":106.640411,"line":3,"distance":1784,"time":4,"i_lat":-6.32484,"transit":false},{"distance":2519,"line":3,"time":4,"i_long":106.617853,"i_lat":-6.329547,"station_name":"Cicayur","transit":false,"is_transit":false,"station_id":"CC"},{"station_id":"PRP","transit":false,"time":8,"is_transit":false,"station_name":"Parung Panjang","distance":5968,"i_lat":-6.3441410000000005,"i_long":106.568863,"line":6},{"time":9,"transit":false,"station_id":"CJT","is_transit":false,"distance":7025,"i_lat":-6.354349,"line":3,"station_name":"Cilejit","i_long":106.508482},{"station_name":"Daru","distance":2675,"transit":false,"i_lat":-6.338021,"is_transit":false,"i_long":106.491338,"station_id":"DAR","line":0,"time":6},{"station_name":"Tenjo","station_id":"TEJ","line":6,"time":5,"is_transit":false,"transit":false,"distance":3902,"i_lat":-6.327251,"i_long":106.460812},{"station_name":"Tigaraksa","station_id":"TGS","time":5,"distance":2974,"is_transit":false,"i_lat":-6.328533,"i_long":106.425991,"line":6,"transit":false},{"is_transit":false,"transit":false,"station_id":"CKY","distance":2651,"i_long":106.411216,"time":3,"i_lat":-6.33561,"line":3,"station_name":"Cikoya"},{"distance":1853,"station_id":"MJ","time":4,"line":6,"station_name":"Maja","i_long":106.394373,"transit":false,"i_lat":-6.332307,"is_transit":false},{"time":10,"transit":false,"distance":7293,"is_transit":false,"line":3,"i_lat":-6.334892,"station_id":"CTR","station_name":"Citeras","i_long":106.332092}],[{"line":2,"i_lat":-6.448811,"distance":0,"transit":false,"station_name":"Citayam","station_id":"CTA","time":0,"i_long":106.800298,"is_transit":false},{"time":6,"i_lat":-6.405256,"line":2,"is_transit":false,"transit":false,"distance":5084,"i_long":106.816926,"station_name":"Depok","station_id":"DP"},{"station_id":"DPB","transit":false,"time":3,"i_lat":-6.391065,"i_long":106.819451,"line":2,"station_name":"Depokbaru","distance":1584,"is_transit":false},{"station_id":"POC","distance":2727,"time":4,"i_lat":-6.369073,"transit":false,"is_transit":false,"i_long":106.831114,"line":2,"station_name":"Pondok Cina"},{"i_long":106.831474,"station_name":"Univ. Indonesia","distance":1109,"line":2,"transit":false,"i_lat":-6.360749,"is_transit":false,"time":2,"station_id":"UI"},{"transit":false,"i_long":106.834175,"time":3,"line":2,"station_id":"UP","is_transit":false,"distance":2264,"i_lat":-6.339291,"station_name":"Univ. Pancasila"},{"line":2,"station_name":"Lenteng Agung","is_transit":false,"distance":1029,"i_lat":-6.330363,"time":2,"transit":false,"i_long":106.832616,"station_id":"LNA"},{"i_long":106.838896,"station_id":"TNT","time":3,"distance":2671,"line":2,"transit":false,"is_transit":false,"station_name":"Tanjung Barat","i_lat":-6.3080680000000005},{"transit":false,"i_long":106.843999,"distance":2820,"i_lat":-6.2842400000000005,"is_transit":false,"line":2,"time":4,"station_id":"PSM","station_name":"Pasar Minggu"},{"time":2,"line":2,"i_lat":-6.263214,"transit":false,"i_long":106.851577,"station_id":"PSMB","station_name":"Pasar Minggu Baru","is_transit":false,"distance":2380},{"i_long":106.85449,"time":2,"station_id":"DRN","transit":false,"line":2,"is_transit":false,"distance":824,"station_name":"Duren Kalibata","i_lat":-6.255332},{"distance":1546,"station_name":"Cawang","is_transit":false,"line":2,"station_id":"CW","i_lat":-6.242512,"time":3,"transit":false,"i_long":106.856607},{"line":2,"is_transit":false,"station_name":"Tebet","i_lat":-6.226659,"time":2,"station_id":"TEB","transit":false,"distance":1230,"i_long":106.857948},{"transit":false,"station_name":"Manggarai","distance":2610,"station_id":"MRI","line":2,"i_long":106.84912,"is_transit":false,"time":4,"i_lat":-6.209883},{"distance":1590,"i_lat":-6.198556,"time":4,"line":2,"station_id":"CKI","is_transit":false,"transit":false,"station_name":"Cikini","i_long":106.840169},{"station_name":"Gondangdia","i_long":106.832183,"line":2,"is_transit":false,"time":3,"transit":false,"station_id":"GDD","i_lat":-6.186295,"distance":1750},{"i_long":106.828284,"transit":false,"line":2,"is_transit":false,"distance":2015,"station_name":"Juanda","station_id":"JUA","time":4,"i_lat":-6.166716},{"line":2,"time":2,"i_lat":-6.160725,"station_id":"SW","i_long":106.827103,"transit":false,"is_transit":false,"station_name":"Sawah Besar","distance":1149},{"transit":false,"station_id":"MGB","line":2,"time":2,"is_transit":false,"i_long":106.82482,"distance":906,"station_name":"Manggabesar","i_lat":-6.149769},{"i_lat":-6.141205,"transit":false,"distance":1080,"time":2,"station_id":"JAY","is_transit":false,"i_long":106.820901,"line":2,"station_name":"Jayakarta"},{"distance":1264,"transit":true,"is_transit":true,"i_long":106.812439,"station_name":"Jakarta Kota","line":2,"station_id":"JAKK","time":4,"i_lat":-6.137569},{"transit":true,"station_name":"Kampung Bandan","i_lat":-6.132549,"i_long":106.826365,"is_transit":true,"station_id":"KPB","line":4,"distance":1364,"time":3},{"transit":false,"i_lat":-6.144674,"line":1,"distance":4102,"time":9,"is_transit":false,"i_long":106.79867,"station_name":"Angke","station_id":"AK"},{"station_name":"Duri","transit":false,"distance":1230,"i_long":106.800832,"is_transit":false,"station_id":"DU","time":4,"i_lat":-6.155215,"line":1},{"station_id":"THB","is_transit":true,"time":8,"i_lat":-6.185545,"line":1,"station_name":"Tanah Abang","i_long":106.811091,"distance":3632,"transit":true},{"station_name":"Palmerah","time":6,"distance":3191,"station_id":"PLM","is_transit":false,"i_long":106.79689,"i_lat":-6.207404,"transit":false,"line":6},{"time":7,"is_transit":false,"distance":3737,"line":6,"i_lat":-6.237242,"station_name":"Kebayoran","station_id":"KBY","transit":false,"i_long":106.780334},{"is_transit":false,"station_id":"PDJ","distance":6218,"line":6,"i_long":106.74273,"i_lat":-6.276362,"transit":false,"time":8,"station_name":"Pondokranji"},{"i_lat":-6.288927,"station_name":"Jurangmangu","i_long":106.728916,"line":6,"distance":2179,"transit":false,"is_transit":false,"time":3,"station_id":"JMU"},{"line":6,"station_id":"SDM","station_name":"Sudimara","distance":1994,"is_transit":false,"i_lat":-6.296963,"transit":false,"time":4,"i_long":106.712277},{"time":6,"station_name":"Rawa Buntu","distance":4566,"i_lat":-6.314823,"line":6,"i_long":106.675475,"is_transit":false,"transit":false,"station_id":"RU"},{"station_name":"Serpong","distance":2413,"station_id":"SRP","line":6,"i_long":106.66566,"i_lat":-6.319871,"transit":false,"is_transit":false,"time":4},{"i_long":106.640411,"line":3,"station_id":"CSK","i_lat":-6.32484,"time":4,"is_transit":false,"station_name":"Cisauk","transit":false,"distance":1784},{"line":3,"is_transit":false,"station_name":"Cicayur","distance":2519,"transit":false,"time":4,"station_id":"CC","i_long":106.617853,"i_lat":-6.329547},{"station_id":"PRP","i_long":106.568863,"line":6,"station_name":"Parung Panjang","i_lat":-6.3441410000000005,"is_transit":false,"time":8,"distance":5968,"transit":false},{"station_name":"Cilejit","line":3,"distance":7025,"i_lat":-6.354349,"time":9,"is_transit":false,"transit":false,"station_id":"CJT","i_long":106.508482},{"distance":2675,"station_name":"Daru","i_lat":-6.338021,"line":0,"is_transit":false,"station_id":"DAR","transit":false,"time":6,"i_long":106.491338},{"i_long":106.460812,"station_name":"Tenjo","transit":false,"line":6,"distance":3902,"i_lat":-6.327251,"time":5,"is_transit":false,"station_id":"TEJ"},{"i_long":106.425991,"line":6,"is_transit":false,"distance":2974,"i_lat":-6.328533,"transit":false,"station_name":"Tigaraksa","station_id":"TGS","time":5},{"station_name":"Cikoya","transit":false,"line":3,"is_transit":false,"station_id":"CKY","time":3,"distance":2651,"i_lat":-6.33561,"i_long":106.411216},{"time":4,"station_name":"Maja","is_transit":false,"line":6,"transit":false,"i_long":106.394373,"i_lat":-6.332307,"station_id":"MJ","distance":1853},{"transit":false,"station_id":"CTR","i_long":106.332092,"line":3,"is_transit":false,"distance":7293,"station_name":"Citeras","time":10,"i_lat":-6.334892}],[{"transit":false,"station_name":"Citayam","is_transit":false,"distance":0,"line":2,"i_lat":-6.448811,"station_id":"CTA","time":0,"i_long":106.800298},{"station_id":"DP","line":2,"time":6,"is_transit":false,"distance":5084,"transit":false,"i_long":106.816926,"i_lat":-6.405256,"station_name":"Depok"},{"is_transit":false,"distance":1584,"i_lat":-6.391065,"i_long":106.819451,"station_id":"DPB","time":3,"line":2,"transit":false,"station_name":"Depokbaru"},{"distance":2727,"line":2,"station_name":"Pondok Cina","station_id":"POC","time":4,"i_long":106.831114,"is_transit":false,"transit":false,"i_lat":-6.369073},{"is_transit":false,"time":2,"i_long":106.831474,"i_lat":-6.360749,"transit":false,"station_name":"Univ. Indonesia","station_id":"UI","distance":1109,"line":2},{"station_id":"UP","distance":2264,"i_long":106.834175,"time":3,"i_lat":-6.339291,"line":2,"transit":false,"is_transit":false,"station_name":"Univ. Pancasila"},{"line":2,"time":2,"i_long":106.832616,"is_transit":false,"station_name":"Lenteng Agung","transit":false,"station_id":"LNA","distance":1029,"i_lat":-6.330363},{"transit":false,"time":3,"station_id":"TNT","i_long":106.838896,"is_transit":false,"line":2,"distance":2671,"station_name":"Tanjung Barat","i_lat":-6.3080680000000005},{"station_id":"PSM","i_lat":-6.2842400000000005,"station_name":"Pasar Minggu","is_transit":false,"transit":false,"line":2,"time":4,"distance":2820,"i_long":106.843999},{"i_lat":-6.263214,"i_long":106.851577,"line":2,"distance":2380,"transit":false,"station_id":"PSMB","is_transit":false,"time":2,"station_name":"Pasar Minggu Baru"},{"i_lat":-6.255332,"line":2,"time":2,"i_long":106.85449,"station_id":"DRN","transit":false,"is_transit":false,"station_name":"Duren Kalibata","distance":824},{"i_long":106.856607,"line":2,"i_lat":-6.242512,"station_name":"Cawang","is_transit":false,"distance":1546,"transit":false,"station_id":"CW","time":3},{"i_lat":-6.226659,"is_transit":false,"time":2,"distance":1230,"i_long":106.857948,"station_name":"Tebet","line":2,"station_id":"TEB","transit":false},{"transit":true,"time":4,"station_name":"Manggarai","is_transit":true,"station_id":"MRI","i_long":106.84912,"line":2,"distance":2610,"i_lat":-6.209883},{"is_transit":false,"i_long":106.858896,"station_id":"MTR","distance":1275,"transit":false,"station_name":"Matraman","time":2,"i_lat":-6.212485,"line":1},{"station_name":"Jatinegara","is_transit":true,"station_id":"JNG","i_lat":-6.215091,"transit":true,"time":8,"i_long":106.86807400000001,"distance":1377,"line":1},{"is_transit":false,"station_name":"Pondok Jati","transit":false,"distance":1236,"time":2,"i_long":106.861737,"i_lat":-6.209188,"station_id":"POK","line":11},{"time":2,"station_id":"KMT","line":11,"i_lat":-6.193792,"transit":false,"distance":1829,"i_long":106.855437,"station_name":"Kramat","is_transit":false},{"is_transit":false,"transit":false,"distance":973,"station_id":"GST","station_name":"Gang Sentiong","line":11,"i_long":106.850107,"time":1,"i_lat":-6.185975},{"station_id":"PSE","i_long":106.84368,"line":11,"i_lat":-6.174784,"station_name":"Pasar Senen","time":8,"transit":false,"is_transit":false,"distance":1567},{"time":4,"transit":false,"distance":1436,"line":11,"is_transit":false,"i_long":106.839204,"station_id":"KMO","station_name":"Kemayoran","i_lat":-6.161728},{"i_long":106.836569,"distance":1901,"i_lat":-6.14505,"station_id":"RJW","is_transit":false,"line":11,"time":5,"station_name":"Rajawali","transit":false},{"line":4,"station_name":"Kampung Bandan","is_transit":true,"transit":true,"station_id":"KPB","i_lat":-6.132549,"time":3,"distance":1444,"i_long":106.826365},{"transit":false,"i_long":106.79867,"station_id":"AK","is_transit":false,"time":9,"i_lat":-6.144674,"line":1,"distance":4102,"station_name":"Angke"},{"is_transit":false,"time":4,"i_lat":-6.155215,"distance":1230,"i_long":106.800832,"line":1,"station_id":"DU","station_name":"Duri","transit":false},{"station_id":"THB","is_transit":true,"transit":true,"time":8,"distance":3632,"i_lat":-6.185545,"i_long":106.811091,"line":1,"station_name":"Tanah Abang"},{"station_id":"PLM","i_long":106.79689,"distance":3191,"line":6,"station_name":"Palmerah","is_transit":false,"i_lat":-6.207404,"transit":false,"time":6},{"station_name":"Kebayoran","time":7,"i_long":106.780334,"transit":false,"is_transit":false,"station_id":"KBY","distance":3737,"i_lat":-6.237242,"line":6},{"station_name":"Pondokranji","i_long":106.74273,"time":8,"is_transit":false,"station_id":"PDJ","line":6,"distance":6218,"transit":false,"i_lat":-6.276362},{"distance":2179,"station_name":"Jurangmangu","time":3,"i_lat":-6.288927,"is_transit":false,"i_long":106.728916,"transit":false,"station_id":"JMU","line":6},{"is_transit":false,"time":4,"transit":false,"i_lat":-6.296963,"i_long":106.712277,"station_name":"Sudimara","station_id":"SDM","line":6,"distance":1994},{"distance":4566,"transit":false,"i_lat":-6.314823,"line":6,"i_long":106.675475,"station_name":"Rawa Buntu","station_id":"RU","time":6,"is_transit":false},{"i_long":106.66566,"time":4,"line":6,"is_transit":false,"distance":2413,"station_id":"SRP","transit":false,"station_name":"Serpong","i_lat":-6.319871},{"line":3,"time":4,"station_name":"Cisauk","distance":1784,"is_transit":false,"station_id":"CSK","i_lat":-6.32484,"i_long":106.640411,"transit":false},{"transit":false,"station_id":"CC","time":4,"line":3,"i_long":106.617853,"i_lat":-6.329547,"station_name":"Cicayur","is_transit":false,"distance":2519},{"i_lat":-6.3441410000000005,"i_long":106.568863,"station_id":"PRP","station_name":"Parung Panjang","is_transit":false,"distance":5968,"transit":false,"line":6,"time":8},{"i_long":106.508482,"station_id":"CJT","transit":false,"line":3,"station_name":"Cilejit","time":9,"i_lat":-6.354349,"distance":7025,"is_transit":false},{"station_name":"Daru","station_id":"DAR","transit":false,"time":6,"is_transit":false,"i_lat":-6.338021,"i_long":106.491338,"distance":2675,"line":0},{"i_lat":-6.327251,"i_long":106.460812,"time":5,"distance":3902,"line":6,"station_id":"TEJ","station_name":"Tenjo","is_transit":false,"transit":false},{"line":6,"station_name":"Tigaraksa","time":5,"transit":false,"station_id":"TGS","distance":2974,"i_long":106.425991,"is_transit":false,"i_lat":-6.328533},{"station_id":"CKY","line":3,"station_name":"Cikoya","is_transit":false,"i_lat":-6.33561,"transit":false,"i_long":106.411216,"time":3,"distance":2651},{"line":6,"is_transit":false,"i_lat":-6.332307,"station_id":"MJ","i_long":106.394373,"station_name":"Maja","time":4,"distance":1853,"transit":false},{"station_name":"Citeras","i_lat":-6.334892,"i_long":106.332092,"transit":false,"time":10,"station_id":"CTR","distance":7293,"is_transit":false,"line":3}]]}