{"data":[[{"line":1,"distance":0,"i_long":106.800298,"transit":false,"station_name":"Citayam","is_transit":true,"station_id":"CTA","time":0,"i_lat":-6.448811},{"i_lat":-6.405256,"time":6,"line":0,"i_long":106.816926,"station_id":"DP","station_name":"Depok","is_transit":false,"transit":false,"distance":5084},{"transit":false,"time":3,"i_long":106.819451,"distance":1584,"i_lat":-6.391065,"station_id":"DPB","station_name":"Depokbaru","line":0,"is_transit":false},{"i_lat":-6.369073,"distance":2727,"is_transit":false,"line":2,"transit":false,"station_name":"Pondok Cina","time":4,"station_id":"POC","i_long":106.831114},{"station_id":"UI","is_transit":false,"distance":1109,"i_lat":-6.360749,"transit":false,"station_name":"Univ. Indonesia","line":2,"i_long":106.831474,"time":2},{"is_transit":false,"i_lat":-6.339291,"station_id":"UP","station_name":"Univ. Pancasila","i_long":106.834175,"distance":2264,"time":3,"transit":false,"line":2},{"time":2,"line":2,"is_transit":false,"transit":false,"i_long":106.832616,"station_id":"LNA","distance":1029,"i_lat":-6.330363,"station_name":"Lenteng Agung"},{"station_id":"TNT","i_lat":-6.3080680000000005,"distance":2671,"station_name":"Tanjung Barat","line":2,"time":3,"is_transit":false,"transit":false,"i_long":106.838896},{"distance":2820,"transit":false,"time":4,"is_transit":false,"station_id":"PSM","i_long":106.843999,"line":2,"station_name":"Pasar Minggu","i_lat":-6.2842400000000005},{"transit":false,"line":2,"station_id":"PSMB","distance":2380,"station_name":"Pasar Minggu Baru","time":2,"is_transit":false,"i_long":106.851577,"i_lat":-6.263214},{"distance":824,"station_id":"DRN","is_transit":false,"station_name":"Duren Kalibata","i_lat":-6.255332,"i_long":106.85449,"time":2,"transit":false,"line":0},{"station_id":"CW","transit":false,"i_long":106.856607,"station_name":"Cawang","is_transit":false,"distance":1546,"i_lat":-6.242512,"time":3,"line":0},{"line":2,"station_id":"TEB","i_long":106.857948,"transit":false,"time":2,"is_transit":false,"station_name":"Tebet","i_lat":-6.226659,"distance":1230},{"transit":true,"is_transit":true,"line":0,"time":4,"distance":2610,"i_long":106.84912,"i_lat":-6.209883,"station_id":"MRI","station_name":"Manggarai"},{"station_name":"Sudirman","time":4,"station_id":"SUD","line":1,"transit":false,"i_long":106.822649,"distance":3186,"i_lat":-6.202263,"is_transit":false},{"time":1,"distance":280,"is_transit":false,"station_name":"Sudirman Baru","station_id":"SUDB","i_long":106.819881,"line":1,"transit":false,"i_lat":-6.201433},{"transit":false,"distance":471,"station_id":"KAT","time":1,"i_long":106.816351,"i_lat":-6.20132,"line":1,"station_name":"Karet","is_transit":false},{"transit":true,"station_name":"Tanah Abang","i_long":106.811091,"station_id":"THB","distance":2029,"line":1,"is_transit":true,"i_lat":-6.185545,"time":5},{"is_transit":false,"time":6,"station_name":"Palmerah","station_id":"PLM","transit":false,"line":6,"i_lat":-6.207404,"distance":3191,"i_long":106.79689},{"i_long":106.780334,"is_transit":false,"transit":false,"station_id":"KBY","time":7,"station_name":"Kebayoran","distance":3737,"i_lat":-6.237242,"line":6}],[{"distance":0,"i_long":106.800298,"transit":false,"time":0,"station_id":"CTA","is_transit":true,"i_lat":-6.448811,"station_name":"Citayam","line":1},{"time":6,"distance":5084,"transit":false,"station_name":"Depok","line":0,"is_transit":false,"station_id":"DP","i_long":106.816926,"i_lat":-6.405256},{"line":0,"time":3,"transit":false,"i_lat":-6.391065,"station_id":"DPB","distance":1584,"station_name":"Depokbaru","i_long":106.819451,"is_transit":false},{"station_name":"Pondok Cina","distance":2727,"time":4,"i_long":106.831114,"is_transit":false,"transit":false,"i_lat":-6.369073,"station_id":"POC","line":2},{"i_long":106.831474,"is_transit":false,"transit":false,"i_lat":-6.360749,"station_id":"UI","time":2,"station_name":"Univ. Indonesia","distance":1109,"line":2},{"time":3,"i_long":106.834175,"distance":2264,"station_id":"UP","transit":false,"is_transit":false,"station_name":"Univ. Pancasila","i_lat":-6.339291,"line":2},{"distance":1029,"is_transit":false,"i_lat":-6.330363,"line":2,"transit":false,"station_id":"LNA","i_long":106.832616,"time":2,"station_name":"Lenteng Agung"},{"i_long":106.838896,"station_name":"Tanjung Barat","is_transit":false,"line":2,"transit":false,"distance":2671,"station_id":"TNT","time":3,"i_lat":-6.3080680000000005},{"i_long":106.843999,"line":2,"is_transit":false,"distance":2820,"station_id":"PSM","time":4,"transit":false,"station_name":"Pasar Minggu","i_lat":-6.2842400000000005},{"station_id":"PSMB","time":2,"station_name":"Pasar Minggu Baru","line":2,"transit":false,"distance":2380,"is_transit":false,"i_lat":-6.263214,"i_long":106.851577},{"transit":false,"i_lat":-6.255332,"is_transit":false,"i_long":106.85449,"time":2,"station_id":"DRN","distance":824,"line":0,"station_name":"Duren Kalibata"},{"time":3,"station_id":"CW","distance":1546,"station_name":"Cawang","line":0,"i_lat":-6.242512,"is_transit":false,"transit":false,"i_long":106.856607},{"i_lat":-6.226659,"time":2,"line":2,"transit":false,"i_long":106.857948,"distance":1230,"station_name":"Tebet","is_transit":false,"station_id":"TEB"},{"i_long":106.84912,"station_id":"MRI","i_lat":-6.209883,"distance":2610,"station_name":"Manggarai","is_transit":true,"line":0,"transit":true,"time":4},{"is_transit":false,"i_lat":-6.198556,"line":0,"distance":1590,"transit":false,"i_long":106.840169,"time":4,"station_name":"Cikini","station_id":"CKI"},{"station_id":"GDD","is_transit":false,"line":2,"i_lat":-6.186295,"distance":1750,"station_name":"Gondangdia","i_long":106.832183,"transit":false,"time":3},{"time":4,"i_lat":-6.166716,"i_long":106.828284,"distance":2015,"station_id":"JUA","transit":false,"station_name":"Juanda","line":2,"is_transit":false},{"station_id":"SW","station_name":"Sawah Besar","line":2,"transit":false,"i_lat":-6.160725,"is_transit":false,"distance":1149,"time":2,"i_long":106.827103},{"time":2,"is_transit":false,"i_lat":-6.149769,"station_name":"Manggabesar","station_id":"MGB","transit":false,"distance":906,"i_long":106.82482,"line":2},{"time":2,"transit":false,"line":7,"distance":1080,"station_id":"JAY","is_transit":false,"i_lat":-6.141205,"i_long":106.820901,"station_name":"Jayakarta"},{"i_long":106.812439,"station_id":"JAKK","station_name":"Jakarta Kota","line":0,"i_lat":-6.137569,"transit":true,"is_transit":true,"distance":1264,"time":4},{"is_transit":true,"station_id":"KPB","transit":false,"time":3,"i_lat":-6.132549,"i_long":106.826365,"line":0,"distance":1364,"station_name":"Kampung Bandan"},{"time":9,"distance":4102,"is_transit":false,"transit":false,"station_name":"Angke","station_id":"AK","line":0,"i_lat":-6.144674,"i_long":106.79867},{"i_lat":-6.155215,"station_id":"DU","line":1,"transit":true,"distance":1230,"is_transit":true,"i_long":106.800832,"time":4,"station_name":"Duri"},{"is_transit":true,"time":8,"transit":true,"distance":3632,"station_name":"Tanah Abang","i_long":106.811091,"i_lat":-6.185545,"station_id":"THB","line":1},{"station_name":"Palmerah","line":6,"station_id":"PLM","is_transit":false,"transit":false,"i_lat":-6.207404,"i_long":106.79689,"distance":3191,"time":6},{"station_id":"KBY","i_lat":-6.237242,"line":6,"is_transit":false,"distance":3737,"time":7,"station_name":"Kebayoran","i_long":106.780334,"transit":false}],[{"i_lat":-6.448811,"transit":false,"i_long":106.800298,"line":1,"is_transit":true,"station_name":"Citayam","time":0,"station_id":"CTA","distance":0},{"i_long":106.816926,"station_id":"DP","i_lat":-6.405256,"transit":false,"is_transit":false,"line":0,"station_name":"Depok","distance":5084,"time":6},{"time":3,"transit":false,"i_long":106.819451,"i_lat":-6.391065,"is_transit":false,"line":0,"station_id":"DPB","distance":1584,"station_name":"Depokbaru"},{"i_long":106.831114,"line":2,"station_id":"POC","is_transit":false,"distance":2727,"transit":false,"time":4,"station_name":"Pondok Cina","i_lat":-6.369073},{"station_id":"UI","time":2,"distance":1109,"i_long":106.831474,"is_transit":false,"i_lat":-6.360749,"transit":false,"station_name":"Univ. Indonesia","line":2},{"distance":2264,"line":2,"time":3,"i_long":106.834175,"is_transit":false,"transit":false,"station_name":"Univ. Pancasila","i_lat":-6.339291,"station_id":"UP"},{"station_id":"LNA","distance":1029,"transit":false,"is_transit":false,"i_long":106.832616,"time":2,"station_name":"Lenteng Agung","i_lat":-6.330363,"line":2},{"time":3,"line":2,"i_long":106.838896,"station_name":"Tanjung Barat","distance":2671,"i_lat":-6.3080680000000005,"is_transit":false,"station_id":"TNT","transit":false},{"is_transit":false,"station_id":"PSM","distance":2820,"time":4,"i_lat":-6.2842400000000005,"i_long":106.843999,"transit":false,"line":2,"station_name":"Pasar Minggu"},{"station_id":"PSMB","station_name":"Pasar Minggu Baru","line":2,"i_lat":-6.263214,"time":2,"transit":false,"is_transit":false,"distance":2380,"i_long":106.851577},{"i_lat":-6.255332,"station_name":"Duren Kalibata","station_id":"DRN","transit":false,"distance":824,"i_long":106.85449,"line":0,"time":2,"is_transit":false},{"station_id":"CW","transit":false,"distance":1546,"i_lat":-6.242512,"station_name":"Cawang","line":0,"is_transit":false,"time":3,"i_long":106.856607},{"distance":1230,"transit":false,"is_transit":false,"i_lat":-6.226659,"i_long":106.857948,"line":2,"station_name":"Tebet","time":2,"station_id":"TEB"},{"i_lat":-6.209883,"station_id":"MRI","distance":2610,"time":4,"is_transit":true,"i_long":106.84912,"line":0,"station_name":"Manggarai","transit":true},{"i_long":106.858896,"time":2,"station_id":"MTR","transit":false,"distance":1275,"station_name":"Matraman","i_lat":-6.212485,"line":1,"is_transit":false},{"i_long":106.86807400000001,"distance":1377,"time":8,"station_name":"Jatinegara","station_id":"JNG","i_lat":-6.215091,"transit":true,"line":0,"is_transit":true},{"transit":false,"station_name":"Pondok Jati","time":2,"is_transit":false,"i_lat":-6.209188,"station_id":"POK","distance":1236,"i_long":106.861737,"line":11},{"time":2,"station_name":"Kramat","line":11,"is_transit":false,"i_long":106.855437,"i_lat":-6.193792,"transit":false,"distance":1829,"station_id":"KMT"},{"time":1,"transit":false,"i_long":106.850107,"is_transit":false,"station_name":"Gang Sentiong","line":11,"i_lat":-6.185975,"distance":973,"station_id":"GST"},{"i_long":106.84368,"station_id":"PSE","station_name":"Pasar Senen","is_transit":false,"time":8,"transit":false,"i_lat":-6.174784,"line":11,"distance":1567},{"is_transit":false,"station_id":"KMO","distance":1436,"station_name":"Kemayoran","i_long":106.839204,"i_lat":-6.161728,"transit":false,"line":11,"time":4},{"station_name":"Rajawali","station_id":"RJW","i_lat":-6.14505,"transit":false,"i_long":106.836569,"time":5,"is_transit":false,"distance":1901,"line":11},{"distance":1444,"line":0,"station_id":"KPB","transit":true,"time":3,"station_name":"Kampung Bandan","i_lat":-6.132549,"is_transit":true,"i_long":106.826365},{"distance":4102,"time":9,"i_long":106.79867,"is_transit":false,"transit":false,"i_lat":-6.144674,"station_id":"AK","station_name":"Angke","line":0},{"station_name":"Duri","line":1,"i_long":106.800832,"transit":true,"i_lat":-6.155215,"distance":1230,"time":4,"station_id":"DU","is_transit":true},{"transit":true,"station_id":"THB","time":8,"line":1,"is_transit":true,"i_long":106.811091,"distance":3632,"i_lat":-6.185545,"station_name":"Tanah Abang"},{"i_lat":-6.207404,"station_id":"PLM","time":6,"is_transit":false,"line":6,"transit":false,"distance":3191,"i_long":106.79689,"station_name":"Palmerah"},{"station_name":"Kebayoran","i_long":106.780334,"distance":3737,"i_lat":-6.237242,"line":6,"transit":false,"station_id":"KBY","time":7,"is_transit":false}]]}