{"data":[[{"transit":false,"is_transit":false,"line":2,"station_id":"CTA","distance":0,"time":0,"station_name":"Citayam","i_lat":-6.448811,"i_long":106.800298},{"is_transit":false,"time":6,"station_name":"Depok","station_id":"DP","i_lat":-6.405256,"i_long":106.816926,"distance":5084,"line":2,"transit":false},{"transit":false,"i_lat":-6.391065,"is_transit":false,"time":3,"distance":1584,"i_long":106.819451,"line":2,"station_name":"Depokbaru","station_id":"DPB"},{"i_lat":-6.369073,"is_transit":false,"line":2,"distance":2727,"i_long":106.831114,"station_id":"POC","transit":false,"time":4,"station_name":"Pondok Cina"},{"is_transit":false,"station_name":"Univ. Indonesia","i_long":106.831474,"transit":false,"station_id":"UI","time":2,"line":2,"distance":1109,"i_lat":-6.360749},{"is_transit":false,"station_name":"Univ. Pancasila","i_lat":-6.339291,"distance":2264,"station_id":"UP","transit":false,"i_long":106.834175,"line":2,"time":3},{"i_lat":-6.330363,"time":2,"transit":false,"distance":1029,"station_name":"Lenteng Agung","station_id":"LNA","is_transit":false,"line":2,"i_long":106.832616},{"station_name":"Tanjung Barat","i_long":106.838896,"time":3,"station_id":"TNT","transit":false,"distance":2671,"is_transit":false,"i_lat":-6.3080680000000005,"line":2},{"transit":false,"time":4,"station_id":"PSM","line":2,"i_lat":-6.2842400000000005,"i_long":106.843999,"is_transit":false,"distance":2820,"station_name":"Pasar Minggu"},{"i_long":106.851577,"distance":2380,"station_name":"Pasar Minggu Baru","line":2,"station_id":"PSMB","i_lat":-6.263214,"transit":false,"is_transit":false,"time":2},{"time":2,"i_lat":-6.255332,"station_name":"Duren Kalibata","i_long":106.85449,"transit":false,"distance":824,"line":2,"station_id":"DRN","is_transit":false},{"transit":false,"line":2,"time":3,"i_lat":-6.242512,"station_name":"Cawang","station_id":"CW","is_transit":false,"distance":1546,"i_long":106.856607},{"time":2,"i_lat":-6.226659,"is_transit":false,"i_long":106.857948,"station_name":"Tebet","transit":false,"distance":1230,"line":2,"station_id":"TEB"},{"line":2,"transit":true,"station_name":"Manggarai","i_lat":-6.209883,"distance":2610,"i_long":106.84912,"station_id":"MRI","time":4,"is_transit":true},{"i_lat":-6.202263,"station_id":"SUD","time":4,"is_transit":false,"station_name":"Sudirman","line":1,"distance":3186,"transit":false,"i_long":106.822649},{"distance":280,"transit":false,"station_name":"Sudirman Baru","i_long":106.819881,"line":1,"station_id":"SUDB","i_lat":-6.201433,"time":1,"is_transit":false},{"i_long":106.816351,"transit":false,"is_transit":false,"distance":471,"station_id":"KAT","i_lat":-6.20132,"line":1,"time":1,"station_name":"Karet"},{"line":1,"station_name":"Tanah Abang","station_id":"THB","transit":true,"time":5,"distance":2029,"i_lat":-6.185545,"i_long":106.811091,"is_transit":true},{"time":6,"distance":3191,"transit":false,"station_name":"Palmerah","station_id":"PLM","i_lat":-6.207404,"is_transit":false,"i_long":106.79689,"line":6},{"line":6,"i_lat":-6.237242,"i_long":106.780334,"transit":false,"time":7,"is_transit":false,"distance":3737,"station_name":"Kebayoran","station_id":"KBY"},{"distance":6218,"line":6,"i_lat":-6.276362,"transit":false,"i_long":106.74273,"station_name":"Pondokranji","is_transit":false,"station_id":"PDJ","time":8},{"transit":false,"i_long":106.728916,"line":6,"station_id":"JMU","station_name":"Jurangmangu","is_transit":false,"time":3,"distance":2179,"i_lat":-6.288927},{"i_long":106.712277,"distance":1994,"is_transit":false,"station_id":"SDM","i_lat":-6.296963,"transit":false,"station_name":"Sudimara","line":6,"time":4},{"transit":false,"line":6,"station_name":"Rawa Buntu","station_id":"RU","is_transit":false,"i_long":106.675475,"i_lat":-6.314823,"distance":4566,"time":6},{"time":4,"station_name":"Serpong","distance":2413,"is_transit":false,"i_long":106.66566,"transit":false,"line":6,"station_id":"SRP","i_lat":-6.319871},{"transit":false,"station_id":"CSK","is_transit":false,"station_name":"Cisauk","time":4,"i_long":106.640411,"line":3,"i_lat":-6.32484,"distance":1784},{"station_name":"Cicayur","time":4,"distance":2519,"transit":false,"i_lat":-6.329547,"line":3,"i_long":106.617853,"station_id":"CC","is_transit":false},{"time":8,"station_id":"PRP","line":6,"distance":5968,"station_name":"Parung Panjang","i_lat":-6.3441410000000005,"i_long":106.568863,"transit":false,"is_transit":false}],[{"i_lat":-6.448811,"station_id":"CTA","line":2,"is_transit":false,"transit":false,"station_name":"Citayam","time":0,"distance":0,"i_long":106.800298},{"is_transit":false,"distance":5084,"transit":false,"line":2,"station_name":"Depok","station_id":"DP","i_lat":-6.405256,"time":6,"i_long":106.816926},{"line":2,"station_name":"Depokbaru","distance":1584,"time":3,"transit":false,"is_transit":false,"i_lat":-6.391065,"station_id":"DPB","i_long":106.819451},{"transit":false,"station_name":"Pondok Cina","is_transit":false,"distance":2727,"line":2,"i_lat":-6.369073,"station_id":"POC","i_long":106.831114,"time":4},{"station_name":"Univ. Indonesia","is_transit":false,"transit":false,"i_lat":-6.360749,"time":2,"station_id":"UI","i_long":106.831474,"line":2,"distance":1109},{"i_lat":-6.339291,"transit":false,"i_long":106.834175,"station_name":"Univ. Pancasila","station_id":"UP","is_transit":false,"distance":2264,"time":3,"line":2},{"is_transit":false,"station_name":"Lenteng Agung","time":2,"distance":1029,"transit":false,"i_lat":-6.330363,"i_long":106.832616,"station_id":"LNA","line":2},{"transit":false,"station_name":"Tanjung Barat","time":3,"station_id":"TNT","distance":2671,"i_lat":-6.3080680000000005,"line":2,"i_long":106.838896,"is_transit":false},{"i_long":106.843999,"time":4,"line":2,"station_id":"PSM","transit":false,"station_name":"Pasar Minggu","is_transit":false,"distance":2820,"i_lat":-6.2842400000000005},{"is_transit":false,"distance":2380,"i_long":106.851577,"transit":false,"time":2,"line":2,"i_lat":-6.263214,"station_name":"Pasar Minggu Baru","station_id":"PSMB"},{"station_id":"DRN","i_lat":-6.255332,"distance":824,"transit":false,"station_name":"Duren Kalibata","time":2,"i_long":106.85449,"line":2,"is_transit":false},{"distance":1546,"i_lat":-6.242512,"i_long":106.856607,"is_transit":false,"station_name":"Cawang","time":3,"line":2,"transit":false,"station_id":"CW"},{"line":2,"station_id":"TEB","distance":1230,"time":2,"station_name":"Tebet","is_transit":false,"i_long":106.857948,"transit":false,"i_lat":-6.226659},{"transit":false,"station_id":"MRI","is_transit":false,"time":4,"i_lat":-6.209883,"i_long":106.84912,"station_name":"Manggarai","line":2,"distance":2610},{"time":4,"is_transit":false,"distance":1590,"line":2,"station_name":"Cikini","i_long":106.840169,"station_id":"CKI","i_lat":-6.198556,"transit":false},{"time":3,"i_long":106.832183,"line":2,"station_id":"GDD","distance":1750,"i_lat":-6.186295,"transit":false,"is_transit":false,"station_name":"Gondangdia"},{"i_long":106.828284,"station_id":"JUA","time":4,"station_name":"Juanda","line":2,"transit":false,"is_transit":false,"i_lat":-6.166716,"distance":2015},{"station_id":"SW","is_transit":false,"distance":1149,"time":2,"transit":false,"i_long":106.827103,"line":2,"i_lat":-6.160725,"station_name":"Sawah Besar"},{"time":2,"i_lat":-6.149769,"station_id":"MGB","station_name":"Manggabesar","is_transit":false,"i_long":106.82482,"line":2,"distance":906,"transit":false},{"is_transit":false,"transit":false,"i_lat":-6.141205,"station_name":"Jayakarta","distance":1080,"station_id":"JAY","i_long":106.820901,"time":2,"line":2},{"is_transit":true,"distance":1264,"transit":true,"station_id":"JAKK","time":4,"line":2,"i_lat":-6.137569,"station_name":"Jakarta Kota","i_long":106.812439},{"time":3,"station_name":"Kampung Bandan","distance":1364,"i_lat":-6.132549,"transit":true,"is_transit":true,"i_long":106.826365,"station_id":"KPB","line":4},{"distance":4102,"transit":false,"i_lat":-6.144674,"line":1,"station_id":"AK","i_long":106.79867,"station_name":"Angke","time":9,"is_transit":false},{"station_id":"DU","time":4,"i_lat":-6.155215,"transit":false,"station_name":"Duri","is_transit":false,"distance":1230,"i_long":106.800832,"line":1},{"line":1,"is_transit":true,"distance":3632,"station_id":"THB","transit":true,"station_name":"Tanah Abang","time":8,"i_lat":-6.185545,"i_long":106.811091},{"is_transit":false,"i_lat":-6.207404,"station_name":"Palmerah","transit":false,"time":6,"distance":3191,"i_long":106.79689,"line":6,"station_id":"PLM"},{"transit":false,"line":6,"i_lat":-6.237242,"i_long":106.780334,"station_name":"Kebayoran","is_transit":false,"time":7,"station_id":"KBY","distance":3737},{"station_id":"PDJ","distance":6218,"is_transit":false,"i_long":106.74273,"line":6,"time":8,"transit":false,"i_lat":-6.276362,"station_name":"Pondokranji"},{"time":3,"i_lat":-6.288927,"i_long":106.728916,"distance":2179,"station_id":"JMU","transit":false,"line":6,"station_name":"Jurangmangu","is_transit":false},{"i_lat":-6.296963,"is_transit":false,"transit":false,"distance":1994,"station_name":"Sudimara","time":4,"station_id":"SDM","i_long":106.712277,"line":6},{"time":6,"station_name":"Rawa Buntu","station_id":"RU","line":6,"transit":false,"i_lat":-6.314823,"distance":4566,"is_transit":false,"i_long":106.675475},{"station_id":"SRP","transit":false,"is_transit":false,"station_name":"Serpong","distance":2413,"time":4,"i_long":106.66566,"line":6,"i_lat":-6.319871},{"line":3,"station_name":"Cisauk","distance":1784,"i_lat":-6.32484,"station_id":"CSK","time":4,"i_long":106.640411,"is_transit":false,"transit":false},{"i_lat":-6.329547,"time":4,"i_long":106.617853,"station_id":"CC","station_name":"Cicayur","is_transit":false,"distance":2519,"line":3,"transit":false},{"i_lat":-6.3441410000000005,"is_transit":false,"time":8,"distance":5968,"line":6,"station_name":"Parung Panjang","station_id":"PRP","transit":false,"i_long":106.568863}],[{"line":2,"transit":false,"i_long":106.800298,"station_id":"CTA","time":0,"i_lat":-6.448811,"station_name":"Citayam","distance":0,"is_transit":false},{"station_name":"Depok","i_long":106.816926,"line":2,"is_transit":false,"time":6,"station_id":"DP","i_lat":-6.405256,"transit":false,"distance":5084},{"is_transit":false,"time":3,"i_long":106.819451,"transit":false,"distance":1584,"station_name":"Depokbaru","i_lat":-6.391065,"line":2,"station_id":"DPB"},{"i_long":106.831114,"transit":false,"time":4,"distance":2727,"line":2,"is_transit":false,"station_name":"Pondok Cina","i_lat":-6.369073,"station_id":"POC"},{"time":2,"is_transit":false,"transit":false,"station_name":"Univ. Indonesia","distance":1109,"i_lat":-6.360749,"i_long":106.831474,"line":2,"station_id":"UI"},{"i_long":106.834175,"station_name":"Univ. Pancasila","is_transit":false,"station_id":"UP","time":3,"transit":false,"i_lat":-6.339291,"line":2,"distance":2264},{"station_name":"Lenteng Agung","is_transit":false,"transit":false,"station_id":"LNA","distance":1029,"i_long":106.832616,"line":2,"i_lat":-6.330363,"time":2},{"transit":false,"station_id":"TNT","time":3,"is_transit":false,"i_lat":-6.3080680000000005,"line":2,"station_name":"Tanjung Barat","i_long":106.838896,"distance":2671},{"i_lat":-6.2842400000000005,"line":2,"is_transit":false,"i_long":106.843999,"station_name":"Pasar Minggu","transit":false,"time":4,"station_id":"PSM","distance":2820},{"distance":2380,"station_id":"PSMB","i_lat":-6.263214,"transit":false,"station_name":"Pasar Minggu Baru","i_long":106.851577,"is_transit":false,"time":2,"line":2},{"is_transit":false,"transit":false,"distance":824,"station_name":"Duren Kalibata","i_long":106.85449,"line":2,"station_id":"DRN","time":2,"i_lat":-6.255332},{"distance":1546,"i_lat":-6.242512,"station_name":"Cawang","station_id":"CW","line":2,"is_transit":false,"i_long":106.856607,"time":3,"transit":false},{"distance":1230,"i_lat":-6.226659,"i_long":106.857948,"transit":false,"station_name":"Tebet","is_transit":false,"time":2,"line":2,"station_id":"TEB"},{"is_transit":true,"station_name":"Manggarai","i_long":106.84912,"line":2,"station_id":"MRI","time":4,"transit":true,"distance":2610,"i_lat":-6.209883},{"transit":false,"i_long":106.858896,"is_transit":false,"distance":1275,"station_id":"MTR","time":2,"station_name":"Matraman","i_lat":-6.212485,"line":1},{"transit":true,"is_transit":true,"i_lat":-6.215091,"i_long":106.86807400000001,"time":8,"line":1,"station_name":"Jatinegara","station_id":"JNG","distance":1377},{"is_transit":false,"station_id":"POK","transit":false,"time":2,"i_lat":-6.209188,"distance":1236,"i_long":106.861737,"line":11,"station_name":"Pondok Jati"},{"i_lat":-6.193792,"is_transit":false,"distance":1829,"station_name":"Kramat","station_id":"KMT","i_long":106.855437,"line":11,"transit":false,"time":2},{"i_long":106.850107,"transit":false,"station_name":"Gang Sentiong","line":11,"is_transit":false,"i_lat":-6.185975,"distance":973,"time":1,"station_id":"GST"},{"station_id":"PSE","line":11,"transit":false,"station_name":"Pasar Senen","is_transit":false,"time":8,"i_lat":-6.174784,"distance":1567,"i_long":106.84368},{"station_name":"Kemayoran","station_id":"KMO","distance":1436,"transit":false,"line":11,"i_long":106.839204,"i_lat":-6.161728,"time":4,"is_transit":false},{"is_transit":false,"transit":false,"distance":1901,"station_name":"Rajawali","i_long":106.836569,"time":5,"station_id":"RJW","i_lat":-6.14505,"line":11},{"is_transit":true,"station_id":"KPB","time":3,"distance":1444,"i_lat":-6.132549,"i_long":106.826365,"transit":true,"line":4,"station_name":"Kampung Bandan"},{"station_id":"AK","i_lat":-6.144674,"i_long":106.79867,"line":1,"distance":4102,"is_transit":false,"time":9,"station_name":"Angke","transit":false},{"transit":false,"line":1,"distance":1230,"i_long":106.800832,"station_name":"Duri","is_transit":false,"i_lat":-6.155215,"time":4,"station_id":"DU"},{"time":8,"distance":3632,"station_name":"Tanah Abang","i_lat":-6.185545,"is_transit":true,"line":1,"transit":true,"station_id":"THB","i_long":106.811091},{"transit":false,"station_name":"Palmerah","is_transit":false,"distance":3191,"station_id":"PLM","i_long":106.79689,"i_lat":-6.207404,"time":6,"line":6},{"station_id":"KBY","is_transit":false,"line":6,"transit":false,"i_lat":-6.237242,"i_long":106.780334,"station_name":"Kebayoran","time":7,"distance":3737},{"i_long":106.74273,"distance":6218,"i_lat":-6.276362,"transit":false,"station_id":"PDJ","line":6,"time":8,"station_name":"Pondokranji","is_transit":false},{"station_name":"Jurangmangu","time":3,"line":6,"transit":false,"i_long":106.728916,"is_transit":false,"i_lat":-6.288927,"station_id":"JMU","distance":2179},{"time":4,"i_lat":-6.296963,"transit":false,"i_long":106.712277,"line":6,"is_transit":false,"station_name":"Sudimara","station_id":"SDM","distance":1994},{"distance":4566,"is_transit":false,"station_name":"Rawa Buntu","i_lat":-6.314823,"i_long":106.675475,"line":6,"time":6,"station_id":"RU","transit":false},{"i_lat":-6.319871,"transit":false,"station_name":"Serpong","distance":2413,"is_transit":false,"i_long":106.66566,"line":6,"time":4,"station_id":"SRP"},{"station_name":"Cisauk","line":3,"is_transit":false,"i_long":106.640411,"transit":false,"i_lat":-6.32484,"station_id":"CSK","time":4,"distance":1784},{"i_long":106.617853,"is_transit":false,"station_id":"CC","station_name":"Cicayur","i_lat":-6.329547,"time":4,"transit":false,"distance":2519,"line":3},{"transit":false,"is_transit":false,"distance":5968,"i_lat":-6.3441410000000005,"time":8,"station_name":"Parung Panjang","line":6,"station_id":"PRP","i_long":106.568863}]]}