{"data":[[{"station_name":"Citayam","time":0,"line":1,"distance":0,"is_transit":true,"i_long":106.800298,"station_id":"CTA","transit":false,"i_lat":-6.448811},{"distance":5084,"time":6,"i_lat":-6.405256,"station_name":"Depok","station_id":"DP","line":0,"transit":false,"is_transit":false,"i_long":106.816926},{"line":0,"station_id":"DPB","distance":1584,"station_name":"Depokbaru","is_transit":false,"transit":false,"i_lat":-6.391065,"time":3,"i_long":106.819451},{"distance":2727,"line":2,"transit":false,"i_long":106.831114,"is_transit":false,"station_id":"POC","time":4,"station_name":"Pondok Cina","i_lat":-6.369073},{"line":2,"is_transit":false,"station_id":"UI","station_name":"Univ. Indonesia","transit":false,"distance":1109,"time":2,"i_lat":-6.360749,"i_long":106.831474},{"line":2,"station_id":"UP","time":3,"i_lat":-6.339291,"i_long":106.834175,"distance":2264,"transit":false,"station_name":"Univ. Pancasila","is_transit":false},{"station_name":"Lenteng Agung","i_long":106.832616,"line":2,"transit":false,"station_id":"LNA","distance":1029,"is_transit":false,"i_lat":-6.330363,"time":2},{"transit":false,"line":2,"i_lat":-6.3080680000000005,"is_transit":false,"station_name":"Tanjung Barat","time":3,"i_long":106.838896,"distance":2671,"station_id":"TNT"},{"i_long":106.843999,"is_transit":false,"station_name":"Pasar Minggu","distance":2820,"transit":false,"time":4,"station_id":"PSM","line":2,"i_lat":-6.2842400000000005},{"i_lat":-6.263214,"line":2,"station_id":"PSMB","distance":2380,"time":2,"is_transit":false,"i_long":106.851577,"station_name":"Pasar Minggu Baru","transit":false},{"station_name":"Duren Kalibata","station_id":"DRN","i_long":106.85449,"transit":false,"is_transit":false,"line":0,"time":2,"distance":824,"i_lat":-6.255332},{"distance":1546,"is_transit":false,"station_id":"CW","time":3,"station_name":"Cawang","transit":false,"i_lat":-6.242512,"i_long":106.856607,"line":0},{"distance":1230,"time":2,"line":2,"is_transit":false,"station_name":"Tebet","i_lat":-6.226659,"transit":false,"i_long":106.857948,"station_id":"TEB"},{"i_lat":-6.209883,"line":0,"station_name":"Manggarai","transit":true,"time":4,"i_long":106.84912,"is_transit":true,"distance":2610,"station_id":"MRI"},{"i_long":106.858896,"distance":1275,"i_lat":-6.212485,"is_transit":false,"station_name":"Matraman","station_id":"MTR","transit":false,"time":2,"line":1}],[{"line":1,"station_name":"Citayam","transit":false,"i_long":106.800298,"distance":0,"is_transit":true,"station_id":"CTA","time":0,"i_lat":-6.448811},{"time":6,"station_id":"DP","is_transit":false,"station_name":"Depok","i_lat":-6.405256,"line":0,"distance":5084,"i_long":106.816926,"transit":false},{"transit":false,"station_id":"DPB","line":0,"time":3,"station_name":"Depokbaru","is_transit":false,"i_lat":-6.391065,"distance":1584,"i_long":106.819451},{"distance":2727,"line":2,"station_name":"Pondok Cina","i_lat":-6.369073,"transit":false,"station_id":"POC","is_transit":false,"time":4,"i_long":106.831114},{"i_lat":-6.360749,"transit":false,"is_transit":false,"time":2,"station_name":"Univ. Indonesia","distance":1109,"i_long":106.831474,"line":2,"station_id":"UI"},{"i_lat":-6.339291,"line":2,"distance":2264,"station_id":"UP","i_long":106.834175,"station_name":"Univ. Pancasila","transit":false,"is_transit":false,"time":3},{"distance":1029,"station_name":"Lenteng Agung","time":2,"station_id":"LNA","i_long":106.832616,"transit":false,"i_lat":-6.330363,"is_transit":false,"line":2},{"time":3,"station_name":"Tanjung Barat","station_id":"TNT","transit":false,"i_lat":-6.3080680000000005,"line":2,"is_transit":false,"distance":2671,"i_long":106.838896},{"station_id":"PSM","is_transit":false,"transit":false,"i_lat":-6.2842400000000005,"i_long":106.843999,"line":2,"distance":2820,"station_name":"Pasar Minggu","time":4},{"station_id":"PSMB","i_lat":-6.263214,"station_name":"Pasar Minggu Baru","is_transit":false,"transit":false,"time":2,"line":2,"i_long":106.851577,"distance":2380},{"station_name":"Duren Kalibata","is_transit":false,"transit":false,"i_long":106.85449,"distance":824,"i_lat":-6.255332,"time":2,"station_id":"DRN","line":0},{"transit":false,"distance":1546,"is_transit":false,"line":0,"station_name":"Cawang","i_long":106.856607,"station_id":"CW","time":3,"i_lat":-6.242512},{"transit":false,"time":2,"distance":1230,"is_transit":false,"line":2,"station_name":"Tebet","station_id":"TEB","i_lat":-6.226659,"i_long":106.857948},{"i_lat":-6.209883,"station_name":"Manggarai","i_long":106.84912,"line":0,"distance":2610,"transit":true,"time":4,"station_id":"MRI","is_transit":true},{"transit":false,"distance":3186,"is_transit":false,"station_id":"SUD","i_long":106.822649,"i_lat":-6.202263,"line":1,"time":4,"station_name":"Sudirman"},{"transit":false,"i_long":106.819881,"station_id":"SUDB","time":1,"station_name":"Sudirman Baru","line":1,"distance":280,"is_transit":false,"i_lat":-6.201433},{"i_long":106.816351,"distance":471,"station_id":"KAT","transit":false,"line":1,"station_name":"Karet","i_lat":-6.20132,"is_transit":false,"time":1},{"station_name":"Tanah Abang","transit":false,"line":1,"distance":2029,"station_id":"THB","i_long":106.811091,"time":5,"is_transit":true,"i_lat":-6.185545},{"distance":3632,"station_id":"DU","is_transit":true,"line":1,"transit":true,"station_name":"Duri","time":8,"i_long":106.800832,"i_lat":-6.155215},{"distance":1230,"is_transit":false,"station_name":"Angke","station_id":"AK","transit":false,"i_lat":-6.144674,"line":0,"i_long":106.79867,"time":4},{"time":9,"station_id":"KPB","station_name":"Kampung Bandan","i_long":106.826365,"distance":4102,"is_transit":true,"line":0,"transit":true,"i_lat":-6.132549},{"time":3,"i_lat":-6.14505,"is_transit":false,"distance":1444,"station_name":"Rajawali","transit":false,"line":11,"i_long":106.836569,"station_id":"RJW"},{"transit":false,"line":11,"station_id":"KMO","i_lat":-6.161728,"is_transit":false,"distance":1901,"station_name":"Kemayoran","time":5,"i_long":106.839204},{"line":11,"i_long":106.84368,"station_id":"PSE","transit":false,"is_transit":false,"station_name":"Pasar Senen","i_lat":-6.174784,"time":4,"distance":1436},{"station_name":"Gang Sentiong","time":8,"line":11,"is_transit":false,"distance":1567,"i_long":106.850107,"i_lat":-6.185975,"station_id":"GST","transit":false},{"time":1,"i_lat":-6.193792,"distance":973,"station_name":"Kramat","line":11,"i_long":106.855437,"is_transit":false,"station_id":"KMT","transit":false},{"is_transit":false,"time":2,"i_long":106.861737,"distance":1829,"line":11,"station_id":"POK","transit":false,"station_name":"Pondok Jati","i_lat":-6.209188},{"station_name":"Jatinegara","distance":1236,"transit":true,"line":0,"station_id":"JNG","i_long":106.86807400000001,"is_transit":true,"time":9,"i_lat":-6.215091},{"i_long":106.858896,"is_transit":false,"station_name":"Matraman","station_id":"MTR","i_lat":-6.212485,"line":1,"distance":1377,"time":2,"transit":false}],[{"station_name":"Citayam","distance":0,"time":0,"i_lat":-6.448811,"i_long":106.800298,"line":1,"is_transit":true,"station_id":"CTA","transit":false},{"time":6,"station_name":"Depok","station_id":"DP","transit":false,"distance":5084,"i_lat":-6.405256,"is_transit":false,"line":0,"i_long":106.816926},{"i_lat":-6.391065,"station_id":"DPB","time":3,"distance":1584,"station_name":"Depokbaru","is_transit":false,"transit":false,"i_long":106.819451,"line":0},{"i_long":106.831114,"is_transit":false,"station_id":"POC","i_lat":-6.369073,"transit":false,"line":2,"station_name":"Pondok Cina","distance":2727,"time":4},{"is_transit":false,"i_lat":-6.360749,"line":2,"distance":1109,"station_name":"Univ. Indonesia","time":2,"transit":false,"i_long":106.831474,"station_id":"UI"},{"station_name":"Univ. Pancasila","is_transit":false,"station_id":"UP","i_lat":-6.339291,"line":2,"time":3,"transit":false,"distance":2264,"i_long":106.834175},{"time":2,"station_name":"Lenteng Agung","i_long":106.832616,"distance":1029,"station_id":"LNA","transit":false,"is_transit":false,"i_lat":-6.330363,"line":2},{"time":3,"line":2,"i_lat":-6.3080680000000005,"station_id":"TNT","i_long":106.838896,"transit":false,"distance":2671,"station_name":"Tanjung Barat","is_transit":false},{"line":2,"i_lat":-6.2842400000000005,"distance":2820,"transit":false,"station_name":"Pasar Minggu","is_transit":false,"time":4,"i_long":106.843999,"station_id":"PSM"},{"i_lat":-6.263214,"transit":false,"is_transit":false,"i_long":106.851577,"station_id":"PSMB","time":2,"distance":2380,"station_name":"Pasar Minggu Baru","line":2},{"line":0,"transit":false,"time":2,"i_lat":-6.255332,"i_long":106.85449,"distance":824,"station_id":"DRN","is_transit":false,"station_name":"Duren Kalibata"},{"time":3,"i_lat":-6.242512,"line":0,"station_name":"Cawang","distance":1546,"transit":false,"is_transit":false,"i_long":106.856607,"station_id":"CW"},{"line":2,"station_id":"TEB","i_long":106.857948,"transit":false,"distance":1230,"time":2,"is_transit":false,"station_name":"Tebet","i_lat":-6.226659},{"station_name":"Manggarai","is_transit":true,"i_long":106.84912,"station_id":"MRI","time":4,"i_lat":-6.209883,"distance":2610,"line":0,"transit":true},{"station_id":"CKI","line":0,"distance":1590,"i_long":106.840169,"is_transit":false,"transit":false,"time":4,"i_lat":-6.198556,"station_name":"Cikini"},{"station_id":"GDD","line":2,"is_transit":false,"distance":1750,"i_lat":-6.186295,"i_long":106.832183,"transit":false,"station_name":"Gondangdia","time":3},{"transit":false,"i_lat":-6.166716,"distance":2015,"i_long":106.828284,"line":2,"time":4,"station_name":"Juanda","is_transit":false,"station_id":"JUA"},{"transit":false,"time":2,"distance":1149,"station_name":"Sawah Besar","i_lat":-6.160725,"is_transit":false,"line":2,"station_id":"SW","i_long":106.827103},{"is_transit":false,"station_name":"Manggabesar","i_lat":-6.149769,"transit":false,"station_id":"MGB","distance":906,"i_long":106.82482,"line":2,"time":2},{"time":2,"line":7,"transit":false,"is_transit":false,"station_name":"Jayakarta","station_id":"JAY","i_long":106.820901,"i_lat":-6.141205,"distance":1080},{"is_transit":true,"distance":1264,"time":4,"i_long":106.812439,"line":0,"station_id":"JAKK","i_lat":-6.137569,"station_name":"Jakarta Kota","transit":true},{"is_transit":true,"station_id":"KPB","station_name":"Kampung Bandan","time":3,"line":0,"transit":true,"i_long":106.826365,"i_lat":-6.132549,"distance":1364},{"i_lat":-6.14505,"is_transit":false,"line":11,"station_name":"Rajawali","station_id":"RJW","distance":1444,"i_long":106.836569,"transit":false,"time":3},{"station_id":"KMO","line":11,"distance":1901,"time":5,"is_transit":false,"i_lat":-6.161728,"i_long":106.839204,"station_name":"Kemayoran","transit":false},{"station_id":"PSE","time":4,"i_long":106.84368,"station_name":"Pasar Senen","is_transit":false,"transit":false,"i_lat":-6.174784,"line":11,"distance":1436},{"i_lat":-6.185975,"station_id":"GST","distance":1567,"i_long":106.850107,"line":11,"station_name":"Gang Sentiong","time":8,"transit":false,"is_transit":false},{"is_transit":false,"time":1,"i_long":106.855437,"station_name":"Kramat","line":11,"transit":false,"distance":973,"i_lat":-6.193792,"station_id":"KMT"},{"distance":1829,"is_transit":false,"time":2,"transit":false,"line":11,"station_id":"POK","i_lat":-6.209188,"i_long":106.861737,"station_name":"Pondok Jati"},{"time":9,"i_long":106.86807400000001,"is_transit":true,"transit":true,"distance":1236,"i_lat":-6.215091,"station_id":"JNG","line":0,"station_name":"Jatinegara"},{"i_long":106.858896,"distance":1377,"line":1,"time":2,"is_transit":false,"station_name":"Matraman","station_id":"MTR","transit":false,"i_lat":-6.212485}]]}