{"data":[[{"station_id":"CTA","transit":false,"line":1,"station_name":"Citayam","is_transit":true,"time":0,"distance":0,"i_lat":-6.448811,"i_long":106.800298},{"station_id":"DP","transit":false,"is_transit":false,"distance":5084,"i_lat":-6.405256,"time":6,"line":0,"i_long":106.816926,"station_name":"Depok"},{"i_lat":-6.391065,"line":0,"time":3,"is_transit":false,"station_name":"Depokbaru","station_id":"DPB","transit":false,"distance":1584,"i_long":106.819451},{"station_name":"Pondok Cina","transit":false,"station_id":"POC","distance":2727,"i_long":106.831114,"line":2,"is_transit":false,"i_lat":-6.369073,"time":4},{"i_long":106.831474,"line":2,"distance":1109,"is_transit":false,"i_lat":-6.360749,"station_name":"Univ. Indonesia","station_id":"UI","transit":false,"time":2},{"is_transit":false,"i_long":106.834175,"line":2,"transit":false,"distance":2264,"time":3,"i_lat":-6.339291,"station_id":"UP","station_name":"Univ. Pancasila"},{"station_name":"Lenteng Agung","distance":1029,"i_lat":-6.330363,"station_id":"LNA","i_long":106.832616,"transit":false,"is_transit":false,"time":2,"line":2},{"station_name":"Tanjung Barat","i_long":106.838896,"is_transit":false,"time":3,"i_lat":-6.3080680000000005,"station_id":"TNT","line":2,"transit":false,"distance":2671},{"station_name":"Pasar Minggu","is_transit":false,"transit":false,"station_id":"PSM","distance":2820,"i_lat":-6.2842400000000005,"i_long":106.843999,"line":2,"time":4},{"line":2,"station_id":"PSMB","station_name":"Pasar Minggu Baru","time":2,"i_lat":-6.263214,"i_long":106.851577,"is_transit":false,"distance":2380,"transit":false},{"station_name":"Duren Kalibata","i_long":106.85449,"i_lat":-6.255332,"station_id":"DRN","distance":824,"time":2,"line":0,"is_transit":false,"transit":false},{"distance":1546,"i_lat":-6.242512,"line":0,"station_id":"CW","i_long":106.856607,"station_name":"Cawang","is_transit":false,"transit":false,"time":3},{"station_id":"TEB","station_name":"Tebet","is_transit":false,"distance":1230,"transit":false,"i_long":106.857948,"line":2,"time":2,"i_lat":-6.226659},{"i_lat":-6.209883,"transit":true,"station_name":"Manggarai","station_id":"MRI","is_transit":true,"i_long":106.84912,"line":0,"time":4,"distance":2610},{"is_transit":false,"transit":false,"time":4,"station_name":"Sudirman","distance":3186,"line":1,"i_long":106.822649,"station_id":"SUD","i_lat":-6.202263},{"transit":false,"is_transit":false,"i_long":106.819881,"time":1,"station_id":"SUDB","distance":280,"station_name":"Sudirman Baru","i_lat":-6.201433,"line":1},{"station_name":"Karet","i_long":106.816351,"time":1,"distance":471,"line":1,"is_transit":false,"station_id":"KAT","i_lat":-6.20132,"transit":false}],[{"station_id":"CTA","transit":false,"distance":0,"is_transit":true,"station_name":"Citayam","time":0,"i_lat":-6.448811,"i_long":106.800298,"line":1},{"line":0,"transit":false,"i_long":106.816926,"station_name":"Depok","is_transit":false,"station_id":"DP","i_lat":-6.405256,"time":6,"distance":5084},{"i_long":106.819451,"transit":false,"distance":1584,"station_name":"Depokbaru","time":3,"station_id":"DPB","is_transit":false,"i_lat":-6.391065,"line":0},{"station_id":"POC","line":2,"time":4,"i_lat":-6.369073,"station_name":"Pondok Cina","distance":2727,"transit":false,"i_long":106.831114,"is_transit":false},{"i_long":106.831474,"is_transit":false,"line":2,"distance":1109,"time":2,"station_id":"UI","i_lat":-6.360749,"station_name":"Univ. Indonesia","transit":false},{"line":2,"station_name":"Univ. Pancasila","transit":false,"distance":2264,"time":3,"is_transit":false,"station_id":"UP","i_long":106.834175,"i_lat":-6.339291},{"distance":1029,"i_long":106.832616,"transit":false,"line":2,"station_id":"LNA","i_lat":-6.330363,"time":2,"station_name":"Lenteng Agung","is_transit":false},{"i_lat":-6.3080680000000005,"time":3,"station_id":"TNT","i_long":106.838896,"line":2,"distance":2671,"transit":false,"station_name":"Tanjung Barat","is_transit":false},{"i_lat":-6.2842400000000005,"line":2,"i_long":106.843999,"distance":2820,"is_transit":false,"station_name":"Pasar Minggu","station_id":"PSM","transit":false,"time":4},{"transit":false,"distance":2380,"i_long":106.851577,"station_id":"PSMB","time":2,"line":2,"i_lat":-6.263214,"station_name":"Pasar Minggu Baru","is_transit":false},{"distance":824,"station_name":"Duren Kalibata","is_transit":false,"i_long":106.85449,"transit":false,"time":2,"i_lat":-6.255332,"station_id":"DRN","line":0},{"station_name":"Cawang","transit":false,"distance":1546,"i_long":106.856607,"line":0,"time":3,"station_id":"CW","i_lat":-6.242512,"is_transit":false},{"line":2,"distance":1230,"station_id":"TEB","station_name":"Tebet","i_lat":-6.226659,"is_transit":false,"i_long":106.857948,"transit":false,"time":2},{"i_lat":-6.209883,"station_id":"MRI","station_name":"Manggarai","transit":true,"i_long":106.84912,"is_transit":true,"line":0,"distance":2610,"time":4},{"station_name":"Cikini","is_transit":false,"distance":1590,"time":4,"i_lat":-6.198556,"i_long":106.840169,"transit":false,"station_id":"CKI","line":0},{"line":2,"i_long":106.832183,"transit":false,"distance":1750,"station_name":"Gondangdia","station_id":"GDD","is_transit":false,"time":3,"i_lat":-6.186295},{"station_id":"JUA","i_lat":-6.166716,"transit":false,"distance":2015,"i_long":106.828284,"line":2,"time":4,"station_name":"Juanda","is_transit":false},{"station_id":"SW","station_name":"Sawah Besar","distance":1149,"i_long":106.827103,"i_lat":-6.160725,"line":2,"time":2,"transit":false,"is_transit":false},{"station_id":"MGB","distance":906,"time":2,"i_lat":-6.149769,"line":2,"is_transit":false,"station_name":"Manggabesar","transit":false,"i_long":106.82482},{"distance":1080,"time":2,"i_lat":-6.141205,"station_name":"Jayakarta","i_long":106.820901,"transit":false,"line":7,"is_transit":false,"station_id":"JAY"},{"transit":true,"line":0,"station_id":"JAKK","station_name":"Jakarta Kota","i_long":106.812439,"time":4,"is_transit":true,"i_lat":-6.137569,"distance":1264},{"station_id":"KPB","distance":1364,"station_name":"Kampung Bandan","transit":false,"is_transit":true,"time":3,"i_lat":-6.132549,"line":0,"i_long":106.826365},{"line":0,"station_name":"Angke","i_lat":-6.144674,"i_long":106.79867,"distance":4102,"is_transit":false,"station_id":"AK","time":9,"transit":false},{"distance":1230,"station_name":"Duri","time":4,"i_lat":-6.155215,"i_long":106.800832,"line":1,"station_id":"DU","is_transit":true,"transit":true},{"distance":3632,"i_long":106.811091,"transit":false,"i_lat":-6.185545,"line":1,"station_name":"Tanah Abang","time":8,"station_id":"THB","is_transit":true},{"i_long":106.816351,"station_id":"KAT","distance":2029,"is_transit":false,"time":5,"i_lat":-6.20132,"transit":false,"line":1,"station_name":"Karet"}],[{"distance":0,"is_transit":true,"station_id":"CTA","station_name":"Citayam","transit":false,"i_long":106.800298,"line":1,"i_lat":-6.448811,"time":0},{"time":6,"i_lat":-6.405256,"distance":5084,"transit":false,"is_transit":false,"i_long":106.816926,"station_name":"Depok","station_id":"DP","line":0},{"station_id":"DPB","transit":false,"station_name":"Depokbaru","i_long":106.819451,"i_lat":-6.391065,"is_transit":false,"line":0,"distance":1584,"time":3},{"transit":false,"is_transit":false,"i_long":106.831114,"i_lat":-6.369073,"station_id":"POC","time":4,"line":2,"station_name":"Pondok Cina","distance":2727},{"transit":false,"distance":1109,"station_id":"UI","station_name":"Univ. Indonesia","is_transit":false,"i_lat":-6.360749,"i_long":106.831474,"time":2,"line":2},{"line":2,"station_name":"Univ. Pancasila","transit":false,"i_lat":-6.339291,"distance":2264,"station_id":"UP","time":3,"is_transit":false,"i_long":106.834175},{"is_transit":false,"i_long":106.832616,"station_name":"Lenteng Agung","station_id":"LNA","distance":1029,"transit":false,"i_lat":-6.330363,"time":2,"line":2},{"line":2,"distance":2671,"station_id":"TNT","is_transit":false,"transit":false,"station_name":"Tanjung Barat","i_lat":-6.3080680000000005,"time":3,"i_long":106.838896},{"is_transit":false,"time":4,"line":2,"i_lat":-6.2842400000000005,"transit":false,"station_name":"Pasar Minggu","i_long":106.843999,"distance":2820,"station_id":"PSM"},{"transit":false,"i_lat":-6.263214,"station_id":"PSMB","line":2,"i_long":106.851577,"distance":2380,"station_name":"Pasar Minggu Baru","is_transit":false,"time":2},{"line":0,"station_id":"DRN","i_lat":-6.255332,"transit":false,"time":2,"distance":824,"i_long":106.85449,"station_name":"Duren Kalibata","is_transit":false},{"i_long":106.856607,"distance":1546,"station_id":"CW","station_name":"Cawang","time":3,"is_transit":false,"transit":false,"i_lat":-6.242512,"line":0},{"distance":1230,"i_lat":-6.226659,"i_long":106.857948,"station_name":"Tebet","station_id":"TEB","transit":false,"time":2,"is_transit":false,"line":2},{"station_id":"MRI","distance":2610,"station_name":"Manggarai","i_lat":-6.209883,"time":4,"i_long":106.84912,"line":0,"transit":true,"is_transit":true},{"station_name":"Matraman","distance":1275,"is_transit":false,"i_lat":-6.212485,"i_long":106.858896,"time":2,"station_id":"MTR","transit":false,"line":1},{"distance":1377,"station_name":"Jatinegara","transit":true,"is_transit":true,"i_lat":-6.215091,"line":0,"station_id":"JNG","i_long":106.86807400000001,"time":8},{"transit":false,"i_long":106.861737,"station_id":"POK","time":2,"station_name":"Pondok Jati","distance":1236,"is_transit":false,"i_lat":-6.209188,"line":11},{"transit":false,"station_name":"Kramat","line":11,"distance":1829,"i_lat":-6.193792,"station_id":"KMT","is_transit":false,"time":2,"i_long":106.855437},{"i_long":106.850107,"distance":973,"station_name":"Gang Sentiong","transit":false,"time":1,"line":11,"is_transit":false,"station_id":"GST","i_lat":-6.185975},{"time":8,"station_id":"PSE","transit":false,"station_name":"Pasar Senen","i_long":106.84368,"line":11,"distance":1567,"i_lat":-6.174784,"is_transit":false},{"station_name":"Kemayoran","time":4,"station_id":"KMO","is_transit":false,"distance":1436,"transit":false,"i_lat":-6.161728,"line":11,"i_long":106.839204},{"i_long":106.836569,"is_transit":false,"line":11,"distance":1901,"station_id":"RJW","transit":false,"time":5,"i_lat":-6.14505,"station_name":"Rajawali"},{"distance":1444,"i_long":106.826365,"time":3,"station_name":"Kampung Bandan","line":0,"transit":true,"is_transit":true,"station_id":"KPB","i_lat":-6.132549},{"line":0,"is_transit":false,"station_name":"Angke","distance":4102,"i_lat":-6.144674,"station_id":"AK","transit":false,"time":9,"i_long":106.79867},{"station_id":"DU","time":4,"i_lat":-6.155215,"transit":true,"i_long":106.800832,"is_transit":true,"distance":1230,"station_name":"Duri","line":1},{"line":1,"distance":3632,"transit":false,"is_transit":true,"station_id":"THB","station_name":"Tanah Abang","i_lat":-6.185545,"time":8,"i_long":106.811091},{"station_name":"Karet","time":5,"i_long":106.816351,"station_id":"KAT","transit":false,"i_lat":-6.20132,"line":1,"is_transit":false,"distance":2029}]]}