{"data":[[{"distance":0,"transit":false,"i_lat":-6.448811,"line":2,"station_id":"CTA","time":0,"station_name":"Citayam","is_transit":false,"i_long":106.800298},{"i_long":106.816926,"distance":5084,"i_lat":-6.405256,"station_id":"DP","is_transit":false,"station_name":"Depok","time":6,"line":2,"transit":false},{"time":3,"is_transit":false,"i_long":106.819451,"line":2,"distance":1584,"i_lat":-6.391065,"station_name":"Depokbaru","station_id":"DPB","transit":false},{"station_name":"Pondok Cina","station_id":"POC","distance":2727,"time":4,"i_lat":-6.369073,"is_transit":false,"transit":false,"i_long":106.831114,"line":2},{"transit":false,"distance":1109,"station_name":"Univ. Indonesia","time":2,"i_long":106.831474,"line":2,"station_id":"UI","i_lat":-6.360749,"is_transit":false},{"distance":2264,"is_transit":false,"station_id":"UP","i_long":106.834175,"station_name":"Univ. Pancasila","line":2,"time":3,"transit":false,"i_lat":-6.339291},{"i_lat":-6.330363,"time":2,"line":2,"distance":1029,"station_name":"Lenteng Agung","i_long":106.832616,"station_id":"LNA","transit":false,"is_transit":false},{"is_transit":false,"line":2,"time":3,"station_name":"Tanjung Barat","distance":2671,"i_long":106.838896,"transit":false,"i_lat":-6.3080680000000005,"station_id":"TNT"},{"transit":false,"i_long":106.843999,"station_name":"Pasar Minggu","time":4,"is_transit":false,"i_lat":-6.2842400000000005,"line":2,"distance":2820,"station_id":"PSM"},{"time":2,"station_name":"Pasar Minggu Baru","transit":false,"station_id":"PSMB","i_lat":-6.263214,"line":2,"distance":2380,"is_transit":false,"i_long":106.851577},{"i_long":106.85449,"transit":false,"distance":824,"station_id":"DRN","i_lat":-6.255332,"is_transit":false,"station_name":"Duren Kalibata","time":2,"line":2},{"i_long":106.856607,"time":3,"transit":false,"distance":1546,"station_name":"Cawang","station_id":"CW","i_lat":-6.242512,"line":2,"is_transit":false},{"line":2,"is_transit":false,"i_long":106.857948,"distance":1230,"transit":false,"station_name":"Tebet","i_lat":-6.226659,"time":2,"station_id":"TEB"},{"station_name":"Manggarai","station_id":"MRI","i_lat":-6.209883,"time":4,"transit":true,"distance":2610,"i_long":106.84912,"line":2,"is_transit":true},{"transit":false,"i_lat":-6.202263,"time":4,"distance":3186,"is_transit":false,"i_long":106.822649,"line":1,"station_id":"SUD","station_name":"Sudirman"},{"time":1,"is_transit":false,"line":1,"transit":false,"station_name":"Sudirman Baru","i_lat":-6.201433,"i_long":106.819881,"distance":280,"station_id":"SUDB"}],[{"distance":0,"i_long":106.800298,"time":0,"station_id":"CTA","is_transit":false,"transit":false,"line":2,"station_name":"Citayam","i_lat":-6.448811},{"is_transit":false,"i_lat":-6.405256,"time":6,"line":2,"station_name":"Depok","i_long":106.816926,"distance":5084,"transit":false,"station_id":"DP"},{"line":2,"i_lat":-6.391065,"distance":1584,"station_name":"Depokbaru","is_transit":false,"transit":false,"time":3,"i_long":106.819451,"station_id":"DPB"},{"i_lat":-6.369073,"transit":false,"station_name":"Pondok Cina","line":2,"distance":2727,"station_id":"POC","time":4,"is_transit":false,"i_long":106.831114},{"distance":1109,"station_name":"Univ. Indonesia","station_id":"UI","i_long":106.831474,"is_transit":false,"transit":false,"i_lat":-6.360749,"time":2,"line":2},{"station_name":"Univ. Pancasila","line":2,"distance":2264,"i_long":106.834175,"time":3,"is_transit":false,"i_lat":-6.339291,"station_id":"UP","transit":false},{"transit":false,"time":2,"distance":1029,"line":2,"i_lat":-6.330363,"is_transit":false,"station_id":"LNA","i_long":106.832616,"station_name":"Lenteng Agung"},{"line":2,"i_long":106.838896,"distance":2671,"is_transit":false,"time":3,"transit":false,"i_lat":-6.3080680000000005,"station_name":"Tanjung Barat","station_id":"TNT"},{"time":4,"station_id":"PSM","i_lat":-6.2842400000000005,"is_transit":false,"transit":false,"station_name":"Pasar Minggu","i_long":106.843999,"distance":2820,"line":2},{"distance":2380,"station_id":"PSMB","station_name":"Pasar Minggu Baru","is_transit":false,"time":2,"transit":false,"i_long":106.851577,"line":2,"i_lat":-6.263214},{"i_long":106.85449,"distance":824,"line":2,"transit":false,"station_name":"Duren Kalibata","time":2,"i_lat":-6.255332,"is_transit":false,"station_id":"DRN"},{"time":3,"distance":1546,"station_id":"CW","is_transit":false,"i_lat":-6.242512,"i_long":106.856607,"line":2,"station_name":"Cawang","transit":false},{"station_name":"Tebet","time":2,"i_lat":-6.226659,"is_transit":false,"transit":false,"station_id":"TEB","line":2,"distance":1230,"i_long":106.857948},{"line":2,"station_id":"MRI","i_lat":-6.209883,"time":4,"transit":false,"station_name":"Manggarai","i_long":106.84912,"is_transit":false,"distance":2610},{"time":4,"line":2,"station_id":"CKI","i_lat":-6.198556,"station_name":"Cikini","transit":false,"is_transit":false,"i_long":106.840169,"distance":1590},{"station_id":"GDD","time":3,"distance":1750,"station_name":"Gondangdia","is_transit":false,"i_long":106.832183,"line":2,"transit":false,"i_lat":-6.186295},{"line":2,"station_id":"JUA","time":4,"is_transit":false,"i_lat":-6.166716,"transit":false,"i_long":106.828284,"distance":2015,"station_name":"Juanda"},{"i_lat":-6.160725,"transit":false,"distance":1149,"station_id":"SW","line":2,"i_long":106.827103,"time":2,"is_transit":false,"station_name":"Sawah Besar"},{"is_transit":false,"station_name":"Manggabesar","i_long":106.82482,"station_id":"MGB","transit":false,"i_lat":-6.149769,"line":2,"time":2,"distance":906},{"i_lat":-6.141205,"station_id":"JAY","time":2,"transit":false,"distance":1080,"i_long":106.820901,"line":2,"station_name":"Jayakarta","is_transit":false},{"station_name":"Jakarta Kota","i_lat":-6.137569,"line":2,"transit":true,"distance":1264,"is_transit":true,"time":4,"i_long":106.812439,"station_id":"JAKK"},{"station_name":"Kampung Bandan","station_id":"KPB","i_long":106.826365,"time":3,"transit":true,"distance":1364,"line":4,"i_lat":-6.132549,"is_transit":true},{"time":9,"i_long":106.79867,"i_lat":-6.144674,"line":1,"station_id":"AK","transit":false,"distance":4102,"station_name":"Angke","is_transit":false},{"i_lat":-6.155215,"transit":false,"station_name":"Duri","distance":1230,"time":4,"i_long":106.800832,"line":1,"station_id":"DU","is_transit":false},{"transit":false,"station_id":"THB","time":8,"station_name":"Tanah Abang","i_lat":-6.185545,"distance":3632,"is_transit":false,"line":1,"i_long":106.811091},{"time":5,"station_name":"Karet","transit":false,"distance":2029,"station_id":"KAT","is_transit":false,"i_lat":-6.20132,"i_long":106.816351,"line":1},{"i_long":106.819881,"transit":false,"is_transit":false,"line":1,"station_name":"Sudirman Baru","i_lat":-6.201433,"distance":471,"station_id":"SUDB","time":1}],[{"station_id":"CTA","transit":false,"distance":0,"i_lat":-6.448811,"time":0,"line":2,"i_long":106.800298,"station_name":"Citayam","is_transit":false},{"i_long":106.816926,"line":2,"transit":false,"time":6,"is_transit":false,"i_lat":-6.405256,"distance":5084,"station_name":"Depok","station_id":"DP"},{"time":3,"distance":1584,"i_long":106.819451,"transit":false,"station_name":"Depokbaru","station_id":"DPB","is_transit":false,"i_lat":-6.391065,"line":2},{"i_long":106.831114,"is_transit":false,"station_name":"Pondok Cina","distance":2727,"station_id":"POC","line":2,"i_lat":-6.369073,"transit":false,"time":4},{"line":2,"time":2,"station_id":"UI","transit":false,"station_name":"Univ. Indonesia","i_lat":-6.360749,"distance":1109,"is_transit":false,"i_long":106.831474},{"distance":2264,"station_id":"UP","station_name":"Univ. Pancasila","i_long":106.834175,"time":3,"line":2,"i_lat":-6.339291,"is_transit":false,"transit":false},{"i_long":106.832616,"distance":1029,"station_id":"LNA","time":2,"transit":false,"i_lat":-6.330363,"station_name":"Lenteng Agung","is_transit":false,"line":2},{"transit":false,"is_transit":false,"distance":2671,"i_lat":-6.3080680000000005,"i_long":106.838896,"line":2,"station_name":"Tanjung Barat","station_id":"TNT","time":3},{"line":2,"station_name":"Pasar Minggu","station_id":"PSM","is_transit":false,"i_lat":-6.2842400000000005,"i_long":106.843999,"distance":2820,"time":4,"transit":false},{"is_transit":false,"time":2,"station_id":"PSMB","transit":false,"station_name":"Pasar Minggu Baru","distance":2380,"line":2,"i_lat":-6.263214,"i_long":106.851577},{"station_id":"DRN","station_name":"Duren Kalibata","i_long":106.85449,"line":2,"transit":false,"is_transit":false,"distance":824,"i_lat":-6.255332,"time":2},{"distance":1546,"is_transit":false,"i_long":106.856607,"station_id":"CW","time":3,"station_name":"Cawang","line":2,"transit":false,"i_lat":-6.242512},{"i_long":106.857948,"time":2,"station_name":"Tebet","distance":1230,"station_id":"TEB","i_lat":-6.226659,"is_transit":false,"transit":false,"line":2},{"transit":true,"is_transit":true,"i_lat":-6.209883,"station_name":"Manggarai","time":4,"i_long":106.84912,"line":2,"distance":2610,"station_id":"MRI"},{"station_name":"Matraman","i_lat":-6.212485,"is_transit":false,"transit":false,"time":2,"station_id":"MTR","distance":1275,"line":1,"i_long":106.858896},{"distance":1377,"station_id":"JNG","is_transit":true,"i_lat":-6.215091,"i_long":106.86807400000001,"line":1,"time":8,"station_name":"Jatinegara","transit":true},{"station_name":"Pondok Jati","i_lat":-6.209188,"line":11,"i_long":106.861737,"is_transit":false,"distance":1236,"station_id":"POK","time":2,"transit":false},{"station_id":"KMT","transit":false,"station_name":"Kramat","i_lat":-6.193792,"i_long":106.855437,"time":2,"line":11,"distance":1829,"is_transit":false},{"time":1,"distance":973,"transit":false,"station_name":"Gang Sentiong","i_lat":-6.185975,"station_id":"GST","is_transit":false,"i_long":106.850107,"line":11},{"i_long":106.84368,"distance":1567,"station_name":"Pasar Senen","station_id":"PSE","is_transit":false,"line":11,"i_lat":-6.174784,"transit":false,"time":8},{"i_long":106.839204,"time":4,"distance":1436,"station_id":"KMO","is_transit":false,"transit":false,"station_name":"Kemayoran","line":11,"i_lat":-6.161728},{"line":11,"i_lat":-6.14505,"station_name":"Rajawali","is_transit":false,"transit":false,"i_long":106.836569,"time":5,"distance":1901,"station_id":"RJW"},{"line":4,"station_id":"KPB","is_transit":true,"i_long":106.826365,"time":3,"i_lat":-6.132549,"distance":1444,"station_name":"Kampung Bandan","transit":true},{"station_id":"AK","i_long":106.79867,"distance":4102,"is_transit":false,"transit":false,"i_lat":-6.144674,"time":9,"station_name":"Angke","line":1},{"distance":1230,"transit":false,"line":1,"time":4,"station_name":"Duri","station_id":"DU","is_transit":false,"i_lat":-6.155215,"i_long":106.800832},{"distance":3632,"station_id":"THB","time":8,"i_lat":-6.185545,"transit":false,"is_transit":false,"i_long":106.811091,"line":1,"station_name":"Tanah Abang"},{"transit":false,"time":5,"distance":2029,"line":1,"station_name":"Karet","station_id":"KAT","is_transit":false,"i_lat":-6.20132,"i_long":106.816351},{"distance":471,"station_name":"Sudirman Baru","is_transit":false,"line":1,"transit":false,"station_id":"SUDB","i_lat":-6.201433,"i_long":106.819881,"time":1}]]}