{"data":[[{"is_transit":false,"i_long":106.800298,"distance":0,"station_id":"CTA","i_lat":-6.448811,"line":2,"transit":false,"station_name":"Citayam","time":0},{"time":6,"distance":5084,"transit":false,"station_name":"Depok","is_transit":false,"i_lat":-6.405256,"line":2,"station_id":"DP","i_long":106.816926},{"time":3,"distance":1584,"station_name":"Depokbaru","i_lat":-6.391065,"station_id":"DPB","is_transit":false,"transit":false,"i_long":106.819451,"line":2},{"station_name":"Pondok Cina","i_long":106.831114,"line":2,"i_lat":-6.369073,"time":4,"station_id":"POC","distance":2727,"transit":false,"is_transit":false},{"line":2,"time":2,"station_id":"UI","is_transit":false,"i_lat":-6.360749,"station_name":"Univ. Indonesia","distance":1109,"i_long":106.831474,"transit":false},{"time":3,"distance":2264,"station_name":"Univ. Pancasila","station_id":"UP","transit":false,"i_lat":-6.339291,"i_long":106.834175,"is_transit":false,"line":2},{"distance":1029,"line":2,"i_lat":-6.330363,"station_id":"LNA","time":2,"station_name":"Lenteng Agung","i_long":106.832616,"is_transit":false,"transit":false},{"i_lat":-6.3080680000000005,"i_long":106.838896,"time":3,"station_name":"Tanjung Barat","station_id":"TNT","distance":2671,"is_transit":false,"transit":false,"line":2},{"is_transit":false,"station_id":"PSM","distance":2820,"transit":false,"time":4,"station_name":"Pasar Minggu","i_long":106.843999,"line":2,"i_lat":-6.2842400000000005},{"i_long":106.851577,"distance":2380,"is_transit":false,"station_id":"PSMB","station_name":"Pasar Minggu Baru","time":2,"i_lat":-6.263214,"line":2,"transit":false},{"station_id":"DRN","is_transit":false,"i_long":106.85449,"distance":824,"station_name":"Duren Kalibata","time":2,"transit":false,"i_lat":-6.255332,"line":2},{"station_name":"Cawang","line":2,"i_lat":-6.242512,"i_long":106.856607,"time":3,"is_transit":false,"transit":false,"distance":1546,"station_id":"CW"},{"time":2,"transit":false,"i_long":106.857948,"distance":1230,"station_id":"TEB","station_name":"Tebet","is_transit":false,"i_lat":-6.226659,"line":2},{"distance":2610,"line":2,"station_name":"Manggarai","transit":true,"i_lat":-6.209883,"i_long":106.84912,"time":4,"is_transit":true,"station_id":"MRI"},{"transit":false,"i_long":106.822649,"station_id":"SUD","i_lat":-6.202263,"station_name":"Sudirman","line":1,"distance":3186,"is_transit":false,"time":4},{"transit":false,"i_lat":-6.201433,"station_name":"Sudirman Baru","station_id":"SUDB","time":1,"line":1,"is_transit":false,"i_long":106.819881,"distance":280},{"distance":471,"station_id":"KAT","i_lat":-6.20132,"is_transit":false,"time":1,"line":1,"transit":false,"i_long":106.816351,"station_name":"Karet"},{"i_lat":-6.185545,"station_name":"Tanah Abang","time":5,"i_long":106.811091,"line":1,"station_id":"THB","transit":true,"is_transit":true,"distance":2029},{"distance":3191,"station_id":"PLM","line":6,"station_name":"Palmerah","transit":false,"time":6,"i_lat":-6.207404,"is_transit":false,"i_long":106.79689},{"station_name":"Kebayoran","i_long":106.780334,"i_lat":-6.237242,"line":6,"is_transit":false,"station_id":"KBY","distance":3737,"transit":false,"time":7},{"time":8,"distance":6218,"i_lat":-6.276362,"i_long":106.74273,"is_transit":false,"line":6,"station_name":"Pondokranji","transit":false,"station_id":"PDJ"},{"line":6,"i_lat":-6.288927,"transit":false,"time":3,"distance":2179,"is_transit":false,"station_name":"Jurangmangu","station_id":"JMU","i_long":106.728916},{"i_lat":-6.296963,"station_name":"Sudimara","time":4,"transit":false,"station_id":"SDM","i_long":106.712277,"line":6,"is_transit":false,"distance":1994},{"station_id":"RU","station_name":"Rawa Buntu","i_lat":-6.314823,"line":6,"transit":false,"time":6,"distance":4566,"is_transit":false,"i_long":106.675475}],[{"distance":0,"transit":false,"station_id":"CTA","is_transit":false,"i_lat":-6.448811,"i_long":106.800298,"line":2,"time":0,"station_name":"Citayam"},{"transit":false,"time":6,"line":2,"station_id":"DP","distance":5084,"station_name":"Depok","i_lat":-6.405256,"is_transit":false,"i_long":106.816926},{"time":3,"is_transit":false,"i_lat":-6.391065,"line":2,"distance":1584,"station_id":"DPB","transit":false,"i_long":106.819451,"station_name":"Depokbaru"},{"is_transit":false,"i_lat":-6.369073,"station_name":"Pondok Cina","station_id":"POC","time":4,"distance":2727,"line":2,"i_long":106.831114,"transit":false},{"transit":false,"time":2,"station_id":"UI","distance":1109,"is_transit":false,"station_name":"Univ. Indonesia","i_long":106.831474,"i_lat":-6.360749,"line":2},{"station_id":"UP","line":2,"time":3,"distance":2264,"i_lat":-6.339291,"is_transit":false,"transit":false,"i_long":106.834175,"station_name":"Univ. Pancasila"},{"station_name":"Lenteng Agung","distance":1029,"is_transit":false,"transit":false,"station_id":"LNA","i_lat":-6.330363,"i_long":106.832616,"line":2,"time":2},{"distance":2671,"station_id":"TNT","i_long":106.838896,"station_name":"Tanjung Barat","transit":false,"is_transit":false,"time":3,"i_lat":-6.3080680000000005,"line":2},{"station_name":"Pasar Minggu","time":4,"distance":2820,"i_long":106.843999,"line":2,"station_id":"PSM","i_lat":-6.2842400000000005,"transit":false,"is_transit":false},{"time":2,"distance":2380,"i_lat":-6.263214,"station_name":"Pasar Minggu Baru","is_transit":false,"line":2,"transit":false,"station_id":"PSMB","i_long":106.851577},{"station_name":"Duren Kalibata","distance":824,"i_lat":-6.255332,"i_long":106.85449,"station_id":"DRN","time":2,"is_transit":false,"line":2,"transit":false},{"distance":1546,"transit":false,"station_id":"CW","station_name":"Cawang","is_transit":false,"i_long":106.856607,"time":3,"i_lat":-6.242512,"line":2},{"line":2,"time":2,"distance":1230,"transit":false,"i_lat":-6.226659,"i_long":106.857948,"station_name":"Tebet","is_transit":false,"station_id":"TEB"},{"is_transit":false,"transit":false,"time":4,"station_id":"MRI","station_name":"Manggarai","line":2,"distance":2610,"i_lat":-6.209883,"i_long":106.84912},{"i_long":106.840169,"i_lat":-6.198556,"line":2,"distance":1590,"is_transit":false,"transit":false,"station_name":"Cikini","time":4,"station_id":"CKI"},{"station_id":"GDD","i_long":106.832183,"transit":false,"time":3,"distance":1750,"is_transit":false,"i_lat":-6.186295,"line":2,"station_name":"Gondangdia"},{"station_name":"Juanda","i_lat":-6.166716,"line":2,"is_transit":false,"time":4,"station_id":"JUA","distance":2015,"transit":false,"i_long":106.828284},{"distance":1149,"i_lat":-6.160725,"transit":false,"station_id":"SW","time":2,"is_transit":false,"i_long":106.827103,"line":2,"station_name":"Sawah Besar"},{"i_lat":-6.149769,"line":2,"station_name":"Manggabesar","time":2,"distance":906,"station_id":"MGB","is_transit":false,"i_long":106.82482,"transit":false},{"i_lat":-6.141205,"distance":1080,"is_transit":false,"i_long":106.820901,"time":2,"transit":false,"line":2,"station_name":"Jayakarta","station_id":"JAY"},{"i_long":106.812439,"line":2,"station_id":"JAKK","is_transit":true,"i_lat":-6.137569,"distance":1264,"transit":true,"time":4,"station_name":"Jakarta Kota"},{"is_transit":true,"i_lat":-6.132549,"transit":true,"station_name":"Kampung Bandan","time":3,"distance":1364,"station_id":"KPB","i_long":106.826365,"line":4},{"is_transit":false,"time":9,"transit":false,"line":1,"station_name":"Angke","distance":4102,"station_id":"AK","i_lat":-6.144674,"i_long":106.79867},{"i_long":106.800832,"time":4,"is_transit":false,"distance":1230,"station_id":"DU","i_lat":-6.155215,"line":1,"station_name":"Duri","transit":false},{"i_lat":-6.185545,"station_id":"THB","i_long":106.811091,"line":1,"time":8,"is_transit":true,"distance":3632,"station_name":"Tanah Abang","transit":true},{"is_transit":false,"station_name":"Palmerah","i_long":106.79689,"line":6,"distance":3191,"transit":false,"i_lat":-6.207404,"station_id":"PLM","time":6},{"station_id":"KBY","time":7,"station_name":"Kebayoran","transit":false,"distance":3737,"i_long":106.780334,"is_transit":false,"line":6,"i_lat":-6.237242},{"station_name":"Pondokranji","time":8,"station_id":"PDJ","is_transit":false,"i_long":106.74273,"line":6,"i_lat":-6.276362,"distance":6218,"transit":false},{"time":3,"i_lat":-6.288927,"station_id":"JMU","i_long":106.728916,"distance":2179,"station_name":"Jurangmangu","is_transit":false,"transit":false,"line":6},{"transit":false,"is_transit":false,"station_id":"SDM","line":6,"time":4,"distance":1994,"i_lat":-6.296963,"station_name":"Sudimara","i_long":106.712277},{"distance":4566,"line":6,"i_lat":-6.314823,"transit":false,"i_long":106.675475,"time":6,"station_name":"Rawa Buntu","station_id":"RU","is_transit":false}],[{"transit":false,"station_id":"CTA","i_lat":-6.448811,"distance":0,"i_long":106.800298,"station_name":"Citayam","time":0,"is_transit":false,"line":2},{"i_long":106.816926,"i_lat":-6.405256,"distance":5084,"transit":false,"station_name":"Depok","line":2,"time":6,"station_id":"DP","is_transit":false},{"station_name":"Depokbaru","i_lat":-6.391065,"transit":false,"is_transit":false,"line":2,"i_long":106.819451,"distance":1584,"time":3,"station_id":"DPB"},{"is_transit":false,"transit":false,"i_long":106.831114,"line":2,"time":4,"station_id":"POC","station_name":"Pondok Cina","distance":2727,"i_lat":-6.369073},{"i_lat":-6.360749,"station_id":"UI","is_transit":false,"i_long":106.831474,"station_name":"Univ. Indonesia","line":2,"distance":1109,"time":2,"transit":false},{"transit":false,"distance":2264,"station_id":"UP","i_long":106.834175,"line":2,"i_lat":-6.339291,"time":3,"is_transit":false,"station_name":"Univ. Pancasila"},{"distance":1029,"i_lat":-6.330363,"is_transit":false,"station_id":"LNA","i_long":106.832616,"line":2,"station_name":"Lenteng Agung","time":2,"transit":false},{"i_lat":-6.3080680000000005,"is_transit":false,"station_id":"TNT","distance":2671,"i_long":106.838896,"line":2,"station_name":"Tanjung Barat","time":3,"transit":false},{"time":4,"is_transit":false,"i_long":106.843999,"transit":false,"station_name":"Pasar Minggu","distance":2820,"station_id":"PSM","i_lat":-6.2842400000000005,"line":2},{"transit":false,"line":2,"time":2,"station_id":"PSMB","is_transit":false,"distance":2380,"i_lat":-6.263214,"station_name":"Pasar Minggu Baru","i_long":106.851577},{"is_transit":false,"station_name":"Duren Kalibata","distance":824,"line":2,"transit":false,"time":2,"station_id":"DRN","i_lat":-6.255332,"i_long":106.85449},{"time":3,"station_id":"CW","is_transit":false,"i_long":106.856607,"station_name":"Cawang","line":2,"distance":1546,"transit":false,"i_lat":-6.242512},{"time":2,"distance":1230,"i_lat":-6.226659,"i_long":106.857948,"station_id":"TEB","line":2,"station_name":"Tebet","transit":false,"is_transit":false},{"line":2,"station_id":"MRI","i_lat":-6.209883,"distance":2610,"transit":true,"is_transit":true,"time":4,"station_name":"Manggarai","i_long":106.84912},{"i_long":106.858896,"is_transit":false,"distance":1275,"station_id":"MTR","line":1,"transit":false,"station_name":"Matraman","i_lat":-6.212485,"time":2},{"time":8,"i_lat":-6.215091,"line":1,"station_name":"Jatinegara","distance":1377,"i_long":106.86807400000001,"transit":true,"is_transit":true,"station_id":"JNG"},{"time":2,"transit":false,"distance":1236,"i_lat":-6.209188,"station_name":"Pondok Jati","is_transit":false,"line":11,"station_id":"POK","i_long":106.861737},{"i_lat":-6.193792,"time":2,"distance":1829,"i_long":106.855437,"station_id":"KMT","line":11,"transit":false,"station_name":"Kramat","is_transit":false},{"i_lat":-6.185975,"station_name":"Gang Sentiong","transit":false,"line":11,"time":1,"i_long":106.850107,"station_id":"GST","distance":973,"is_transit":false},{"i_long":106.84368,"station_name":"Pasar Senen","transit":false,"line":11,"time":8,"distance":1567,"station_id":"PSE","is_transit":false,"i_lat":-6.174784},{"is_transit":false,"line":11,"transit":false,"time":4,"distance":1436,"i_lat":-6.161728,"station_name":"Kemayoran","i_long":106.839204,"station_id":"KMO"},{"line":11,"station_name":"Rajawali","transit":false,"i_long":106.836569,"station_id":"RJW","i_lat":-6.14505,"distance":1901,"time":5,"is_transit":false},{"line":4,"station_name":"Kampung Bandan","i_lat":-6.132549,"time":3,"station_id":"KPB","i_long":106.826365,"distance":1444,"transit":true,"is_transit":true},{"i_lat":-6.144674,"station_name":"Angke","is_transit":false,"distance":4102,"line":1,"i_long":106.79867,"transit":false,"time":9,"station_id":"AK"},{"i_lat":-6.155215,"is_transit":false,"transit":false,"station_id":"DU","i_long":106.800832,"station_name":"Duri","distance":1230,"line":1,"time":4},{"time":8,"station_id":"THB","i_long":106.811091,"transit":true,"station_name":"Tanah Abang","is_transit":true,"i_lat":-6.185545,"line":1,"distance":3632},{"i_long":106.79689,"station_id":"PLM","transit":false,"is_transit":false,"station_name":"Palmerah","distance":3191,"line":6,"i_lat":-6.207404,"time":6},{"distance":3737,"station_id":"KBY","line":6,"transit":false,"i_lat":-6.237242,"is_transit":false,"time":7,"i_long":106.780334,"station_name":"Kebayoran"},{"station_id":"PDJ","line":6,"transit":false,"i_lat":-6.276362,"is_transit":false,"distance":6218,"station_name":"Pondokranji","i_long":106.74273,"time":8},{"i_lat":-6.288927,"distance":2179,"transit":false,"station_name":"Jurangmangu","i_long":106.728916,"line":6,"time":3,"station_id":"JMU","is_transit":false},{"is_transit":false,"i_lat":-6.296963,"line":6,"transit":false,"station_id":"SDM","distance":1994,"station_name":"Sudimara","i_long":106.712277,"time":4},{"station_name":"Rawa Buntu","distance":4566,"i_long":106.675475,"station_id":"RU","line":6,"i_lat":-6.314823,"transit":false,"time":6,"is_transit":false}]]}