{"data":[[{"station_name":"Citayam","distance":0,"time":0,"i_long":106.800298,"line":1,"is_transit":true,"transit":false,"i_lat":-6.448811,"station_id":"CTA"},{"i_lat":-6.405256,"time":6,"station_name":"Depok","i_long":106.816926,"is_transit":false,"station_id":"DP","line":0,"distance":5084,"transit":false},{"i_long":106.819451,"i_lat":-6.391065,"is_transit":false,"time":3,"transit":false,"station_id":"DPB","line":0,"station_name":"Depokbaru","distance":1584},{"is_transit":false,"i_lat":-6.369073,"station_id":"POC","time":4,"line":2,"distance":2727,"station_name":"Pondok Cina","i_long":106.831114,"transit":false},{"station_name":"Univ. Indonesia","transit":false,"is_transit":false,"time":2,"distance":1109,"station_id":"UI","i_long":106.831474,"line":2,"i_lat":-6.360749},{"station_name":"Univ. Pancasila","line":2,"is_transit":false,"time":3,"transit":false,"i_lat":-6.339291,"i_long":106.834175,"distance":2264,"station_id":"UP"},{"station_id":"LNA","line":2,"transit":false,"time":2,"is_transit":false,"station_name":"Lenteng Agung","distance":1029,"i_long":106.832616,"i_lat":-6.330363},{"station_id":"TNT","line":2,"transit":false,"station_name":"Tanjung Barat","time":3,"i_long":106.838896,"i_lat":-6.3080680000000005,"distance":2671,"is_transit":false},{"is_transit":false,"time":4,"transit":false,"distance":2820,"line":2,"station_id":"PSM","i_lat":-6.2842400000000005,"station_name":"Pasar Minggu","i_long":106.843999},{"transit":false,"time":2,"line":2,"station_id":"PSMB","i_lat":-6.263214,"i_long":106.851577,"station_name":"Pasar Minggu Baru","is_transit":false,"distance":2380},{"i_long":106.85449,"station_id":"DRN","time":2,"line":0,"station_name":"Duren Kalibata","transit":false,"i_lat":-6.255332,"distance":824,"is_transit":false},{"i_lat":-6.242512,"transit":false,"station_id":"CW","station_name":"Cawang","i_long":106.856607,"time":3,"is_transit":false,"distance":1546,"line":0},{"line":2,"i_long":106.857948,"i_lat":-6.226659,"distance":1230,"transit":false,"station_name":"Tebet","station_id":"TEB","time":2,"is_transit":false},{"i_long":106.84912,"station_name":"Manggarai","distance":2610,"i_lat":-6.209883,"time":4,"station_id":"MRI","line":0,"transit":false,"is_transit":true}]]}