{"data":[[{"transit":false,"is_transit":false,"i_long":106.800298,"i_lat":-6.448811,"time":0,"line":2,"station_name":"Citayam","station_id":"CTA","distance":0},{"i_lat":-6.405256,"station_name":"Depok","i_long":106.816926,"line":2,"station_id":"DP","is_transit":false,"distance":5084,"transit":false,"time":6},{"time":3,"i_lat":-6.391065,"station_id":"DPB","i_long":106.819451,"line":2,"station_name":"Depokbaru","is_transit":false,"transit":false,"distance":1584},{"i_lat":-6.369073,"i_long":106.831114,"station_id":"POC","is_transit":false,"transit":false,"distance":2727,"time":4,"line":2,"station_name":"Pondok Cina"},{"distance":1109,"transit":false,"i_long":106.831474,"line":2,"station_id":"UI","station_name":"Univ. Indonesia","is_transit":false,"time":2,"i_lat":-6.360749}]]}