{"data":[[{"transit":false,"time":0,"station_id":"CTA","i_long":106.800298,"line":2,"distance":0,"station_name":"Citayam","is_transit":false,"i_lat":-6.448811},{"distance":5084,"station_name":"Depok","is_transit":false,"transit":false,"i_lat":-6.405256,"line":2,"time":6,"i_long":106.816926,"station_id":"DP"},{"distance":1584,"station_id":"DPB","i_long":106.819451,"i_lat":-6.391065,"line":2,"time":3,"station_name":"Depokbaru","transit":false,"is_transit":false},{"line":2,"distance":2727,"station_name":"Pondok Cina","station_id":"POC","is_transit":false,"i_lat":-6.369073,"i_long":106.831114,"time":4,"transit":false},{"station_name":"Univ. Indonesia","time":2,"line":2,"station_id":"UI","i_long":106.831474,"i_lat":-6.360749,"distance":1109,"transit":false,"is_transit":false},{"transit":false,"i_lat":-6.339291,"distance":2264,"line":2,"station_id":"UP","station_name":"Univ. Pancasila","time":3,"i_long":106.834175,"is_transit":false},{"transit":false,"time":2,"i_long":106.832616,"distance":1029,"i_lat":-6.330363,"line":2,"station_name":"Lenteng Agung","station_id":"LNA","is_transit":false},{"line":2,"time":3,"is_transit":false,"i_long":106.838896,"station_id":"TNT","station_name":"Tanjung Barat","transit":false,"i_lat":-6.3080680000000005,"distance":2671},{"line":2,"is_transit":false,"distance":2820,"i_lat":-6.2842400000000005,"station_name":"Pasar Minggu","time":4,"station_id":"PSM","i_long":106.843999,"transit":false},{"line":2,"is_transit":false,"transit":false,"station_name":"Pasar Minggu Baru","time":2,"i_lat":-6.263214,"station_id":"PSMB","i_long":106.851577,"distance":2380},{"line":2,"i_lat":-6.255332,"transit":false,"station_name":"Duren Kalibata","i_long":106.85449,"distance":824,"is_transit":false,"time":2,"station_id":"DRN"},{"i_long":106.856607,"i_lat":-6.242512,"station_name":"Cawang","station_id":"CW","line":2,"transit":false,"is_transit":false,"time":3,"distance":1546},{"i_long":106.857948,"distance":1230,"transit":false,"is_transit":false,"time":2,"i_lat":-6.226659,"station_name":"Tebet","line":2,"station_id":"TEB"},{"transit":true,"station_id":"MRI","time":4,"i_lat":-6.209883,"is_transit":true,"station_name":"Manggarai","distance":2610,"line":2,"i_long":106.84912},{"time":4,"station_id":"SUD","i_long":106.822649,"line":1,"station_name":"Sudirman","transit":false,"is_transit":false,"i_lat":-6.202263,"distance":3186},{"line":1,"i_lat":-6.201433,"distance":280,"station_name":"Sudirman Baru","is_transit":false,"station_id":"SUDB","transit":false,"time":1,"i_long":106.819881},{"is_transit":false,"station_name":"Karet","i_long":106.816351,"transit":false,"i_lat":-6.20132,"distance":471,"station_id":"KAT","line":1,"time":1},{"line":1,"transit":true,"i_lat":-6.185545,"is_transit":true,"distance":2029,"station_name":"Tanah Abang","time":5,"station_id":"THB","i_long":106.811091},{"line":6,"time":6,"station_name":"Palmerah","station_id":"PLM","is_transit":false,"i_lat":-6.207404,"distance":3191,"i_long":106.79689,"transit":false},{"i_lat":-6.237242,"i_long":106.780334,"transit":false,"time":7,"line":6,"station_name":"Kebayoran","station_id":"KBY","is_transit":false,"distance":3737}],[{"transit":false,"line":2,"station_name":"Citayam","station_id":"CTA","distance":0,"is_transit":false,"time":0,"i_lat":-6.448811,"i_long":106.800298},{"line":2,"i_long":106.816926,"station_id":"DP","station_name":"Depok","is_transit":false,"distance":5084,"i_lat":-6.405256,"transit":false,"time":6},{"distance":1584,"time":3,"i_long":106.819451,"line":2,"station_name":"Depokbaru","i_lat":-6.391065,"is_transit":false,"transit":false,"station_id":"DPB"},{"station_id":"POC","i_lat":-6.369073,"time":4,"i_long":106.831114,"station_name":"Pondok Cina","distance":2727,"transit":false,"is_transit":false,"line":2},{"station_id":"UI","transit":false,"i_lat":-6.360749,"station_name":"Univ. Indonesia","distance":1109,"i_long":106.831474,"line":2,"time":2,"is_transit":false},{"transit":false,"i_lat":-6.339291,"i_long":106.834175,"distance":2264,"station_id":"UP","station_name":"Univ. Pancasila","time":3,"line":2,"is_transit":false},{"line":2,"transit":false,"station_id":"LNA","station_name":"Lenteng Agung","i_lat":-6.330363,"i_long":106.832616,"time":2,"is_transit":false,"distance":1029},{"i_long":106.838896,"is_transit":false,"time":3,"i_lat":-6.3080680000000005,"station_id":"TNT","station_name":"Tanjung Barat","line":2,"transit":false,"distance":2671},{"station_name":"Pasar Minggu","station_id":"PSM","i_long":106.843999,"time":4,"i_lat":-6.2842400000000005,"line":2,"transit":false,"is_transit":false,"distance":2820},{"time":2,"station_id":"PSMB","line":2,"transit":false,"i_lat":-6.263214,"station_name":"Pasar Minggu Baru","is_transit":false,"distance":2380,"i_long":106.851577},{"transit":false,"i_lat":-6.255332,"i_long":106.85449,"station_name":"Duren Kalibata","time":2,"is_transit":false,"station_id":"DRN","line":2,"distance":824},{"distance":1546,"transit":false,"station_id":"CW","i_lat":-6.242512,"time":3,"is_transit":false,"line":2,"i_long":106.856607,"station_name":"Cawang"},{"i_lat":-6.226659,"time":2,"distance":1230,"i_long":106.857948,"line":2,"station_name":"Tebet","is_transit":false,"transit":false,"station_id":"TEB"},{"transit":false,"is_transit":false,"distance":2610,"i_long":106.84912,"line":2,"time":4,"station_name":"Manggarai","station_id":"MRI","i_lat":-6.209883},{"distance":1590,"is_transit":false,"line":2,"i_long":106.840169,"transit":false,"station_id":"CKI","time":4,"i_lat":-6.198556,"station_name":"Cikini"},{"station_id":"GDD","transit":false,"time":3,"is_transit":false,"i_long":106.832183,"distance":1750,"station_name":"Gondangdia","i_lat":-6.186295,"line":2},{"i_long":106.828284,"i_lat":-6.166716,"time":4,"transit":false,"is_transit":false,"station_id":"JUA","station_name":"Juanda","line":2,"distance":2015},{"transit":false,"time":2,"station_name":"Sawah Besar","is_transit":false,"i_long":106.827103,"line":2,"distance":1149,"i_lat":-6.160725,"station_id":"SW"},{"transit":false,"i_long":106.82482,"station_name":"Manggabesar","time":2,"line":2,"station_id":"MGB","distance":906,"i_lat":-6.149769,"is_transit":false},{"transit":false,"distance":1080,"i_long":106.820901,"station_id":"JAY","line":2,"i_lat":-6.141205,"is_transit":false,"time":2,"station_name":"Jayakarta"},{"is_transit":true,"station_name":"Jakarta Kota","time":4,"i_lat":-6.137569,"line":2,"station_id":"JAKK","i_long":106.812439,"distance":1264,"transit":true},{"is_transit":true,"distance":1364,"station_id":"KPB","station_name":"Kampung Bandan","line":4,"i_lat":-6.132549,"time":3,"transit":true,"i_long":106.826365},{"is_transit":false,"i_lat":-6.144674,"i_long":106.79867,"distance":4102,"transit":false,"time":9,"line":1,"station_id":"AK","station_name":"Angke"},{"station_name":"Duri","i_lat":-6.155215,"station_id":"DU","is_transit":false,"time":4,"line":1,"transit":false,"distance":1230,"i_long":106.800832},{"i_lat":-6.185545,"line":1,"distance":3632,"station_id":"THB","transit":true,"is_transit":true,"i_long":106.811091,"time":8,"station_name":"Tanah Abang"},{"line":6,"transit":false,"station_name":"Palmerah","is_transit":false,"i_lat":-6.207404,"station_id":"PLM","distance":3191,"i_long":106.79689,"time":6},{"distance":3737,"station_id":"KBY","time":7,"line":6,"station_name":"Kebayoran","transit":false,"i_lat":-6.237242,"i_long":106.780334,"is_transit":false}],[{"station_id":"CTA","distance":0,"i_long":106.800298,"i_lat":-6.448811,"line":2,"time":0,"is_transit":false,"transit":false,"station_name":"Citayam"},{"transit":false,"time":6,"is_transit":false,"i_lat":-6.405256,"line":2,"station_id":"DP","distance":5084,"i_long":106.816926,"station_name":"Depok"},{"i_lat":-6.391065,"i_long":106.819451,"station_id":"DPB","station_name":"Depokbaru","is_transit":false,"distance":1584,"transit":false,"time":3,"line":2},{"i_long":106.831114,"transit":false,"time":4,"is_transit":false,"i_lat":-6.369073,"station_id":"POC","distance":2727,"line":2,"station_name":"Pondok Cina"},{"line":2,"is_transit":false,"station_id":"UI","station_name":"Univ. Indonesia","time":2,"i_lat":-6.360749,"distance":1109,"i_long":106.831474,"transit":false},{"distance":2264,"is_transit":false,"i_lat":-6.339291,"time":3,"station_id":"UP","transit":false,"station_name":"Univ. Pancasila","i_long":106.834175,"line":2},{"i_lat":-6.330363,"station_name":"Lenteng Agung","station_id":"LNA","is_transit":false,"line":2,"distance":1029,"transit":false,"time":2,"i_long":106.832616},{"station_id":"TNT","time":3,"i_lat":-6.3080680000000005,"is_transit":false,"line":2,"distance":2671,"station_name":"Tanjung Barat","i_long":106.838896,"transit":false},{"line":2,"is_transit":false,"station_id":"PSM","time":4,"distance":2820,"i_lat":-6.2842400000000005,"station_name":"Pasar Minggu","transit":false,"i_long":106.843999},{"transit":false,"i_lat":-6.263214,"station_name":"Pasar Minggu Baru","is_transit":false,"station_id":"PSMB","time":2,"distance":2380,"i_long":106.851577,"line":2},{"transit":false,"i_lat":-6.255332,"station_id":"DRN","station_name":"Duren Kalibata","is_transit":false,"distance":824,"line":2,"time":2,"i_long":106.85449},{"distance":1546,"station_id":"CW","station_name":"Cawang","is_transit":false,"transit":false,"i_lat":-6.242512,"i_long":106.856607,"line":2,"time":3},{"station_name":"Tebet","distance":1230,"i_long":106.857948,"i_lat":-6.226659,"transit":false,"station_id":"TEB","time":2,"is_transit":false,"line":2},{"i_lat":-6.209883,"is_transit":true,"distance":2610,"i_long":106.84912,"line":2,"time":4,"transit":true,"station_id":"MRI","station_name":"Manggarai"},{"i_long":106.858896,"is_transit":false,"transit":false,"station_name":"Matraman","distance":1275,"i_lat":-6.212485,"station_id":"MTR","time":2,"line":1},{"line":1,"transit":true,"i_long":106.86807400000001,"i_lat":-6.215091,"station_name":"Jatinegara","time":8,"station_id":"JNG","is_transit":true,"distance":1377},{"i_lat":-6.209188,"i_long":106.861737,"is_transit":false,"line":11,"time":2,"distance":1236,"station_name":"Pondok Jati","station_id":"POK","transit":false},{"i_lat":-6.193792,"i_long":106.855437,"line":11,"transit":false,"station_name":"Kramat","distance":1829,"time":2,"station_id":"KMT","is_transit":false},{"transit":false,"station_name":"Gang Sentiong","distance":973,"station_id":"GST","is_transit":false,"i_lat":-6.185975,"i_long":106.850107,"time":1,"line":11},{"station_name":"Pasar Senen","distance":1567,"i_lat":-6.174784,"station_id":"PSE","i_long":106.84368,"transit":false,"is_transit":false,"line":11,"time":8},{"i_long":106.839204,"is_transit":false,"station_id":"KMO","station_name":"Kemayoran","i_lat":-6.161728,"distance":1436,"line":11,"time":4,"transit":false},{"is_transit":false,"line":11,"i_long":106.836569,"i_lat":-6.14505,"station_name":"Rajawali","station_id":"RJW","time":5,"distance":1901,"transit":false},{"station_id":"KPB","station_name":"Kampung Bandan","i_long":106.826365,"distance":1444,"line":4,"transit":true,"is_transit":true,"time":3,"i_lat":-6.132549},{"is_transit":false,"station_name":"Angke","line":1,"time":9,"transit":false,"distance":4102,"i_lat":-6.144674,"i_long":106.79867,"station_id":"AK"},{"distance":1230,"time":4,"transit":false,"i_lat":-6.155215,"line":1,"i_long":106.800832,"is_transit":false,"station_name":"Duri","station_id":"DU"},{"distance":3632,"i_lat":-6.185545,"time":8,"station_name":"Tanah Abang","station_id":"THB","line":1,"transit":true,"is_transit":true,"i_long":106.811091},{"i_long":106.79689,"station_id":"PLM","transit":false,"station_name":"Palmerah","i_lat":-6.207404,"line":6,"distance":3191,"time":6,"is_transit":false},{"time":7,"station_name":"Kebayoran","transit":false,"station_id":"KBY","distance":3737,"i_lat":-6.237242,"line":6,"is_transit":false,"i_long":106.780334}]]}