{"data":[[{"transit":false,"line":2,"time":0,"distance":0,"i_long":106.800298,"station_name":"Citayam","i_lat":-6.448811,"is_transit":false,"station_id":"CTA"},{"station_name":"Depok","transit":false,"i_lat":-6.405256,"i_long":106.816926,"line":2,"is_transit":false,"station_id":"DP","distance":5084,"time":6},{"station_name":"Depokbaru","i_long":106.819451,"transit":false,"station_id":"DPB","distance":1584,"i_lat":-6.391065,"time":3,"is_transit":false,"line":2},{"station_name":"Pondok Cina","transit":false,"time":4,"i_lat":-6.369073,"is_transit":false,"distance":2727,"station_id":"POC","line":2,"i_long":106.831114},{"i_long":106.831474,"station_name":"Univ. Indonesia","i_lat":-6.360749,"is_transit":false,"line":2,"time":2,"distance":1109,"transit":false,"station_id":"UI"},{"station_id":"UP","time":3,"distance":2264,"i_lat":-6.339291,"is_transit":false,"i_long":106.834175,"line":2,"station_name":"Univ. Pancasila","transit":false},{"i_long":106.832616,"line":2,"station_name":"Lenteng Agung","i_lat":-6.330363,"transit":false,"time":2,"station_id":"LNA","distance":1029,"is_transit":false},{"transit":false,"is_transit":false,"time":3,"distance":2671,"i_lat":-6.3080680000000005,"station_id":"TNT","i_long":106.838896,"line":2,"station_name":"Tanjung Barat"},{"station_name":"Pasar Minggu","i_long":106.843999,"line":2,"time":4,"is_transit":false,"transit":false,"distance":2820,"i_lat":-6.2842400000000005,"station_id":"PSM"},{"is_transit":false,"station_name":"Pasar Minggu Baru","time":2,"station_id":"PSMB","i_long":106.851577,"i_lat":-6.263214,"transit":false,"distance":2380,"line":2},{"time":2,"i_lat":-6.255332,"i_long":106.85449,"is_transit":false,"station_id":"DRN","distance":824,"line":2,"station_name":"Duren Kalibata","transit":false},{"is_transit":false,"i_long":106.856607,"station_id":"CW","transit":false,"i_lat":-6.242512,"time":3,"line":2,"distance":1546,"station_name":"Cawang"},{"station_name":"Tebet","is_transit":false,"time":2,"transit":false,"station_id":"TEB","i_lat":-6.226659,"line":2,"i_long":106.857948,"distance":1230},{"is_transit":true,"i_lat":-6.209883,"station_id":"MRI","line":2,"time":4,"transit":true,"station_name":"Manggarai","i_long":106.84912,"distance":2610},{"line":1,"i_lat":-6.202263,"is_transit":false,"distance":3186,"station_id":"SUD","transit":false,"station_name":"Sudirman","time":4,"i_long":106.822649},{"transit":false,"distance":280,"time":1,"station_id":"SUDB","i_lat":-6.201433,"i_long":106.819881,"line":1,"station_name":"Sudirman Baru","is_transit":false},{"i_long":106.816351,"is_transit":false,"time":1,"distance":471,"line":1,"i_lat":-6.20132,"transit":false,"station_id":"KAT","station_name":"Karet"},{"station_name":"Tanah Abang","station_id":"THB","is_transit":true,"transit":true,"distance":2029,"i_long":106.811091,"line":1,"time":5,"i_lat":-6.185545},{"i_lat":-6.207404,"distance":3191,"station_id":"PLM","station_name":"Palmerah","time":6,"line":6,"transit":false,"is_transit":false,"i_long":106.79689},{"i_lat":-6.237242,"station_name":"Kebayoran","transit":false,"station_id":"KBY","is_transit":false,"i_long":106.780334,"distance":3737,"line":6,"time":7},{"station_id":"PDJ","distance":6218,"i_long":106.74273,"line":6,"i_lat":-6.276362,"is_transit":false,"time":8,"station_name":"Pondokranji","transit":false},{"transit":false,"is_transit":false,"distance":2179,"station_id":"JMU","time":3,"i_lat":-6.288927,"i_long":106.728916,"line":6,"station_name":"Jurangmangu"},{"station_id":"SDM","station_name":"Sudimara","i_long":106.712277,"line":6,"is_transit":false,"time":4,"distance":1994,"transit":false,"i_lat":-6.296963},{"line":6,"is_transit":false,"i_lat":-6.314823,"transit":false,"distance":4566,"station_name":"Rawa Buntu","time":6,"station_id":"RU","i_long":106.675475},{"station_id":"SRP","line":6,"time":4,"transit":false,"distance":2413,"is_transit":false,"i_lat":-6.319871,"station_name":"Serpong","i_long":106.66566},{"station_id":"CSK","time":4,"line":3,"distance":1784,"station_name":"Cisauk","transit":false,"i_lat":-6.32484,"i_long":106.640411,"is_transit":false},{"distance":2519,"i_lat":-6.329547,"i_long":106.617853,"transit":false,"station_name":"Cicayur","station_id":"CC","time":4,"line":3,"is_transit":false},{"distance":5968,"i_long":106.568863,"station_name":"Parung Panjang","time":8,"transit":false,"i_lat":-6.3441410000000005,"station_id":"PRP","line":6,"is_transit":false},{"is_transit":false,"distance":7025,"i_lat":-6.354349,"line":3,"station_id":"CJT","station_name":"Cilejit","i_long":106.508482,"time":9,"transit":false},{"is_transit":false,"station_name":"Daru","distance":2675,"i_lat":-6.338021,"line":0,"station_id":"DAR","transit":false,"i_long":106.491338,"time":6},{"transit":false,"station_name":"Tenjo","distance":3902,"station_id":"TEJ","time":5,"i_lat":-6.327251,"i_long":106.460812,"is_transit":false,"line":6},{"time":5,"i_lat":-6.328533,"line":6,"i_long":106.425991,"station_id":"TGS","transit":false,"is_transit":false,"station_name":"Tigaraksa","distance":2974},{"transit":false,"i_lat":-6.33561,"i_long":106.411216,"time":3,"distance":2651,"is_transit":false,"station_id":"CKY","line":3,"station_name":"Cikoya"},{"time":4,"station_name":"Maja","is_transit":false,"transit":false,"i_lat":-6.332307,"i_long":106.394373,"line":6,"station_id":"MJ","distance":1853},{"is_transit":false,"line":3,"i_long":106.332092,"i_lat":-6.334892,"station_id":"CTR","time":10,"distance":7293,"station_name":"Citeras","transit":false}],[{"line":2,"i_long":106.800298,"station_id":"CTA","i_lat":-6.448811,"is_transit":false,"transit":false,"time":0,"distance":0,"station_name":"Citayam"},{"is_transit":false,"transit":false,"i_long":106.816926,"time":6,"i_lat":-6.405256,"station_id":"DP","distance":5084,"station_name":"Depok","line":2},{"distance":1584,"station_id":"DPB","station_name":"Depokbaru","transit":false,"i_long":106.819451,"time":3,"is_transit":false,"i_lat":-6.391065,"line":2},{"distance":2727,"transit":false,"station_id":"POC","i_lat":-6.369073,"line":2,"i_long":106.831114,"is_transit":false,"station_name":"Pondok Cina","time":4},{"i_lat":-6.360749,"station_name":"Univ. Indonesia","is_transit":false,"i_long":106.831474,"transit":false,"time":2,"station_id":"UI","distance":1109,"line":2},{"distance":2264,"station_id":"UP","station_name":"Univ. Pancasila","i_long":106.834175,"time":3,"transit":false,"is_transit":false,"i_lat":-6.339291,"line":2},{"station_name":"Lenteng Agung","is_transit":false,"distance":1029,"i_lat":-6.330363,"line":2,"station_id":"LNA","transit":false,"time":2,"i_long":106.832616},{"transit":false,"time":3,"station_name":"Tanjung Barat","is_transit":false,"line":2,"station_id":"TNT","distance":2671,"i_lat":-6.3080680000000005,"i_long":106.838896},{"i_lat":-6.2842400000000005,"station_id":"PSM","time":4,"station_name":"Pasar Minggu","line":2,"transit":false,"is_transit":false,"distance":2820,"i_long":106.843999},{"station_id":"PSMB","i_lat":-6.263214,"i_long":106.851577,"line":2,"time":2,"distance":2380,"transit":false,"is_transit":false,"station_name":"Pasar Minggu Baru"},{"station_name":"Duren Kalibata","distance":824,"station_id":"DRN","is_transit":false,"line":2,"i_lat":-6.255332,"time":2,"transit":false,"i_long":106.85449},{"station_id":"CW","line":2,"i_long":106.856607,"distance":1546,"station_name":"Cawang","i_lat":-6.242512,"is_transit":false,"time":3,"transit":false},{"is_transit":false,"i_long":106.857948,"time":2,"distance":1230,"transit":false,"station_name":"Tebet","station_id":"TEB","i_lat":-6.226659,"line":2},{"station_id":"MRI","distance":2610,"line":2,"is_transit":false,"station_name":"Manggarai","time":4,"i_lat":-6.209883,"i_long":106.84912,"transit":false},{"station_name":"Cikini","time":4,"transit":false,"distance":1590,"station_id":"CKI","line":2,"is_transit":false,"i_long":106.840169,"i_lat":-6.198556},{"station_name":"Gondangdia","distance":1750,"transit":false,"is_transit":false,"i_long":106.832183,"i_lat":-6.186295,"time":3,"station_id":"GDD","line":2},{"i_lat":-6.166716,"i_long":106.828284,"line":2,"station_name":"Juanda","station_id":"JUA","transit":false,"distance":2015,"is_transit":false,"time":4},{"time":2,"transit":false,"i_lat":-6.160725,"distance":1149,"station_name":"Sawah Besar","station_id":"SW","i_long":106.827103,"is_transit":false,"line":2},{"distance":906,"i_lat":-6.149769,"station_id":"MGB","i_long":106.82482,"station_name":"Manggabesar","is_transit":false,"line":2,"time":2,"transit":false},{"time":2,"is_transit":false,"station_id":"JAY","i_long":106.820901,"distance":1080,"i_lat":-6.141205,"line":2,"station_name":"Jayakarta","transit":false},{"time":4,"i_lat":-6.137569,"transit":true,"station_name":"Jakarta Kota","line":2,"is_transit":true,"distance":1264,"i_long":106.812439,"station_id":"JAKK"},{"station_id":"KPB","station_name":"Kampung Bandan","i_long":106.826365,"i_lat":-6.132549,"line":4,"transit":true,"distance":1364,"is_transit":true,"time":3},{"i_long":106.79867,"time":9,"i_lat":-6.144674,"transit":false,"is_transit":false,"station_id":"AK","station_name":"Angke","line":1,"distance":4102},{"distance":1230,"transit":false,"i_long":106.800832,"time":4,"station_id":"DU","line":1,"is_transit":false,"i_lat":-6.155215,"station_name":"Duri"},{"line":1,"station_name":"Tanah Abang","i_lat":-6.185545,"is_transit":true,"station_id":"THB","transit":true,"time":8,"i_long":106.811091,"distance":3632},{"time":6,"line":6,"transit":false,"distance":3191,"i_long":106.79689,"is_transit":false,"station_id":"PLM","i_lat":-6.207404,"station_name":"Palmerah"},{"station_name":"Kebayoran","distance":3737,"is_transit":false,"i_long":106.780334,"transit":false,"line":6,"i_lat":-6.237242,"station_id":"KBY","time":7},{"line":6,"i_long":106.74273,"distance":6218,"station_name":"Pondokranji","i_lat":-6.276362,"station_id":"PDJ","time":8,"is_transit":false,"transit":false},{"station_name":"Jurangmangu","transit":false,"is_transit":false,"distance":2179,"station_id":"JMU","i_lat":-6.288927,"i_long":106.728916,"time":3,"line":6},{"i_long":106.712277,"line":6,"transit":false,"station_name":"Sudimara","station_id":"SDM","is_transit":false,"i_lat":-6.296963,"time":4,"distance":1994},{"i_lat":-6.314823,"i_long":106.675475,"station_id":"RU","line":6,"station_name":"Rawa Buntu","transit":false,"is_transit":false,"distance":4566,"time":6},{"is_transit":false,"distance":2413,"time":4,"station_id":"SRP","i_long":106.66566,"line":6,"transit":false,"i_lat":-6.319871,"station_name":"Serpong"},{"i_long":106.640411,"distance":1784,"line":3,"is_transit":false,"i_lat":-6.32484,"transit":false,"time":4,"station_name":"Cisauk","station_id":"CSK"},{"transit":false,"station_id":"CC","i_long":106.617853,"station_name":"Cicayur","time":4,"i_lat":-6.329547,"distance":2519,"is_transit":false,"line":3},{"is_transit":false,"distance":5968,"time":8,"line":6,"station_name":"Parung Panjang","transit":false,"station_id":"PRP","i_long":106.568863,"i_lat":-6.3441410000000005},{"transit":false,"is_transit":false,"station_id":"CJT","time":9,"i_long":106.508482,"station_name":"Cilejit","line":3,"distance":7025,"i_lat":-6.354349},{"station_name":"Daru","time":6,"transit":false,"distance":2675,"i_lat":-6.338021,"i_long":106.491338,"is_transit":false,"station_id":"DAR","line":0},{"distance":3902,"station_id":"TEJ","is_transit":false,"i_lat":-6.327251,"i_long":106.460812,"line":6,"transit":false,"station_name":"Tenjo","time":5},{"distance":2974,"is_transit":false,"i_lat":-6.328533,"line":6,"station_id":"TGS","station_name":"Tigaraksa","transit":false,"i_long":106.425991,"time":5},{"i_long":106.411216,"station_name":"Cikoya","line":3,"i_lat":-6.33561,"is_transit":false,"station_id":"CKY","transit":false,"distance":2651,"time":3},{"i_lat":-6.332307,"station_id":"MJ","line":6,"distance":1853,"time":4,"station_name":"Maja","transit":false,"is_transit":false,"i_long":106.394373},{"i_long":106.332092,"is_transit":false,"distance":7293,"i_lat":-6.334892,"line":3,"transit":false,"time":10,"station_id":"CTR","station_name":"Citeras"}],[{"station_name":"Citayam","i_long":106.800298,"i_lat":-6.448811,"is_transit":false,"transit":false,"station_id":"CTA","distance":0,"line":2,"time":0},{"station_name":"Depok","transit":false,"is_transit":false,"distance":5084,"station_id":"DP","i_lat":-6.405256,"time":6,"i_long":106.816926,"line":2},{"distance":1584,"time":3,"transit":false,"is_transit":false,"station_name":"Depokbaru","i_lat":-6.391065,"station_id":"DPB","i_long":106.819451,"line":2},{"transit":false,"i_lat":-6.369073,"distance":2727,"time":4,"i_long":106.831114,"line":2,"station_name":"Pondok Cina","is_transit":false,"station_id":"POC"},{"distance":1109,"i_long":106.831474,"is_transit":false,"line":2,"station_name":"Univ. Indonesia","station_id":"UI","i_lat":-6.360749,"transit":false,"time":2},{"is_transit":false,"i_long":106.834175,"distance":2264,"i_lat":-6.339291,"transit":false,"station_name":"Univ. Pancasila","time":3,"station_id":"UP","line":2},{"time":2,"transit":false,"i_long":106.832616,"distance":1029,"station_id":"LNA","line":2,"station_name":"Lenteng Agung","i_lat":-6.330363,"is_transit":false},{"i_long":106.838896,"line":2,"transit":false,"station_id":"TNT","distance":2671,"time":3,"i_lat":-6.3080680000000005,"station_name":"Tanjung Barat","is_transit":false},{"i_lat":-6.2842400000000005,"distance":2820,"transit":false,"station_id":"PSM","station_name":"Pasar Minggu","is_transit":false,"i_long":106.843999,"line":2,"time":4},{"station_name":"Pasar Minggu Baru","i_long":106.851577,"transit":false,"i_lat":-6.263214,"distance":2380,"time":2,"station_id":"PSMB","line":2,"is_transit":false},{"i_long":106.85449,"station_id":"DRN","station_name":"Duren Kalibata","distance":824,"line":2,"is_transit":false,"time":2,"transit":false,"i_lat":-6.255332},{"station_name":"Cawang","i_long":106.856607,"line":2,"distance":1546,"time":3,"station_id":"CW","i_lat":-6.242512,"transit":false,"is_transit":false},{"is_transit":false,"station_name":"Tebet","time":2,"station_id":"TEB","i_lat":-6.226659,"line":2,"distance":1230,"i_long":106.857948,"transit":false},{"i_long":106.84912,"time":4,"is_transit":true,"distance":2610,"line":2,"station_id":"MRI","i_lat":-6.209883,"station_name":"Manggarai","transit":true},{"station_name":"Matraman","is_transit":false,"distance":1275,"time":2,"transit":false,"station_id":"MTR","i_lat":-6.212485,"line":1,"i_long":106.858896},{"i_long":106.86807400000001,"line":1,"time":8,"station_name":"Jatinegara","i_lat":-6.215091,"distance":1377,"transit":true,"is_transit":true,"station_id":"JNG"},{"i_long":106.861737,"line":11,"station_name":"Pondok Jati","time":2,"distance":1236,"station_id":"POK","i_lat":-6.209188,"transit":false,"is_transit":false},{"transit":false,"is_transit":false,"i_lat":-6.193792,"station_name":"Kramat","station_id":"KMT","time":2,"distance":1829,"i_long":106.855437,"line":11},{"i_long":106.850107,"transit":false,"distance":973,"station_name":"Gang Sentiong","is_transit":false,"i_lat":-6.185975,"line":11,"station_id":"GST","time":1},{"distance":1567,"i_long":106.84368,"is_transit":false,"line":11,"station_id":"PSE","time":8,"i_lat":-6.174784,"transit":false,"station_name":"Pasar Senen"},{"i_long":106.839204,"is_transit":false,"station_id":"KMO","time":4,"i_lat":-6.161728,"line":11,"transit":false,"station_name":"Kemayoran","distance":1436},{"is_transit":false,"i_lat":-6.14505,"i_long":106.836569,"distance":1901,"station_id":"RJW","time":5,"station_name":"Rajawali","transit":false,"line":11},{"i_long":106.826365,"station_name":"Kampung Bandan","time":3,"i_lat":-6.132549,"line":4,"transit":true,"is_transit":true,"distance":1444,"station_id":"KPB"},{"time":9,"is_transit":false,"i_long":106.79867,"distance":4102,"station_name":"Angke","station_id":"AK","line":1,"i_lat":-6.144674,"transit":false},{"i_long":106.800832,"distance":1230,"line":1,"i_lat":-6.155215,"station_name":"Duri","time":4,"is_transit":false,"transit":false,"station_id":"DU"},{"i_lat":-6.185545,"time":8,"is_transit":true,"distance":3632,"station_name":"Tanah Abang","line":1,"transit":true,"station_id":"THB","i_long":106.811091},{"station_id":"PLM","transit":false,"line":6,"is_transit":false,"i_lat":-6.207404,"i_long":106.79689,"station_name":"Palmerah","time":6,"distance":3191},{"time":7,"station_id":"KBY","station_name":"Kebayoran","i_long":106.780334,"distance":3737,"line":6,"is_transit":false,"transit":false,"i_lat":-6.237242},{"station_id":"PDJ","i_lat":-6.276362,"is_transit":false,"time":8,"station_name":"Pondokranji","distance":6218,"line":6,"transit":false,"i_long":106.74273},{"distance":2179,"time":3,"i_lat":-6.288927,"i_long":106.728916,"line":6,"station_id":"JMU","is_transit":false,"transit":false,"station_name":"Jurangmangu"},{"station_name":"Sudimara","station_id":"SDM","i_lat":-6.296963,"transit":false,"time":4,"is_transit":false,"line":6,"i_long":106.712277,"distance":1994},{"i_lat":-6.314823,"is_transit":false,"transit":false,"station_name":"Rawa Buntu","distance":4566,"station_id":"RU","i_long":106.675475,"time":6,"line":6},{"i_lat":-6.319871,"station_id":"SRP","line":6,"is_transit":false,"i_long":106.66566,"transit":false,"station_name":"Serpong","distance":2413,"time":4},{"transit":false,"i_lat":-6.32484,"is_transit":false,"line":3,"distance":1784,"station_name":"Cisauk","time":4,"station_id":"CSK","i_long":106.640411},{"time":4,"transit":false,"station_id":"CC","i_lat":-6.329547,"line":3,"station_name":"Cicayur","i_long":106.617853,"is_transit":false,"distance":2519},{"line":6,"time":8,"i_long":106.568863,"transit":false,"station_id":"PRP","distance":5968,"station_name":"Parung Panjang","i_lat":-6.3441410000000005,"is_transit":false},{"station_id":"CJT","station_name":"Cilejit","transit":false,"i_lat":-6.354349,"is_transit":false,"distance":7025,"time":9,"line":3,"i_long":106.508482},{"time":6,"i_long":106.491338,"station_id":"DAR","line":0,"transit":false,"distance":2675,"i_lat":-6.338021,"is_transit":false,"station_name":"Daru"},{"distance":3902,"station_id":"TEJ","transit":false,"station_name":"Tenjo","time":5,"is_transit":false,"i_lat":-6.327251,"i_long":106.460812,"line":6},{"line":6,"i_long":106.425991,"distance":2974,"station_name":"Tigaraksa","is_transit":false,"transit":false,"station_id":"TGS","i_lat":-6.328533,"time":5},{"time":3,"is_transit":false,"transit":false,"distance":2651,"station_id":"CKY","station_name":"Cikoya","line":3,"i_lat":-6.33561,"i_long":106.411216},{"transit":false,"i_lat":-6.332307,"station_name":"Maja","line":6,"is_transit":false,"i_long":106.394373,"time":4,"station_id":"MJ","distance":1853},{"is_transit":false,"line":3,"distance":7293,"time":10,"station_id":"CTR","transit":false,"i_lat":-6.334892,"i_long":106.332092,"station_name":"Citeras"}]]}