{"data":[[{"distance":0,"station_id":"CTA","i_lat":-6.448811,"line":2,"is_transit":false,"time":0,"station_name":"Citayam","transit":false,"i_long":106.800298},{"is_transit":false,"distance":5084,"i_long":106.816926,"line":2,"i_lat":-6.405256,"station_id":"DP","station_name":"Depok","transit":false,"time":6},{"transit":false,"line":2,"i_lat":-6.391065,"time":3,"station_id":"DPB","distance":1584,"i_long":106.819451,"is_transit":false,"station_name":"Depokbaru"},{"transit":false,"time":4,"line":2,"i_lat":-6.369073,"i_long":106.831114,"station_id":"POC","station_name":"Pondok Cina","is_transit":false,"distance":2727},{"transit":false,"time":2,"station_id":"UI","distance":1109,"i_lat":-6.360749,"is_transit":false,"line":2,"station_name":"Univ. Indonesia","i_long":106.831474},{"station_id":"UP","station_name":"Univ. Pancasila","i_long":106.834175,"line":2,"time":3,"is_transit":false,"transit":false,"i_lat":-6.339291,"distance":2264},{"station_id":"LNA","is_transit":false,"time":2,"transit":false,"i_lat":-6.330363,"i_long":106.832616,"distance":1029,"station_name":"Lenteng Agung","line":2},{"i_lat":-6.3080680000000005,"station_id":"TNT","is_transit":false,"distance":2671,"line":2,"time":3,"station_name":"Tanjung Barat","transit":false,"i_long":106.838896},{"station_name":"Pasar Minggu","transit":false,"line":2,"distance":2820,"i_long":106.843999,"time":4,"is_transit":false,"i_lat":-6.2842400000000005,"station_id":"PSM"},{"time":2,"distance":2380,"station_id":"PSMB","i_lat":-6.263214,"is_transit":false,"line":2,"station_name":"Pasar Minggu Baru","transit":false,"i_long":106.851577},{"time":2,"distance":824,"station_name":"Duren Kalibata","i_lat":-6.255332,"i_long":106.85449,"is_transit":false,"transit":false,"line":2,"station_id":"DRN"},{"station_id":"CW","distance":1546,"is_transit":false,"transit":false,"i_long":106.856607,"time":3,"station_name":"Cawang","i_lat":-6.242512,"line":2},{"i_long":106.857948,"station_name":"Tebet","i_lat":-6.226659,"station_id":"TEB","line":2,"is_transit":false,"time":2,"transit":false,"distance":1230},{"transit":true,"i_long":106.84912,"line":2,"time":4,"station_id":"MRI","i_lat":-6.209883,"station_name":"Manggarai","distance":2610,"is_transit":true},{"transit":false,"line":1,"distance":3186,"station_name":"Sudirman","is_transit":false,"i_lat":-6.202263,"i_long":106.822649,"station_id":"SUD","time":4},{"transit":false,"is_transit":false,"time":1,"distance":280,"station_id":"SUDB","station_name":"Sudirman Baru","i_lat":-6.201433,"i_long":106.819881,"line":1},{"is_transit":false,"i_lat":-6.20132,"distance":471,"station_name":"Karet","transit":false,"station_id":"KAT","i_long":106.816351,"line":1,"time":1},{"station_name":"Tanah Abang","station_id":"THB","distance":2029,"transit":false,"is_transit":false,"time":5,"i_lat":-6.185545,"i_long":106.811091,"line":1},{"i_long":106.800832,"line":1,"station_name":"Duri","time":8,"i_lat":-6.155215,"transit":true,"distance":3632,"is_transit":true,"station_id":"DU"},{"station_id":"GGL","line":5,"transit":false,"station_name":"Grogol","i_lat":-6.162021,"i_long":106.788277,"time":3,"distance":1700,"is_transit":false},{"time":2,"transit":false,"is_transit":false,"i_lat":-6.161433,"station_id":"PSG","i_long":106.771379,"station_name":"Pesing","distance":2036,"line":5},{"line":5,"time":2,"transit":false,"i_long":106.756522,"distance":1614,"i_lat":-6.1587309999999995,"station_id":"TKO","station_name":"Taman Kota","is_transit":false},{"time":2,"i_lat":-6.159876,"line":5,"i_long":106.737035,"station_id":"BOI","station_name":"Bojongindah","is_transit":false,"distance":2334,"transit":false},{"i_long":106.723064,"station_name":"Rawa Buaya","transit":false,"time":4,"is_transit":false,"line":5,"distance":1152,"i_lat":-6.162758,"station_id":"RW"},{"is_transit":false,"i_lat":-6.166068,"distance":2504,"station_id":"KDS","time":3,"station_name":"Kalideres","transit":false,"i_long":106.701612,"line":5},{"i_long":106.679458,"transit":false,"i_lat":-6.169933,"time":3,"line":5,"is_transit":false,"station_name":"Poris","distance":2548,"station_id":"PI"},{"i_long":106.665036,"station_name":"Batuceper","transit":false,"line":5,"time":3,"is_transit":false,"station_id":"BPR","i_lat":-6.171811,"distance":1834},{"line":5,"station_id":"TTI","time":3,"distance":2028,"i_lat":-6.17331,"is_transit":false,"transit":false,"station_name":"Tanah Tinggi","i_long":106.64657}],[{"time":0,"transit":false,"line":2,"station_name":"Citayam","i_lat":-6.448811,"distance":0,"i_long":106.800298,"station_id":"CTA","is_transit":false},{"distance":5084,"station_id":"DP","i_lat":-6.405256,"station_name":"Depok","is_transit":false,"time":6,"i_long":106.816926,"line":2,"transit":false},{"station_id":"DPB","i_lat":-6.391065,"is_transit":false,"time":3,"distance":1584,"station_name":"Depokbaru","i_long":106.819451,"line":2,"transit":false},{"station_name":"Pondok Cina","time":4,"station_id":"POC","distance":2727,"i_lat":-6.369073,"is_transit":false,"line":2,"transit":false,"i_long":106.831114},{"station_name":"Univ. Indonesia","i_long":106.831474,"distance":1109,"time":2,"transit":false,"line":2,"is_transit":false,"station_id":"UI","i_lat":-6.360749},{"i_lat":-6.339291,"i_long":106.834175,"line":2,"distance":2264,"station_id":"UP","station_name":"Univ. Pancasila","transit":false,"time":3,"is_transit":false},{"is_transit":false,"distance":1029,"i_long":106.832616,"station_name":"Lenteng Agung","time":2,"transit":false,"line":2,"station_id":"LNA","i_lat":-6.330363},{"transit":false,"i_long":106.838896,"station_id":"TNT","station_name":"Tanjung Barat","line":2,"i_lat":-6.3080680000000005,"is_transit":false,"time":3,"distance":2671},{"time":4,"distance":2820,"station_id":"PSM","line":2,"transit":false,"i_lat":-6.2842400000000005,"i_long":106.843999,"station_name":"Pasar Minggu","is_transit":false},{"is_transit":false,"time":2,"transit":false,"station_name":"Pasar Minggu Baru","i_lat":-6.263214,"i_long":106.851577,"distance":2380,"line":2,"station_id":"PSMB"},{"distance":824,"i_long":106.85449,"station_id":"DRN","is_transit":false,"station_name":"Duren Kalibata","time":2,"transit":false,"line":2,"i_lat":-6.255332},{"is_transit":false,"time":3,"line":2,"station_id":"CW","i_long":106.856607,"transit":false,"i_lat":-6.242512,"station_name":"Cawang","distance":1546},{"i_long":106.857948,"distance":1230,"line":2,"station_id":"TEB","is_transit":false,"station_name":"Tebet","time":2,"transit":false,"i_lat":-6.226659},{"i_lat":-6.209883,"station_name":"Manggarai","station_id":"MRI","is_transit":false,"time":4,"transit":false,"i_long":106.84912,"distance":2610,"line":2},{"time":4,"line":2,"is_transit":false,"station_name":"Cikini","i_lat":-6.198556,"distance":1590,"station_id":"CKI","transit":false,"i_long":106.840169},{"time":3,"transit":false,"line":2,"i_lat":-6.186295,"is_transit":false,"i_long":106.832183,"distance":1750,"station_id":"GDD","station_name":"Gondangdia"},{"i_long":106.828284,"station_name":"Juanda","distance":2015,"i_lat":-6.166716,"line":2,"station_id":"JUA","transit":false,"is_transit":false,"time":4},{"distance":1149,"time":2,"transit":false,"i_long":106.827103,"is_transit":false,"station_name":"Sawah Besar","line":2,"station_id":"SW","i_lat":-6.160725},{"station_id":"MGB","i_long":106.82482,"transit":false,"line":2,"distance":906,"is_transit":false,"station_name":"Manggabesar","time":2,"i_lat":-6.149769},{"station_name":"Jayakarta","station_id":"JAY","i_lat":-6.141205,"line":2,"transit":false,"i_long":106.820901,"distance":1080,"is_transit":false,"time":2},{"transit":true,"i_long":106.812439,"station_id":"JAKK","distance":1264,"is_transit":true,"i_lat":-6.137569,"station_name":"Jakarta Kota","line":2,"time":4},{"distance":1364,"is_transit":true,"time":3,"i_lat":-6.132549,"i_long":106.826365,"transit":true,"station_id":"KPB","line":4,"station_name":"Kampung Bandan"},{"distance":4102,"is_transit":false,"transit":false,"i_long":106.79867,"station_name":"Angke","i_lat":-6.144674,"station_id":"AK","time":9,"line":1},{"is_transit":true,"i_lat":-6.155215,"distance":1230,"station_name":"Duri","time":4,"line":1,"station_id":"DU","transit":true,"i_long":106.800832},{"station_id":"GGL","i_long":106.788277,"time":3,"transit":false,"distance":1700,"i_lat":-6.162021,"is_transit":false,"line":5,"station_name":"Grogol"},{"distance":2036,"station_name":"Pesing","station_id":"PSG","line":5,"i_lat":-6.161433,"time":2,"i_long":106.771379,"is_transit":false,"transit":false},{"is_transit":false,"transit":false,"i_long":106.756522,"station_name":"Taman Kota","station_id":"TKO","i_lat":-6.1587309999999995,"time":2,"distance":1614,"line":5},{"distance":2334,"station_name":"Bojongindah","station_id":"BOI","line":5,"i_lat":-6.159876,"time":2,"i_long":106.737035,"is_transit":false,"transit":false},{"distance":1152,"i_lat":-6.162758,"station_id":"RW","line":5,"i_long":106.723064,"station_name":"Rawa Buaya","transit":false,"is_transit":false,"time":4},{"is_transit":false,"distance":2504,"station_id":"KDS","time":3,"i_lat":-6.166068,"i_long":106.701612,"line":5,"transit":false,"station_name":"Kalideres"},{"station_id":"PI","i_lat":-6.169933,"station_name":"Poris","i_long":106.679458,"distance":2548,"transit":false,"time":3,"line":5,"is_transit":false},{"time":3,"distance":1834,"i_lat":-6.171811,"i_long":106.665036,"line":5,"is_transit":false,"station_id":"BPR","transit":false,"station_name":"Batuceper"},{"i_lat":-6.17331,"line":5,"station_name":"Tanah Tinggi","time":3,"transit":false,"i_long":106.64657,"distance":2028,"is_transit":false,"station_id":"TTI"}],[{"i_lat":-6.448811,"is_transit":false,"time":0,"distance":0,"i_long":106.800298,"station_id":"CTA","line":2,"station_name":"Citayam","transit":false},{"station_id":"DP","line":2,"time":6,"station_name":"Depok","transit":false,"i_lat":-6.405256,"distance":5084,"i_long":106.816926,"is_transit":false},{"is_transit":false,"line":2,"distance":1584,"i_lat":-6.391065,"transit":false,"i_long":106.819451,"time":3,"station_id":"DPB","station_name":"Depokbaru"},{"i_long":106.831114,"is_transit":false,"station_name":"Pondok Cina","i_lat":-6.369073,"distance":2727,"station_id":"POC","line":2,"transit":false,"time":4},{"time":2,"transit":false,"is_transit":false,"i_lat":-6.360749,"line":2,"distance":1109,"station_id":"UI","station_name":"Univ. Indonesia","i_long":106.831474},{"i_long":106.834175,"line":2,"distance":2264,"station_id":"UP","station_name":"Univ. Pancasila","transit":false,"is_transit":false,"time":3,"i_lat":-6.339291},{"i_long":106.832616,"is_transit":false,"i_lat":-6.330363,"distance":1029,"transit":false,"line":2,"time":2,"station_name":"Lenteng Agung","station_id":"LNA"},{"i_lat":-6.3080680000000005,"line":2,"transit":false,"i_long":106.838896,"distance":2671,"is_transit":false,"time":3,"station_id":"TNT","station_name":"Tanjung Barat"},{"is_transit":false,"station_id":"PSM","station_name":"Pasar Minggu","i_lat":-6.2842400000000005,"line":2,"transit":false,"time":4,"i_long":106.843999,"distance":2820},{"i_long":106.851577,"line":2,"station_id":"PSMB","is_transit":false,"time":2,"transit":false,"i_lat":-6.263214,"distance":2380,"station_name":"Pasar Minggu Baru"},{"station_name":"Duren Kalibata","i_lat":-6.255332,"is_transit":false,"transit":false,"i_long":106.85449,"line":2,"distance":824,"station_id":"DRN","time":2},{"is_transit":false,"transit":false,"line":2,"distance":1546,"i_lat":-6.242512,"station_id":"CW","station_name":"Cawang","i_long":106.856607,"time":3},{"time":2,"transit":false,"distance":1230,"i_long":106.857948,"line":2,"is_transit":false,"station_id":"TEB","station_name":"Tebet","i_lat":-6.226659},{"transit":true,"line":2,"distance":2610,"i_lat":-6.209883,"i_long":106.84912,"station_name":"Manggarai","is_transit":true,"station_id":"MRI","time":4},{"station_id":"MTR","i_lat":-6.212485,"i_long":106.858896,"distance":1275,"is_transit":false,"time":2,"station_name":"Matraman","transit":false,"line":1},{"i_lat":-6.215091,"station_id":"JNG","station_name":"Jatinegara","i_long":106.86807400000001,"line":1,"transit":true,"distance":1377,"is_transit":true,"time":8},{"transit":false,"station_id":"POK","distance":1236,"is_transit":false,"station_name":"Pondok Jati","i_lat":-6.209188,"i_long":106.861737,"line":11,"time":2},{"is_transit":false,"station_name":"Kramat","time":2,"transit":false,"distance":1829,"i_lat":-6.193792,"line":11,"station_id":"KMT","i_long":106.855437},{"station_name":"Gang Sentiong","transit":false,"station_id":"GST","i_lat":-6.185975,"i_long":106.850107,"distance":973,"is_transit":false,"time":1,"line":11},{"station_name":"Pasar Senen","transit":false,"i_long":106.84368,"line":11,"station_id":"PSE","distance":1567,"is_transit":false,"time":8,"i_lat":-6.174784},{"distance":1436,"i_lat":-6.161728,"station_name":"Kemayoran","i_long":106.839204,"is_transit":false,"station_id":"KMO","transit":false,"line":11,"time":4},{"station_id":"RJW","i_lat":-6.14505,"is_transit":false,"station_name":"Rajawali","transit":false,"time":5,"i_long":106.836569,"distance":1901,"line":11},{"station_name":"Kampung Bandan","line":4,"is_transit":true,"time":3,"i_long":106.826365,"transit":true,"distance":1444,"station_id":"KPB","i_lat":-6.132549},{"station_id":"AK","station_name":"Angke","time":9,"line":1,"transit":false,"is_transit":false,"i_long":106.79867,"distance":4102,"i_lat":-6.144674},{"i_lat":-6.155215,"i_long":106.800832,"station_name":"Duri","time":4,"is_transit":true,"transit":true,"line":1,"distance":1230,"station_id":"DU"},{"time":3,"transit":false,"i_long":106.788277,"i_lat":-6.162021,"station_name":"Grogol","line":5,"distance":1700,"is_transit":false,"station_id":"GGL"},{"transit":false,"i_lat":-6.161433,"station_name":"Pesing","time":2,"station_id":"PSG","i_long":106.771379,"line":5,"distance":2036,"is_transit":false},{"transit":false,"i_long":106.756522,"station_name":"Taman Kota","is_transit":false,"distance":1614,"time":2,"i_lat":-6.1587309999999995,"line":5,"station_id":"TKO"},{"time":2,"transit":false,"i_lat":-6.159876,"i_long":106.737035,"line":5,"is_transit":false,"station_id":"BOI","distance":2334,"station_name":"Bojongindah"},{"distance":1152,"is_transit":false,"i_lat":-6.162758,"station_name":"Rawa Buaya","i_long":106.723064,"time":4,"station_id":"RW","line":5,"transit":false},{"distance":2504,"time":3,"station_name":"Kalideres","is_transit":false,"transit":false,"station_id":"KDS","i_lat":-6.166068,"i_long":106.701612,"line":5},{"transit":false,"i_long":106.679458,"line":5,"distance":2548,"station_id":"PI","station_name":"Poris","time":3,"is_transit":false,"i_lat":-6.169933},{"station_name":"Batuceper","line":5,"station_id":"BPR","i_lat":-6.171811,"i_long":106.665036,"distance":1834,"is_transit":false,"time":3,"transit":false},{"time":3,"distance":2028,"station_name":"Tanah Tinggi","transit":false,"line":5,"i_lat":-6.17331,"i_long":106.64657,"station_id":"TTI","is_transit":false}]]}