{"data":[[{"time":0,"i_long":106.800298,"station_id":"CTA","distance":0,"transit":false,"station_name":"Citayam","is_transit":false,"i_lat":-6.448811,"line":2},{"i_long":106.816926,"i_lat":-6.405256,"is_transit":false,"station_name":"Depok","line":2,"transit":false,"distance":5084,"station_id":"DP","time":6},{"distance":1584,"line":2,"i_lat":-6.391065,"time":3,"transit":false,"station_id":"DPB","station_name":"Depokbaru","i_long":106.819451,"is_transit":false},{"i_lat":-6.369073,"distance":2727,"station_name":"Pondok Cina","transit":false,"time":4,"is_transit":false,"i_long":106.831114,"station_id":"POC","line":2},{"transit":false,"station_name":"Univ. Indonesia","i_long":106.831474,"distance":1109,"time":2,"station_id":"UI","line":2,"i_lat":-6.360749,"is_transit":false},{"distance":2264,"station_id":"UP","is_transit":false,"i_lat":-6.339291,"line":2,"time":3,"station_name":"Univ. Pancasila","i_long":106.834175,"transit":false},{"i_lat":-6.330363,"station_name":"Lenteng Agung","i_long":106.832616,"transit":false,"is_transit":false,"distance":1029,"station_id":"LNA","time":2,"line":2},{"i_lat":-6.3080680000000005,"line":2,"station_id":"TNT","station_name":"Tanjung Barat","is_transit":false,"time":3,"distance":2671,"i_long":106.838896,"transit":false},{"time":4,"distance":2820,"transit":false,"is_transit":false,"i_long":106.843999,"station_id":"PSM","line":2,"station_name":"Pasar Minggu","i_lat":-6.2842400000000005},{"transit":false,"is_transit":false,"distance":2380,"i_long":106.851577,"line":2,"i_lat":-6.263214,"time":2,"station_name":"Pasar Minggu Baru","station_id":"PSMB"},{"station_name":"Duren Kalibata","i_long":106.85449,"transit":false,"time":2,"line":2,"is_transit":false,"distance":824,"station_id":"DRN","i_lat":-6.255332},{"station_name":"Cawang","time":3,"i_long":106.856607,"station_id":"CW","transit":false,"distance":1546,"is_transit":false,"i_lat":-6.242512,"line":2},{"i_lat":-6.226659,"time":2,"i_long":106.857948,"is_transit":false,"line":2,"transit":false,"station_name":"Tebet","distance":1230,"station_id":"TEB"},{"line":2,"i_long":106.84912,"distance":2610,"time":4,"is_transit":true,"station_id":"MRI","transit":true,"station_name":"Manggarai","i_lat":-6.209883},{"is_transit":false,"transit":false,"i_lat":-6.212485,"station_id":"MTR","i_long":106.858896,"line":1,"station_name":"Matraman","distance":1275,"time":2},{"line":1,"station_name":"Jatinegara","is_transit":false,"distance":1377,"station_id":"JNG","transit":false,"i_lat":-6.215091,"i_long":106.86807400000001,"time":8},{"i_lat":-6.2135,"i_long":106.899548,"line":1,"transit":false,"is_transit":false,"station_name":"Klender","distance":3395,"time":3,"station_id":"KLD"},{"i_long":106.922662,"time":2,"station_id":"BUA","station_name":"Buaran","transit":false,"is_transit":false,"line":1,"distance":3100,"i_lat":-6.215568},{"station_name":"Klenderbaru","station_id":"KLDB","transit":false,"is_transit":false,"time":1,"i_lat":-6.217455,"i_long":106.939679,"distance":1305,"line":1}],[{"time":0,"line":2,"station_id":"CTA","transit":false,"station_name":"Citayam","i_lat":-6.448811,"i_long":106.800298,"distance":0,"is_transit":false},{"is_transit":false,"time":6,"i_lat":-6.405256,"station_id":"DP","distance":5084,"i_long":106.816926,"station_name":"Depok","transit":false,"line":2},{"station_id":"DPB","station_name":"Depokbaru","time":3,"distance":1584,"transit":false,"is_transit":false,"i_long":106.819451,"line":2,"i_lat":-6.391065},{"transit":false,"is_transit":false,"line":2,"station_id":"POC","i_long":106.831114,"station_name":"Pondok Cina","distance":2727,"i_lat":-6.369073,"time":4},{"transit":false,"distance":1109,"time":2,"station_id":"UI","line":2,"is_transit":false,"i_lat":-6.360749,"station_name":"Univ. Indonesia","i_long":106.831474},{"i_lat":-6.339291,"distance":2264,"transit":false,"i_long":106.834175,"line":2,"is_transit":false,"station_name":"Univ. Pancasila","time":3,"station_id":"UP"},{"time":2,"i_lat":-6.330363,"transit":false,"line":2,"is_transit":false,"station_id":"LNA","station_name":"Lenteng Agung","distance":1029,"i_long":106.832616},{"distance":2671,"transit":false,"time":3,"i_lat":-6.3080680000000005,"station_id":"TNT","is_transit":false,"line":2,"i_long":106.838896,"station_name":"Tanjung Barat"},{"distance":2820,"station_id":"PSM","station_name":"Pasar Minggu","time":4,"transit":false,"is_transit":false,"i_long":106.843999,"i_lat":-6.2842400000000005,"line":2},{"station_id":"PSMB","line":2,"distance":2380,"station_name":"Pasar Minggu Baru","i_lat":-6.263214,"i_long":106.851577,"time":2,"is_transit":false,"transit":false},{"i_lat":-6.255332,"i_long":106.85449,"is_transit":false,"transit":false,"time":2,"station_name":"Duren Kalibata","distance":824,"line":2,"station_id":"DRN"},{"i_long":106.856607,"line":2,"station_id":"CW","is_transit":false,"transit":false,"station_name":"Cawang","i_lat":-6.242512,"distance":1546,"time":3},{"time":2,"i_lat":-6.226659,"i_long":106.857948,"line":2,"distance":1230,"is_transit":false,"station_id":"TEB","station_name":"Tebet","transit":false},{"line":2,"station_id":"MRI","time":4,"distance":2610,"is_transit":true,"transit":true,"station_name":"Manggarai","i_long":106.84912,"i_lat":-6.209883},{"station_name":"Sudirman","transit":false,"time":4,"station_id":"SUD","is_transit":false,"i_lat":-6.202263,"i_long":106.822649,"distance":3186,"line":1},{"time":1,"i_long":106.819881,"i_lat":-6.201433,"distance":280,"is_transit":false,"line":1,"station_id":"SUDB","station_name":"Sudirman Baru","transit":false},{"distance":471,"station_name":"Karet","line":1,"is_transit":false,"i_long":106.816351,"time":1,"i_lat":-6.20132,"transit":false,"station_id":"KAT"},{"station_name":"Tanah Abang","distance":2029,"is_transit":false,"i_long":106.811091,"transit":false,"line":1,"i_lat":-6.185545,"station_id":"THB","time":5},{"line":1,"i_long":106.800832,"distance":3632,"station_name":"Duri","i_lat":-6.155215,"station_id":"DU","transit":false,"is_transit":false,"time":8},{"station_name":"Angke","transit":false,"is_transit":false,"distance":1230,"station_id":"AK","i_lat":-6.144674,"i_long":106.79867,"time":4,"line":1},{"i_long":106.826365,"line":4,"station_id":"KPB","transit":true,"station_name":"Kampung Bandan","is_transit":true,"i_lat":-6.132549,"time":9,"distance":4102},{"i_lat":-6.14505,"i_long":106.836569,"station_id":"RJW","line":11,"station_name":"Rajawali","transit":false,"is_transit":false,"distance":1444,"time":3},{"is_transit":false,"distance":1901,"station_id":"KMO","time":5,"i_long":106.839204,"line":11,"transit":false,"i_lat":-6.161728,"station_name":"Kemayoran"},{"i_long":106.84368,"distance":1436,"line":11,"is_transit":false,"i_lat":-6.174784,"transit":false,"time":4,"station_name":"Pasar Senen","station_id":"PSE"},{"i_long":106.850107,"station_name":"Gang Sentiong","line":11,"time":8,"distance":1567,"i_lat":-6.185975,"is_transit":false,"transit":false,"station_id":"GST"},{"transit":false,"line":11,"is_transit":false,"distance":973,"i_long":106.855437,"time":1,"station_id":"KMT","i_lat":-6.193792,"station_name":"Kramat"},{"i_lat":-6.209188,"time":2,"is_transit":false,"i_long":106.861737,"station_id":"POK","distance":1829,"transit":false,"station_name":"Pondok Jati","line":11},{"distance":1236,"i_long":106.86807400000001,"station_id":"JNG","is_transit":true,"time":9,"transit":true,"station_name":"Jatinegara","i_lat":-6.215091,"line":1},{"distance":3395,"station_id":"KLD","station_name":"Klender","i_lat":-6.2135,"transit":false,"is_transit":false,"time":3,"line":1,"i_long":106.899548},{"time":2,"is_transit":false,"distance":3100,"transit":false,"station_name":"Buaran","i_lat":-6.215568,"i_long":106.922662,"line":1,"station_id":"BUA"},{"station_name":"Klenderbaru","i_long":106.939679,"is_transit":false,"distance":1305,"station_id":"KLDB","transit":false,"i_lat":-6.217455,"line":1,"time":1}],[{"time":0,"distance":0,"station_id":"CTA","transit":false,"station_name":"Citayam","is_transit":false,"i_lat":-6.448811,"i_long":106.800298,"line":2},{"i_lat":-6.405256,"distance":5084,"is_transit":false,"i_long":106.816926,"line":2,"time":6,"station_id":"DP","transit":false,"station_name":"Depok"},{"i_long":106.819451,"is_transit":false,"time":3,"distance":1584,"transit":false,"station_id":"DPB","line":2,"station_name":"Depokbaru","i_lat":-6.391065},{"is_transit":false,"time":4,"i_long":106.831114,"line":2,"station_id":"POC","transit":false,"distance":2727,"i_lat":-6.369073,"station_name":"Pondok Cina"},{"line":2,"transit":false,"station_name":"Univ. Indonesia","is_transit":false,"time":2,"i_long":106.831474,"distance":1109,"i_lat":-6.360749,"station_id":"UI"},{"station_name":"Univ. Pancasila","i_lat":-6.339291,"line":2,"transit":false,"station_id":"UP","i_long":106.834175,"distance":2264,"is_transit":false,"time":3},{"station_name":"Lenteng Agung","time":2,"i_long":106.832616,"station_id":"LNA","i_lat":-6.330363,"line":2,"transit":false,"is_transit":false,"distance":1029},{"is_transit":false,"line":2,"i_long":106.838896,"distance":2671,"time":3,"i_lat":-6.3080680000000005,"station_name":"Tanjung Barat","transit":false,"station_id":"TNT"},{"i_long":106.843999,"is_transit":false,"line":2,"distance":2820,"time":4,"station_id":"PSM","i_lat":-6.2842400000000005,"transit":false,"station_name":"Pasar Minggu"},{"distance":2380,"i_lat":-6.263214,"transit":false,"time":2,"i_long":106.851577,"line":2,"station_id":"PSMB","is_transit":false,"station_name":"Pasar Minggu Baru"},{"transit":false,"time":2,"line":2,"station_id":"DRN","i_lat":-6.255332,"distance":824,"i_long":106.85449,"station_name":"Duren Kalibata","is_transit":false},{"i_lat":-6.242512,"transit":false,"time":3,"is_transit":false,"distance":1546,"i_long":106.856607,"station_id":"CW","line":2,"station_name":"Cawang"},{"line":2,"time":2,"transit":false,"is_transit":false,"distance":1230,"i_long":106.857948,"station_id":"TEB","station_name":"Tebet","i_lat":-6.226659},{"transit":false,"distance":2610,"station_id":"MRI","time":4,"station_name":"Manggarai","i_lat":-6.209883,"i_long":106.84912,"line":2,"is_transit":false},{"i_lat":-6.198556,"station_name":"Cikini","i_long":106.840169,"line":2,"time":4,"transit":false,"is_transit":false,"station_id":"CKI","distance":1590},{"distance":1750,"station_name":"Gondangdia","time":3,"i_lat":-6.186295,"i_long":106.832183,"line":2,"station_id":"GDD","is_transit":false,"transit":false},{"line":2,"time":4,"i_lat":-6.166716,"is_transit":false,"distance":2015,"station_id":"JUA","station_name":"Juanda","transit":false,"i_long":106.828284},{"station_id":"SW","time":2,"i_long":106.827103,"station_name":"Sawah Besar","transit":false,"is_transit":false,"distance":1149,"i_lat":-6.160725,"line":2},{"station_id":"MGB","station_name":"Manggabesar","distance":906,"transit":false,"time":2,"i_long":106.82482,"is_transit":false,"line":2,"i_lat":-6.149769},{"time":2,"station_name":"Jayakarta","i_long":106.820901,"is_transit":false,"i_lat":-6.141205,"distance":1080,"transit":false,"station_id":"JAY","line":2},{"is_transit":true,"i_lat":-6.137569,"time":4,"line":2,"i_long":106.812439,"transit":true,"distance":1264,"station_id":"JAKK","station_name":"Jakarta Kota"},{"station_id":"KPB","is_transit":true,"i_lat":-6.132549,"distance":1364,"station_name":"Kampung Bandan","line":4,"transit":true,"time":3,"i_long":106.826365},{"line":11,"is_transit":false,"i_long":106.836569,"distance":1444,"i_lat":-6.14505,"station_id":"RJW","transit":false,"station_name":"Rajawali","time":3},{"station_id":"KMO","i_long":106.839204,"transit":false,"is_transit":false,"i_lat":-6.161728,"station_name":"Kemayoran","time":5,"distance":1901,"line":11},{"transit":false,"is_transit":false,"i_lat":-6.174784,"i_long":106.84368,"distance":1436,"station_name":"Pasar Senen","line":11,"time":4,"station_id":"PSE"},{"time":8,"transit":false,"distance":1567,"station_name":"Gang Sentiong","is_transit":false,"station_id":"GST","i_lat":-6.185975,"line":11,"i_long":106.850107},{"time":1,"i_long":106.855437,"line":11,"i_lat":-6.193792,"transit":false,"distance":973,"station_id":"KMT","station_name":"Kramat","is_transit":false},{"line":11,"time":2,"i_long":106.861737,"distance":1829,"station_id":"POK","station_name":"Pondok Jati","is_transit":false,"i_lat":-6.209188,"transit":false},{"i_lat":-6.215091,"transit":true,"is_transit":true,"time":9,"line":1,"station_name":"Jatinegara","station_id":"JNG","distance":1236,"i_long":106.86807400000001},{"line":1,"station_name":"Klender","station_id":"KLD","is_transit":false,"i_lat":-6.2135,"transit":false,"distance":3395,"time":3,"i_long":106.899548},{"station_id":"BUA","is_transit":false,"i_lat":-6.215568,"station_name":"Buaran","transit":false,"time":2,"i_long":106.922662,"distance":3100,"line":1},{"station_name":"Klenderbaru","i_lat":-6.217455,"station_id":"KLDB","transit":false,"distance":1305,"is_transit":false,"time":1,"i_long":106.939679,"line":1}]]}