{"data":[[{"transit":false,"station_id":"CTA","distance":0,"line":2,"time":0,"i_lat":-6.448811,"station_name":"Citayam","i_long":106.800298,"is_transit":false},{"line":2,"i_lat":-6.405256,"transit":false,"time":6,"i_long":106.816926,"is_transit":false,"distance":5084,"station_name":"Depok","station_id":"DP"},{"i_lat":-6.391065,"distance":1584,"i_long":106.819451,"station_id":"DPB","line":2,"time":3,"transit":false,"station_name":"Depokbaru","is_transit":false},{"i_lat":-6.369073,"i_long":106.831114,"distance":2727,"transit":false,"line":2,"is_transit":false,"station_id":"POC","time":4,"station_name":"Pondok Cina"},{"station_id":"UI","distance":1109,"time":2,"station_name":"Univ. Indonesia","i_lat":-6.360749,"is_transit":false,"transit":false,"i_long":106.831474,"line":2},{"time":3,"distance":2264,"i_long":106.834175,"i_lat":-6.339291,"line":2,"is_transit":false,"station_name":"Univ. Pancasila","station_id":"UP","transit":false},{"is_transit":false,"station_id":"LNA","time":2,"i_lat":-6.330363,"i_long":106.832616,"station_name":"Lenteng Agung","distance":1029,"line":2,"transit":false},{"station_name":"Tanjung Barat","transit":false,"is_transit":false,"time":3,"i_lat":-6.3080680000000005,"distance":2671,"station_id":"TNT","i_long":106.838896,"line":2},{"station_id":"PSM","time":4,"i_lat":-6.2842400000000005,"i_long":106.843999,"distance":2820,"transit":false,"is_transit":false,"station_name":"Pasar Minggu","line":2},{"distance":2380,"i_lat":-6.263214,"transit":false,"station_name":"Pasar Minggu Baru","i_long":106.851577,"line":2,"station_id":"PSMB","is_transit":false,"time":2},{"i_lat":-6.255332,"time":2,"i_long":106.85449,"transit":false,"line":2,"station_id":"DRN","station_name":"Duren Kalibata","is_transit":false,"distance":824},{"time":3,"distance":1546,"station_name":"Cawang","is_transit":false,"i_long":106.856607,"line":2,"station_id":"CW","transit":false,"i_lat":-6.242512},{"i_lat":-6.226659,"transit":false,"station_name":"Tebet","time":2,"distance":1230,"i_long":106.857948,"line":2,"station_id":"TEB","is_transit":false},{"time":4,"transit":true,"is_transit":true,"i_long":106.84912,"station_name":"Manggarai","distance":2610,"i_lat":-6.209883,"station_id":"MRI","line":2},{"i_lat":-6.212485,"is_transit":false,"distance":1275,"station_name":"Matraman","line":1,"transit":false,"i_long":106.858896,"time":2,"station_id":"MTR"},{"i_long":106.86807400000001,"i_lat":-6.215091,"station_name":"Jatinegara","station_id":"JNG","line":1,"transit":false,"time":8,"distance":1377,"is_transit":false},{"i_lat":-6.2135,"is_transit":false,"distance":3395,"line":1,"i_long":106.899548,"transit":false,"station_id":"KLD","station_name":"Klender","time":3},{"i_lat":-6.215568,"i_long":106.922662,"line":1,"transit":false,"station_id":"BUA","is_transit":false,"time":2,"distance":3100,"station_name":"Buaran"},{"transit":false,"is_transit":false,"line":1,"station_id":"KLDB","distance":1305,"time":1,"station_name":"Klenderbaru","i_lat":-6.217455,"i_long":106.939679},{"is_transit":false,"time":8,"station_name":"Cakung","station_id":"CUK","i_lat":-6.219053,"i_long":106.951283,"distance":1385,"line":1,"transit":false},{"transit":false,"i_lat":-6.224515,"is_transit":false,"time":3,"distance":3097,"i_long":106.977657,"line":1,"station_name":"Kranji","station_id":"KRI"}],[{"i_lat":-6.448811,"is_transit":false,"line":2,"distance":0,"i_long":106.800298,"station_id":"CTA","transit":false,"time":0,"station_name":"Citayam"},{"is_transit":false,"station_name":"Depok","i_long":106.816926,"transit":false,"station_id":"DP","time":6,"line":2,"distance":5084,"i_lat":-6.405256},{"is_transit":false,"station_name":"Depokbaru","i_lat":-6.391065,"distance":1584,"station_id":"DPB","transit":false,"i_long":106.819451,"line":2,"time":3},{"i_lat":-6.369073,"time":4,"transit":false,"distance":2727,"station_name":"Pondok Cina","station_id":"POC","is_transit":false,"line":2,"i_long":106.831114},{"station_name":"Univ. Indonesia","i_long":106.831474,"time":2,"station_id":"UI","transit":false,"distance":1109,"is_transit":false,"i_lat":-6.360749,"line":2},{"transit":false,"time":3,"station_id":"UP","line":2,"i_lat":-6.339291,"i_long":106.834175,"is_transit":false,"distance":2264,"station_name":"Univ. Pancasila"},{"i_long":106.832616,"distance":1029,"station_name":"Lenteng Agung","line":2,"station_id":"LNA","i_lat":-6.330363,"transit":false,"is_transit":false,"time":2},{"time":3,"i_lat":-6.3080680000000005,"station_name":"Tanjung Barat","i_long":106.838896,"transit":false,"distance":2671,"line":2,"station_id":"TNT","is_transit":false},{"transit":false,"line":2,"time":4,"i_lat":-6.2842400000000005,"station_name":"Pasar Minggu","station_id":"PSM","is_transit":false,"distance":2820,"i_long":106.843999},{"time":2,"i_lat":-6.263214,"is_transit":false,"i_long":106.851577,"station_name":"Pasar Minggu Baru","transit":false,"distance":2380,"line":2,"station_id":"PSMB"},{"line":2,"transit":false,"station_name":"Duren Kalibata","i_lat":-6.255332,"distance":824,"i_long":106.85449,"station_id":"DRN","time":2,"is_transit":false},{"i_lat":-6.242512,"station_id":"CW","time":3,"is_transit":false,"station_name":"Cawang","line":2,"distance":1546,"transit":false,"i_long":106.856607},{"distance":1230,"transit":false,"station_name":"Tebet","i_long":106.857948,"line":2,"station_id":"TEB","i_lat":-6.226659,"time":2,"is_transit":false},{"i_long":106.84912,"transit":true,"is_transit":true,"distance":2610,"station_id":"MRI","i_lat":-6.209883,"line":2,"time":4,"station_name":"Manggarai"},{"is_transit":false,"transit":false,"i_long":106.822649,"line":1,"distance":3186,"station_name":"Sudirman","i_lat":-6.202263,"time":4,"station_id":"SUD"},{"distance":280,"is_transit":false,"line":1,"i_lat":-6.201433,"time":1,"i_long":106.819881,"transit":false,"station_name":"Sudirman Baru","station_id":"SUDB"},{"station_name":"Karet","is_transit":false,"line":1,"time":1,"station_id":"KAT","i_lat":-6.20132,"transit":false,"i_long":106.816351,"distance":471},{"distance":2029,"line":1,"i_lat":-6.185545,"transit":false,"i_long":106.811091,"station_name":"Tanah Abang","is_transit":false,"station_id":"THB","time":5},{"transit":false,"i_long":106.800832,"line":1,"station_id":"DU","station_name":"Duri","is_transit":false,"time":8,"distance":3632,"i_lat":-6.155215},{"i_long":106.79867,"distance":1230,"is_transit":false,"station_id":"AK","i_lat":-6.144674,"transit":false,"station_name":"Angke","line":1,"time":4},{"transit":true,"line":4,"station_name":"Kampung Bandan","station_id":"KPB","is_transit":true,"i_long":106.826365,"i_lat":-6.132549,"distance":4102,"time":9},{"time":3,"station_name":"Rajawali","distance":1444,"is_transit":false,"i_long":106.836569,"transit":false,"line":11,"station_id":"RJW","i_lat":-6.14505},{"transit":false,"station_id":"KMO","is_transit":false,"station_name":"Kemayoran","time":5,"i_long":106.839204,"line":11,"i_lat":-6.161728,"distance":1901},{"station_name":"Pasar Senen","time":4,"distance":1436,"transit":false,"i_lat":-6.174784,"line":11,"i_long":106.84368,"station_id":"PSE","is_transit":false},{"time":8,"station_id":"GST","line":11,"distance":1567,"station_name":"Gang Sentiong","i_lat":-6.185975,"i_long":106.850107,"transit":false,"is_transit":false},{"i_lat":-6.193792,"station_id":"KMT","line":11,"is_transit":false,"transit":false,"station_name":"Kramat","time":1,"distance":973,"i_long":106.855437},{"is_transit":false,"distance":1829,"transit":false,"line":11,"station_name":"Pondok Jati","station_id":"POK","i_lat":-6.209188,"time":2,"i_long":106.861737},{"line":1,"station_name":"Jatinegara","distance":1236,"time":9,"transit":true,"is_transit":true,"i_lat":-6.215091,"station_id":"JNG","i_long":106.86807400000001},{"transit":false,"station_name":"Klender","is_transit":false,"distance":3395,"line":1,"i_lat":-6.2135,"station_id":"KLD","i_long":106.899548,"time":3},{"station_name":"Buaran","is_transit":false,"transit":false,"i_lat":-6.215568,"time":2,"station_id":"BUA","i_long":106.922662,"line":1,"distance":3100},{"i_lat":-6.217455,"transit":false,"i_long":106.939679,"station_name":"Klenderbaru","station_id":"KLDB","is_transit":false,"distance":1305,"time":1,"line":1},{"is_transit":false,"station_name":"Cakung","time":8,"distance":1385,"transit":false,"i_lat":-6.219053,"i_long":106.951283,"station_id":"CUK","line":1},{"transit":false,"station_name":"Kranji","time":3,"station_id":"KRI","distance":3097,"i_lat":-6.224515,"line":1,"i_long":106.977657,"is_transit":false}],[{"station_name":"Citayam","is_transit":false,"time":0,"line":2,"distance":0,"i_lat":-6.448811,"station_id":"CTA","i_long":106.800298,"transit":false},{"station_id":"DP","station_name":"Depok","is_transit":false,"distance":5084,"i_long":106.816926,"line":2,"transit":false,"time":6,"i_lat":-6.405256},{"station_id":"DPB","line":2,"i_long":106.819451,"transit":false,"distance":1584,"is_transit":false,"station_name":"Depokbaru","time":3,"i_lat":-6.391065},{"line":2,"is_transit":false,"distance":2727,"station_id":"POC","transit":false,"i_lat":-6.369073,"station_name":"Pondok Cina","i_long":106.831114,"time":4},{"station_name":"Univ. Indonesia","i_long":106.831474,"i_lat":-6.360749,"line":2,"time":2,"distance":1109,"transit":false,"station_id":"UI","is_transit":false},{"time":3,"station_name":"Univ. Pancasila","i_lat":-6.339291,"transit":false,"station_id":"UP","is_transit":false,"i_long":106.834175,"line":2,"distance":2264},{"line":2,"distance":1029,"is_transit":false,"station_id":"LNA","i_long":106.832616,"station_name":"Lenteng Agung","i_lat":-6.330363,"time":2,"transit":false},{"i_long":106.838896,"i_lat":-6.3080680000000005,"station_id":"TNT","station_name":"Tanjung Barat","is_transit":false,"distance":2671,"line":2,"time":3,"transit":false},{"i_long":106.843999,"i_lat":-6.2842400000000005,"line":2,"time":4,"is_transit":false,"station_name":"Pasar Minggu","transit":false,"station_id":"PSM","distance":2820},{"transit":false,"is_transit":false,"station_name":"Pasar Minggu Baru","time":2,"distance":2380,"line":2,"station_id":"PSMB","i_lat":-6.263214,"i_long":106.851577},{"station_name":"Duren Kalibata","is_transit":false,"time":2,"i_lat":-6.255332,"i_long":106.85449,"line":2,"transit":false,"distance":824,"station_id":"DRN"},{"distance":1546,"i_long":106.856607,"line":2,"is_transit":false,"time":3,"i_lat":-6.242512,"station_name":"Cawang","transit":false,"station_id":"CW"},{"station_name":"Tebet","i_lat":-6.226659,"station_id":"TEB","line":2,"transit":false,"is_transit":false,"distance":1230,"i_long":106.857948,"time":2},{"i_long":106.84912,"station_id":"MRI","time":4,"transit":false,"is_transit":false,"distance":2610,"i_lat":-6.209883,"line":2,"station_name":"Manggarai"},{"line":2,"transit":false,"station_id":"CKI","station_name":"Cikini","is_transit":false,"i_long":106.840169,"time":4,"i_lat":-6.198556,"distance":1590},{"i_long":106.832183,"time":3,"station_name":"Gondangdia","station_id":"GDD","line":2,"distance":1750,"transit":false,"is_transit":false,"i_lat":-6.186295},{"distance":2015,"transit":false,"i_lat":-6.166716,"station_name":"Juanda","i_long":106.828284,"is_transit":false,"time":4,"line":2,"station_id":"JUA"},{"i_long":106.827103,"station_name":"Sawah Besar","is_transit":false,"time":2,"transit":false,"station_id":"SW","line":2,"i_lat":-6.160725,"distance":1149},{"station_name":"Manggabesar","time":2,"line":2,"is_transit":false,"station_id":"MGB","transit":false,"distance":906,"i_lat":-6.149769,"i_long":106.82482},{"time":2,"i_lat":-6.141205,"station_name":"Jayakarta","distance":1080,"is_transit":false,"i_long":106.820901,"station_id":"JAY","line":2,"transit":false},{"is_transit":true,"station_id":"JAKK","distance":1264,"i_lat":-6.137569,"line":2,"i_long":106.812439,"station_name":"Jakarta Kota","transit":true,"time":4},{"line":4,"time":3,"i_long":106.826365,"station_name":"Kampung Bandan","station_id":"KPB","is_transit":true,"distance":1364,"i_lat":-6.132549,"transit":true},{"i_lat":-6.14505,"station_id":"RJW","is_transit":false,"distance":1444,"station_name":"Rajawali","transit":false,"time":3,"i_long":106.836569,"line":11},{"distance":1901,"transit":false,"i_lat":-6.161728,"time":5,"line":11,"i_long":106.839204,"station_id":"KMO","station_name":"Kemayoran","is_transit":false},{"i_lat":-6.174784,"time":4,"transit":false,"station_name":"Pasar Senen","station_id":"PSE","is_transit":false,"distance":1436,"i_long":106.84368,"line":11},{"transit":false,"distance":1567,"line":11,"is_transit":false,"station_id":"GST","time":8,"i_lat":-6.185975,"station_name":"Gang Sentiong","i_long":106.850107},{"i_long":106.855437,"station_name":"Kramat","station_id":"KMT","is_transit":false,"time":1,"i_lat":-6.193792,"line":11,"transit":false,"distance":973},{"transit":false,"station_name":"Pondok Jati","line":11,"i_long":106.861737,"is_transit":false,"station_id":"POK","i_lat":-6.209188,"time":2,"distance":1829},{"station_name":"Jatinegara","station_id":"JNG","i_long":106.86807400000001,"is_transit":true,"distance":1236,"line":1,"time":9,"i_lat":-6.215091,"transit":true},{"i_long":106.899548,"station_id":"KLD","station_name":"Klender","line":1,"transit":false,"is_transit":false,"time":3,"distance":3395,"i_lat":-6.2135},{"line":1,"i_long":106.922662,"station_name":"Buaran","is_transit":false,"i_lat":-6.215568,"distance":3100,"time":2,"station_id":"BUA","transit":false},{"time":1,"station_id":"KLDB","i_lat":-6.217455,"distance":1305,"transit":false,"line":1,"i_long":106.939679,"is_transit":false,"station_name":"Klenderbaru"},{"distance":1385,"station_name":"Cakung","station_id":"CUK","i_lat":-6.219053,"i_long":106.951283,"line":1,"is_transit":false,"time":8,"transit":false},{"transit":false,"i_long":106.977657,"station_id":"KRI","time":3,"is_transit":false,"line":1,"i_lat":-6.224515,"distance":3097,"station_name":"Kranji"}]]}