{"data":[[{"i_long":106.800298,"distance":0,"transit":false,"time":0,"line":2,"station_id":"CTA","i_lat":-6.448811,"station_name":"Citayam"},{"i_long":106.816926,"distance":5084,"transit":false,"time":6,"line":2,"station_id":"DP","i_lat":-6.405256,"station_name":"Depok"},{"i_long":106.819451,"distance":1584,"transit":false,"time":3,"line":2,"station_id":"DPB","i_lat":-6.391065,"station_name":"Depokbaru"},{"i_long":106.831114,"distance":2727,"transit":false,"time":4,"line":2,"station_id":"POC","i_lat":-6.369073,"station_name":"Pondok Cina"},{"i_long":106.831474,"distance":1109,"transit":false,"time":2,"line":2,"station_id":"UI","i_lat":-6.360749,"station_name":"Univ. Indonesia"}]]}