{"data":[[{"is_transit":false,"i_long":106.800298,"distance":0,"line":2,"station_name":"Citayam","station_id":"CTA","time":0,"transit":false,"i_lat":-6.448811},{"is_transit":false,"i_lat":-6.405256,"line":2,"i_long":106.816926,"transit":false,"station_id":"DP","distance":5084,"time":6,"station_name":"Depok"},{"transit":false,"time":3,"distance":1584,"station_name":"Depokbaru","i_lat":-6.391065,"line":2,"i_long":106.819451,"station_id":"DPB","is_transit":false},{"station_name":"Pondok Cina","i_lat":-6.369073,"i_long":106.831114,"transit":false,"is_transit":false,"line":2,"distance":2727,"station_id":"POC","time":4},{"line":2,"station_id":"UI","time":2,"transit":false,"distance":1109,"i_lat":-6.360749,"is_transit":false,"station_name":"Univ. Indonesia","i_long":106.831474},{"i_long":106.834175,"i_lat":-6.339291,"line":2,"is_transit":false,"transit":false,"distance":2264,"station_name":"Univ. Pancasila","time":3,"station_id":"UP"},{"distance":1029,"line":2,"is_transit":false,"transit":false,"i_lat":-6.330363,"station_name":"Lenteng Agung","station_id":"LNA","time":2,"i_long":106.832616}]]}