{"data":[[{"line":1,"transit":false,"time":0,"station_name":"Citayam","station_id":"CTA","distance":0,"is_transit":true,"i_lat":-6.448811,"i_long":106.800298},{"station_name":"Depok","distance":5084,"station_id":"DP","is_transit":false,"line":0,"time":6,"i_lat":-6.405256,"transit":false,"i_long":106.816926},{"time":3,"i_lat":-6.391065,"distance":1584,"line":0,"transit":false,"is_transit":false,"station_name":"Depokbaru","station_id":"DPB","i_long":106.819451},{"line":2,"i_lat":-6.369073,"is_transit":false,"station_name":"Pondok Cina","transit":false,"distance":2727,"time":4,"i_long":106.831114,"station_id":"POC"},{"is_transit":false,"i_lat":-6.360749,"station_id":"UI","station_name":"Univ. Indonesia","i_long":106.831474,"transit":false,"time":2,"line":2,"distance":1109},{"i_lat":-6.339291,"station_name":"Univ. Pancasila","line":2,"is_transit":false,"station_id":"UP","transit":false,"i_long":106.834175,"distance":2264,"time":3},{"station_name":"Lenteng Agung","station_id":"LNA","i_long":106.832616,"line":2,"time":2,"transit":false,"distance":1029,"i_lat":-6.330363,"is_transit":false},{"is_transit":false,"i_lat":-6.3080680000000005,"time":3,"transit":false,"i_long":106.838896,"station_name":"Tanjung Barat","distance":2671,"line":2,"station_id":"TNT"},{"distance":2820,"i_lat":-6.2842400000000005,"line":2,"i_long":106.843999,"is_transit":false,"station_name":"Pasar Minggu","station_id":"PSM","transit":false,"time":4},{"time":2,"transit":false,"is_transit":false,"station_name":"Pasar Minggu Baru","station_id":"PSMB","i_long":106.851577,"line":2,"distance":2380,"i_lat":-6.263214}]]}