{"data":[[{"time":0,"is_transit":false,"i_lat":-6.448811,"station_name":"Citayam","i_long":106.800298,"line":2,"distance":0,"transit":false,"station_id":"CTA"},{"line":2,"time":6,"distance":5084,"transit":false,"i_lat":-6.405256,"is_transit":false,"i_long":106.816926,"station_name":"Depok","station_id":"DP"},{"is_transit":false,"i_long":106.819451,"time":3,"i_lat":-6.391065,"line":2,"station_id":"DPB","station_name":"Depokbaru","distance":1584,"transit":false},{"line":2,"time":4,"is_transit":false,"transit":false,"i_long":106.831114,"distance":2727,"station_name":"Pondok Cina","i_lat":-6.369073,"station_id":"POC"},{"line":2,"station_id":"UI","transit":false,"i_long":106.831474,"time":2,"distance":1109,"station_name":"Univ. Indonesia","i_lat":-6.360749,"is_transit":false},{"i_lat":-6.339291,"time":3,"station_name":"Univ. Pancasila","is_transit":false,"line":2,"transit":false,"distance":2264,"i_long":106.834175,"station_id":"UP"},{"i_lat":-6.330363,"distance":1029,"transit":false,"i_long":106.832616,"is_transit":false,"time":2,"line":2,"station_name":"Lenteng Agung","station_id":"LNA"},{"i_long":106.838896,"i_lat":-6.3080680000000005,"station_id":"TNT","line":2,"time":3,"distance":2671,"station_name":"Tanjung Barat","is_transit":false,"transit":false},{"station_id":"PSM","i_lat":-6.2842400000000005,"i_long":106.843999,"is_transit":false,"transit":false,"time":4,"line":2,"distance":2820,"station_name":"Pasar Minggu"},{"transit":false,"distance":2380,"i_lat":-6.263214,"i_long":106.851577,"station_id":"PSMB","station_name":"Pasar Minggu Baru","is_transit":false,"time":2,"line":2},{"i_lat":-6.255332,"station_name":"Duren Kalibata","is_transit":false,"distance":824,"station_id":"DRN","transit":false,"time":2,"i_long":106.85449,"line":2},{"i_lat":-6.242512,"station_id":"CW","i_long":106.856607,"distance":1546,"time":3,"line":2,"station_name":"Cawang","is_transit":false,"transit":false},{"time":2,"i_lat":-6.226659,"station_name":"Tebet","transit":false,"station_id":"TEB","is_transit":false,"i_long":106.857948,"line":2,"distance":1230},{"station_name":"Manggarai","transit":true,"is_transit":true,"time":4,"distance":2610,"i_lat":-6.209883,"line":2,"station_id":"MRI","i_long":106.84912},{"distance":1275,"i_lat":-6.212485,"time":2,"is_transit":false,"i_long":106.858896,"station_name":"Matraman","transit":false,"line":1,"station_id":"MTR"},{"transit":true,"i_long":106.86807400000001,"station_id":"JNG","is_transit":true,"line":1,"time":8,"station_name":"Jatinegara","i_lat":-6.215091,"distance":1377},{"station_id":"POK","i_lat":-6.209188,"distance":1236,"i_long":106.861737,"is_transit":false,"station_name":"Pondok Jati","transit":false,"time":2,"line":11},{"time":2,"distance":1829,"i_lat":-6.193792,"station_id":"KMT","line":11,"is_transit":false,"i_long":106.855437,"transit":false,"station_name":"Kramat"},{"i_long":106.850107,"station_name":"Gang Sentiong","transit":false,"i_lat":-6.185975,"distance":973,"line":11,"station_id":"GST","is_transit":false,"time":1}],[{"time":0,"transit":false,"line":2,"distance":0,"station_name":"Citayam","station_id":"CTA","is_transit":false,"i_long":106.800298,"i_lat":-6.448811},{"station_name":"Depok","i_long":106.816926,"time":6,"i_lat":-6.405256,"station_id":"DP","is_transit":false,"transit":false,"line":2,"distance":5084},{"station_name":"Depokbaru","distance":1584,"is_transit":false,"time":3,"station_id":"DPB","i_lat":-6.391065,"i_long":106.819451,"transit":false,"line":2},{"distance":2727,"line":2,"station_id":"POC","i_lat":-6.369073,"i_long":106.831114,"time":4,"is_transit":false,"transit":false,"station_name":"Pondok Cina"},{"station_id":"UI","i_long":106.831474,"is_transit":false,"i_lat":-6.360749,"distance":1109,"time":2,"line":2,"transit":false,"station_name":"Univ. Indonesia"},{"station_name":"Univ. Pancasila","time":3,"line":2,"is_transit":false,"i_lat":-6.339291,"station_id":"UP","distance":2264,"transit":false,"i_long":106.834175},{"time":2,"station_name":"Lenteng Agung","transit":false,"i_lat":-6.330363,"is_transit":false,"line":2,"station_id":"LNA","distance":1029,"i_long":106.832616},{"transit":false,"distance":2671,"i_lat":-6.3080680000000005,"is_transit":false,"i_long":106.838896,"line":2,"station_name":"Tanjung Barat","station_id":"TNT","time":3},{"time":4,"line":2,"station_id":"PSM","distance":2820,"is_transit":false,"transit":false,"i_long":106.843999,"station_name":"Pasar Minggu","i_lat":-6.2842400000000005},{"station_id":"PSMB","distance":2380,"station_name":"Pasar Minggu Baru","i_lat":-6.263214,"is_transit":false,"i_long":106.851577,"time":2,"line":2,"transit":false},{"station_id":"DRN","transit":false,"distance":824,"station_name":"Duren Kalibata","time":2,"is_transit":false,"i_lat":-6.255332,"line":2,"i_long":106.85449},{"time":3,"is_transit":false,"i_long":106.856607,"i_lat":-6.242512,"line":2,"distance":1546,"station_name":"Cawang","transit":false,"station_id":"CW"},{"is_transit":false,"time":2,"transit":false,"i_lat":-6.226659,"station_name":"Tebet","distance":1230,"i_long":106.857948,"station_id":"TEB","line":2},{"station_id":"MRI","i_long":106.84912,"station_name":"Manggarai","distance":2610,"transit":true,"i_lat":-6.209883,"line":2,"time":4,"is_transit":true},{"distance":3186,"is_transit":false,"station_name":"Sudirman","station_id":"SUD","i_lat":-6.202263,"transit":false,"time":4,"i_long":106.822649,"line":1},{"transit":false,"station_name":"Sudirman Baru","is_transit":false,"station_id":"SUDB","i_long":106.819881,"line":1,"time":1,"distance":280,"i_lat":-6.201433},{"station_name":"Karet","time":1,"transit":false,"is_transit":false,"station_id":"KAT","line":1,"distance":471,"i_lat":-6.20132,"i_long":106.816351},{"transit":false,"i_lat":-6.185545,"line":1,"time":5,"is_transit":false,"i_long":106.811091,"station_id":"THB","station_name":"Tanah Abang","distance":2029},{"distance":3632,"station_name":"Duri","line":1,"is_transit":false,"time":8,"i_lat":-6.155215,"transit":false,"station_id":"DU","i_long":106.800832},{"station_id":"AK","station_name":"Angke","time":4,"distance":1230,"transit":false,"i_lat":-6.144674,"is_transit":false,"i_long":106.79867,"line":1},{"is_transit":true,"station_id":"KPB","line":4,"transit":true,"station_name":"Kampung Bandan","i_lat":-6.132549,"i_long":106.826365,"distance":4102,"time":9},{"i_lat":-6.14505,"is_transit":false,"i_long":106.836569,"time":3,"station_name":"Rajawali","line":11,"transit":false,"station_id":"RJW","distance":1444},{"is_transit":false,"i_lat":-6.161728,"station_id":"KMO","transit":false,"line":11,"station_name":"Kemayoran","time":5,"distance":1901,"i_long":106.839204},{"line":11,"distance":1436,"station_name":"Pasar Senen","i_lat":-6.174784,"i_long":106.84368,"time":4,"is_transit":false,"station_id":"PSE","transit":false},{"station_name":"Gang Sentiong","line":11,"time":8,"is_transit":false,"transit":false,"station_id":"GST","distance":1567,"i_lat":-6.185975,"i_long":106.850107}],[{"station_name":"Citayam","transit":false,"i_long":106.800298,"time":0,"station_id":"CTA","distance":0,"i_lat":-6.448811,"line":2,"is_transit":false},{"time":6,"station_name":"Depok","is_transit":false,"distance":5084,"transit":false,"i_long":106.816926,"line":2,"station_id":"DP","i_lat":-6.405256},{"i_lat":-6.391065,"time":3,"distance":1584,"transit":false,"i_long":106.819451,"line":2,"is_transit":false,"station_name":"Depokbaru","station_id":"DPB"},{"is_transit":false,"i_long":106.831114,"line":2,"station_id":"POC","distance":2727,"transit":false,"i_lat":-6.369073,"time":4,"station_name":"Pondok Cina"},{"station_name":"Univ. Indonesia","distance":1109,"station_id":"UI","time":2,"transit":false,"i_long":106.831474,"is_transit":false,"i_lat":-6.360749,"line":2},{"time":3,"station_name":"Univ. Pancasila","transit":false,"i_lat":-6.339291,"i_long":106.834175,"station_id":"UP","is_transit":false,"distance":2264,"line":2},{"is_transit":false,"i_long":106.832616,"distance":1029,"station_id":"LNA","i_lat":-6.330363,"line":2,"transit":false,"station_name":"Lenteng Agung","time":2},{"time":3,"distance":2671,"transit":false,"station_name":"Tanjung Barat","is_transit":false,"i_lat":-6.3080680000000005,"line":2,"station_id":"TNT","i_long":106.838896},{"time":4,"station_name":"Pasar Minggu","distance":2820,"i_lat":-6.2842400000000005,"station_id":"PSM","is_transit":false,"transit":false,"i_long":106.843999,"line":2},{"station_name":"Pasar Minggu Baru","i_long":106.851577,"line":2,"i_lat":-6.263214,"time":2,"station_id":"PSMB","distance":2380,"transit":false,"is_transit":false},{"line":2,"time":2,"station_id":"DRN","is_transit":false,"i_lat":-6.255332,"station_name":"Duren Kalibata","distance":824,"i_long":106.85449,"transit":false},{"time":3,"station_name":"Cawang","distance":1546,"station_id":"CW","transit":false,"i_lat":-6.242512,"i_long":106.856607,"is_transit":false,"line":2},{"distance":1230,"line":2,"i_lat":-6.226659,"station_id":"TEB","time":2,"station_name":"Tebet","i_long":106.857948,"is_transit":false,"transit":false},{"i_lat":-6.209883,"i_long":106.84912,"time":4,"station_name":"Manggarai","is_transit":false,"station_id":"MRI","distance":2610,"transit":false,"line":2},{"is_transit":false,"station_id":"CKI","distance":1590,"transit":false,"time":4,"station_name":"Cikini","i_long":106.840169,"line":2,"i_lat":-6.198556},{"i_long":106.832183,"is_transit":false,"distance":1750,"station_id":"GDD","station_name":"Gondangdia","time":3,"i_lat":-6.186295,"line":2,"transit":false},{"station_id":"JUA","is_transit":false,"i_long":106.828284,"station_name":"Juanda","distance":2015,"time":4,"transit":false,"i_lat":-6.166716,"line":2},{"line":2,"i_lat":-6.160725,"time":2,"transit":false,"distance":1149,"i_long":106.827103,"station_name":"Sawah Besar","station_id":"SW","is_transit":false},{"is_transit":false,"i_long":106.82482,"line":2,"time":2,"station_name":"Manggabesar","distance":906,"station_id":"MGB","i_lat":-6.149769,"transit":false},{"is_transit":false,"i_lat":-6.141205,"line":2,"station_id":"JAY","transit":false,"time":2,"distance":1080,"station_name":"Jayakarta","i_long":106.820901},{"station_id":"JAKK","i_long":106.812439,"time":4,"is_transit":true,"transit":true,"distance":1264,"station_name":"Jakarta Kota","i_lat":-6.137569,"line":2},{"station_id":"KPB","i_lat":-6.132549,"i_long":106.826365,"distance":1364,"station_name":"Kampung Bandan","is_transit":true,"time":3,"transit":true,"line":4},{"time":3,"transit":false,"distance":1444,"station_name":"Rajawali","is_transit":false,"i_lat":-6.14505,"i_long":106.836569,"station_id":"RJW","line":11},{"station_id":"KMO","i_long":106.839204,"i_lat":-6.161728,"station_name":"Kemayoran","line":11,"time":5,"distance":1901,"transit":false,"is_transit":false},{"is_transit":false,"transit":false,"time":4,"distance":1436,"line":11,"station_name":"Pasar Senen","station_id":"PSE","i_long":106.84368,"i_lat":-6.174784},{"transit":false,"i_lat":-6.185975,"is_transit":false,"station_name":"Gang Sentiong","time":8,"station_id":"GST","line":11,"i_long":106.850107,"distance":1567}]]}