{"data":[[{"distance":0,"station_name":"Citayam","line":2,"transit":false,"i_long":106.800298,"time":0,"is_transit":false,"station_id":"CTA","i_lat":-6.448811},{"line":2,"time":6,"station_name":"Depok","transit":false,"i_lat":-6.405256,"station_id":"DP","i_long":106.816926,"is_transit":false,"distance":5084},{"transit":false,"time":3,"i_long":106.819451,"line":2,"i_lat":-6.391065,"station_name":"Depokbaru","is_transit":false,"station_id":"DPB","distance":1584},{"transit":false,"i_lat":-6.369073,"i_long":106.831114,"distance":2727,"line":2,"station_name":"Pondok Cina","is_transit":false,"station_id":"POC","time":4},{"station_id":"UI","i_long":106.831474,"is_transit":false,"time":2,"transit":false,"line":2,"distance":1109,"i_lat":-6.360749,"station_name":"Univ. Indonesia"},{"line":2,"station_name":"Univ. Pancasila","time":3,"distance":2264,"station_id":"UP","is_transit":false,"i_lat":-6.339291,"transit":false,"i_long":106.834175},{"i_long":106.832616,"station_id":"LNA","i_lat":-6.330363,"line":2,"distance":1029,"station_name":"Lenteng Agung","is_transit":false,"transit":false,"time":2},{"distance":2671,"station_id":"TNT","time":3,"transit":false,"i_long":106.838896,"station_name":"Tanjung Barat","is_transit":false,"i_lat":-6.3080680000000005,"line":2},{"i_lat":-6.2842400000000005,"station_id":"PSM","is_transit":false,"transit":false,"station_name":"Pasar Minggu","time":4,"distance":2820,"i_long":106.843999,"line":2},{"distance":2380,"station_name":"Pasar Minggu Baru","i_lat":-6.263214,"station_id":"PSMB","transit":false,"i_long":106.851577,"line":2,"is_transit":false,"time":2},{"station_name":"Duren Kalibata","line":2,"station_id":"DRN","is_transit":false,"i_long":106.85449,"i_lat":-6.255332,"time":2,"distance":824,"transit":false},{"line":2,"time":3,"distance":1546,"station_id":"CW","station_name":"Cawang","is_transit":false,"transit":false,"i_lat":-6.242512,"i_long":106.856607},{"distance":1230,"station_id":"TEB","transit":false,"i_lat":-6.226659,"station_name":"Tebet","is_transit":false,"line":2,"time":2,"i_long":106.857948},{"i_lat":-6.209883,"i_long":106.84912,"distance":2610,"station_id":"MRI","station_name":"Manggarai","line":2,"time":4,"transit":true,"is_transit":true},{"time":4,"is_transit":false,"line":1,"transit":false,"station_id":"SUD","distance":3186,"station_name":"Sudirman","i_long":106.822649,"i_lat":-6.202263},{"station_id":"SUDB","station_name":"Sudirman Baru","distance":280,"transit":false,"i_lat":-6.201433,"time":1,"line":1,"is_transit":false,"i_long":106.819881},{"line":1,"is_transit":false,"transit":false,"time":1,"i_lat":-6.20132,"i_long":106.816351,"station_name":"Karet","distance":471,"station_id":"KAT"},{"distance":2029,"i_lat":-6.185545,"transit":false,"i_long":106.811091,"station_name":"Tanah Abang","time":5,"is_transit":false,"line":1,"station_id":"THB"},{"distance":3632,"line":1,"transit":true,"station_id":"DU","i_lat":-6.155215,"is_transit":true,"i_long":106.800832,"station_name":"Duri","time":8},{"station_id":"GGL","i_lat":-6.162021,"is_transit":false,"line":5,"distance":1700,"station_name":"Grogol","transit":false,"i_long":106.788277,"time":3},{"transit":false,"line":5,"time":2,"distance":2036,"i_lat":-6.161433,"is_transit":false,"station_name":"Pesing","i_long":106.771379,"station_id":"PSG"}],[{"i_long":106.800298,"line":2,"time":0,"station_id":"CTA","distance":0,"is_transit":false,"station_name":"Citayam","transit":false,"i_lat":-6.448811},{"distance":5084,"transit":false,"i_long":106.816926,"line":2,"station_name":"Depok","is_transit":false,"station_id":"DP","time":6,"i_lat":-6.405256},{"transit":false,"time":3,"line":2,"is_transit":false,"station_id":"DPB","station_name":"Depokbaru","distance":1584,"i_long":106.819451,"i_lat":-6.391065},{"distance":2727,"line":2,"time":4,"i_lat":-6.369073,"is_transit":false,"station_id":"POC","transit":false,"i_long":106.831114,"station_name":"Pondok Cina"},{"transit":false,"time":2,"i_lat":-6.360749,"distance":1109,"station_id":"UI","station_name":"Univ. Indonesia","i_long":106.831474,"line":2,"is_transit":false},{"transit":false,"i_lat":-6.339291,"line":2,"time":3,"is_transit":false,"distance":2264,"station_id":"UP","station_name":"Univ. Pancasila","i_long":106.834175},{"line":2,"distance":1029,"transit":false,"is_transit":false,"station_name":"Lenteng Agung","station_id":"LNA","i_lat":-6.330363,"time":2,"i_long":106.832616},{"distance":2671,"time":3,"is_transit":false,"station_name":"Tanjung Barat","transit":false,"station_id":"TNT","line":2,"i_lat":-6.3080680000000005,"i_long":106.838896},{"is_transit":false,"time":4,"transit":false,"distance":2820,"i_long":106.843999,"line":2,"station_id":"PSM","i_lat":-6.2842400000000005,"station_name":"Pasar Minggu"},{"distance":2380,"station_id":"PSMB","transit":false,"time":2,"is_transit":false,"station_name":"Pasar Minggu Baru","i_lat":-6.263214,"line":2,"i_long":106.851577},{"distance":824,"transit":false,"station_id":"DRN","is_transit":false,"station_name":"Duren Kalibata","i_lat":-6.255332,"i_long":106.85449,"line":2,"time":2},{"transit":false,"is_transit":false,"i_long":106.856607,"i_lat":-6.242512,"time":3,"line":2,"station_name":"Cawang","station_id":"CW","distance":1546},{"i_lat":-6.226659,"station_name":"Tebet","i_long":106.857948,"line":2,"station_id":"TEB","is_transit":false,"distance":1230,"transit":false,"time":2},{"time":4,"i_lat":-6.209883,"station_id":"MRI","i_long":106.84912,"line":2,"is_transit":false,"station_name":"Manggarai","transit":false,"distance":2610},{"i_lat":-6.198556,"i_long":106.840169,"station_id":"CKI","is_transit":false,"transit":false,"distance":1590,"time":4,"line":2,"station_name":"Cikini"},{"distance":1750,"transit":false,"i_long":106.832183,"line":2,"is_transit":false,"station_id":"GDD","station_name":"Gondangdia","time":3,"i_lat":-6.186295},{"station_id":"JUA","i_long":106.828284,"distance":2015,"transit":false,"line":2,"i_lat":-6.166716,"time":4,"is_transit":false,"station_name":"Juanda"},{"is_transit":false,"time":2,"distance":1149,"transit":false,"station_name":"Sawah Besar","i_long":106.827103,"station_id":"SW","line":2,"i_lat":-6.160725},{"time":2,"i_long":106.82482,"station_id":"MGB","i_lat":-6.149769,"station_name":"Manggabesar","is_transit":false,"line":2,"distance":906,"transit":false},{"distance":1080,"transit":false,"time":2,"is_transit":false,"station_id":"JAY","i_lat":-6.141205,"line":2,"station_name":"Jayakarta","i_long":106.820901},{"i_long":106.812439,"line":2,"is_transit":true,"transit":true,"station_id":"JAKK","time":4,"station_name":"Jakarta Kota","i_lat":-6.137569,"distance":1264},{"station_name":"Kampung Bandan","line":4,"distance":1364,"station_id":"KPB","transit":true,"time":3,"i_long":106.826365,"is_transit":true,"i_lat":-6.132549},{"transit":false,"station_name":"Angke","i_lat":-6.144674,"line":1,"station_id":"AK","distance":4102,"time":9,"is_transit":false,"i_long":106.79867},{"time":4,"line":1,"is_transit":true,"i_lat":-6.155215,"i_long":106.800832,"transit":true,"distance":1230,"station_name":"Duri","station_id":"DU"},{"time":3,"is_transit":false,"i_lat":-6.162021,"distance":1700,"station_name":"Grogol","station_id":"GGL","transit":false,"i_long":106.788277,"line":5},{"transit":false,"station_name":"Pesing","i_lat":-6.161433,"time":2,"line":5,"distance":2036,"is_transit":false,"station_id":"PSG","i_long":106.771379}],[{"station_id":"CTA","station_name":"Citayam","distance":0,"i_long":106.800298,"line":2,"time":0,"i_lat":-6.448811,"is_transit":false,"transit":false},{"transit":false,"is_transit":false,"i_lat":-6.405256,"station_name":"Depok","line":2,"station_id":"DP","i_long":106.816926,"time":6,"distance":5084},{"is_transit":false,"i_long":106.819451,"transit":false,"station_id":"DPB","distance":1584,"station_name":"Depokbaru","line":2,"time":3,"i_lat":-6.391065},{"i_lat":-6.369073,"station_id":"POC","distance":2727,"station_name":"Pondok Cina","i_long":106.831114,"is_transit":false,"line":2,"time":4,"transit":false},{"i_lat":-6.360749,"transit":false,"is_transit":false,"line":2,"station_name":"Univ. Indonesia","i_long":106.831474,"distance":1109,"station_id":"UI","time":2},{"time":3,"station_id":"UP","transit":false,"station_name":"Univ. Pancasila","i_lat":-6.339291,"is_transit":false,"i_long":106.834175,"line":2,"distance":2264},{"station_name":"Lenteng Agung","i_long":106.832616,"line":2,"station_id":"LNA","transit":false,"i_lat":-6.330363,"is_transit":false,"time":2,"distance":1029},{"station_id":"TNT","distance":2671,"transit":false,"is_transit":false,"time":3,"station_name":"Tanjung Barat","i_lat":-6.3080680000000005,"i_long":106.838896,"line":2},{"station_name":"Pasar Minggu","is_transit":false,"time":4,"line":2,"station_id":"PSM","transit":false,"i_long":106.843999,"i_lat":-6.2842400000000005,"distance":2820},{"i_lat":-6.263214,"station_id":"PSMB","transit":false,"i_long":106.851577,"station_name":"Pasar Minggu Baru","is_transit":false,"time":2,"distance":2380,"line":2},{"is_transit":false,"time":2,"i_long":106.85449,"transit":false,"station_name":"Duren Kalibata","i_lat":-6.255332,"station_id":"DRN","distance":824,"line":2},{"station_id":"CW","station_name":"Cawang","line":2,"i_long":106.856607,"distance":1546,"is_transit":false,"i_lat":-6.242512,"transit":false,"time":3},{"station_id":"TEB","line":2,"time":2,"i_long":106.857948,"distance":1230,"station_name":"Tebet","is_transit":false,"transit":false,"i_lat":-6.226659},{"distance":2610,"station_name":"Manggarai","is_transit":true,"time":4,"line":2,"transit":true,"i_long":106.84912,"station_id":"MRI","i_lat":-6.209883},{"station_name":"Matraman","i_long":106.858896,"transit":false,"time":2,"is_transit":false,"line":1,"i_lat":-6.212485,"distance":1275,"station_id":"MTR"},{"i_lat":-6.215091,"distance":1377,"is_transit":true,"transit":true,"i_long":106.86807400000001,"station_id":"JNG","line":1,"station_name":"Jatinegara","time":8},{"distance":1236,"is_transit":false,"time":2,"transit":false,"station_id":"POK","i_long":106.861737,"station_name":"Pondok Jati","i_lat":-6.209188,"line":11},{"i_long":106.855437,"distance":1829,"station_id":"KMT","station_name":"Kramat","i_lat":-6.193792,"transit":false,"line":11,"time":2,"is_transit":false},{"distance":973,"i_lat":-6.185975,"i_long":106.850107,"time":1,"transit":false,"line":11,"station_name":"Gang Sentiong","is_transit":false,"station_id":"GST"},{"station_name":"Pasar Senen","transit":false,"i_long":106.84368,"i_lat":-6.174784,"line":11,"distance":1567,"is_transit":false,"time":8,"station_id":"PSE"},{"time":4,"station_id":"KMO","station_name":"Kemayoran","distance":1436,"line":11,"is_transit":false,"i_lat":-6.161728,"i_long":106.839204,"transit":false},{"i_lat":-6.14505,"line":11,"station_id":"RJW","distance":1901,"i_long":106.836569,"time":5,"is_transit":false,"transit":false,"station_name":"Rajawali"},{"i_lat":-6.132549,"line":4,"is_transit":true,"distance":1444,"station_name":"Kampung Bandan","i_long":106.826365,"station_id":"KPB","time":3,"transit":true},{"station_id":"AK","is_transit":false,"distance":4102,"line":1,"transit":false,"station_name":"Angke","time":9,"i_lat":-6.144674,"i_long":106.79867},{"distance":1230,"station_name":"Duri","time":4,"transit":true,"is_transit":true,"station_id":"DU","i_long":106.800832,"i_lat":-6.155215,"line":1},{"is_transit":false,"transit":false,"station_id":"GGL","line":5,"station_name":"Grogol","i_lat":-6.162021,"distance":1700,"i_long":106.788277,"time":3},{"i_long":106.771379,"distance":2036,"line":5,"time":2,"transit":false,"station_id":"PSG","station_name":"Pesing","i_lat":-6.161433,"is_transit":false}]]}