{"data":[[{"is_transit":false,"i_long":106.332092,"time":0,"distance":0,"i_lat":-6.334892,"transit":false,"station_id":"CTR","line":0,"station_name":"Citeras"},{"time":10,"distance":7293,"is_transit":false,"station_id":"MJ","station_name":"Maja","transit":false,"i_lat":-6.332307,"i_long":106.394373,"line":6},{"distance":1853,"i_long":106.411216,"line":0,"i_lat":-6.33561,"station_name":"Cikoya","station_id":"CKY","is_transit":false,"time":4,"transit":false},{"station_name":"Tigaraksa","i_lat":-6.328533,"distance":2651,"is_transit":false,"station_id":"TGS","transit":false,"time":3,"i_long":106.425991,"line":6},{"line":6,"transit":false,"is_transit":false,"station_id":"TEJ","distance":2974,"station_name":"Tenjo","i_long":106.460812,"time":5,"i_lat":-6.327251},{"i_long":106.491338,"is_transit":false,"line":0,"transit":false,"station_name":"Daru","time":5,"i_lat":-6.338021,"distance":3902,"station_id":"DAR"},{"time":6,"i_lat":-6.354349,"line":0,"station_id":"CJT","i_long":106.508482,"station_name":"Cilejit","is_transit":false,"transit":false,"distance":2675},{"transit":false,"station_id":"PRP","station_name":"Parung Panjang","i_long":106.568863,"line":6,"is_transit":false,"time":9,"distance":7025,"i_lat":-6.3441410000000005},{"is_transit":false,"transit":false,"line":0,"station_name":"Cicayur","i_lat":-6.329547,"station_id":"CC","i_long":106.617853,"time":8,"distance":5968},{"station_name":"Cisauk","distance":2519,"is_transit":false,"i_lat":-6.32484,"station_id":"CSK","time":4,"i_long":106.640411,"line":0,"transit":false},{"i_lat":-6.319871,"station_name":"Serpong","is_transit":false,"transit":false,"station_id":"SRP","line":6,"time":4,"i_long":106.66566,"distance":1784},{"i_long":106.675475,"line":6,"transit":false,"station_id":"RU","is_transit":false,"station_name":"Rawa Buntu","distance":2413,"time":4,"i_lat":-6.314823},{"station_name":"Sudimara","is_transit":false,"i_long":106.712277,"transit":false,"i_lat":-6.296963,"distance":4566,"line":6,"time":6,"station_id":"SDM"},{"distance":1994,"time":4,"is_transit":false,"station_name":"Jurangmangu","station_id":"JMU","transit":false,"i_long":106.728916,"line":6,"i_lat":-6.288927},{"is_transit":false,"station_name":"Pondokranji","distance":2179,"station_id":"PDJ","transit":false,"line":6,"i_lat":-6.276362,"time":3,"i_long":106.74273},{"i_lat":-6.237242,"station_id":"KBY","time":8,"transit":false,"station_name":"Kebayoran","i_long":106.780334,"distance":6218,"line":6,"is_transit":false},{"is_transit":false,"time":7,"i_lat":-6.207404,"station_name":"Palmerah","distance":3737,"station_id":"PLM","line":6,"transit":false,"i_long":106.79689}]]}