{"data":[[{"i_long":106.332092,"time":0,"distance":0,"station_id":"CTR","i_lat":-6.334892,"station_name":"Citeras","line":3,"transit":false,"is_transit":false},{"station_name":"Maja","is_transit":false,"i_long":106.394373,"distance":7293,"station_id":"MJ","i_lat":-6.332307,"time":10,"line":6,"transit":false},{"i_lat":-6.33561,"line":3,"station_id":"CKY","station_name":"Cikoya","i_long":106.411216,"distance":1853,"time":4,"is_transit":false,"transit":false},{"time":3,"station_id":"TGS","i_lat":-6.328533,"line":6,"is_transit":false,"station_name":"Tigaraksa","distance":2651,"transit":false,"i_long":106.425991},{"distance":2974,"time":5,"station_id":"TEJ","transit":false,"station_name":"Tenjo","is_transit":false,"i_lat":-6.327251,"i_long":106.460812,"line":6},{"i_lat":-6.338021,"transit":false,"line":0,"distance":3902,"i_long":106.491338,"station_name":"Daru","is_transit":false,"time":5,"station_id":"DAR"},{"line":3,"station_id":"CJT","distance":2675,"station_name":"Cilejit","i_lat":-6.354349,"i_long":106.508482,"is_transit":false,"transit":false,"time":6},{"time":9,"i_lat":-6.3441410000000005,"line":6,"distance":7025,"transit":false,"station_name":"Parung Panjang","is_transit":false,"i_long":106.568863,"station_id":"PRP"},{"time":8,"line":3,"distance":5968,"is_transit":false,"station_id":"CC","station_name":"Cicayur","i_lat":-6.329547,"transit":false,"i_long":106.617853},{"transit":false,"i_lat":-6.32484,"line":3,"distance":2519,"station_name":"Cisauk","is_transit":false,"time":4,"station_id":"CSK","i_long":106.640411}]]}