{"data":[[{"distance":0,"is_transit":false,"transit":false,"time":0,"station_id":"CTR","i_long":106.332092,"i_lat":-6.334892,"station_name":"Citeras","line":3},{"i_long":106.394373,"line":6,"transit":false,"distance":7293,"station_name":"Maja","i_lat":-6.332307,"time":10,"station_id":"MJ","is_transit":false},{"station_name":"Cikoya","line":3,"is_transit":false,"station_id":"CKY","i_long":106.411216,"time":4,"distance":1853,"i_lat":-6.33561,"transit":false},{"i_long":106.425991,"time":3,"distance":2651,"is_transit":false,"transit":false,"line":6,"i_lat":-6.328533,"station_name":"Tigaraksa","station_id":"TGS"},{"station_name":"Tenjo","line":6,"time":5,"transit":false,"is_transit":false,"station_id":"TEJ","i_lat":-6.327251,"i_long":106.460812,"distance":2974},{"i_long":106.491338,"i_lat":-6.338021,"is_transit":false,"station_name":"Daru","transit":false,"station_id":"DAR","line":0,"distance":3902,"time":5},{"time":6,"distance":2675,"station_name":"Cilejit","transit":false,"line":3,"i_lat":-6.354349,"i_long":106.508482,"station_id":"CJT","is_transit":false},{"time":9,"i_long":106.568863,"i_lat":-6.3441410000000005,"station_name":"Parung Panjang","transit":false,"distance":7025,"station_id":"PRP","is_transit":false,"line":6},{"line":3,"station_id":"CC","time":8,"is_transit":false,"transit":false,"distance":5968,"i_long":106.617853,"station_name":"Cicayur","i_lat":-6.329547},{"distance":2519,"time":4,"station_name":"Cisauk","is_transit":false,"line":3,"i_lat":-6.32484,"station_id":"CSK","transit":false,"i_long":106.640411},{"line":6,"is_transit":false,"station_id":"SRP","transit":false,"i_lat":-6.319871,"time":4,"station_name":"Serpong","i_long":106.66566,"distance":1784},{"distance":2413,"station_id":"RU","is_transit":false,"line":6,"i_lat":-6.314823,"station_name":"Rawa Buntu","i_long":106.675475,"transit":false,"time":4},{"line":6,"is_transit":false,"station_id":"SDM","time":6,"i_long":106.712277,"i_lat":-6.296963,"station_name":"Sudimara","distance":4566,"transit":false},{"station_name":"Jurangmangu","distance":1994,"station_id":"JMU","i_long":106.728916,"transit":false,"i_lat":-6.288927,"time":4,"is_transit":false,"line":6},{"time":3,"i_lat":-6.276362,"station_id":"PDJ","line":6,"distance":2179,"is_transit":false,"station_name":"Pondokranji","i_long":106.74273,"transit":false},{"time":8,"transit":false,"i_lat":-6.237242,"i_long":106.780334,"line":6,"station_name":"Kebayoran","station_id":"KBY","distance":6218,"is_transit":false},{"station_id":"PLM","distance":3737,"station_name":"Palmerah","i_lat":-6.207404,"i_long":106.79689,"transit":false,"time":7,"is_transit":false,"line":6},{"i_long":106.811091,"line":1,"station_id":"THB","distance":3191,"time":6,"is_transit":true,"transit":true,"station_name":"Tanah Abang","i_lat":-6.185545},{"time":5,"is_transit":false,"station_id":"KAT","i_lat":-6.20132,"i_long":106.816351,"transit":false,"distance":2029,"station_name":"Karet","line":1},{"transit":false,"distance":471,"i_lat":-6.201433,"is_transit":false,"station_id":"SUDB","time":1,"station_name":"Sudirman Baru","i_long":106.819881,"line":1},{"transit":false,"i_long":106.822649,"is_transit":false,"station_id":"SUD","distance":280,"line":1,"i_lat":-6.202263,"time":1,"station_name":"Sudirman"},{"i_long":106.84912,"line":2,"i_lat":-6.209883,"transit":true,"station_name":"Manggarai","time":4,"station_id":"MRI","is_transit":true,"distance":3186},{"i_lat":-6.226659,"transit":false,"line":2,"is_transit":false,"station_id":"TEB","i_long":106.857948,"time":4,"distance":2610,"station_name":"Tebet"},{"i_long":106.856607,"i_lat":-6.242512,"time":2,"station_id":"CW","line":2,"is_transit":false,"transit":false,"distance":1230,"station_name":"Cawang"},{"is_transit":false,"line":2,"distance":1546,"station_id":"DRN","time":3,"station_name":"Duren Kalibata","i_lat":-6.255332,"transit":false,"i_long":106.85449},{"station_name":"Pasar Minggu Baru","distance":824,"is_transit":false,"line":2,"i_lat":-6.263214,"i_long":106.851577,"station_id":"PSMB","time":2,"transit":false},{"line":2,"i_lat":-6.2842400000000005,"is_transit":false,"distance":2380,"station_id":"PSM","i_long":106.843999,"transit":false,"station_name":"Pasar Minggu","time":2},{"i_lat":-6.3080680000000005,"line":2,"station_id":"TNT","time":4,"i_long":106.838896,"is_transit":false,"station_name":"Tanjung Barat","transit":false,"distance":2820},{"station_name":"Lenteng Agung","station_id":"LNA","i_lat":-6.330363,"transit":false,"distance":2671,"i_long":106.832616,"line":2,"is_transit":false,"time":3},{"distance":1029,"station_name":"Univ. Pancasila","transit":false,"i_lat":-6.339291,"time":2,"is_transit":false,"i_long":106.834175,"station_id":"UP","line":2},{"i_lat":-6.360749,"is_transit":false,"time":3,"line":2,"i_long":106.831474,"distance":2264,"transit":false,"station_id":"UI","station_name":"Univ. Indonesia"},{"transit":false,"station_id":"POC","i_lat":-6.369073,"line":2,"distance":1109,"is_transit":false,"time":2,"station_name":"Pondok Cina","i_long":106.831114}],[{"i_lat":-6.334892,"is_transit":false,"line":3,"transit":false,"station_id":"CTR","time":0,"distance":0,"station_name":"Citeras","i_long":106.332092},{"transit":false,"i_long":106.394373,"distance":7293,"line":6,"time":10,"is_transit":false,"station_id":"MJ","i_lat":-6.332307,"station_name":"Maja"},{"station_name":"Cikoya","i_long":106.411216,"line":3,"station_id":"CKY","time":4,"i_lat":-6.33561,"transit":false,"is_transit":false,"distance":1853},{"i_long":106.425991,"transit":false,"station_id":"TGS","time":3,"is_transit":false,"distance":2651,"station_name":"Tigaraksa","i_lat":-6.328533,"line":6},{"time":5,"i_lat":-6.327251,"is_transit":false,"line":6,"transit":false,"station_name":"Tenjo","i_long":106.460812,"station_id":"TEJ","distance":2974},{"station_name":"Daru","i_long":106.491338,"time":5,"transit":false,"is_transit":false,"distance":3902,"station_id":"DAR","i_lat":-6.338021,"line":0},{"line":3,"is_transit":false,"time":6,"i_long":106.508482,"station_id":"CJT","distance":2675,"station_name":"Cilejit","i_lat":-6.354349,"transit":false},{"i_lat":-6.3441410000000005,"line":6,"distance":7025,"i_long":106.568863,"time":9,"transit":false,"is_transit":false,"station_id":"PRP","station_name":"Parung Panjang"},{"station_id":"CC","i_long":106.617853,"time":8,"distance":5968,"transit":false,"station_name":"Cicayur","is_transit":false,"i_lat":-6.329547,"line":3},{"line":3,"i_long":106.640411,"is_transit":false,"i_lat":-6.32484,"distance":2519,"time":4,"station_name":"Cisauk","transit":false,"station_id":"CSK"},{"time":4,"station_id":"SRP","line":6,"i_long":106.66566,"distance":1784,"station_name":"Serpong","i_lat":-6.319871,"is_transit":false,"transit":false},{"line":6,"time":4,"is_transit":false,"distance":2413,"station_id":"RU","transit":false,"station_name":"Rawa Buntu","i_lat":-6.314823,"i_long":106.675475},{"station_name":"Sudimara","line":6,"is_transit":false,"transit":false,"time":6,"i_long":106.712277,"distance":4566,"station_id":"SDM","i_lat":-6.296963},{"i_lat":-6.288927,"i_long":106.728916,"station_id":"JMU","line":6,"transit":false,"time":4,"is_transit":false,"distance":1994,"station_name":"Jurangmangu"},{"station_name":"Pondokranji","distance":2179,"i_lat":-6.276362,"is_transit":false,"transit":false,"station_id":"PDJ","time":3,"i_long":106.74273,"line":6},{"i_lat":-6.237242,"transit":false,"time":8,"station_id":"KBY","line":6,"i_long":106.780334,"station_name":"Kebayoran","is_transit":false,"distance":6218},{"distance":3737,"i_long":106.79689,"time":7,"i_lat":-6.207404,"is_transit":false,"station_id":"PLM","line":6,"transit":false,"station_name":"Palmerah"},{"i_long":106.811091,"station_id":"THB","station_name":"Tanah Abang","line":1,"distance":3191,"i_lat":-6.185545,"transit":true,"is_transit":true,"time":6},{"is_transit":false,"station_id":"DU","i_long":106.800832,"station_name":"Duri","i_lat":-6.155215,"transit":false,"distance":3632,"line":1,"time":8},{"distance":1230,"station_id":"AK","station_name":"Angke","is_transit":false,"line":1,"transit":false,"time":4,"i_long":106.79867,"i_lat":-6.144674},{"distance":4102,"time":9,"i_lat":-6.132549,"station_name":"Kampung Bandan","i_long":106.826365,"transit":true,"is_transit":true,"line":4,"station_id":"KPB"},{"station_name":"Jakarta Kota","i_long":106.812439,"time":3,"transit":true,"station_id":"JAKK","i_lat":-6.137569,"is_transit":true,"distance":1364,"line":2},{"is_transit":false,"station_id":"JAY","station_name":"Jayakarta","distance":1264,"transit":false,"time":4,"i_long":106.820901,"line":2,"i_lat":-6.141205},{"distance":1080,"transit":false,"i_long":106.82482,"line":2,"station_id":"MGB","time":2,"i_lat":-6.149769,"station_name":"Manggabesar","is_transit":false},{"distance":906,"station_id":"SW","i_long":106.827103,"line":2,"time":2,"i_lat":-6.160725,"is_transit":false,"station_name":"Sawah Besar","transit":false},{"distance":1149,"is_transit":false,"transit":false,"station_name":"Juanda","station_id":"JUA","i_lat":-6.166716,"time":2,"i_long":106.828284,"line":2},{"transit":false,"i_lat":-6.186295,"distance":2015,"station_id":"GDD","time":4,"station_name":"Gondangdia","is_transit":false,"line":2,"i_long":106.832183},{"i_long":106.840169,"i_lat":-6.198556,"station_id":"CKI","distance":1750,"transit":false,"time":3,"station_name":"Cikini","line":2,"is_transit":false},{"station_name":"Manggarai","i_long":106.84912,"is_transit":false,"i_lat":-6.209883,"line":2,"transit":false,"station_id":"MRI","distance":1590,"time":4},{"i_lat":-6.226659,"transit":false,"distance":2610,"station_id":"TEB","station_name":"Tebet","is_transit":false,"time":4,"i_long":106.857948,"line":2},{"transit":false,"station_id":"CW","station_name":"Cawang","i_lat":-6.242512,"distance":1230,"time":2,"is_transit":false,"i_long":106.856607,"line":2},{"is_transit":false,"transit":false,"i_long":106.85449,"i_lat":-6.255332,"station_id":"DRN","time":3,"line":2,"distance":1546,"station_name":"Duren Kalibata"},{"transit":false,"i_long":106.851577,"distance":824,"time":2,"i_lat":-6.263214,"station_name":"Pasar Minggu Baru","is_transit":false,"station_id":"PSMB","line":2},{"station_id":"PSM","i_long":106.843999,"i_lat":-6.2842400000000005,"time":2,"line":2,"station_name":"Pasar Minggu","transit":false,"is_transit":false,"distance":2380},{"i_lat":-6.3080680000000005,"transit":false,"distance":2820,"i_long":106.838896,"is_transit":false,"time":4,"line":2,"station_name":"Tanjung Barat","station_id":"TNT"},{"is_transit":false,"station_id":"LNA","time":3,"station_name":"Lenteng Agung","i_lat":-6.330363,"distance":2671,"i_long":106.832616,"line":2,"transit":false},{"distance":1029,"station_id":"UP","station_name":"Univ. Pancasila","i_long":106.834175,"is_transit":false,"i_lat":-6.339291,"transit":false,"time":2,"line":2},{"station_id":"UI","i_long":106.831474,"time":3,"station_name":"Univ. Indonesia","line":2,"i_lat":-6.360749,"transit":false,"distance":2264,"is_transit":false},{"station_id":"POC","i_lat":-6.369073,"line":2,"is_transit":false,"time":2,"distance":1109,"transit":false,"station_name":"Pondok Cina","i_long":106.831114}],[{"i_long":106.332092,"is_transit":false,"distance":0,"station_id":"CTR","transit":false,"time":0,"line":3,"i_lat":-6.334892,"station_name":"Citeras"},{"transit":false,"station_name":"Maja","station_id":"MJ","i_long":106.394373,"distance":7293,"is_transit":false,"time":10,"line":6,"i_lat":-6.332307},{"transit":false,"i_lat":-6.33561,"is_transit":false,"station_id":"CKY","time":4,"line":3,"distance":1853,"station_name":"Cikoya","i_long":106.411216},{"is_transit":false,"distance":2651,"time":3,"station_id":"TGS","station_name":"Tigaraksa","transit":false,"i_long":106.425991,"line":6,"i_lat":-6.328533},{"station_name":"Tenjo","i_lat":-6.327251,"distance":2974,"time":5,"transit":false,"station_id":"TEJ","i_long":106.460812,"is_transit":false,"line":6},{"line":0,"time":5,"station_name":"Daru","transit":false,"distance":3902,"is_transit":false,"i_lat":-6.338021,"station_id":"DAR","i_long":106.491338},{"station_name":"Cilejit","i_lat":-6.354349,"line":3,"transit":false,"is_transit":false,"distance":2675,"i_long":106.508482,"time":6,"station_id":"CJT"},{"i_long":106.568863,"is_transit":false,"line":6,"station_id":"PRP","distance":7025,"transit":false,"time":9,"station_name":"Parung Panjang","i_lat":-6.3441410000000005},{"i_long":106.617853,"distance":5968,"is_transit":false,"station_name":"Cicayur","station_id":"CC","transit":false,"i_lat":-6.329547,"line":3,"time":8},{"station_name":"Cisauk","distance":2519,"line":3,"i_long":106.640411,"transit":false,"time":4,"station_id":"CSK","i_lat":-6.32484,"is_transit":false},{"station_id":"SRP","station_name":"Serpong","i_long":106.66566,"line":6,"i_lat":-6.319871,"time":4,"is_transit":false,"distance":1784,"transit":false},{"is_transit":false,"i_lat":-6.314823,"line":6,"station_id":"RU","transit":false,"distance":2413,"time":4,"station_name":"Rawa Buntu","i_long":106.675475},{"station_name":"Sudimara","line":6,"i_long":106.712277,"time":6,"distance":4566,"is_transit":false,"i_lat":-6.296963,"transit":false,"station_id":"SDM"},{"is_transit":false,"station_name":"Jurangmangu","i_lat":-6.288927,"i_long":106.728916,"time":4,"distance":1994,"station_id":"JMU","line":6,"transit":false},{"i_long":106.74273,"is_transit":false,"distance":2179,"line":6,"transit":false,"station_name":"Pondokranji","i_lat":-6.276362,"station_id":"PDJ","time":3},{"i_long":106.780334,"line":6,"i_lat":-6.237242,"station_id":"KBY","time":8,"station_name":"Kebayoran","distance":6218,"is_transit":false,"transit":false},{"station_id":"PLM","distance":3737,"station_name":"Palmerah","time":7,"i_lat":-6.207404,"i_long":106.79689,"line":6,"is_transit":false,"transit":false},{"time":6,"transit":true,"i_long":106.811091,"station_name":"Tanah Abang","station_id":"THB","is_transit":true,"i_lat":-6.185545,"line":1,"distance":3191},{"is_transit":false,"distance":3632,"station_name":"Duri","transit":false,"i_lat":-6.155215,"i_long":106.800832,"station_id":"DU","time":8,"line":1},{"transit":false,"distance":1230,"station_id":"AK","i_long":106.79867,"time":4,"i_lat":-6.144674,"line":1,"is_transit":false,"station_name":"Angke"},{"time":9,"station_name":"Kampung Bandan","line":4,"distance":4102,"i_long":106.826365,"station_id":"KPB","transit":true,"is_transit":true,"i_lat":-6.132549},{"i_long":106.836569,"station_id":"RJW","time":3,"distance":1444,"i_lat":-6.14505,"line":11,"is_transit":false,"transit":false,"station_name":"Rajawali"},{"time":5,"i_lat":-6.161728,"i_long":106.839204,"is_transit":false,"line":11,"distance":1901,"station_id":"KMO","station_name":"Kemayoran","transit":false},{"transit":false,"is_transit":false,"station_id":"PSE","i_lat":-6.174784,"i_long":106.84368,"line":11,"distance":1436,"station_name":"Pasar Senen","time":4},{"station_id":"GST","time":8,"station_name":"Gang Sentiong","transit":false,"i_long":106.850107,"line":11,"distance":1567,"is_transit":false,"i_lat":-6.185975},{"distance":973,"station_id":"KMT","line":11,"transit":false,"time":1,"is_transit":false,"station_name":"Kramat","i_lat":-6.193792,"i_long":106.855437},{"time":2,"station_name":"Pondok Jati","line":11,"i_lat":-6.209188,"transit":false,"is_transit":false,"i_long":106.861737,"station_id":"POK","distance":1829},{"i_lat":-6.215091,"transit":true,"distance":1236,"station_id":"JNG","station_name":"Jatinegara","line":1,"is_transit":true,"time":9,"i_long":106.86807400000001},{"station_name":"Matraman","is_transit":false,"i_lat":-6.212485,"distance":1377,"station_id":"MTR","i_long":106.858896,"line":1,"time":2,"transit":false},{"line":2,"transit":true,"time":2,"station_id":"MRI","station_name":"Manggarai","i_lat":-6.209883,"is_transit":true,"distance":1275,"i_long":106.84912},{"i_lat":-6.226659,"is_transit":false,"i_long":106.857948,"station_id":"TEB","distance":2610,"line":2,"time":4,"transit":false,"station_name":"Tebet"},{"transit":false,"i_lat":-6.242512,"line":2,"distance":1230,"is_transit":false,"time":2,"station_id":"CW","i_long":106.856607,"station_name":"Cawang"},{"i_lat":-6.255332,"i_long":106.85449,"line":2,"time":3,"is_transit":false,"transit":false,"distance":1546,"station_id":"DRN","station_name":"Duren Kalibata"},{"transit":false,"time":2,"distance":824,"is_transit":false,"i_lat":-6.263214,"station_id":"PSMB","station_name":"Pasar Minggu Baru","i_long":106.851577,"line":2},{"station_name":"Pasar Minggu","time":2,"i_long":106.843999,"distance":2380,"is_transit":false,"i_lat":-6.2842400000000005,"line":2,"station_id":"PSM","transit":false},{"time":4,"station_name":"Tanjung Barat","transit":false,"i_long":106.838896,"distance":2820,"line":2,"i_lat":-6.3080680000000005,"is_transit":false,"station_id":"TNT"},{"station_id":"LNA","transit":false,"time":3,"i_lat":-6.330363,"station_name":"Lenteng Agung","line":2,"i_long":106.832616,"is_transit":false,"distance":2671},{"station_name":"Univ. Pancasila","distance":1029,"is_transit":false,"time":2,"i_lat":-6.339291,"line":2,"i_long":106.834175,"station_id":"UP","transit":false},{"i_long":106.831474,"time":3,"line":2,"is_transit":false,"distance":2264,"station_id":"UI","station_name":"Univ. Indonesia","i_lat":-6.360749,"transit":false},{"station_id":"POC","i_lat":-6.369073,"line":2,"time":2,"distance":1109,"transit":false,"station_name":"Pondok Cina","i_long":106.831114,"is_transit":false}]]}