{"data":[[{"distance":0,"transit":false,"i_lat":-6.334892,"is_transit":false,"i_long":106.332092,"station_id":"CTR","line":3,"station_name":"Citeras","time":0},{"station_id":"MJ","is_transit":false,"transit":false,"time":10,"i_lat":-6.332307,"distance":7293,"station_name":"Maja","i_long":106.394373,"line":6},{"station_name":"Cikoya","transit":false,"i_lat":-6.33561,"i_long":106.411216,"station_id":"CKY","line":3,"is_transit":false,"distance":1853,"time":4},{"time":3,"is_transit":false,"i_lat":-6.328533,"line":6,"i_long":106.425991,"station_id":"TGS","station_name":"Tigaraksa","transit":false,"distance":2651},{"distance":2974,"station_id":"TEJ","station_name":"Tenjo","i_long":106.460812,"line":6,"transit":false,"is_transit":false,"time":5,"i_lat":-6.327251},{"i_long":106.491338,"station_name":"Daru","transit":false,"station_id":"DAR","distance":3902,"i_lat":-6.338021,"line":0,"time":5,"is_transit":false},{"distance":2675,"station_name":"Cilejit","station_id":"CJT","line":3,"i_lat":-6.354349,"transit":false,"i_long":106.508482,"time":6,"is_transit":false},{"station_name":"Parung Panjang","i_lat":-6.3441410000000005,"line":6,"i_long":106.568863,"transit":false,"distance":7025,"time":9,"station_id":"PRP","is_transit":false},{"time":8,"transit":false,"i_lat":-6.329547,"station_id":"CC","station_name":"Cicayur","distance":5968,"is_transit":false,"i_long":106.617853,"line":3},{"station_name":"Cisauk","time":4,"transit":false,"station_id":"CSK","i_lat":-6.32484,"i_long":106.640411,"line":3,"is_transit":false,"distance":2519},{"i_long":106.66566,"line":6,"time":4,"is_transit":false,"station_name":"Serpong","transit":false,"distance":1784,"station_id":"SRP","i_lat":-6.319871},{"time":4,"station_name":"Rawa Buntu","station_id":"RU","i_lat":-6.314823,"line":6,"is_transit":false,"i_long":106.675475,"distance":2413,"transit":false},{"i_long":106.712277,"station_id":"SDM","station_name":"Sudimara","line":6,"distance":4566,"i_lat":-6.296963,"time":6,"transit":false,"is_transit":false},{"time":4,"station_name":"Jurangmangu","i_long":106.728916,"line":6,"distance":1994,"i_lat":-6.288927,"station_id":"JMU","is_transit":false,"transit":false},{"transit":false,"distance":2179,"time":3,"i_lat":-6.276362,"is_transit":false,"line":6,"station_id":"PDJ","i_long":106.74273,"station_name":"Pondokranji"},{"station_id":"KBY","line":6,"time":8,"transit":false,"distance":6218,"station_name":"Kebayoran","is_transit":false,"i_lat":-6.237242,"i_long":106.780334},{"time":7,"distance":3737,"station_id":"PLM","i_long":106.79689,"i_lat":-6.207404,"transit":false,"line":6,"is_transit":false,"station_name":"Palmerah"},{"i_lat":-6.185545,"line":1,"transit":true,"time":6,"station_id":"THB","i_long":106.811091,"distance":3191,"station_name":"Tanah Abang","is_transit":true},{"station_id":"DU","i_lat":-6.155215,"i_long":106.800832,"station_name":"Duri","transit":false,"is_transit":false,"time":8,"line":1,"distance":3632},{"station_name":"Angke","is_transit":false,"station_id":"AK","transit":false,"i_lat":-6.144674,"i_long":106.79867,"line":1,"time":4,"distance":1230},{"station_id":"KPB","station_name":"Kampung Bandan","line":4,"distance":4102,"time":9,"is_transit":true,"i_long":106.826365,"i_lat":-6.132549,"transit":true},{"distance":1364,"i_lat":-6.137569,"is_transit":true,"i_long":106.812439,"station_id":"JAKK","station_name":"Jakarta Kota","time":3,"line":2,"transit":true},{"station_name":"Jayakarta","i_long":106.820901,"transit":false,"i_lat":-6.141205,"distance":1264,"station_id":"JAY","is_transit":false,"line":2,"time":4},{"is_transit":false,"station_id":"MGB","i_lat":-6.149769,"station_name":"Manggabesar","i_long":106.82482,"transit":false,"time":2,"line":2,"distance":1080},{"line":2,"i_long":106.827103,"i_lat":-6.160725,"distance":906,"station_name":"Sawah Besar","transit":false,"time":2,"station_id":"SW","is_transit":false}],[{"i_lat":-6.334892,"is_transit":false,"station_id":"CTR","distance":0,"line":3,"i_long":106.332092,"station_name":"Citeras","transit":false,"time":0},{"station_id":"MJ","time":10,"distance":7293,"line":6,"i_long":106.394373,"is_transit":false,"station_name":"Maja","i_lat":-6.332307,"transit":false},{"distance":1853,"station_name":"Cikoya","i_long":106.411216,"line":3,"time":4,"station_id":"CKY","transit":false,"i_lat":-6.33561,"is_transit":false},{"station_name":"Tigaraksa","time":3,"distance":2651,"i_lat":-6.328533,"i_long":106.425991,"transit":false,"line":6,"is_transit":false,"station_id":"TGS"},{"is_transit":false,"line":6,"distance":2974,"transit":false,"station_name":"Tenjo","time":5,"i_long":106.460812,"i_lat":-6.327251,"station_id":"TEJ"},{"transit":false,"line":0,"station_id":"DAR","i_lat":-6.338021,"station_name":"Daru","i_long":106.491338,"distance":3902,"time":5,"is_transit":false},{"line":3,"i_long":106.508482,"station_id":"CJT","station_name":"Cilejit","transit":false,"is_transit":false,"distance":2675,"time":6,"i_lat":-6.354349},{"line":6,"station_id":"PRP","i_long":106.568863,"time":9,"station_name":"Parung Panjang","transit":false,"distance":7025,"is_transit":false,"i_lat":-6.3441410000000005},{"station_id":"CC","is_transit":false,"station_name":"Cicayur","time":8,"i_long":106.617853,"i_lat":-6.329547,"transit":false,"distance":5968,"line":3},{"is_transit":false,"station_name":"Cisauk","station_id":"CSK","distance":2519,"i_lat":-6.32484,"i_long":106.640411,"line":3,"transit":false,"time":4},{"i_lat":-6.319871,"is_transit":false,"transit":false,"station_id":"SRP","time":4,"station_name":"Serpong","distance":1784,"line":6,"i_long":106.66566},{"is_transit":false,"i_lat":-6.314823,"station_id":"RU","line":6,"time":4,"distance":2413,"station_name":"Rawa Buntu","i_long":106.675475,"transit":false},{"line":6,"time":6,"station_id":"SDM","distance":4566,"i_lat":-6.296963,"transit":false,"station_name":"Sudimara","is_transit":false,"i_long":106.712277},{"transit":false,"station_id":"JMU","i_long":106.728916,"line":6,"distance":1994,"is_transit":false,"i_lat":-6.288927,"station_name":"Jurangmangu","time":4},{"distance":2179,"station_name":"Pondokranji","i_long":106.74273,"time":3,"station_id":"PDJ","i_lat":-6.276362,"line":6,"is_transit":false,"transit":false},{"transit":false,"time":8,"station_name":"Kebayoran","i_long":106.780334,"is_transit":false,"i_lat":-6.237242,"line":6,"station_id":"KBY","distance":6218},{"i_lat":-6.207404,"transit":false,"station_id":"PLM","i_long":106.79689,"time":7,"station_name":"Palmerah","distance":3737,"is_transit":false,"line":6},{"distance":3191,"station_name":"Tanah Abang","i_lat":-6.185545,"is_transit":true,"station_id":"THB","transit":true,"line":1,"time":6,"i_long":106.811091},{"transit":false,"time":5,"i_long":106.816351,"i_lat":-6.20132,"station_name":"Karet","is_transit":false,"line":1,"station_id":"KAT","distance":2029},{"time":1,"is_transit":false,"distance":471,"station_id":"SUDB","i_long":106.819881,"station_name":"Sudirman Baru","i_lat":-6.201433,"line":1,"transit":false},{"is_transit":false,"time":1,"distance":280,"i_lat":-6.202263,"line":1,"station_name":"Sudirman","station_id":"SUD","i_long":106.822649,"transit":false},{"i_long":106.84912,"line":2,"station_name":"Manggarai","is_transit":true,"i_lat":-6.209883,"transit":true,"time":4,"distance":3186,"station_id":"MRI"},{"is_transit":false,"time":4,"station_id":"CKI","station_name":"Cikini","transit":false,"distance":1590,"i_lat":-6.198556,"i_long":106.840169,"line":2},{"distance":1750,"i_lat":-6.186295,"is_transit":false,"station_name":"Gondangdia","transit":false,"line":2,"time":3,"i_long":106.832183,"station_id":"GDD"},{"line":2,"distance":2015,"is_transit":false,"transit":false,"station_id":"JUA","i_lat":-6.166716,"station_name":"Juanda","i_long":106.828284,"time":4},{"station_id":"SW","time":2,"line":2,"station_name":"Sawah Besar","i_long":106.827103,"i_lat":-6.160725,"transit":false,"is_transit":false,"distance":1149}],[{"i_lat":-6.334892,"is_transit":false,"station_name":"Citeras","transit":false,"time":0,"distance":0,"station_id":"CTR","line":3,"i_long":106.332092},{"station_id":"MJ","line":6,"station_name":"Maja","transit":false,"time":10,"distance":7293,"is_transit":false,"i_lat":-6.332307,"i_long":106.394373},{"station_id":"CKY","is_transit":false,"line":3,"distance":1853,"transit":false,"time":4,"station_name":"Cikoya","i_long":106.411216,"i_lat":-6.33561},{"line":6,"distance":2651,"i_long":106.425991,"station_name":"Tigaraksa","station_id":"TGS","transit":false,"is_transit":false,"time":3,"i_lat":-6.328533},{"is_transit":false,"station_name":"Tenjo","transit":false,"i_long":106.460812,"time":5,"station_id":"TEJ","i_lat":-6.327251,"distance":2974,"line":6},{"transit":false,"time":5,"is_transit":false,"line":0,"i_lat":-6.338021,"station_name":"Daru","i_long":106.491338,"station_id":"DAR","distance":3902},{"is_transit":false,"distance":2675,"i_long":106.508482,"station_name":"Cilejit","transit":false,"i_lat":-6.354349,"line":3,"time":6,"station_id":"CJT"},{"line":6,"time":9,"station_id":"PRP","distance":7025,"is_transit":false,"i_lat":-6.3441410000000005,"i_long":106.568863,"transit":false,"station_name":"Parung Panjang"},{"station_id":"CC","time":8,"line":3,"is_transit":false,"i_long":106.617853,"station_name":"Cicayur","transit":false,"i_lat":-6.329547,"distance":5968},{"distance":2519,"transit":false,"station_id":"CSK","is_transit":false,"line":3,"i_long":106.640411,"station_name":"Cisauk","i_lat":-6.32484,"time":4},{"is_transit":false,"distance":1784,"i_long":106.66566,"transit":false,"station_name":"Serpong","station_id":"SRP","time":4,"i_lat":-6.319871,"line":6},{"station_id":"RU","station_name":"Rawa Buntu","is_transit":false,"i_lat":-6.314823,"i_long":106.675475,"distance":2413,"line":6,"time":4,"transit":false},{"line":6,"transit":false,"time":6,"station_name":"Sudimara","is_transit":false,"distance":4566,"i_lat":-6.296963,"i_long":106.712277,"station_id":"SDM"},{"i_long":106.728916,"station_id":"JMU","line":6,"time":4,"transit":false,"station_name":"Jurangmangu","distance":1994,"is_transit":false,"i_lat":-6.288927},{"i_lat":-6.276362,"line":6,"distance":2179,"is_transit":false,"i_long":106.74273,"transit":false,"time":3,"station_name":"Pondokranji","station_id":"PDJ"},{"i_lat":-6.237242,"line":6,"time":8,"is_transit":false,"station_name":"Kebayoran","transit":false,"station_id":"KBY","i_long":106.780334,"distance":6218},{"i_lat":-6.207404,"transit":false,"is_transit":false,"station_id":"PLM","distance":3737,"i_long":106.79689,"line":6,"time":7,"station_name":"Palmerah"},{"station_name":"Tanah Abang","time":6,"transit":true,"station_id":"THB","i_long":106.811091,"distance":3191,"line":1,"is_transit":true,"i_lat":-6.185545},{"time":8,"station_id":"DU","station_name":"Duri","distance":3632,"is_transit":false,"i_long":106.800832,"line":1,"transit":false,"i_lat":-6.155215},{"line":1,"transit":false,"i_long":106.79867,"station_id":"AK","station_name":"Angke","i_lat":-6.144674,"time":4,"distance":1230,"is_transit":false},{"transit":true,"station_id":"KPB","i_lat":-6.132549,"line":4,"station_name":"Kampung Bandan","distance":4102,"i_long":106.826365,"is_transit":true,"time":9},{"station_id":"RJW","transit":false,"time":3,"distance":1444,"i_lat":-6.14505,"i_long":106.836569,"line":11,"station_name":"Rajawali","is_transit":false},{"station_name":"Kemayoran","station_id":"KMO","is_transit":false,"transit":false,"distance":1901,"i_lat":-6.161728,"i_long":106.839204,"time":5,"line":11},{"is_transit":false,"line":11,"i_lat":-6.174784,"station_name":"Pasar Senen","transit":false,"i_long":106.84368,"distance":1436,"station_id":"PSE","time":4},{"time":8,"station_name":"Gang Sentiong","distance":1567,"i_lat":-6.185975,"i_long":106.850107,"is_transit":false,"station_id":"GST","line":11,"transit":false},{"transit":false,"time":1,"distance":973,"i_long":106.855437,"line":11,"station_name":"Kramat","is_transit":false,"station_id":"KMT","i_lat":-6.193792},{"distance":1829,"i_lat":-6.209188,"station_name":"Pondok Jati","line":11,"time":2,"station_id":"POK","transit":false,"i_long":106.861737,"is_transit":false},{"station_name":"Jatinegara","is_transit":true,"station_id":"JNG","time":9,"i_long":106.86807400000001,"transit":true,"i_lat":-6.215091,"distance":1236,"line":1},{"station_name":"Matraman","time":2,"distance":1377,"i_long":106.858896,"is_transit":false,"transit":false,"station_id":"MTR","i_lat":-6.212485,"line":1},{"station_name":"Manggarai","time":2,"i_long":106.84912,"transit":true,"i_lat":-6.209883,"distance":1275,"is_transit":true,"line":2,"station_id":"MRI"},{"i_long":106.840169,"distance":1590,"station_id":"CKI","is_transit":false,"i_lat":-6.198556,"transit":false,"line":2,"time":4,"station_name":"Cikini"},{"transit":false,"i_long":106.832183,"station_name":"Gondangdia","time":3,"distance":1750,"i_lat":-6.186295,"line":2,"station_id":"GDD","is_transit":false},{"station_id":"JUA","time":4,"line":2,"i_lat":-6.166716,"i_long":106.828284,"distance":2015,"is_transit":false,"station_name":"Juanda","transit":false},{"transit":false,"station_name":"Sawah Besar","i_long":106.827103,"line":2,"station_id":"SW","distance":1149,"time":2,"is_transit":false,"i_lat":-6.160725}],[{"station_id":"CTR","transit":false,"is_transit":false,"i_lat":-6.334892,"station_name":"Citeras","distance":0,"i_long":106.332092,"time":0,"line":3},{"line":6,"i_long":106.394373,"distance":7293,"transit":false,"is_transit":false,"i_lat":-6.332307,"station_name":"Maja","time":10,"station_id":"MJ"},{"i_lat":-6.33561,"transit":false,"station_id":"CKY","line":3,"distance":1853,"i_long":106.411216,"is_transit":false,"station_name":"Cikoya","time":4},{"station_name":"Tigaraksa","time":3,"station_id":"TGS","distance":2651,"is_transit":false,"i_long":106.425991,"transit":false,"i_lat":-6.328533,"line":6},{"distance":2974,"station_name":"Tenjo","transit":false,"i_long":106.460812,"station_id":"TEJ","is_transit":false,"time":5,"i_lat":-6.327251,"line":6},{"distance":3902,"line":0,"i_long":106.491338,"station_id":"DAR","i_lat":-6.338021,"is_transit":false,"time":5,"station_name":"Daru","transit":false},{"transit":false,"station_name":"Cilejit","station_id":"CJT","i_lat":-6.354349,"is_transit":false,"line":3,"distance":2675,"time":6,"i_long":106.508482},{"line":6,"station_name":"Parung Panjang","station_id":"PRP","distance":7025,"transit":false,"time":9,"i_lat":-6.3441410000000005,"is_transit":false,"i_long":106.568863},{"distance":5968,"i_long":106.617853,"transit":false,"station_name":"Cicayur","station_id":"CC","is_transit":false,"line":3,"time":8,"i_lat":-6.329547},{"transit":false,"i_long":106.640411,"station_id":"CSK","is_transit":false,"line":3,"time":4,"i_lat":-6.32484,"station_name":"Cisauk","distance":2519},{"station_id":"SRP","distance":1784,"transit":false,"i_lat":-6.319871,"line":6,"is_transit":false,"station_name":"Serpong","i_long":106.66566,"time":4},{"i_long":106.675475,"i_lat":-6.314823,"distance":2413,"station_name":"Rawa Buntu","is_transit":false,"line":6,"transit":false,"time":4,"station_id":"RU"},{"station_id":"SDM","line":6,"transit":false,"i_lat":-6.296963,"time":6,"distance":4566,"station_name":"Sudimara","is_transit":false,"i_long":106.712277},{"transit":false,"time":4,"i_long":106.728916,"line":6,"i_lat":-6.288927,"is_transit":false,"station_id":"JMU","distance":1994,"station_name":"Jurangmangu"},{"i_long":106.74273,"i_lat":-6.276362,"is_transit":false,"transit":false,"distance":2179,"line":6,"time":3,"station_name":"Pondokranji","station_id":"PDJ"},{"is_transit":false,"transit":false,"distance":6218,"i_lat":-6.237242,"line":6,"i_long":106.780334,"station_name":"Kebayoran","time":8,"station_id":"KBY"},{"i_long":106.79689,"station_id":"PLM","station_name":"Palmerah","i_lat":-6.207404,"distance":3737,"is_transit":false,"time":7,"line":6,"transit":false},{"time":6,"distance":3191,"station_name":"Tanah Abang","transit":true,"line":1,"i_lat":-6.185545,"station_id":"THB","i_long":106.811091,"is_transit":true},{"station_id":"KAT","station_name":"Karet","i_lat":-6.20132,"line":1,"i_long":106.816351,"is_transit":false,"distance":2029,"time":5,"transit":false},{"station_id":"SUDB","transit":false,"distance":471,"i_lat":-6.201433,"line":1,"is_transit":false,"station_name":"Sudirman Baru","time":1,"i_long":106.819881},{"time":1,"i_long":106.822649,"line":1,"station_name":"Sudirman","station_id":"SUD","is_transit":false,"i_lat":-6.202263,"distance":280,"transit":false},{"time":4,"distance":3186,"i_lat":-6.209883,"is_transit":false,"station_name":"Manggarai","transit":false,"i_long":106.84912,"station_id":"MRI","line":2},{"is_transit":false,"station_id":"MTR","transit":false,"time":2,"distance":1275,"line":1,"station_name":"Matraman","i_long":106.858896,"i_lat":-6.212485},{"line":1,"transit":true,"is_transit":true,"time":8,"station_id":"JNG","distance":1377,"i_lat":-6.215091,"station_name":"Jatinegara","i_long":106.86807400000001},{"transit":false,"time":2,"station_id":"POK","distance":1236,"station_name":"Pondok Jati","is_transit":false,"i_long":106.861737,"line":11,"i_lat":-6.209188},{"transit":false,"distance":1829,"is_transit":false,"i_lat":-6.193792,"station_id":"KMT","station_name":"Kramat","line":11,"i_long":106.855437,"time":2},{"distance":973,"is_transit":false,"line":11,"station_id":"GST","transit":false,"i_lat":-6.185975,"i_long":106.850107,"station_name":"Gang Sentiong","time":1},{"station_id":"PSE","time":8,"transit":false,"station_name":"Pasar Senen","distance":1567,"is_transit":false,"i_long":106.84368,"i_lat":-6.174784,"line":11},{"i_long":106.839204,"time":4,"is_transit":false,"station_name":"Kemayoran","line":11,"station_id":"KMO","distance":1436,"transit":false,"i_lat":-6.161728},{"station_id":"RJW","i_long":106.836569,"line":11,"station_name":"Rajawali","i_lat":-6.14505,"distance":1901,"is_transit":false,"transit":false,"time":5},{"station_name":"Kampung Bandan","transit":true,"i_long":106.826365,"line":4,"station_id":"KPB","time":3,"distance":1444,"is_transit":true,"i_lat":-6.132549},{"transit":true,"is_transit":true,"i_long":106.812439,"distance":1364,"station_id":"JAKK","time":3,"i_lat":-6.137569,"station_name":"Jakarta Kota","line":2},{"station_name":"Jayakarta","transit":false,"distance":1264,"line":2,"i_lat":-6.141205,"time":4,"is_transit":false,"station_id":"JAY","i_long":106.820901},{"i_lat":-6.149769,"transit":false,"time":2,"is_transit":false,"line":2,"station_id":"MGB","station_name":"Manggabesar","i_long":106.82482,"distance":1080},{"distance":906,"transit":false,"is_transit":false,"i_lat":-6.160725,"i_long":106.827103,"time":2,"station_name":"Sawah Besar","line":2,"station_id":"SW"}]]}