{"data":[[{"line":3,"station_id":"CTR","i_long":106.332092,"distance":0,"is_transit":false,"transit":false,"time":0,"station_name":"Citeras","i_lat":-6.334892},{"is_transit":false,"time":10,"transit":false,"i_lat":-6.332307,"i_long":106.394373,"line":6,"station_id":"MJ","station_name":"Maja","distance":7293},{"distance":1853,"transit":false,"i_long":106.411216,"is_transit":false,"station_id":"CKY","station_name":"Cikoya","line":3,"time":4,"i_lat":-6.33561},{"transit":false,"distance":2651,"station_id":"TGS","time":3,"line":6,"station_name":"Tigaraksa","is_transit":false,"i_long":106.425991,"i_lat":-6.328533},{"i_lat":-6.327251,"distance":2974,"station_id":"TEJ","is_transit":false,"time":5,"transit":false,"station_name":"Tenjo","line":6,"i_long":106.460812},{"distance":3902,"i_lat":-6.338021,"station_name":"Daru","station_id":"DAR","i_long":106.491338,"time":5,"transit":false,"line":0,"is_transit":false},{"line":3,"is_transit":false,"distance":2675,"station_name":"Cilejit","station_id":"CJT","i_lat":-6.354349,"time":6,"i_long":106.508482,"transit":false},{"time":9,"i_lat":-6.3441410000000005,"station_id":"PRP","distance":7025,"i_long":106.568863,"transit":false,"is_transit":false,"line":6,"station_name":"Parung Panjang"},{"i_long":106.617853,"i_lat":-6.329547,"line":3,"distance":5968,"transit":false,"is_transit":false,"station_id":"CC","time":8,"station_name":"Cicayur"},{"i_lat":-6.32484,"distance":2519,"is_transit":false,"station_id":"CSK","time":4,"i_long":106.640411,"transit":false,"station_name":"Cisauk","line":3},{"i_lat":-6.319871,"time":4,"i_long":106.66566,"station_name":"Serpong","line":6,"distance":1784,"transit":false,"station_id":"SRP","is_transit":false},{"distance":2413,"time":4,"is_transit":false,"i_long":106.675475,"i_lat":-6.314823,"line":6,"transit":false,"station_id":"RU","station_name":"Rawa Buntu"},{"distance":4566,"is_transit":false,"i_long":106.712277,"transit":false,"time":6,"station_id":"SDM","line":6,"i_lat":-6.296963,"station_name":"Sudimara"},{"time":4,"i_long":106.728916,"is_transit":false,"line":6,"distance":1994,"station_id":"JMU","transit":false,"i_lat":-6.288927,"station_name":"Jurangmangu"},{"station_id":"PDJ","i_lat":-6.276362,"station_name":"Pondokranji","line":6,"is_transit":false,"i_long":106.74273,"transit":false,"time":3,"distance":2179},{"distance":6218,"station_name":"Kebayoran","station_id":"KBY","transit":false,"is_transit":false,"line":6,"time":8,"i_long":106.780334,"i_lat":-6.237242},{"time":7,"i_long":106.79689,"line":6,"station_id":"PLM","i_lat":-6.207404,"station_name":"Palmerah","distance":3737,"transit":false,"is_transit":false},{"line":1,"distance":3191,"i_long":106.811091,"is_transit":true,"station_id":"THB","i_lat":-6.185545,"transit":true,"station_name":"Tanah Abang","time":6},{"time":5,"i_long":106.816351,"station_name":"Karet","distance":2029,"line":1,"i_lat":-6.20132,"is_transit":false,"station_id":"KAT","transit":false},{"i_lat":-6.201433,"station_name":"Sudirman Baru","is_transit":false,"i_long":106.819881,"time":1,"transit":false,"line":1,"station_id":"SUDB","distance":471},{"time":1,"i_lat":-6.202263,"line":1,"station_name":"Sudirman","distance":280,"transit":false,"is_transit":false,"station_id":"SUD","i_long":106.822649},{"i_lat":-6.209883,"station_name":"Manggarai","distance":3186,"station_id":"MRI","line":2,"transit":false,"i_long":106.84912,"time":4,"is_transit":false},{"distance":1275,"is_transit":false,"station_id":"MTR","transit":false,"station_name":"Matraman","time":2,"i_long":106.858896,"line":1,"i_lat":-6.212485},{"station_id":"JNG","station_name":"Jatinegara","i_lat":-6.215091,"is_transit":false,"time":8,"i_long":106.86807400000001,"line":1,"transit":false,"distance":1377},{"station_id":"KLD","i_lat":-6.2135,"i_long":106.899548,"transit":false,"line":1,"station_name":"Klender","distance":3395,"time":3,"is_transit":false},{"i_long":106.922662,"line":1,"is_transit":false,"station_name":"Buaran","transit":false,"i_lat":-6.215568,"time":2,"distance":3100,"station_id":"BUA"},{"i_long":106.939679,"is_transit":false,"time":1,"line":1,"station_id":"KLDB","distance":1305,"transit":false,"station_name":"Klenderbaru","i_lat":-6.217455},{"station_name":"Cakung","is_transit":false,"transit":false,"station_id":"CUK","distance":1385,"time":8,"i_long":106.951283,"i_lat":-6.219053,"line":1},{"transit":false,"line":1,"time":3,"distance":3097,"station_name":"Kranji","is_transit":false,"station_id":"KRI","i_lat":-6.224515,"i_long":106.977657},{"line":1,"transit":false,"i_long":106.997013,"distance":2520,"i_lat":-6.236616,"station_id":"BKS","is_transit":false,"time":4,"station_name":"Bekasi"},{"line":1,"station_name":"Bekasi Timur","station_id":"BKST","is_transit":false,"time":2,"i_lat":-6.248029,"distance":2368,"i_long":107.016735,"transit":false},{"is_transit":false,"distance":4460,"i_lat":-6.258864,"station_id":"TB","i_long":107.055722,"transit":false,"time":7,"line":1,"station_name":"Tambun"},{"i_lat":-6.261877,"i_long":107.083084,"station_id":"CIT","transit":false,"distance":3420,"is_transit":false,"station_name":"Cibitung","line":1,"time":3}],[{"station_name":"Citeras","distance":0,"transit":false,"is_transit":false,"i_long":106.332092,"time":0,"line":3,"i_lat":-6.334892,"station_id":"CTR"},{"transit":false,"i_lat":-6.332307,"station_id":"MJ","distance":7293,"is_transit":false,"i_long":106.394373,"station_name":"Maja","line":6,"time":10},{"transit":false,"time":4,"is_transit":false,"i_lat":-6.33561,"distance":1853,"station_id":"CKY","line":3,"i_long":106.411216,"station_name":"Cikoya"},{"is_transit":false,"station_id":"TGS","i_lat":-6.328533,"distance":2651,"station_name":"Tigaraksa","line":6,"time":3,"transit":false,"i_long":106.425991},{"time":5,"station_name":"Tenjo","i_long":106.460812,"distance":2974,"station_id":"TEJ","transit":false,"i_lat":-6.327251,"line":6,"is_transit":false},{"station_name":"Daru","distance":3902,"time":5,"i_long":106.491338,"transit":false,"station_id":"DAR","i_lat":-6.338021,"is_transit":false,"line":0},{"i_lat":-6.354349,"i_long":106.508482,"station_name":"Cilejit","distance":2675,"station_id":"CJT","line":3,"transit":false,"time":6,"is_transit":false},{"time":9,"distance":7025,"i_long":106.568863,"line":6,"is_transit":false,"station_name":"Parung Panjang","i_lat":-6.3441410000000005,"station_id":"PRP","transit":false},{"station_id":"CC","i_lat":-6.329547,"is_transit":false,"line":3,"time":8,"station_name":"Cicayur","transit":false,"i_long":106.617853,"distance":5968},{"i_long":106.640411,"is_transit":false,"station_name":"Cisauk","station_id":"CSK","line":3,"transit":false,"i_lat":-6.32484,"time":4,"distance":2519},{"station_id":"SRP","i_lat":-6.319871,"is_transit":false,"time":4,"distance":1784,"i_long":106.66566,"station_name":"Serpong","line":6,"transit":false},{"station_id":"RU","i_lat":-6.314823,"i_long":106.675475,"transit":false,"is_transit":false,"station_name":"Rawa Buntu","time":4,"distance":2413,"line":6},{"transit":false,"is_transit":false,"line":6,"time":6,"station_name":"Sudimara","i_long":106.712277,"distance":4566,"station_id":"SDM","i_lat":-6.296963},{"transit":false,"line":6,"time":4,"is_transit":false,"i_long":106.728916,"distance":1994,"station_id":"JMU","i_lat":-6.288927,"station_name":"Jurangmangu"},{"time":3,"i_lat":-6.276362,"station_id":"PDJ","distance":2179,"station_name":"Pondokranji","transit":false,"i_long":106.74273,"line":6,"is_transit":false},{"line":6,"i_lat":-6.237242,"station_id":"KBY","distance":6218,"is_transit":false,"transit":false,"station_name":"Kebayoran","time":8,"i_long":106.780334},{"transit":false,"station_name":"Palmerah","time":7,"distance":3737,"i_lat":-6.207404,"is_transit":false,"station_id":"PLM","i_long":106.79689,"line":6},{"i_lat":-6.185545,"i_long":106.811091,"line":1,"time":6,"transit":true,"station_id":"THB","is_transit":true,"station_name":"Tanah Abang","distance":3191},{"line":1,"transit":false,"is_transit":false,"i_lat":-6.155215,"time":8,"station_name":"Duri","distance":3632,"station_id":"DU","i_long":106.800832},{"time":4,"i_lat":-6.144674,"station_id":"AK","station_name":"Angke","i_long":106.79867,"is_transit":false,"line":1,"distance":1230,"transit":false},{"i_lat":-6.132549,"distance":4102,"station_name":"Kampung Bandan","transit":true,"i_long":106.826365,"station_id":"KPB","time":9,"line":4,"is_transit":true},{"transit":false,"station_name":"Rajawali","i_lat":-6.14505,"line":11,"i_long":106.836569,"station_id":"RJW","distance":1444,"time":3,"is_transit":false},{"station_id":"KMO","i_lat":-6.161728,"line":11,"is_transit":false,"distance":1901,"i_long":106.839204,"time":5,"station_name":"Kemayoran","transit":false},{"i_lat":-6.174784,"transit":false,"is_transit":false,"i_long":106.84368,"line":11,"station_name":"Pasar Senen","time":4,"distance":1436,"station_id":"PSE"},{"transit":false,"i_lat":-6.185975,"time":8,"is_transit":false,"station_name":"Gang Sentiong","distance":1567,"line":11,"station_id":"GST","i_long":106.850107},{"distance":973,"station_id":"KMT","is_transit":false,"station_name":"Kramat","time":1,"i_lat":-6.193792,"i_long":106.855437,"transit":false,"line":11},{"is_transit":false,"time":2,"station_name":"Pondok Jati","distance":1829,"i_lat":-6.209188,"station_id":"POK","line":11,"i_long":106.861737,"transit":false},{"station_name":"Jatinegara","is_transit":true,"line":1,"station_id":"JNG","time":9,"transit":true,"distance":1236,"i_lat":-6.215091,"i_long":106.86807400000001},{"time":3,"station_name":"Klender","station_id":"KLD","distance":3395,"transit":false,"i_long":106.899548,"line":1,"is_transit":false,"i_lat":-6.2135},{"distance":3100,"line":1,"i_lat":-6.215568,"is_transit":false,"station_id":"BUA","time":2,"transit":false,"station_name":"Buaran","i_long":106.922662},{"station_name":"Klenderbaru","station_id":"KLDB","line":1,"distance":1305,"transit":false,"is_transit":false,"i_long":106.939679,"i_lat":-6.217455,"time":1},{"transit":false,"i_lat":-6.219053,"distance":1385,"station_id":"CUK","line":1,"i_long":106.951283,"is_transit":false,"station_name":"Cakung","time":8},{"distance":3097,"i_long":106.977657,"is_transit":false,"station_name":"Kranji","transit":false,"station_id":"KRI","time":3,"line":1,"i_lat":-6.224515},{"distance":2520,"time":4,"i_lat":-6.236616,"transit":false,"station_name":"Bekasi","station_id":"BKS","i_long":106.997013,"line":1,"is_transit":false},{"transit":false,"station_id":"BKST","time":2,"i_long":107.016735,"line":1,"distance":2368,"station_name":"Bekasi Timur","i_lat":-6.248029,"is_transit":false},{"i_lat":-6.258864,"station_id":"TB","distance":4460,"transit":false,"time":7,"is_transit":false,"line":1,"station_name":"Tambun","i_long":107.055722},{"i_lat":-6.261877,"station_id":"CIT","i_long":107.083084,"station_name":"Cibitung","is_transit":false,"transit":false,"line":1,"distance":3420,"time":3}],[{"i_long":106.332092,"station_id":"CTR","time":0,"line":3,"station_name":"Citeras","transit":false,"is_transit":false,"i_lat":-6.334892,"distance":0},{"i_lat":-6.332307,"station_id":"MJ","i_long":106.394373,"line":6,"station_name":"Maja","transit":false,"is_transit":false,"distance":7293,"time":10},{"line":3,"i_lat":-6.33561,"transit":false,"is_transit":false,"time":4,"distance":1853,"station_name":"Cikoya","station_id":"CKY","i_long":106.411216},{"distance":2651,"time":3,"transit":false,"station_id":"TGS","i_long":106.425991,"line":6,"station_name":"Tigaraksa","is_transit":false,"i_lat":-6.328533},{"transit":false,"is_transit":false,"station_id":"TEJ","distance":2974,"station_name":"Tenjo","time":5,"i_lat":-6.327251,"i_long":106.460812,"line":6},{"distance":3902,"i_long":106.491338,"time":5,"station_name":"Daru","station_id":"DAR","line":0,"i_lat":-6.338021,"transit":false,"is_transit":false},{"station_name":"Cilejit","distance":2675,"transit":false,"time":6,"is_transit":false,"station_id":"CJT","i_lat":-6.354349,"i_long":106.508482,"line":3},{"time":9,"station_id":"PRP","is_transit":false,"station_name":"Parung Panjang","distance":7025,"transit":false,"i_long":106.568863,"line":6,"i_lat":-6.3441410000000005},{"station_id":"CC","time":8,"i_lat":-6.329547,"is_transit":false,"station_name":"Cicayur","transit":false,"distance":5968,"line":3,"i_long":106.617853},{"station_id":"CSK","transit":false,"distance":2519,"is_transit":false,"i_lat":-6.32484,"i_long":106.640411,"station_name":"Cisauk","time":4,"line":3},{"i_long":106.66566,"transit":false,"line":6,"station_id":"SRP","time":4,"station_name":"Serpong","distance":1784,"i_lat":-6.319871,"is_transit":false},{"i_lat":-6.314823,"i_long":106.675475,"is_transit":false,"station_name":"Rawa Buntu","line":6,"transit":false,"station_id":"RU","distance":2413,"time":4},{"i_lat":-6.296963,"line":6,"is_transit":false,"time":6,"station_name":"Sudimara","i_long":106.712277,"distance":4566,"station_id":"SDM","transit":false},{"i_lat":-6.288927,"distance":1994,"line":6,"is_transit":false,"time":4,"station_name":"Jurangmangu","i_long":106.728916,"transit":false,"station_id":"JMU"},{"station_name":"Pondokranji","time":3,"i_long":106.74273,"i_lat":-6.276362,"transit":false,"line":6,"distance":2179,"is_transit":false,"station_id":"PDJ"},{"i_long":106.780334,"station_id":"KBY","transit":false,"time":8,"distance":6218,"line":6,"station_name":"Kebayoran","is_transit":false,"i_lat":-6.237242},{"is_transit":false,"station_name":"Palmerah","time":7,"transit":false,"station_id":"PLM","i_lat":-6.207404,"distance":3737,"i_long":106.79689,"line":6},{"station_name":"Tanah Abang","is_transit":true,"station_id":"THB","transit":true,"i_long":106.811091,"distance":3191,"i_lat":-6.185545,"line":1,"time":6},{"distance":3632,"time":8,"line":1,"transit":false,"i_lat":-6.155215,"i_long":106.800832,"is_transit":false,"station_id":"DU","station_name":"Duri"},{"distance":1230,"transit":false,"station_name":"Angke","time":4,"i_long":106.79867,"i_lat":-6.144674,"line":1,"is_transit":false,"station_id":"AK"},{"is_transit":true,"line":4,"station_id":"KPB","time":9,"transit":true,"i_lat":-6.132549,"i_long":106.826365,"station_name":"Kampung Bandan","distance":4102},{"distance":1364,"time":3,"transit":true,"i_long":106.812439,"is_transit":true,"station_id":"JAKK","station_name":"Jakarta Kota","line":2,"i_lat":-6.137569},{"i_long":106.820901,"line":2,"transit":false,"i_lat":-6.141205,"is_transit":false,"station_name":"Jayakarta","station_id":"JAY","time":4,"distance":1264},{"transit":false,"station_id":"MGB","station_name":"Manggabesar","i_lat":-6.149769,"line":2,"distance":1080,"time":2,"is_transit":false,"i_long":106.82482},{"station_id":"SW","transit":false,"station_name":"Sawah Besar","time":2,"i_lat":-6.160725,"i_long":106.827103,"distance":906,"is_transit":false,"line":2},{"station_name":"Juanda","time":2,"i_long":106.828284,"i_lat":-6.166716,"line":2,"station_id":"JUA","transit":false,"distance":1149,"is_transit":false},{"time":4,"is_transit":false,"distance":2015,"station_id":"GDD","transit":false,"line":2,"i_lat":-6.186295,"i_long":106.832183,"station_name":"Gondangdia"},{"i_lat":-6.198556,"time":3,"transit":false,"is_transit":false,"station_id":"CKI","line":2,"distance":1750,"station_name":"Cikini","i_long":106.840169},{"distance":1590,"i_long":106.84912,"station_name":"Manggarai","is_transit":true,"station_id":"MRI","transit":true,"time":4,"i_lat":-6.209883,"line":2},{"i_long":106.858896,"i_lat":-6.212485,"distance":1275,"transit":false,"is_transit":false,"time":2,"station_id":"MTR","station_name":"Matraman","line":1},{"station_name":"Jatinegara","transit":false,"is_transit":false,"distance":1377,"i_lat":-6.215091,"station_id":"JNG","i_long":106.86807400000001,"time":8,"line":1},{"i_lat":-6.2135,"station_name":"Klender","time":3,"transit":false,"line":1,"distance":3395,"is_transit":false,"station_id":"KLD","i_long":106.899548},{"time":2,"is_transit":false,"distance":3100,"i_lat":-6.215568,"station_name":"Buaran","transit":false,"i_long":106.922662,"line":1,"station_id":"BUA"},{"is_transit":false,"time":1,"distance":1305,"i_lat":-6.217455,"transit":false,"line":1,"station_id":"KLDB","i_long":106.939679,"station_name":"Klenderbaru"},{"distance":1385,"time":8,"transit":false,"station_name":"Cakung","i_lat":-6.219053,"line":1,"station_id":"CUK","is_transit":false,"i_long":106.951283},{"station_name":"Kranji","transit":false,"station_id":"KRI","time":3,"i_lat":-6.224515,"i_long":106.977657,"is_transit":false,"line":1,"distance":3097},{"i_long":106.997013,"line":1,"distance":2520,"station_id":"BKS","station_name":"Bekasi","i_lat":-6.236616,"transit":false,"time":4,"is_transit":false},{"i_long":107.016735,"distance":2368,"line":1,"transit":false,"time":2,"i_lat":-6.248029,"is_transit":false,"station_name":"Bekasi Timur","station_id":"BKST"},{"is_transit":false,"station_name":"Tambun","transit":false,"time":7,"i_lat":-6.258864,"station_id":"TB","i_long":107.055722,"line":1,"distance":4460},{"line":1,"distance":3420,"transit":false,"station_name":"Cibitung","i_lat":-6.261877,"i_long":107.083084,"is_transit":false,"station_id":"CIT","time":3}],[{"i_lat":-6.334892,"station_name":"Citeras","is_transit":false,"station_id":"CTR","time":0,"distance":0,"i_long":106.332092,"transit":false,"line":3},{"distance":7293,"transit":false,"i_long":106.394373,"station_id":"MJ","line":6,"is_transit":false,"station_name":"Maja","time":10,"i_lat":-6.332307},{"line":3,"i_lat":-6.33561,"transit":false,"is_transit":false,"station_id":"CKY","time":4,"i_long":106.411216,"distance":1853,"station_name":"Cikoya"},{"transit":false,"station_name":"Tigaraksa","is_transit":false,"i_long":106.425991,"distance":2651,"i_lat":-6.328533,"station_id":"TGS","line":6,"time":3},{"station_name":"Tenjo","station_id":"TEJ","i_long":106.460812,"is_transit":false,"transit":false,"line":6,"i_lat":-6.327251,"distance":2974,"time":5},{"time":5,"station_name":"Daru","transit":false,"line":0,"distance":3902,"i_long":106.491338,"is_transit":false,"station_id":"DAR","i_lat":-6.338021},{"distance":2675,"station_name":"Cilejit","transit":false,"time":6,"i_lat":-6.354349,"i_long":106.508482,"station_id":"CJT","is_transit":false,"line":3},{"i_lat":-6.3441410000000005,"transit":false,"station_id":"PRP","time":9,"is_transit":false,"i_long":106.568863,"line":6,"station_name":"Parung Panjang","distance":7025},{"i_long":106.617853,"station_name":"Cicayur","time":8,"is_transit":false,"distance":5968,"transit":false,"line":3,"station_id":"CC","i_lat":-6.329547},{"station_id":"CSK","distance":2519,"i_lat":-6.32484,"line":3,"i_long":106.640411,"station_name":"Cisauk","time":4,"is_transit":false,"transit":false},{"station_id":"SRP","transit":false,"distance":1784,"is_transit":false,"i_lat":-6.319871,"i_long":106.66566,"station_name":"Serpong","line":6,"time":4},{"time":4,"line":6,"transit":false,"i_lat":-6.314823,"i_long":106.675475,"is_transit":false,"station_id":"RU","station_name":"Rawa Buntu","distance":2413},{"station_name":"Sudimara","i_long":106.712277,"distance":4566,"transit":false,"station_id":"SDM","i_lat":-6.296963,"is_transit":false,"time":6,"line":6},{"time":4,"distance":1994,"i_long":106.728916,"is_transit":false,"station_name":"Jurangmangu","i_lat":-6.288927,"line":6,"transit":false,"station_id":"JMU"},{"i_lat":-6.276362,"is_transit":false,"i_long":106.74273,"line":6,"station_name":"Pondokranji","transit":false,"distance":2179,"time":3,"station_id":"PDJ"},{"time":8,"distance":6218,"is_transit":false,"station_name":"Kebayoran","transit":false,"i_lat":-6.237242,"station_id":"KBY","line":6,"i_long":106.780334},{"distance":3737,"is_transit":false,"line":6,"transit":false,"station_id":"PLM","i_lat":-6.207404,"time":7,"station_name":"Palmerah","i_long":106.79689},{"station_name":"Tanah Abang","i_long":106.811091,"distance":3191,"is_transit":true,"i_lat":-6.185545,"time":6,"transit":true,"station_id":"THB","line":1},{"transit":false,"i_long":106.816351,"line":1,"station_name":"Karet","distance":2029,"station_id":"KAT","i_lat":-6.20132,"is_transit":false,"time":5},{"station_name":"Sudirman Baru","is_transit":false,"time":1,"distance":471,"transit":false,"station_id":"SUDB","i_lat":-6.201433,"i_long":106.819881,"line":1},{"transit":false,"line":1,"is_transit":false,"station_id":"SUD","distance":280,"time":1,"i_long":106.822649,"i_lat":-6.202263,"station_name":"Sudirman"},{"i_long":106.84912,"station_name":"Manggarai","distance":3186,"transit":true,"is_transit":true,"station_id":"MRI","time":4,"i_lat":-6.209883,"line":2},{"station_name":"Cikini","is_transit":false,"i_lat":-6.198556,"distance":1590,"transit":false,"line":2,"station_id":"CKI","i_long":106.840169,"time":4},{"line":2,"transit":false,"is_transit":false,"time":3,"i_long":106.832183,"distance":1750,"station_name":"Gondangdia","station_id":"GDD","i_lat":-6.186295},{"station_id":"JUA","time":4,"i_long":106.828284,"is_transit":false,"station_name":"Juanda","i_lat":-6.166716,"line":2,"distance":2015,"transit":false},{"station_name":"Sawah Besar","transit":false,"line":2,"i_lat":-6.160725,"station_id":"SW","time":2,"is_transit":false,"distance":1149,"i_long":106.827103},{"distance":906,"transit":false,"station_name":"Manggabesar","i_long":106.82482,"time":2,"is_transit":false,"station_id":"MGB","line":2,"i_lat":-6.149769},{"distance":1080,"transit":false,"line":2,"time":2,"station_name":"Jayakarta","is_transit":false,"i_long":106.820901,"i_lat":-6.141205,"station_id":"JAY"},{"station_name":"Jakarta Kota","distance":1264,"is_transit":true,"station_id":"JAKK","transit":true,"i_long":106.812439,"i_lat":-6.137569,"line":2,"time":4},{"distance":1364,"i_long":106.826365,"is_transit":true,"time":3,"line":4,"i_lat":-6.132549,"station_name":"Kampung Bandan","transit":true,"station_id":"KPB"},{"i_long":106.836569,"is_transit":false,"time":3,"line":11,"station_name":"Rajawali","distance":1444,"transit":false,"station_id":"RJW","i_lat":-6.14505},{"i_long":106.839204,"transit":false,"i_lat":-6.161728,"station_id":"KMO","station_name":"Kemayoran","time":5,"line":11,"is_transit":false,"distance":1901},{"i_long":106.84368,"line":11,"transit":false,"is_transit":false,"station_name":"Pasar Senen","distance":1436,"station_id":"PSE","time":4,"i_lat":-6.174784},{"distance":1567,"time":8,"i_long":106.850107,"line":11,"transit":false,"station_name":"Gang Sentiong","is_transit":false,"i_lat":-6.185975,"station_id":"GST"},{"line":11,"distance":973,"station_name":"Kramat","i_long":106.855437,"time":1,"i_lat":-6.193792,"transit":false,"is_transit":false,"station_id":"KMT"},{"is_transit":false,"station_id":"POK","time":2,"distance":1829,"line":11,"transit":false,"i_long":106.861737,"station_name":"Pondok Jati","i_lat":-6.209188},{"distance":1236,"transit":true,"i_long":106.86807400000001,"line":1,"time":9,"is_transit":true,"station_name":"Jatinegara","station_id":"JNG","i_lat":-6.215091},{"station_id":"KLD","i_lat":-6.2135,"is_transit":false,"time":3,"distance":3395,"i_long":106.899548,"station_name":"Klender","transit":false,"line":1},{"line":1,"is_transit":false,"station_id":"BUA","time":2,"i_long":106.922662,"distance":3100,"i_lat":-6.215568,"transit":false,"station_name":"Buaran"},{"station_name":"Klenderbaru","i_long":106.939679,"is_transit":false,"time":1,"line":1,"station_id":"KLDB","distance":1305,"transit":false,"i_lat":-6.217455},{"i_lat":-6.219053,"time":8,"i_long":106.951283,"is_transit":false,"station_name":"Cakung","transit":false,"line":1,"distance":1385,"station_id":"CUK"},{"distance":3097,"i_lat":-6.224515,"is_transit":false,"transit":false,"station_name":"Kranji","time":3,"i_long":106.977657,"line":1,"station_id":"KRI"},{"station_id":"BKS","i_lat":-6.236616,"i_long":106.997013,"distance":2520,"is_transit":false,"line":1,"time":4,"station_name":"Bekasi","transit":false},{"station_name":"Bekasi Timur","is_transit":false,"time":2,"i_long":107.016735,"i_lat":-6.248029,"line":1,"station_id":"BKST","transit":false,"distance":2368},{"line":1,"time":7,"i_long":107.055722,"i_lat":-6.258864,"station_name":"Tambun","transit":false,"distance":4460,"is_transit":false,"station_id":"TB"},{"is_transit":false,"line":1,"i_long":107.083084,"station_id":"CIT","station_name":"Cibitung","time":3,"i_lat":-6.261877,"transit":false,"distance":3420}]]}