{"data":[[{"station_name":"Citeras","i_long":106.332092,"station_id":"CTR","transit":false,"line":3,"is_transit":false,"i_lat":-6.334892,"time":0,"distance":0},{"transit":false,"station_id":"MJ","distance":7293,"i_lat":-6.332307,"is_transit":false,"time":10,"station_name":"Maja","line":6,"i_long":106.394373},{"time":4,"transit":false,"is_transit":false,"distance":1853,"line":3,"i_lat":-6.33561,"station_name":"Cikoya","i_long":106.411216,"station_id":"CKY"},{"line":6,"i_lat":-6.328533,"distance":2651,"transit":false,"station_name":"Tigaraksa","is_transit":false,"station_id":"TGS","i_long":106.425991,"time":3},{"line":6,"distance":2974,"time":5,"station_name":"Tenjo","is_transit":false,"i_long":106.460812,"station_id":"TEJ","transit":false,"i_lat":-6.327251},{"i_lat":-6.338021,"is_transit":false,"distance":3902,"station_id":"DAR","i_long":106.491338,"line":0,"station_name":"Daru","time":5,"transit":false},{"line":3,"station_id":"CJT","is_transit":false,"i_lat":-6.354349,"i_long":106.508482,"distance":2675,"time":6,"station_name":"Cilejit","transit":false},{"i_lat":-6.3441410000000005,"line":6,"station_name":"Parung Panjang","time":9,"transit":false,"i_long":106.568863,"is_transit":false,"station_id":"PRP","distance":7025},{"line":3,"i_long":106.617853,"station_name":"Cicayur","distance":5968,"station_id":"CC","i_lat":-6.329547,"transit":false,"is_transit":false,"time":8},{"station_name":"Cisauk","i_long":106.640411,"time":4,"transit":false,"station_id":"CSK","i_lat":-6.32484,"distance":2519,"is_transit":false,"line":3},{"line":6,"time":4,"distance":1784,"station_id":"SRP","transit":false,"is_transit":false,"station_name":"Serpong","i_lat":-6.319871,"i_long":106.66566},{"i_long":106.675475,"time":4,"line":6,"distance":2413,"is_transit":false,"station_name":"Rawa Buntu","transit":false,"station_id":"RU","i_lat":-6.314823},{"station_id":"SDM","distance":4566,"time":6,"station_name":"Sudimara","i_lat":-6.296963,"line":6,"is_transit":false,"transit":false,"i_long":106.712277},{"line":6,"distance":1994,"i_lat":-6.288927,"is_transit":false,"station_id":"JMU","transit":false,"station_name":"Jurangmangu","time":4,"i_long":106.728916},{"line":6,"i_long":106.74273,"transit":false,"i_lat":-6.276362,"time":3,"is_transit":false,"station_name":"Pondokranji","station_id":"PDJ","distance":2179},{"station_name":"Kebayoran","is_transit":false,"time":8,"line":6,"transit":false,"distance":6218,"i_lat":-6.237242,"i_long":106.780334,"station_id":"KBY"},{"station_name":"Palmerah","line":6,"distance":3737,"station_id":"PLM","is_transit":false,"time":7,"i_lat":-6.207404,"transit":false,"i_long":106.79689},{"is_transit":true,"transit":true,"i_lat":-6.185545,"station_name":"Tanah Abang","time":6,"i_long":106.811091,"line":1,"station_id":"THB","distance":3191},{"station_name":"Karet","i_lat":-6.20132,"is_transit":false,"transit":false,"time":5,"station_id":"KAT","distance":2029,"line":1,"i_long":106.816351},{"transit":false,"station_id":"SUDB","is_transit":false,"i_lat":-6.201433,"i_long":106.819881,"line":1,"time":1,"station_name":"Sudirman Baru","distance":471},{"station_name":"Sudirman","i_lat":-6.202263,"line":1,"i_long":106.822649,"is_transit":false,"distance":280,"station_id":"SUD","time":1,"transit":false},{"time":4,"distance":3186,"line":2,"station_name":"Manggarai","station_id":"MRI","is_transit":false,"i_long":106.84912,"i_lat":-6.209883,"transit":false},{"line":1,"is_transit":false,"transit":false,"station_id":"MTR","distance":1275,"i_long":106.858896,"time":2,"station_name":"Matraman","i_lat":-6.212485},{"station_id":"JNG","time":8,"transit":false,"line":1,"i_lat":-6.215091,"i_long":106.86807400000001,"station_name":"Jatinegara","distance":1377,"is_transit":false},{"i_long":106.899548,"line":1,"station_name":"Klender","station_id":"KLD","is_transit":false,"transit":false,"time":3,"i_lat":-6.2135,"distance":3395},{"line":1,"transit":false,"station_name":"Buaran","station_id":"BUA","is_transit":false,"distance":3100,"i_lat":-6.215568,"time":2,"i_long":106.922662},{"line":1,"station_id":"KLDB","distance":1305,"time":1,"i_lat":-6.217455,"i_long":106.939679,"is_transit":false,"transit":false,"station_name":"Klenderbaru"},{"station_id":"CUK","i_lat":-6.219053,"i_long":106.951283,"station_name":"Cakung","distance":1385,"is_transit":false,"transit":false,"line":1,"time":8},{"is_transit":false,"i_lat":-6.224515,"line":1,"station_name":"Kranji","i_long":106.977657,"distance":3097,"station_id":"KRI","time":3,"transit":false}],[{"is_transit":false,"i_long":106.332092,"i_lat":-6.334892,"transit":false,"line":3,"station_name":"Citeras","station_id":"CTR","distance":0,"time":0},{"i_long":106.394373,"station_id":"MJ","distance":7293,"time":10,"line":6,"station_name":"Maja","transit":false,"i_lat":-6.332307,"is_transit":false},{"transit":false,"i_long":106.411216,"line":3,"is_transit":false,"station_name":"Cikoya","distance":1853,"station_id":"CKY","time":4,"i_lat":-6.33561},{"station_id":"TGS","time":3,"i_long":106.425991,"station_name":"Tigaraksa","distance":2651,"i_lat":-6.328533,"line":6,"transit":false,"is_transit":false},{"i_long":106.460812,"i_lat":-6.327251,"transit":false,"station_id":"TEJ","distance":2974,"station_name":"Tenjo","time":5,"line":6,"is_transit":false},{"time":5,"distance":3902,"is_transit":false,"station_id":"DAR","i_lat":-6.338021,"transit":false,"i_long":106.491338,"station_name":"Daru","line":0},{"i_long":106.508482,"transit":false,"station_name":"Cilejit","distance":2675,"line":3,"station_id":"CJT","is_transit":false,"time":6,"i_lat":-6.354349},{"time":9,"station_id":"PRP","transit":false,"line":6,"station_name":"Parung Panjang","is_transit":false,"i_lat":-6.3441410000000005,"i_long":106.568863,"distance":7025},{"i_lat":-6.329547,"time":8,"station_name":"Cicayur","station_id":"CC","is_transit":false,"transit":false,"i_long":106.617853,"line":3,"distance":5968},{"station_id":"CSK","transit":false,"time":4,"distance":2519,"i_long":106.640411,"line":3,"is_transit":false,"station_name":"Cisauk","i_lat":-6.32484},{"i_long":106.66566,"distance":1784,"station_id":"SRP","time":4,"i_lat":-6.319871,"line":6,"is_transit":false,"transit":false,"station_name":"Serpong"},{"station_id":"RU","i_long":106.675475,"distance":2413,"time":4,"is_transit":false,"i_lat":-6.314823,"transit":false,"line":6,"station_name":"Rawa Buntu"},{"transit":false,"station_name":"Sudimara","distance":4566,"i_long":106.712277,"is_transit":false,"i_lat":-6.296963,"time":6,"line":6,"station_id":"SDM"},{"station_id":"JMU","i_lat":-6.288927,"is_transit":false,"station_name":"Jurangmangu","distance":1994,"time":4,"i_long":106.728916,"transit":false,"line":6},{"i_lat":-6.276362,"distance":2179,"i_long":106.74273,"station_name":"Pondokranji","time":3,"transit":false,"line":6,"station_id":"PDJ","is_transit":false},{"line":6,"station_id":"KBY","station_name":"Kebayoran","time":8,"is_transit":false,"distance":6218,"i_lat":-6.237242,"i_long":106.780334,"transit":false},{"i_lat":-6.207404,"distance":3737,"station_name":"Palmerah","station_id":"PLM","time":7,"is_transit":false,"i_long":106.79689,"transit":false,"line":6},{"is_transit":true,"i_long":106.811091,"distance":3191,"line":1,"time":6,"transit":true,"i_lat":-6.185545,"station_name":"Tanah Abang","station_id":"THB"},{"is_transit":false,"distance":3632,"station_name":"Duri","time":8,"transit":false,"line":1,"station_id":"DU","i_long":106.800832,"i_lat":-6.155215},{"station_name":"Angke","is_transit":false,"station_id":"AK","transit":false,"i_lat":-6.144674,"distance":1230,"i_long":106.79867,"time":4,"line":1},{"distance":4102,"station_id":"KPB","station_name":"Kampung Bandan","line":4,"i_long":106.826365,"is_transit":true,"transit":true,"i_lat":-6.132549,"time":9},{"station_name":"Rajawali","line":11,"is_transit":false,"transit":false,"distance":1444,"time":3,"i_long":106.836569,"i_lat":-6.14505,"station_id":"RJW"},{"station_id":"KMO","station_name":"Kemayoran","is_transit":false,"distance":1901,"i_lat":-6.161728,"i_long":106.839204,"time":5,"transit":false,"line":11},{"i_lat":-6.174784,"transit":false,"distance":1436,"time":4,"station_id":"PSE","is_transit":false,"station_name":"Pasar Senen","i_long":106.84368,"line":11},{"time":8,"line":11,"station_name":"Gang Sentiong","transit":false,"distance":1567,"station_id":"GST","i_long":106.850107,"is_transit":false,"i_lat":-6.185975},{"station_id":"KMT","is_transit":false,"i_long":106.855437,"line":11,"time":1,"station_name":"Kramat","distance":973,"i_lat":-6.193792,"transit":false},{"is_transit":false,"i_lat":-6.209188,"line":11,"time":2,"station_id":"POK","transit":false,"distance":1829,"i_long":106.861737,"station_name":"Pondok Jati"},{"station_name":"Jatinegara","i_long":106.86807400000001,"line":1,"distance":1236,"i_lat":-6.215091,"time":9,"is_transit":true,"station_id":"JNG","transit":true},{"transit":false,"line":1,"is_transit":false,"i_lat":-6.2135,"i_long":106.899548,"distance":3395,"time":3,"station_name":"Klender","station_id":"KLD"},{"station_id":"BUA","station_name":"Buaran","transit":false,"i_lat":-6.215568,"time":2,"distance":3100,"is_transit":false,"line":1,"i_long":106.922662},{"line":1,"transit":false,"station_id":"KLDB","time":1,"i_lat":-6.217455,"is_transit":false,"i_long":106.939679,"station_name":"Klenderbaru","distance":1305},{"line":1,"time":8,"distance":1385,"station_name":"Cakung","transit":false,"i_lat":-6.219053,"is_transit":false,"i_long":106.951283,"station_id":"CUK"},{"line":1,"time":3,"transit":false,"i_lat":-6.224515,"i_long":106.977657,"station_id":"KRI","station_name":"Kranji","is_transit":false,"distance":3097}],[{"time":0,"i_lat":-6.334892,"transit":false,"line":3,"is_transit":false,"station_name":"Citeras","i_long":106.332092,"distance":0,"station_id":"CTR"},{"i_lat":-6.332307,"time":10,"is_transit":false,"i_long":106.394373,"station_name":"Maja","line":6,"transit":false,"station_id":"MJ","distance":7293},{"i_lat":-6.33561,"distance":1853,"transit":false,"line":3,"i_long":106.411216,"is_transit":false,"station_name":"Cikoya","station_id":"CKY","time":4},{"station_name":"Tigaraksa","station_id":"TGS","is_transit":false,"i_lat":-6.328533,"i_long":106.425991,"time":3,"transit":false,"distance":2651,"line":6},{"i_long":106.460812,"station_id":"TEJ","distance":2974,"transit":false,"is_transit":false,"line":6,"station_name":"Tenjo","time":5,"i_lat":-6.327251},{"i_long":106.491338,"line":0,"station_name":"Daru","distance":3902,"transit":false,"is_transit":false,"time":5,"station_id":"DAR","i_lat":-6.338021},{"station_name":"Cilejit","transit":false,"distance":2675,"station_id":"CJT","line":3,"is_transit":false,"time":6,"i_lat":-6.354349,"i_long":106.508482},{"station_id":"PRP","is_transit":false,"time":9,"i_long":106.568863,"transit":false,"i_lat":-6.3441410000000005,"station_name":"Parung Panjang","distance":7025,"line":6},{"i_long":106.617853,"station_name":"Cicayur","is_transit":false,"distance":5968,"i_lat":-6.329547,"line":3,"station_id":"CC","time":8,"transit":false},{"transit":false,"is_transit":false,"distance":2519,"station_id":"CSK","station_name":"Cisauk","time":4,"i_lat":-6.32484,"i_long":106.640411,"line":3},{"station_id":"SRP","transit":false,"i_lat":-6.319871,"is_transit":false,"station_name":"Serpong","distance":1784,"i_long":106.66566,"line":6,"time":4},{"transit":false,"is_transit":false,"station_id":"RU","i_long":106.675475,"distance":2413,"time":4,"station_name":"Rawa Buntu","line":6,"i_lat":-6.314823},{"time":6,"station_id":"SDM","transit":false,"line":6,"i_long":106.712277,"i_lat":-6.296963,"distance":4566,"station_name":"Sudimara","is_transit":false},{"station_id":"JMU","is_transit":false,"transit":false,"station_name":"Jurangmangu","time":4,"i_lat":-6.288927,"distance":1994,"i_long":106.728916,"line":6},{"is_transit":false,"i_long":106.74273,"distance":2179,"i_lat":-6.276362,"transit":false,"station_id":"PDJ","station_name":"Pondokranji","time":3,"line":6},{"distance":6218,"time":8,"is_transit":false,"transit":false,"station_id":"KBY","i_lat":-6.237242,"line":6,"i_long":106.780334,"station_name":"Kebayoran"},{"transit":false,"is_transit":false,"station_name":"Palmerah","station_id":"PLM","i_long":106.79689,"time":7,"distance":3737,"i_lat":-6.207404,"line":6},{"transit":true,"i_long":106.811091,"station_id":"THB","i_lat":-6.185545,"distance":3191,"station_name":"Tanah Abang","time":6,"is_transit":true,"line":1},{"station_id":"DU","transit":false,"i_long":106.800832,"distance":3632,"time":8,"i_lat":-6.155215,"line":1,"station_name":"Duri","is_transit":false},{"is_transit":false,"time":4,"transit":false,"i_lat":-6.144674,"line":1,"station_id":"AK","station_name":"Angke","i_long":106.79867,"distance":1230},{"transit":true,"time":9,"station_name":"Kampung Bandan","line":4,"distance":4102,"station_id":"KPB","is_transit":true,"i_long":106.826365,"i_lat":-6.132549},{"station_id":"JAKK","transit":true,"i_long":106.812439,"station_name":"Jakarta Kota","line":2,"is_transit":true,"i_lat":-6.137569,"distance":1364,"time":3},{"transit":false,"i_lat":-6.141205,"station_name":"Jayakarta","time":4,"distance":1264,"i_long":106.820901,"is_transit":false,"line":2,"station_id":"JAY"},{"station_name":"Manggabesar","i_long":106.82482,"is_transit":false,"time":2,"transit":false,"distance":1080,"i_lat":-6.149769,"line":2,"station_id":"MGB"},{"is_transit":false,"station_id":"SW","i_lat":-6.160725,"i_long":106.827103,"distance":906,"time":2,"station_name":"Sawah Besar","transit":false,"line":2},{"station_id":"JUA","time":2,"i_lat":-6.166716,"distance":1149,"transit":false,"station_name":"Juanda","is_transit":false,"line":2,"i_long":106.828284},{"station_id":"GDD","distance":2015,"i_long":106.832183,"line":2,"transit":false,"station_name":"Gondangdia","is_transit":false,"time":4,"i_lat":-6.186295},{"station_id":"CKI","i_long":106.840169,"station_name":"Cikini","is_transit":false,"transit":false,"time":3,"i_lat":-6.198556,"distance":1750,"line":2},{"is_transit":true,"i_lat":-6.209883,"station_name":"Manggarai","time":4,"distance":1590,"transit":true,"line":2,"station_id":"MRI","i_long":106.84912},{"is_transit":false,"station_id":"MTR","time":2,"i_lat":-6.212485,"i_long":106.858896,"transit":false,"station_name":"Matraman","distance":1275,"line":1},{"station_name":"Jatinegara","line":1,"distance":1377,"time":8,"station_id":"JNG","is_transit":false,"i_lat":-6.215091,"transit":false,"i_long":106.86807400000001},{"i_long":106.899548,"line":1,"i_lat":-6.2135,"transit":false,"station_id":"KLD","distance":3395,"time":3,"station_name":"Klender","is_transit":false},{"is_transit":false,"station_id":"BUA","time":2,"transit":false,"line":1,"i_long":106.922662,"i_lat":-6.215568,"distance":3100,"station_name":"Buaran"},{"is_transit":false,"transit":false,"i_long":106.939679,"station_name":"Klenderbaru","station_id":"KLDB","time":1,"i_lat":-6.217455,"distance":1305,"line":1},{"i_lat":-6.219053,"station_id":"CUK","line":1,"is_transit":false,"i_long":106.951283,"distance":1385,"station_name":"Cakung","time":8,"transit":false},{"station_name":"Kranji","transit":false,"is_transit":false,"distance":3097,"i_lat":-6.224515,"line":1,"i_long":106.977657,"station_id":"KRI","time":3}],[{"station_id":"CTR","distance":0,"i_long":106.332092,"line":3,"is_transit":false,"time":0,"transit":false,"i_lat":-6.334892,"station_name":"Citeras"},{"station_name":"Maja","transit":false,"station_id":"MJ","i_long":106.394373,"is_transit":false,"distance":7293,"time":10,"line":6,"i_lat":-6.332307},{"station_id":"CKY","time":4,"transit":false,"station_name":"Cikoya","distance":1853,"i_long":106.411216,"i_lat":-6.33561,"line":3,"is_transit":false},{"i_lat":-6.328533,"line":6,"distance":2651,"is_transit":false,"time":3,"station_id":"TGS","transit":false,"station_name":"Tigaraksa","i_long":106.425991},{"station_name":"Tenjo","i_lat":-6.327251,"transit":false,"is_transit":false,"distance":2974,"time":5,"i_long":106.460812,"station_id":"TEJ","line":6},{"time":5,"is_transit":false,"distance":3902,"i_lat":-6.338021,"station_id":"DAR","station_name":"Daru","transit":false,"i_long":106.491338,"line":0},{"i_long":106.508482,"line":3,"station_id":"CJT","distance":2675,"is_transit":false,"i_lat":-6.354349,"time":6,"station_name":"Cilejit","transit":false},{"time":9,"i_lat":-6.3441410000000005,"i_long":106.568863,"transit":false,"line":6,"distance":7025,"is_transit":false,"station_name":"Parung Panjang","station_id":"PRP"},{"is_transit":false,"distance":5968,"i_long":106.617853,"line":3,"i_lat":-6.329547,"time":8,"transit":false,"station_name":"Cicayur","station_id":"CC"},{"time":4,"station_id":"CSK","line":3,"transit":false,"is_transit":false,"station_name":"Cisauk","distance":2519,"i_long":106.640411,"i_lat":-6.32484},{"is_transit":false,"time":4,"i_long":106.66566,"line":6,"station_name":"Serpong","distance":1784,"transit":false,"i_lat":-6.319871,"station_id":"SRP"},{"line":6,"is_transit":false,"i_lat":-6.314823,"station_id":"RU","distance":2413,"station_name":"Rawa Buntu","transit":false,"time":4,"i_long":106.675475},{"i_long":106.712277,"distance":4566,"transit":false,"line":6,"is_transit":false,"time":6,"station_name":"Sudimara","station_id":"SDM","i_lat":-6.296963},{"i_long":106.728916,"station_id":"JMU","i_lat":-6.288927,"station_name":"Jurangmangu","transit":false,"line":6,"time":4,"is_transit":false,"distance":1994},{"line":6,"station_name":"Pondokranji","is_transit":false,"time":3,"transit":false,"i_long":106.74273,"station_id":"PDJ","distance":2179,"i_lat":-6.276362},{"line":6,"station_id":"KBY","is_transit":false,"station_name":"Kebayoran","transit":false,"i_lat":-6.237242,"time":8,"i_long":106.780334,"distance":6218},{"time":7,"station_name":"Palmerah","i_lat":-6.207404,"is_transit":false,"station_id":"PLM","line":6,"distance":3737,"transit":false,"i_long":106.79689},{"station_name":"Tanah Abang","time":6,"i_lat":-6.185545,"transit":true,"i_long":106.811091,"station_id":"THB","distance":3191,"line":1,"is_transit":true},{"is_transit":false,"i_long":106.816351,"distance":2029,"station_id":"KAT","i_lat":-6.20132,"station_name":"Karet","time":5,"transit":false,"line":1},{"station_name":"Sudirman Baru","transit":false,"i_lat":-6.201433,"distance":471,"i_long":106.819881,"station_id":"SUDB","is_transit":false,"time":1,"line":1},{"transit":false,"is_transit":false,"time":1,"station_id":"SUD","i_lat":-6.202263,"station_name":"Sudirman","distance":280,"line":1,"i_long":106.822649},{"is_transit":true,"time":4,"station_name":"Manggarai","transit":true,"distance":3186,"station_id":"MRI","i_lat":-6.209883,"i_long":106.84912,"line":2},{"i_lat":-6.198556,"is_transit":false,"distance":1590,"station_id":"CKI","transit":false,"line":2,"i_long":106.840169,"station_name":"Cikini","time":4},{"station_name":"Gondangdia","time":3,"transit":false,"line":2,"station_id":"GDD","is_transit":false,"distance":1750,"i_lat":-6.186295,"i_long":106.832183},{"distance":2015,"time":4,"i_long":106.828284,"line":2,"transit":false,"station_name":"Juanda","is_transit":false,"i_lat":-6.166716,"station_id":"JUA"},{"line":2,"distance":1149,"station_name":"Sawah Besar","i_long":106.827103,"time":2,"i_lat":-6.160725,"station_id":"SW","is_transit":false,"transit":false},{"is_transit":false,"station_id":"MGB","time":2,"distance":906,"line":2,"transit":false,"i_long":106.82482,"station_name":"Manggabesar","i_lat":-6.149769},{"distance":1080,"transit":false,"i_long":106.820901,"line":2,"time":2,"is_transit":false,"station_name":"Jayakarta","station_id":"JAY","i_lat":-6.141205},{"station_id":"JAKK","i_lat":-6.137569,"is_transit":true,"time":4,"distance":1264,"i_long":106.812439,"station_name":"Jakarta Kota","transit":true,"line":2},{"line":4,"is_transit":true,"station_id":"KPB","time":3,"i_long":106.826365,"distance":1364,"i_lat":-6.132549,"transit":true,"station_name":"Kampung Bandan"},{"station_name":"Rajawali","i_long":106.836569,"is_transit":false,"time":3,"line":11,"station_id":"RJW","distance":1444,"transit":false,"i_lat":-6.14505},{"i_lat":-6.161728,"time":5,"i_long":106.839204,"is_transit":false,"station_name":"Kemayoran","transit":false,"line":11,"station_id":"KMO","distance":1901},{"distance":1436,"i_lat":-6.174784,"is_transit":false,"time":4,"station_name":"Pasar Senen","transit":false,"i_long":106.84368,"line":11,"station_id":"PSE"},{"time":8,"distance":1567,"is_transit":false,"transit":false,"i_long":106.850107,"station_name":"Gang Sentiong","station_id":"GST","i_lat":-6.185975,"line":11},{"station_name":"Kramat","station_id":"KMT","distance":973,"transit":false,"i_lat":-6.193792,"is_transit":false,"i_long":106.855437,"line":11,"time":1},{"distance":1829,"is_transit":false,"time":2,"station_name":"Pondok Jati","station_id":"POK","transit":false,"i_lat":-6.209188,"i_long":106.861737,"line":11},{"i_long":106.86807400000001,"is_transit":true,"transit":true,"line":1,"i_lat":-6.215091,"station_name":"Jatinegara","station_id":"JNG","distance":1236,"time":9},{"station_name":"Klender","transit":false,"line":1,"distance":3395,"time":3,"i_long":106.899548,"is_transit":false,"i_lat":-6.2135,"station_id":"KLD"},{"distance":3100,"transit":false,"is_transit":false,"time":2,"i_lat":-6.215568,"line":1,"i_long":106.922662,"station_name":"Buaran","station_id":"BUA"},{"line":1,"station_id":"KLDB","distance":1305,"i_long":106.939679,"transit":false,"is_transit":false,"station_name":"Klenderbaru","i_lat":-6.217455,"time":1},{"station_id":"CUK","line":1,"station_name":"Cakung","time":8,"i_lat":-6.219053,"is_transit":false,"distance":1385,"transit":false,"i_long":106.951283},{"i_lat":-6.224515,"i_long":106.977657,"distance":3097,"station_id":"KRI","station_name":"Kranji","line":1,"time":3,"is_transit":false,"transit":false}]]}