{"data":[[{"distance":0,"station_id":"CTR","is_transit":false,"i_long":106.332092,"transit":false,"line":3,"station_name":"Citeras","time":0,"i_lat":-6.334892},{"station_name":"Maja","i_long":106.394373,"transit":false,"line":6,"distance":7293,"station_id":"MJ","time":10,"is_transit":false,"i_lat":-6.332307},{"line":3,"station_id":"CKY","i_long":106.411216,"station_name":"Cikoya","time":4,"distance":1853,"transit":false,"is_transit":false,"i_lat":-6.33561},{"transit":false,"i_long":106.425991,"line":6,"i_lat":-6.328533,"station_id":"TGS","station_name":"Tigaraksa","is_transit":false,"time":3,"distance":2651},{"i_long":106.460812,"distance":2974,"station_name":"Tenjo","station_id":"TEJ","is_transit":false,"line":6,"i_lat":-6.327251,"time":5,"transit":false},{"station_id":"DAR","time":5,"is_transit":false,"station_name":"Daru","i_long":106.491338,"line":0,"i_lat":-6.338021,"distance":3902,"transit":false},{"distance":2675,"i_long":106.508482,"line":3,"station_id":"CJT","time":6,"transit":false,"station_name":"Cilejit","i_lat":-6.354349,"is_transit":false},{"station_name":"Parung Panjang","i_long":106.568863,"station_id":"PRP","distance":7025,"i_lat":-6.3441410000000005,"time":9,"is_transit":false,"transit":false,"line":6},{"line":3,"i_long":106.617853,"is_transit":false,"station_name":"Cicayur","time":8,"station_id":"CC","transit":false,"distance":5968,"i_lat":-6.329547},{"transit":false,"station_name":"Cisauk","i_lat":-6.32484,"time":4,"line":3,"is_transit":false,"station_id":"CSK","i_long":106.640411,"distance":2519},{"transit":false,"station_id":"SRP","time":4,"station_name":"Serpong","is_transit":false,"distance":1784,"i_long":106.66566,"i_lat":-6.319871,"line":6},{"distance":2413,"time":4,"i_lat":-6.314823,"transit":false,"station_id":"RU","line":6,"is_transit":false,"i_long":106.675475,"station_name":"Rawa Buntu"},{"station_id":"SDM","station_name":"Sudimara","is_transit":false,"transit":false,"i_lat":-6.296963,"distance":4566,"i_long":106.712277,"time":6,"line":6}]]}