{"data":[[{"station_id":"CTR","distance":0,"time":0,"i_long":106.332092,"station_name":"Citeras","transit":false,"i_lat":-6.334892,"is_transit":false,"line":0},{"is_transit":false,"i_long":106.394373,"station_id":"MJ","station_name":"Maja","distance":7293,"time":10,"transit":false,"i_lat":-6.332307,"line":6},{"i_lat":-6.33561,"station_name":"Cikoya","is_transit":false,"transit":false,"line":0,"time":4,"distance":1853,"i_long":106.411216,"station_id":"CKY"},{"is_transit":false,"i_long":106.425991,"transit":false,"line":6,"station_id":"TGS","time":3,"i_lat":-6.328533,"distance":2651,"station_name":"Tigaraksa"},{"time":5,"station_name":"Tenjo","station_id":"TEJ","distance":2974,"line":6,"is_transit":false,"transit":false,"i_lat":-6.327251,"i_long":106.460812},{"is_transit":false,"time":5,"distance":3902,"transit":false,"station_id":"DAR","station_name":"Daru","i_lat":-6.338021,"i_long":106.491338,"line":0},{"time":6,"station_name":"Cilejit","i_long":106.508482,"transit":false,"distance":2675,"station_id":"CJT","i_lat":-6.354349,"line":0,"is_transit":false},{"line":6,"is_transit":false,"transit":false,"time":9,"station_id":"PRP","distance":7025,"i_lat":-6.3441410000000005,"station_name":"Parung Panjang","i_long":106.568863},{"station_id":"CC","transit":false,"line":0,"is_transit":false,"station_name":"Cicayur","i_lat":-6.329547,"i_long":106.617853,"time":8,"distance":5968},{"time":4,"line":0,"i_long":106.640411,"station_id":"CSK","station_name":"Cisauk","distance":2519,"transit":false,"i_lat":-6.32484,"is_transit":false},{"is_transit":false,"i_lat":-6.319871,"i_long":106.66566,"station_name":"Serpong","transit":false,"station_id":"SRP","time":4,"distance":1784,"line":6},{"i_lat":-6.314823,"i_long":106.675475,"transit":false,"station_id":"RU","station_name":"Rawa Buntu","is_transit":false,"time":4,"line":6,"distance":2413},{"time":6,"station_id":"SDM","i_long":106.712277,"is_transit":false,"distance":4566,"i_lat":-6.296963,"line":6,"transit":false,"station_name":"Sudimara"},{"distance":1994,"time":4,"transit":false,"i_long":106.728916,"line":6,"i_lat":-6.288927,"is_transit":false,"station_id":"JMU","station_name":"Jurangmangu"},{"i_long":106.74273,"transit":false,"i_lat":-6.276362,"time":3,"is_transit":false,"line":6,"station_id":"PDJ","station_name":"Pondokranji","distance":2179},{"time":8,"station_name":"Kebayoran","is_transit":false,"distance":6218,"i_lat":-6.237242,"line":6,"i_long":106.780334,"station_id":"KBY","transit":false},{"station_id":"PLM","is_transit":false,"distance":3737,"time":7,"i_lat":-6.207404,"line":6,"station_name":"Palmerah","transit":false,"i_long":106.79689},{"distance":3191,"transit":true,"i_lat":-6.185545,"time":6,"station_id":"THB","station_name":"Tanah Abang","line":1,"i_long":106.811091,"is_transit":true},{"i_lat":-6.20132,"line":1,"distance":2029,"time":5,"station_id":"KAT","i_long":106.816351,"station_name":"Karet","is_transit":false,"transit":false},{"i_lat":-6.201433,"station_name":"Sudirman Baru","distance":471,"is_transit":false,"station_id":"SUDB","time":1,"i_long":106.819881,"transit":false,"line":1},{"transit":false,"station_id":"SUD","distance":280,"i_long":106.822649,"line":1,"i_lat":-6.202263,"time":1,"station_name":"Sudirman","is_transit":false},{"distance":3186,"transit":true,"station_id":"MRI","time":4,"i_lat":-6.209883,"is_transit":true,"line":0,"station_name":"Manggarai","i_long":106.84912},{"station_id":"TEB","line":2,"time":4,"is_transit":false,"i_long":106.857948,"station_name":"Tebet","transit":false,"i_lat":-6.226659,"distance":2610},{"distance":1230,"line":0,"station_id":"CW","transit":false,"i_long":106.856607,"is_transit":false,"station_name":"Cawang","i_lat":-6.242512,"time":2},{"station_id":"DRN","transit":false,"distance":1546,"time":3,"line":0,"i_lat":-6.255332,"i_long":106.85449,"station_name":"Duren Kalibata","is_transit":false},{"distance":824,"transit":false,"line":2,"station_name":"Pasar Minggu Baru","station_id":"PSMB","i_long":106.851577,"is_transit":false,"time":2,"i_lat":-6.263214},{"distance":2380,"transit":false,"station_name":"Pasar Minggu","line":2,"is_transit":false,"i_long":106.843999,"station_id":"PSM","time":2,"i_lat":-6.2842400000000005},{"i_long":106.838896,"line":2,"station_name":"Tanjung Barat","is_transit":false,"time":4,"transit":false,"distance":2820,"i_lat":-6.3080680000000005,"station_id":"TNT"},{"line":2,"transit":false,"is_transit":false,"distance":2671,"station_id":"LNA","station_name":"Lenteng Agung","time":3,"i_lat":-6.330363,"i_long":106.832616}],[{"time":0,"i_long":106.332092,"line":0,"station_name":"Citeras","i_lat":-6.334892,"is_transit":false,"distance":0,"station_id":"CTR","transit":false},{"line":6,"is_transit":false,"transit":false,"station_id":"MJ","time":10,"i_lat":-6.332307,"i_long":106.394373,"station_name":"Maja","distance":7293},{"station_id":"CKY","line":0,"distance":1853,"i_long":106.411216,"time":4,"station_name":"Cikoya","transit":false,"is_transit":false,"i_lat":-6.33561},{"transit":false,"station_name":"Tigaraksa","distance":2651,"line":6,"i_lat":-6.328533,"time":3,"i_long":106.425991,"is_transit":false,"station_id":"TGS"},{"i_long":106.460812,"station_id":"TEJ","transit":false,"i_lat":-6.327251,"distance":2974,"station_name":"Tenjo","line":6,"is_transit":false,"time":5},{"station_id":"DAR","distance":3902,"i_lat":-6.338021,"time":5,"is_transit":false,"i_long":106.491338,"station_name":"Daru","transit":false,"line":0},{"line":0,"transit":false,"station_id":"CJT","station_name":"Cilejit","i_long":106.508482,"distance":2675,"time":6,"i_lat":-6.354349,"is_transit":false},{"i_lat":-6.3441410000000005,"i_long":106.568863,"distance":7025,"is_transit":false,"time":9,"transit":false,"station_id":"PRP","line":6,"station_name":"Parung Panjang"},{"is_transit":false,"i_long":106.617853,"time":8,"station_id":"CC","distance":5968,"line":0,"transit":false,"i_lat":-6.329547,"station_name":"Cicayur"},{"station_name":"Cisauk","time":4,"is_transit":false,"line":0,"transit":false,"i_lat":-6.32484,"station_id":"CSK","distance":2519,"i_long":106.640411},{"station_id":"SRP","station_name":"Serpong","is_transit":false,"i_lat":-6.319871,"i_long":106.66566,"distance":1784,"line":6,"time":4,"transit":false},{"distance":2413,"time":4,"line":6,"station_name":"Rawa Buntu","station_id":"RU","is_transit":false,"i_long":106.675475,"transit":false,"i_lat":-6.314823},{"is_transit":false,"distance":4566,"station_name":"Sudimara","i_lat":-6.296963,"transit":false,"i_long":106.712277,"station_id":"SDM","time":6,"line":6},{"transit":false,"i_long":106.728916,"station_name":"Jurangmangu","is_transit":false,"station_id":"JMU","line":6,"time":4,"i_lat":-6.288927,"distance":1994},{"line":6,"distance":2179,"station_name":"Pondokranji","is_transit":false,"transit":false,"i_long":106.74273,"station_id":"PDJ","time":3,"i_lat":-6.276362},{"transit":false,"line":6,"i_long":106.780334,"i_lat":-6.237242,"station_id":"KBY","station_name":"Kebayoran","is_transit":false,"time":8,"distance":6218},{"is_transit":false,"station_name":"Palmerah","transit":false,"i_lat":-6.207404,"station_id":"PLM","i_long":106.79689,"distance":3737,"line":6,"time":7},{"station_name":"Tanah Abang","i_lat":-6.185545,"time":6,"is_transit":true,"transit":true,"i_long":106.811091,"distance":3191,"line":1,"station_id":"THB"},{"line":1,"i_lat":-6.155215,"station_name":"Duri","station_id":"DU","transit":true,"i_long":106.800832,"time":8,"is_transit":true,"distance":3632},{"i_lat":-6.144674,"is_transit":false,"station_name":"Angke","time":4,"i_long":106.79867,"line":0,"station_id":"AK","distance":1230,"transit":false},{"line":0,"station_id":"KPB","time":9,"i_lat":-6.132549,"distance":4102,"is_transit":true,"transit":false,"i_long":106.826365,"station_name":"Kampung Bandan"},{"distance":1364,"transit":true,"time":3,"station_id":"JAKK","i_long":106.812439,"station_name":"Jakarta Kota","i_lat":-6.137569,"is_transit":true,"line":0},{"is_transit":false,"time":4,"transit":false,"station_id":"JAY","i_lat":-6.141205,"i_long":106.820901,"distance":1264,"station_name":"Jayakarta","line":7},{"station_name":"Manggabesar","line":2,"distance":1080,"i_long":106.82482,"is_transit":false,"transit":false,"i_lat":-6.149769,"station_id":"MGB","time":2},{"is_transit":false,"distance":906,"i_long":106.827103,"time":2,"i_lat":-6.160725,"line":2,"transit":false,"station_name":"Sawah Besar","station_id":"SW"},{"distance":1149,"transit":false,"line":2,"i_lat":-6.166716,"station_id":"JUA","i_long":106.828284,"is_transit":false,"station_name":"Juanda","time":2},{"is_transit":false,"station_name":"Gondangdia","i_long":106.832183,"line":2,"transit":false,"station_id":"GDD","time":4,"i_lat":-6.186295,"distance":2015},{"distance":1750,"i_long":106.840169,"transit":false,"station_name":"Cikini","is_transit":false,"line":0,"time":3,"i_lat":-6.198556,"station_id":"CKI"},{"station_id":"MRI","i_lat":-6.209883,"i_long":106.84912,"station_name":"Manggarai","is_transit":true,"time":4,"distance":1590,"line":0,"transit":true},{"i_long":106.857948,"time":4,"i_lat":-6.226659,"station_name":"Tebet","is_transit":false,"transit":false,"distance":2610,"station_id":"TEB","line":2},{"i_long":106.856607,"station_name":"Cawang","time":2,"is_transit":false,"distance":1230,"transit":false,"line":0,"station_id":"CW","i_lat":-6.242512},{"is_transit":false,"station_name":"Duren Kalibata","i_long":106.85449,"line":0,"transit":false,"i_lat":-6.255332,"distance":1546,"time":3,"station_id":"DRN"},{"station_id":"PSMB","distance":824,"station_name":"Pasar Minggu Baru","transit":false,"i_long":106.851577,"line":2,"time":2,"is_transit":false,"i_lat":-6.263214},{"station_id":"PSM","time":2,"line":2,"station_name":"Pasar Minggu","distance":2380,"i_lat":-6.2842400000000005,"i_long":106.843999,"transit":false,"is_transit":false},{"transit":false,"station_id":"TNT","i_lat":-6.3080680000000005,"distance":2820,"line":2,"i_long":106.838896,"station_name":"Tanjung Barat","time":4,"is_transit":false},{"station_id":"LNA","station_name":"Lenteng Agung","i_long":106.832616,"line":2,"transit":false,"is_transit":false,"distance":2671,"time":3,"i_lat":-6.330363}],[{"transit":false,"distance":0,"time":0,"i_lat":-6.334892,"line":0,"i_long":106.332092,"station_name":"Citeras","station_id":"CTR","is_transit":false},{"distance":7293,"transit":false,"i_long":106.394373,"is_transit":false,"line":6,"station_id":"MJ","station_name":"Maja","time":10,"i_lat":-6.332307},{"distance":1853,"station_name":"Cikoya","transit":false,"station_id":"CKY","time":4,"line":0,"i_lat":-6.33561,"i_long":106.411216,"is_transit":false},{"station_id":"TGS","station_name":"Tigaraksa","is_transit":false,"distance":2651,"transit":false,"i_lat":-6.328533,"time":3,"i_long":106.425991,"line":6},{"is_transit":false,"distance":2974,"line":6,"i_lat":-6.327251,"station_name":"Tenjo","i_long":106.460812,"station_id":"TEJ","time":5,"transit":false},{"is_transit":false,"i_long":106.491338,"i_lat":-6.338021,"station_id":"DAR","station_name":"Daru","time":5,"distance":3902,"transit":false,"line":0},{"i_long":106.508482,"time":6,"transit":false,"station_id":"CJT","is_transit":false,"i_lat":-6.354349,"line":0,"station_name":"Cilejit","distance":2675},{"distance":7025,"i_long":106.568863,"transit":false,"is_transit":false,"line":6,"station_id":"PRP","i_lat":-6.3441410000000005,"time":9,"station_name":"Parung Panjang"},{"i_lat":-6.329547,"i_long":106.617853,"line":0,"station_name":"Cicayur","time":8,"station_id":"CC","transit":false,"distance":5968,"is_transit":false},{"station_id":"CSK","transit":false,"time":4,"i_lat":-6.32484,"i_long":106.640411,"line":0,"station_name":"Cisauk","distance":2519,"is_transit":false},{"station_id":"SRP","distance":1784,"i_long":106.66566,"time":4,"i_lat":-6.319871,"station_name":"Serpong","transit":false,"is_transit":false,"line":6},{"line":6,"is_transit":false,"station_id":"RU","station_name":"Rawa Buntu","distance":2413,"time":4,"transit":false,"i_long":106.675475,"i_lat":-6.314823},{"time":6,"is_transit":false,"i_lat":-6.296963,"station_id":"SDM","station_name":"Sudimara","transit":false,"line":6,"distance":4566,"i_long":106.712277},{"line":6,"station_id":"JMU","is_transit":false,"station_name":"Jurangmangu","time":4,"i_long":106.728916,"distance":1994,"transit":false,"i_lat":-6.288927},{"transit":false,"station_name":"Pondokranji","time":3,"i_lat":-6.276362,"station_id":"PDJ","distance":2179,"is_transit":false,"i_long":106.74273,"line":6},{"distance":6218,"i_long":106.780334,"is_transit":false,"time":8,"transit":false,"i_lat":-6.237242,"station_name":"Kebayoran","line":6,"station_id":"KBY"},{"distance":3737,"line":6,"i_lat":-6.207404,"time":7,"station_name":"Palmerah","i_long":106.79689,"transit":false,"station_id":"PLM","is_transit":false},{"station_id":"THB","transit":true,"i_lat":-6.185545,"i_long":106.811091,"time":6,"distance":3191,"line":1,"station_name":"Tanah Abang","is_transit":true},{"station_id":"DU","transit":true,"i_lat":-6.155215,"i_long":106.800832,"distance":3632,"line":1,"time":8,"is_transit":true,"station_name":"Duri"},{"station_name":"Angke","is_transit":false,"i_long":106.79867,"i_lat":-6.144674,"station_id":"AK","distance":1230,"line":0,"time":4,"transit":false},{"is_transit":true,"distance":4102,"line":0,"i_long":106.826365,"station_name":"Kampung Bandan","transit":true,"station_id":"KPB","time":9,"i_lat":-6.132549},{"time":3,"is_transit":false,"distance":1444,"station_name":"Rajawali","line":11,"transit":false,"i_lat":-6.14505,"station_id":"RJW","i_long":106.836569},{"line":11,"time":5,"transit":false,"i_long":106.839204,"i_lat":-6.161728,"station_name":"Kemayoran","station_id":"KMO","is_transit":false,"distance":1901},{"transit":false,"station_name":"Pasar Senen","time":4,"i_lat":-6.174784,"distance":1436,"is_transit":false,"i_long":106.84368,"line":11,"station_id":"PSE"},{"time":8,"line":11,"station_name":"Gang Sentiong","station_id":"GST","i_lat":-6.185975,"i_long":106.850107,"transit":false,"distance":1567,"is_transit":false},{"i_lat":-6.193792,"is_transit":false,"time":1,"i_long":106.855437,"station_name":"Kramat","line":11,"transit":false,"distance":973,"station_id":"KMT"},{"station_name":"Pondok Jati","i_lat":-6.209188,"station_id":"POK","is_transit":false,"i_long":106.861737,"distance":1829,"line":11,"time":2,"transit":false},{"i_long":106.86807400000001,"transit":true,"is_transit":true,"line":0,"distance":1236,"station_name":"Jatinegara","station_id":"JNG","time":9,"i_lat":-6.215091},{"i_lat":-6.212485,"distance":1377,"transit":false,"time":2,"i_long":106.858896,"station_name":"Matraman","is_transit":false,"line":1,"station_id":"MTR"},{"station_name":"Manggarai","is_transit":true,"station_id":"MRI","time":2,"distance":1275,"transit":true,"i_long":106.84912,"line":0,"i_lat":-6.209883},{"transit":false,"station_id":"TEB","is_transit":false,"station_name":"Tebet","time":4,"distance":2610,"i_lat":-6.226659,"i_long":106.857948,"line":2},{"i_long":106.856607,"station_name":"Cawang","station_id":"CW","distance":1230,"line":0,"time":2,"is_transit":false,"transit":false,"i_lat":-6.242512},{"i_lat":-6.255332,"station_name":"Duren Kalibata","i_long":106.85449,"line":0,"station_id":"DRN","is_transit":false,"distance":1546,"time":3,"transit":false},{"transit":false,"is_transit":false,"i_long":106.851577,"distance":824,"i_lat":-6.263214,"time":2,"station_id":"PSMB","line":2,"station_name":"Pasar Minggu Baru"},{"i_long":106.843999,"time":2,"transit":false,"line":2,"station_id":"PSM","is_transit":false,"i_lat":-6.2842400000000005,"station_name":"Pasar Minggu","distance":2380},{"station_name":"Tanjung Barat","station_id":"TNT","time":4,"i_long":106.838896,"distance":2820,"i_lat":-6.3080680000000005,"is_transit":false,"line":2,"transit":false},{"i_lat":-6.330363,"i_long":106.832616,"time":3,"station_id":"LNA","is_transit":false,"line":2,"station_name":"Lenteng Agung","distance":2671,"transit":false}]]}