{"data":[[{"i_long":106.332092,"station_name":"Citeras","distance":0,"i_lat":-6.334892,"line":3,"is_transit":false,"transit":false,"time":0,"station_id":"CTR"},{"line":6,"time":10,"distance":7293,"station_name":"Maja","transit":false,"is_transit":false,"i_lat":-6.332307,"station_id":"MJ","i_long":106.394373},{"station_name":"Cikoya","line":3,"i_long":106.411216,"i_lat":-6.33561,"station_id":"CKY","transit":false,"distance":1853,"time":4,"is_transit":false},{"station_name":"Tigaraksa","line":6,"i_long":106.425991,"station_id":"TGS","distance":2651,"transit":false,"i_lat":-6.328533,"time":3,"is_transit":false},{"station_id":"TEJ","station_name":"Tenjo","line":6,"transit":false,"i_lat":-6.327251,"time":5,"is_transit":false,"i_long":106.460812,"distance":2974},{"station_name":"Daru","transit":false,"distance":3902,"is_transit":false,"line":0,"station_id":"DAR","i_long":106.491338,"i_lat":-6.338021,"time":5},{"distance":2675,"is_transit":false,"transit":false,"i_lat":-6.354349,"station_id":"CJT","line":3,"time":6,"i_long":106.508482,"station_name":"Cilejit"},{"i_lat":-6.3441410000000005,"is_transit":false,"transit":false,"line":6,"distance":7025,"time":9,"station_id":"PRP","station_name":"Parung Panjang","i_long":106.568863},{"station_id":"CC","line":3,"i_lat":-6.329547,"distance":5968,"station_name":"Cicayur","is_transit":false,"transit":false,"i_long":106.617853,"time":8},{"i_lat":-6.32484,"station_id":"CSK","is_transit":false,"time":4,"station_name":"Cisauk","distance":2519,"line":3,"i_long":106.640411,"transit":false},{"i_lat":-6.319871,"i_long":106.66566,"station_id":"SRP","station_name":"Serpong","transit":false,"line":6,"distance":1784,"time":4,"is_transit":false},{"distance":2413,"transit":false,"time":4,"is_transit":false,"i_lat":-6.314823,"station_id":"RU","line":6,"station_name":"Rawa Buntu","i_long":106.675475},{"transit":false,"line":6,"distance":4566,"station_id":"SDM","is_transit":false,"i_long":106.712277,"i_lat":-6.296963,"station_name":"Sudimara","time":6},{"time":4,"station_id":"JMU","station_name":"Jurangmangu","distance":1994,"is_transit":false,"i_long":106.728916,"line":6,"i_lat":-6.288927,"transit":false},{"distance":2179,"is_transit":false,"transit":false,"i_lat":-6.276362,"station_id":"PDJ","time":3,"i_long":106.74273,"line":6,"station_name":"Pondokranji"},{"line":6,"station_name":"Kebayoran","transit":false,"i_long":106.780334,"station_id":"KBY","time":8,"is_transit":false,"i_lat":-6.237242,"distance":6218}]]}