{"data":[[{"transit":false,"distance":0,"is_transit":false,"station_name":"Citeras","line":3,"i_lat":-6.334892,"station_id":"CTR","i_long":106.332092,"time":0},{"transit":false,"i_long":106.394373,"distance":7293,"station_id":"MJ","is_transit":false,"line":6,"time":10,"i_lat":-6.332307,"station_name":"Maja"},{"i_lat":-6.33561,"distance":1853,"is_transit":false,"i_long":106.411216,"line":3,"station_id":"CKY","station_name":"Cikoya","time":4,"transit":false},{"i_lat":-6.328533,"station_name":"Tigaraksa","time":3,"i_long":106.425991,"distance":2651,"line":6,"is_transit":false,"station_id":"TGS","transit":false},{"distance":2974,"time":5,"station_id":"TEJ","i_long":106.460812,"is_transit":false,"i_lat":-6.327251,"transit":false,"line":6,"station_name":"Tenjo"},{"line":0,"transit":false,"station_id":"DAR","i_lat":-6.338021,"is_transit":false,"time":5,"i_long":106.491338,"distance":3902,"station_name":"Daru"},{"i_long":106.508482,"line":3,"time":6,"is_transit":false,"transit":false,"station_id":"CJT","i_lat":-6.354349,"distance":2675,"station_name":"Cilejit"},{"time":9,"i_lat":-6.3441410000000005,"station_name":"Parung Panjang","i_long":106.568863,"line":6,"distance":7025,"is_transit":false,"transit":false,"station_id":"PRP"},{"station_name":"Cicayur","station_id":"CC","i_long":106.617853,"line":3,"transit":false,"time":8,"is_transit":false,"i_lat":-6.329547,"distance":5968},{"i_long":106.640411,"time":4,"distance":2519,"transit":false,"station_name":"Cisauk","station_id":"CSK","line":3,"is_transit":false,"i_lat":-6.32484},{"i_lat":-6.319871,"station_name":"Serpong","i_long":106.66566,"is_transit":false,"transit":false,"distance":1784,"station_id":"SRP","time":4,"line":6},{"i_lat":-6.314823,"transit":false,"line":6,"i_long":106.675475,"is_transit":false,"time":4,"station_name":"Rawa Buntu","distance":2413,"station_id":"RU"},{"is_transit":false,"distance":4566,"i_long":106.712277,"i_lat":-6.296963,"time":6,"station_id":"SDM","station_name":"Sudimara","transit":false,"line":6},{"transit":false,"is_transit":false,"distance":1994,"i_long":106.728916,"line":6,"station_name":"Jurangmangu","station_id":"JMU","time":4,"i_lat":-6.288927},{"station_id":"PDJ","transit":false,"is_transit":false,"station_name":"Pondokranji","i_lat":-6.276362,"line":6,"time":3,"distance":2179,"i_long":106.74273}]]}