{"data":[[{"time":0,"i_long":106.332092,"line":0,"station_id":"CTR","transit":false,"station_name":"Citeras","is_transit":false,"i_lat":-6.334892,"distance":0},{"i_lat":-6.332307,"is_transit":false,"station_id":"MJ","time":10,"i_long":106.394373,"line":6,"transit":false,"station_name":"Maja","distance":7293},{"station_name":"Cikoya","i_lat":-6.33561,"i_long":106.411216,"transit":false,"is_transit":false,"distance":1853,"line":0,"time":4,"station_id":"CKY"},{"i_long":106.425991,"distance":2651,"transit":false,"station_name":"Tigaraksa","time":3,"i_lat":-6.328533,"line":6,"station_id":"TGS","is_transit":false},{"i_lat":-6.327251,"distance":2974,"station_name":"Tenjo","time":5,"transit":false,"i_long":106.460812,"is_transit":false,"station_id":"TEJ","line":6},{"station_id":"DAR","distance":3902,"i_long":106.491338,"transit":false,"line":0,"station_name":"Daru","is_transit":false,"time":5,"i_lat":-6.338021},{"distance":2675,"i_lat":-6.354349,"transit":false,"station_name":"Cilejit","line":0,"time":6,"station_id":"CJT","is_transit":false,"i_long":106.508482},{"distance":7025,"line":6,"station_id":"PRP","is_transit":false,"transit":false,"time":9,"station_name":"Parung Panjang","i_lat":-6.3441410000000005,"i_long":106.568863},{"station_name":"Cicayur","station_id":"CC","transit":false,"i_lat":-6.329547,"is_transit":false,"i_long":106.617853,"time":8,"line":0,"distance":5968},{"distance":2519,"transit":false,"time":4,"station_id":"CSK","i_lat":-6.32484,"station_name":"Cisauk","i_long":106.640411,"line":0,"is_transit":false},{"is_transit":false,"distance":1784,"transit":false,"station_name":"Serpong","i_lat":-6.319871,"i_long":106.66566,"station_id":"SRP","time":4,"line":6},{"i_long":106.675475,"station_name":"Rawa Buntu","station_id":"RU","i_lat":-6.314823,"time":4,"is_transit":false,"distance":2413,"transit":false,"line":6},{"i_long":106.712277,"line":6,"time":6,"is_transit":false,"station_id":"SDM","i_lat":-6.296963,"distance":4566,"station_name":"Sudimara","transit":false},{"transit":false,"i_long":106.728916,"i_lat":-6.288927,"station_name":"Jurangmangu","is_transit":false,"station_id":"JMU","line":6,"time":4,"distance":1994},{"station_id":"PDJ","i_lat":-6.276362,"line":6,"distance":2179,"transit":false,"station_name":"Pondokranji","is_transit":false,"i_long":106.74273,"time":3},{"is_transit":false,"station_name":"Kebayoran","i_lat":-6.237242,"station_id":"KBY","i_long":106.780334,"transit":false,"line":6,"time":8,"distance":6218},{"i_long":106.79689,"station_name":"Palmerah","time":7,"distance":3737,"transit":false,"line":6,"i_lat":-6.207404,"station_id":"PLM","is_transit":false},{"distance":3191,"i_lat":-6.185545,"line":1,"station_name":"Tanah Abang","station_id":"THB","is_transit":true,"transit":true,"i_long":106.811091,"time":6},{"is_transit":true,"station_name":"Duri","station_id":"DU","time":8,"transit":true,"distance":3632,"i_lat":-6.155215,"i_long":106.800832,"line":1},{"i_long":106.788277,"time":3,"is_transit":false,"line":5,"station_id":"GGL","i_lat":-6.162021,"station_name":"Grogol","transit":false,"distance":1700},{"i_long":106.771379,"time":2,"distance":2036,"i_lat":-6.161433,"line":5,"transit":false,"station_name":"Pesing","is_transit":false,"station_id":"PSG"},{"line":5,"is_transit":false,"time":2,"station_id":"TKO","distance":1614,"station_name":"Taman Kota","i_lat":-6.1587309999999995,"transit":false,"i_long":106.756522},{"is_transit":false,"station_id":"BOI","time":2,"transit":false,"station_name":"Bojongindah","i_long":106.737035,"i_lat":-6.159876,"line":0,"distance":2334},{"i_lat":-6.162758,"time":4,"distance":1152,"is_transit":false,"transit":false,"line":5,"i_long":106.723064,"station_name":"Rawa Buaya","station_id":"RW"},{"station_id":"KDS","station_name":"Kalideres","is_transit":false,"i_lat":-6.166068,"i_long":106.701612,"line":5,"distance":2504,"time":3,"transit":false},{"transit":false,"station_name":"Poris","distance":2548,"is_transit":false,"time":3,"i_lat":-6.169933,"i_long":106.679458,"line":5,"station_id":"PI"},{"time":3,"station_id":"BPR","station_name":"Batuceper","i_lat":-6.171811,"i_long":106.665036,"transit":false,"distance":1834,"is_transit":false,"line":0},{"distance":2028,"line":5,"is_transit":false,"station_id":"TTI","station_name":"Tanah Tinggi","time":3,"i_lat":-6.17331,"transit":false,"i_long":106.64657}],[{"i_long":106.332092,"station_name":"Citeras","distance":0,"transit":false,"station_id":"CTR","i_lat":-6.334892,"line":0,"is_transit":false,"time":0},{"line":6,"i_long":106.394373,"is_transit":false,"station_name":"Maja","transit":false,"station_id":"MJ","time":10,"distance":7293,"i_lat":-6.332307},{"station_id":"CKY","i_long":106.411216,"line":0,"station_name":"Cikoya","time":4,"is_transit":false,"distance":1853,"i_lat":-6.33561,"transit":false},{"i_lat":-6.328533,"transit":false,"i_long":106.425991,"line":6,"distance":2651,"station_name":"Tigaraksa","is_transit":false,"time":3,"station_id":"TGS"},{"line":6,"i_long":106.460812,"station_id":"TEJ","i_lat":-6.327251,"station_name":"Tenjo","time":5,"is_transit":false,"distance":2974,"transit":false},{"is_transit":false,"station_id":"DAR","line":0,"i_lat":-6.338021,"i_long":106.491338,"distance":3902,"transit":false,"station_name":"Daru","time":5},{"transit":false,"i_long":106.508482,"i_lat":-6.354349,"is_transit":false,"station_name":"Cilejit","distance":2675,"line":0,"station_id":"CJT","time":6},{"i_long":106.568863,"transit":false,"time":9,"station_name":"Parung Panjang","distance":7025,"line":6,"i_lat":-6.3441410000000005,"station_id":"PRP","is_transit":false},{"line":0,"i_lat":-6.329547,"is_transit":false,"distance":5968,"station_id":"CC","i_long":106.617853,"station_name":"Cicayur","transit":false,"time":8},{"i_lat":-6.32484,"time":4,"line":0,"station_name":"Cisauk","is_transit":false,"i_long":106.640411,"transit":false,"station_id":"CSK","distance":2519},{"station_id":"SRP","i_long":106.66566,"station_name":"Serpong","time":4,"is_transit":false,"transit":false,"i_lat":-6.319871,"distance":1784,"line":6},{"station_id":"RU","is_transit":false,"distance":2413,"i_lat":-6.314823,"line":6,"transit":false,"i_long":106.675475,"station_name":"Rawa Buntu","time":4},{"distance":4566,"time":6,"station_name":"Sudimara","line":6,"transit":false,"is_transit":false,"i_lat":-6.296963,"i_long":106.712277,"station_id":"SDM"},{"distance":1994,"line":6,"time":4,"transit":false,"i_lat":-6.288927,"station_name":"Jurangmangu","station_id":"JMU","i_long":106.728916,"is_transit":false},{"transit":false,"station_name":"Pondokranji","time":3,"i_lat":-6.276362,"i_long":106.74273,"is_transit":false,"distance":2179,"line":6,"station_id":"PDJ"},{"transit":false,"line":6,"i_lat":-6.237242,"station_id":"KBY","station_name":"Kebayoran","time":8,"is_transit":false,"i_long":106.780334,"distance":6218},{"distance":3737,"station_id":"PLM","line":6,"i_long":106.79689,"transit":false,"station_name":"Palmerah","time":7,"is_transit":false,"i_lat":-6.207404},{"time":6,"transit":true,"station_name":"Tanah Abang","line":1,"distance":3191,"i_long":106.811091,"station_id":"THB","is_transit":true,"i_lat":-6.185545},{"transit":false,"is_transit":false,"i_lat":-6.20132,"time":5,"station_name":"Karet","station_id":"KAT","line":1,"distance":2029,"i_long":106.816351},{"i_long":106.819881,"station_name":"Sudirman Baru","is_transit":false,"time":1,"transit":false,"i_lat":-6.201433,"line":1,"station_id":"SUDB","distance":471},{"transit":false,"i_lat":-6.202263,"station_name":"Sudirman","time":1,"station_id":"SUD","i_long":106.822649,"distance":280,"line":1,"is_transit":false},{"station_id":"MRI","i_lat":-6.209883,"is_transit":true,"distance":3186,"station_name":"Manggarai","i_long":106.84912,"time":4,"line":0,"transit":true},{"i_lat":-6.198556,"transit":false,"station_id":"CKI","i_long":106.840169,"line":0,"station_name":"Cikini","is_transit":false,"distance":1590,"time":4},{"i_long":106.832183,"is_transit":false,"time":3,"i_lat":-6.186295,"station_name":"Gondangdia","transit":false,"line":2,"distance":1750,"station_id":"GDD"},{"time":4,"i_long":106.828284,"station_name":"Juanda","i_lat":-6.166716,"station_id":"JUA","line":2,"distance":2015,"is_transit":false,"transit":false},{"line":2,"distance":1149,"station_id":"SW","station_name":"Sawah Besar","transit":false,"time":2,"is_transit":false,"i_lat":-6.160725,"i_long":106.827103},{"station_name":"Manggabesar","is_transit":false,"time":2,"station_id":"MGB","distance":906,"transit":false,"i_lat":-6.149769,"i_long":106.82482,"line":2},{"station_name":"Jayakarta","i_lat":-6.141205,"is_transit":false,"time":2,"i_long":106.820901,"station_id":"JAY","transit":false,"distance":1080,"line":7},{"line":0,"station_id":"JAKK","i_lat":-6.137569,"time":4,"station_name":"Jakarta Kota","distance":1264,"is_transit":true,"transit":true,"i_long":106.812439},{"transit":false,"is_transit":true,"i_long":106.826365,"distance":1364,"line":0,"station_id":"KPB","station_name":"Kampung Bandan","i_lat":-6.132549,"time":3},{"station_id":"AK","time":9,"line":0,"distance":4102,"station_name":"Angke","is_transit":false,"transit":false,"i_lat":-6.144674,"i_long":106.79867},{"transit":true,"station_id":"DU","i_lat":-6.155215,"distance":1230,"time":4,"station_name":"Duri","line":1,"is_transit":true,"i_long":106.800832},{"transit":false,"i_long":106.788277,"i_lat":-6.162021,"time":3,"line":5,"distance":1700,"station_id":"GGL","station_name":"Grogol","is_transit":false},{"time":2,"distance":2036,"station_id":"PSG","i_long":106.771379,"transit":false,"station_name":"Pesing","line":5,"is_transit":false,"i_lat":-6.161433},{"transit":false,"line":5,"station_name":"Taman Kota","i_long":106.756522,"station_id":"TKO","is_transit":false,"time":2,"distance":1614,"i_lat":-6.1587309999999995},{"i_lat":-6.159876,"is_transit":false,"i_long":106.737035,"station_name":"Bojongindah","transit":false,"line":0,"time":2,"distance":2334,"station_id":"BOI"},{"i_long":106.723064,"station_name":"Rawa Buaya","line":5,"transit":false,"is_transit":false,"station_id":"RW","time":4,"distance":1152,"i_lat":-6.162758},{"station_id":"KDS","time":3,"station_name":"Kalideres","is_transit":false,"i_long":106.701612,"transit":false,"i_lat":-6.166068,"distance":2504,"line":5},{"is_transit":false,"time":3,"distance":2548,"i_long":106.679458,"line":5,"station_id":"PI","station_name":"Poris","transit":false,"i_lat":-6.169933},{"transit":false,"is_transit":false,"station_name":"Batuceper","i_lat":-6.171811,"station_id":"BPR","line":0,"time":3,"distance":1834,"i_long":106.665036},{"i_long":106.64657,"is_transit":false,"line":5,"station_id":"TTI","distance":2028,"i_lat":-6.17331,"time":3,"transit":false,"station_name":"Tanah Tinggi"}],[{"i_lat":-6.334892,"i_long":106.332092,"station_name":"Citeras","distance":0,"is_transit":false,"station_id":"CTR","time":0,"line":0,"transit":false},{"distance":7293,"time":10,"station_name":"Maja","line":6,"i_lat":-6.332307,"is_transit":false,"i_long":106.394373,"transit":false,"station_id":"MJ"},{"time":4,"is_transit":false,"distance":1853,"station_id":"CKY","i_long":106.411216,"i_lat":-6.33561,"station_name":"Cikoya","transit":false,"line":0},{"station_id":"TGS","is_transit":false,"i_lat":-6.328533,"transit":false,"line":6,"i_long":106.425991,"time":3,"distance":2651,"station_name":"Tigaraksa"},{"transit":false,"line":6,"time":5,"i_long":106.460812,"is_transit":false,"station_id":"TEJ","i_lat":-6.327251,"station_name":"Tenjo","distance":2974},{"station_id":"DAR","is_transit":false,"i_lat":-6.338021,"station_name":"Daru","time":5,"i_long":106.491338,"distance":3902,"line":0,"transit":false},{"is_transit":false,"station_id":"CJT","i_lat":-6.354349,"station_name":"Cilejit","i_long":106.508482,"distance":2675,"time":6,"line":0,"transit":false},{"distance":7025,"i_long":106.568863,"transit":false,"station_id":"PRP","station_name":"Parung Panjang","i_lat":-6.3441410000000005,"time":9,"is_transit":false,"line":6},{"is_transit":false,"i_lat":-6.329547,"time":8,"station_id":"CC","line":0,"i_long":106.617853,"distance":5968,"station_name":"Cicayur","transit":false},{"transit":false,"is_transit":false,"station_name":"Cisauk","distance":2519,"i_lat":-6.32484,"i_long":106.640411,"line":0,"station_id":"CSK","time":4},{"time":4,"is_transit":false,"transit":false,"distance":1784,"line":6,"i_lat":-6.319871,"i_long":106.66566,"station_id":"SRP","station_name":"Serpong"},{"i_long":106.675475,"station_name":"Rawa Buntu","transit":false,"i_lat":-6.314823,"is_transit":false,"distance":2413,"station_id":"RU","time":4,"line":6},{"line":6,"station_id":"SDM","distance":4566,"time":6,"transit":false,"i_long":106.712277,"station_name":"Sudimara","is_transit":false,"i_lat":-6.296963},{"station_id":"JMU","i_long":106.728916,"line":6,"i_lat":-6.288927,"time":4,"distance":1994,"transit":false,"is_transit":false,"station_name":"Jurangmangu"},{"i_lat":-6.276362,"line":6,"station_id":"PDJ","station_name":"Pondokranji","time":3,"transit":false,"i_long":106.74273,"distance":2179,"is_transit":false},{"transit":false,"is_transit":false,"time":8,"i_long":106.780334,"station_id":"KBY","station_name":"Kebayoran","distance":6218,"i_lat":-6.237242,"line":6},{"is_transit":false,"time":7,"transit":false,"distance":3737,"station_id":"PLM","station_name":"Palmerah","i_lat":-6.207404,"i_long":106.79689,"line":6},{"line":1,"i_long":106.811091,"transit":true,"i_lat":-6.185545,"station_id":"THB","time":6,"distance":3191,"is_transit":true,"station_name":"Tanah Abang"},{"transit":false,"is_transit":false,"i_lat":-6.20132,"line":1,"station_name":"Karet","distance":2029,"i_long":106.816351,"station_id":"KAT","time":5},{"transit":false,"station_name":"Sudirman Baru","line":1,"station_id":"SUDB","i_lat":-6.201433,"is_transit":false,"time":1,"distance":471,"i_long":106.819881},{"distance":280,"station_name":"Sudirman","transit":false,"i_long":106.822649,"time":1,"i_lat":-6.202263,"line":1,"station_id":"SUD","is_transit":false},{"time":4,"station_name":"Manggarai","i_lat":-6.209883,"distance":3186,"station_id":"MRI","transit":false,"i_long":106.84912,"line":0,"is_transit":true},{"i_long":106.858896,"i_lat":-6.212485,"transit":false,"station_id":"MTR","station_name":"Matraman","is_transit":false,"time":2,"distance":1275,"line":1},{"time":8,"transit":true,"i_long":106.86807400000001,"i_lat":-6.215091,"line":0,"is_transit":true,"distance":1377,"station_id":"JNG","station_name":"Jatinegara"},{"station_name":"Pondok Jati","transit":false,"distance":1236,"line":11,"i_long":106.861737,"is_transit":false,"time":2,"i_lat":-6.209188,"station_id":"POK"},{"is_transit":false,"distance":1829,"i_lat":-6.193792,"line":11,"transit":false,"station_id":"KMT","station_name":"Kramat","time":2,"i_long":106.855437},{"is_transit":false,"station_id":"GST","station_name":"Gang Sentiong","transit":false,"line":11,"distance":973,"time":1,"i_lat":-6.185975,"i_long":106.850107},{"line":11,"is_transit":false,"time":8,"i_lat":-6.174784,"station_name":"Pasar Senen","i_long":106.84368,"station_id":"PSE","distance":1567,"transit":false},{"station_id":"KMO","distance":1436,"transit":false,"i_long":106.839204,"time":4,"i_lat":-6.161728,"station_name":"Kemayoran","is_transit":false,"line":11},{"station_name":"Rajawali","distance":1901,"i_lat":-6.14505,"i_long":106.836569,"line":11,"time":5,"station_id":"RJW","transit":false,"is_transit":false},{"distance":1444,"station_name":"Kampung Bandan","station_id":"KPB","transit":true,"line":0,"i_long":106.826365,"time":3,"i_lat":-6.132549,"is_transit":true},{"transit":false,"station_name":"Angke","station_id":"AK","i_long":106.79867,"line":0,"i_lat":-6.144674,"is_transit":false,"time":9,"distance":4102},{"station_id":"DU","time":4,"transit":true,"distance":1230,"is_transit":true,"i_lat":-6.155215,"station_name":"Duri","i_long":106.800832,"line":1},{"station_name":"Grogol","is_transit":false,"line":5,"time":3,"transit":false,"i_long":106.788277,"station_id":"GGL","distance":1700,"i_lat":-6.162021},{"i_lat":-6.161433,"transit":false,"station_id":"PSG","station_name":"Pesing","time":2,"i_long":106.771379,"is_transit":false,"distance":2036,"line":5},{"station_id":"TKO","time":2,"transit":false,"station_name":"Taman Kota","i_lat":-6.1587309999999995,"is_transit":false,"distance":1614,"line":5,"i_long":106.756522},{"station_id":"BOI","is_transit":false,"distance":2334,"transit":false,"line":0,"i_lat":-6.159876,"i_long":106.737035,"station_name":"Bojongindah","time":2},{"station_id":"RW","transit":false,"i_lat":-6.162758,"line":5,"station_name":"Rawa Buaya","i_long":106.723064,"distance":1152,"is_transit":false,"time":4},{"distance":2504,"station_name":"Kalideres","is_transit":false,"i_long":106.701612,"i_lat":-6.166068,"station_id":"KDS","transit":false,"time":3,"line":5},{"station_name":"Poris","distance":2548,"i_lat":-6.169933,"is_transit":false,"time":3,"transit":false,"line":5,"i_long":106.679458,"station_id":"PI"},{"line":0,"i_long":106.665036,"is_transit":false,"station_id":"BPR","time":3,"station_name":"Batuceper","distance":1834,"transit":false,"i_lat":-6.171811},{"station_id":"TTI","distance":2028,"line":5,"i_long":106.64657,"is_transit":false,"station_name":"Tanah Tinggi","i_lat":-6.17331,"transit":false,"time":3}]]}