{"data":[[{"i_long":106.332092,"transit":false,"time":0,"distance":0,"i_lat":-6.334892,"station_id":"CTR","station_name":"Citeras","line":3,"is_transit":false},{"time":10,"station_name":"Maja","station_id":"MJ","line":6,"is_transit":false,"transit":false,"distance":7293,"i_long":106.394373,"i_lat":-6.332307},{"i_lat":-6.33561,"station_name":"Cikoya","distance":1853,"time":4,"station_id":"CKY","is_transit":false,"i_long":106.411216,"line":3,"transit":false},{"i_lat":-6.328533,"transit":false,"station_id":"TGS","i_long":106.425991,"is_transit":false,"time":3,"station_name":"Tigaraksa","distance":2651,"line":6},{"is_transit":false,"i_lat":-6.327251,"distance":2974,"transit":false,"station_name":"Tenjo","i_long":106.460812,"line":6,"station_id":"TEJ","time":5},{"is_transit":false,"station_name":"Daru","station_id":"DAR","distance":3902,"i_lat":-6.338021,"line":0,"transit":false,"time":5,"i_long":106.491338},{"transit":false,"station_id":"CJT","time":6,"line":3,"station_name":"Cilejit","is_transit":false,"distance":2675,"i_lat":-6.354349,"i_long":106.508482},{"distance":7025,"time":9,"station_name":"Parung Panjang","is_transit":false,"i_lat":-6.3441410000000005,"line":6,"transit":false,"i_long":106.568863,"station_id":"PRP"},{"station_name":"Cicayur","time":8,"station_id":"CC","line":3,"distance":5968,"transit":false,"i_lat":-6.329547,"is_transit":false,"i_long":106.617853},{"i_long":106.640411,"line":3,"station_name":"Cisauk","is_transit":false,"transit":false,"station_id":"CSK","distance":2519,"time":4,"i_lat":-6.32484},{"transit":false,"is_transit":false,"time":4,"distance":1784,"i_lat":-6.319871,"i_long":106.66566,"line":6,"station_id":"SRP","station_name":"Serpong"},{"is_transit":false,"time":4,"i_long":106.675475,"distance":2413,"line":6,"station_name":"Rawa Buntu","i_lat":-6.314823,"transit":false,"station_id":"RU"},{"station_name":"Sudimara","is_transit":false,"distance":4566,"i_lat":-6.296963,"transit":false,"i_long":106.712277,"line":6,"station_id":"SDM","time":6},{"line":6,"station_id":"JMU","distance":1994,"i_long":106.728916,"is_transit":false,"station_name":"Jurangmangu","i_lat":-6.288927,"time":4,"transit":false},{"transit":false,"station_name":"Pondokranji","i_lat":-6.276362,"station_id":"PDJ","time":3,"distance":2179,"line":6,"i_long":106.74273,"is_transit":false},{"i_long":106.780334,"station_name":"Kebayoran","line":6,"time":8,"transit":false,"is_transit":false,"i_lat":-6.237242,"station_id":"KBY","distance":6218},{"i_long":106.79689,"distance":3737,"station_id":"PLM","line":6,"is_transit":false,"transit":false,"station_name":"Palmerah","time":7,"i_lat":-6.207404},{"distance":3191,"station_name":"Tanah Abang","time":6,"i_long":106.811091,"line":1,"transit":true,"is_transit":true,"i_lat":-6.185545,"station_id":"THB"},{"line":1,"distance":2029,"transit":false,"station_id":"KAT","station_name":"Karet","i_lat":-6.20132,"i_long":106.816351,"time":5,"is_transit":false},{"transit":false,"time":1,"is_transit":false,"i_lat":-6.201433,"station_id":"SUDB","i_long":106.819881,"station_name":"Sudirman Baru","line":1,"distance":471},{"line":1,"is_transit":false,"station_name":"Sudirman","distance":280,"i_lat":-6.202263,"transit":false,"i_long":106.822649,"station_id":"SUD","time":1},{"is_transit":false,"transit":false,"time":4,"station_name":"Manggarai","i_long":106.84912,"station_id":"MRI","distance":3186,"i_lat":-6.209883,"line":2},{"transit":false,"distance":1275,"i_long":106.858896,"time":2,"station_id":"MTR","station_name":"Matraman","i_lat":-6.212485,"is_transit":false,"line":1},{"distance":1377,"station_name":"Jatinegara","time":8,"line":1,"station_id":"JNG","i_lat":-6.215091,"transit":false,"i_long":106.86807400000001,"is_transit":false},{"station_name":"Klender","transit":false,"time":3,"is_transit":false,"i_lat":-6.2135,"i_long":106.899548,"station_id":"KLD","line":1,"distance":3395},{"i_lat":-6.215568,"station_id":"BUA","is_transit":false,"i_long":106.922662,"distance":3100,"line":1,"transit":false,"station_name":"Buaran","time":2},{"i_lat":-6.217455,"i_long":106.939679,"line":1,"station_id":"KLDB","is_transit":false,"time":1,"station_name":"Klenderbaru","distance":1305,"transit":false},{"is_transit":false,"time":8,"line":1,"i_long":106.951283,"distance":1385,"i_lat":-6.219053,"transit":false,"station_name":"Cakung","station_id":"CUK"},{"time":3,"transit":false,"station_name":"Kranji","line":1,"is_transit":false,"i_long":106.977657,"distance":3097,"station_id":"KRI","i_lat":-6.224515},{"time":4,"is_transit":false,"station_name":"Bekasi","distance":2520,"i_long":106.997013,"transit":false,"i_lat":-6.236616,"line":1,"station_id":"BKS"},{"is_transit":false,"i_lat":-6.248029,"i_long":107.016735,"station_id":"BKST","station_name":"Bekasi Timur","transit":false,"time":2,"line":1,"distance":2368},{"transit":false,"i_long":107.055722,"station_id":"TB","time":7,"is_transit":false,"line":1,"i_lat":-6.258864,"distance":4460,"station_name":"Tambun"},{"time":3,"transit":false,"distance":3420,"is_transit":false,"i_lat":-6.261877,"station_name":"Cibitung","i_long":107.083084,"station_id":"CIT","line":1}],[{"i_lat":-6.334892,"line":3,"i_long":106.332092,"is_transit":false,"transit":false,"station_name":"Citeras","station_id":"CTR","distance":0,"time":0},{"station_id":"MJ","distance":7293,"time":10,"line":6,"i_lat":-6.332307,"i_long":106.394373,"transit":false,"station_name":"Maja","is_transit":false},{"distance":1853,"station_id":"CKY","transit":false,"i_lat":-6.33561,"station_name":"Cikoya","time":4,"i_long":106.411216,"is_transit":false,"line":3},{"is_transit":false,"time":3,"i_long":106.425991,"line":6,"i_lat":-6.328533,"distance":2651,"station_id":"TGS","transit":false,"station_name":"Tigaraksa"},{"i_lat":-6.327251,"station_name":"Tenjo","i_long":106.460812,"distance":2974,"station_id":"TEJ","line":6,"is_transit":false,"time":5,"transit":false},{"is_transit":false,"station_name":"Daru","transit":false,"station_id":"DAR","time":5,"distance":3902,"i_lat":-6.338021,"i_long":106.491338,"line":0},{"time":6,"line":3,"transit":false,"station_name":"Cilejit","is_transit":false,"i_lat":-6.354349,"station_id":"CJT","distance":2675,"i_long":106.508482},{"distance":7025,"transit":false,"i_lat":-6.3441410000000005,"station_id":"PRP","is_transit":false,"line":6,"time":9,"station_name":"Parung Panjang","i_long":106.568863},{"station_id":"CC","line":3,"i_long":106.617853,"station_name":"Cicayur","is_transit":false,"i_lat":-6.329547,"transit":false,"distance":5968,"time":8},{"distance":2519,"station_name":"Cisauk","time":4,"is_transit":false,"transit":false,"i_long":106.640411,"line":3,"i_lat":-6.32484,"station_id":"CSK"},{"time":4,"i_lat":-6.319871,"station_id":"SRP","line":6,"i_long":106.66566,"distance":1784,"station_name":"Serpong","transit":false,"is_transit":false},{"station_id":"RU","line":6,"i_lat":-6.314823,"time":4,"is_transit":false,"i_long":106.675475,"station_name":"Rawa Buntu","distance":2413,"transit":false},{"i_lat":-6.296963,"station_id":"SDM","is_transit":false,"distance":4566,"station_name":"Sudimara","time":6,"i_long":106.712277,"line":6,"transit":false},{"i_long":106.728916,"distance":1994,"is_transit":false,"station_id":"JMU","time":4,"station_name":"Jurangmangu","transit":false,"i_lat":-6.288927,"line":6},{"station_name":"Pondokranji","line":6,"i_long":106.74273,"is_transit":false,"transit":false,"i_lat":-6.276362,"station_id":"PDJ","time":3,"distance":2179},{"distance":6218,"station_name":"Kebayoran","is_transit":false,"transit":false,"station_id":"KBY","line":6,"i_lat":-6.237242,"i_long":106.780334,"time":8},{"i_long":106.79689,"transit":false,"is_transit":false,"distance":3737,"line":6,"i_lat":-6.207404,"station_name":"Palmerah","station_id":"PLM","time":7},{"transit":true,"distance":3191,"station_name":"Tanah Abang","is_transit":true,"line":1,"station_id":"THB","i_lat":-6.185545,"i_long":106.811091,"time":6},{"transit":false,"time":8,"i_long":106.800832,"station_name":"Duri","distance":3632,"is_transit":false,"line":1,"i_lat":-6.155215,"station_id":"DU"},{"station_id":"AK","transit":false,"i_lat":-6.144674,"is_transit":false,"line":1,"distance":1230,"station_name":"Angke","i_long":106.79867,"time":4},{"i_long":106.826365,"i_lat":-6.132549,"station_name":"Kampung Bandan","distance":4102,"line":4,"station_id":"KPB","time":9,"transit":true,"is_transit":true},{"time":3,"line":11,"transit":false,"is_transit":false,"station_id":"RJW","distance":1444,"station_name":"Rajawali","i_lat":-6.14505,"i_long":106.836569},{"station_name":"Kemayoran","station_id":"KMO","time":5,"i_long":106.839204,"distance":1901,"is_transit":false,"i_lat":-6.161728,"line":11,"transit":false},{"station_name":"Pasar Senen","transit":false,"is_transit":false,"line":11,"distance":1436,"i_lat":-6.174784,"station_id":"PSE","time":4,"i_long":106.84368},{"is_transit":false,"station_name":"Gang Sentiong","station_id":"GST","i_lat":-6.185975,"line":11,"i_long":106.850107,"distance":1567,"time":8,"transit":false},{"i_long":106.855437,"time":1,"station_id":"KMT","is_transit":false,"station_name":"Kramat","i_lat":-6.193792,"line":11,"transit":false,"distance":973},{"is_transit":false,"time":2,"distance":1829,"i_lat":-6.209188,"line":11,"station_id":"POK","transit":false,"i_long":106.861737,"station_name":"Pondok Jati"},{"line":1,"is_transit":true,"station_id":"JNG","time":9,"i_lat":-6.215091,"station_name":"Jatinegara","transit":true,"i_long":106.86807400000001,"distance":1236},{"station_name":"Klender","i_long":106.899548,"station_id":"KLD","transit":false,"is_transit":false,"line":1,"distance":3395,"time":3,"i_lat":-6.2135},{"i_lat":-6.215568,"line":1,"station_id":"BUA","time":2,"transit":false,"i_long":106.922662,"station_name":"Buaran","is_transit":false,"distance":3100},{"time":1,"transit":false,"station_name":"Klenderbaru","is_transit":false,"i_lat":-6.217455,"distance":1305,"line":1,"i_long":106.939679,"station_id":"KLDB"},{"distance":1385,"line":1,"is_transit":false,"station_id":"CUK","i_long":106.951283,"station_name":"Cakung","time":8,"i_lat":-6.219053,"transit":false},{"distance":3097,"station_name":"Kranji","is_transit":false,"time":3,"line":1,"i_long":106.977657,"i_lat":-6.224515,"transit":false,"station_id":"KRI"},{"transit":false,"is_transit":false,"distance":2520,"station_id":"BKS","line":1,"time":4,"i_long":106.997013,"station_name":"Bekasi","i_lat":-6.236616},{"transit":false,"station_name":"Bekasi Timur","distance":2368,"is_transit":false,"i_lat":-6.248029,"time":2,"line":1,"i_long":107.016735,"station_id":"BKST"},{"station_name":"Tambun","distance":4460,"transit":false,"i_long":107.055722,"is_transit":false,"time":7,"line":1,"i_lat":-6.258864,"station_id":"TB"},{"station_id":"CIT","line":1,"station_name":"Cibitung","distance":3420,"time":3,"i_lat":-6.261877,"transit":false,"i_long":107.083084,"is_transit":false}],[{"transit":false,"i_long":106.332092,"line":3,"time":0,"i_lat":-6.334892,"is_transit":false,"station_name":"Citeras","station_id":"CTR","distance":0},{"i_lat":-6.332307,"is_transit":false,"time":10,"station_name":"Maja","station_id":"MJ","transit":false,"distance":7293,"line":6,"i_long":106.394373},{"line":3,"distance":1853,"is_transit":false,"transit":false,"station_name":"Cikoya","station_id":"CKY","time":4,"i_lat":-6.33561,"i_long":106.411216},{"i_lat":-6.328533,"line":6,"transit":false,"station_name":"Tigaraksa","station_id":"TGS","distance":2651,"is_transit":false,"i_long":106.425991,"time":3},{"line":6,"i_lat":-6.327251,"station_name":"Tenjo","i_long":106.460812,"distance":2974,"transit":false,"time":5,"station_id":"TEJ","is_transit":false},{"i_long":106.491338,"station_id":"DAR","line":0,"transit":false,"time":5,"i_lat":-6.338021,"station_name":"Daru","distance":3902,"is_transit":false},{"i_lat":-6.354349,"station_id":"CJT","i_long":106.508482,"time":6,"transit":false,"line":3,"is_transit":false,"distance":2675,"station_name":"Cilejit"},{"time":9,"i_lat":-6.3441410000000005,"station_id":"PRP","i_long":106.568863,"transit":false,"line":6,"is_transit":false,"distance":7025,"station_name":"Parung Panjang"},{"transit":false,"i_lat":-6.329547,"station_id":"CC","time":8,"distance":5968,"i_long":106.617853,"line":3,"station_name":"Cicayur","is_transit":false},{"station_id":"CSK","time":4,"i_lat":-6.32484,"distance":2519,"i_long":106.640411,"is_transit":false,"transit":false,"line":3,"station_name":"Cisauk"},{"time":4,"i_long":106.66566,"distance":1784,"line":6,"station_name":"Serpong","transit":false,"is_transit":false,"i_lat":-6.319871,"station_id":"SRP"},{"line":6,"i_long":106.675475,"station_id":"RU","is_transit":false,"distance":2413,"station_name":"Rawa Buntu","i_lat":-6.314823,"transit":false,"time":4},{"i_lat":-6.296963,"station_name":"Sudimara","transit":false,"station_id":"SDM","time":6,"is_transit":false,"distance":4566,"i_long":106.712277,"line":6},{"station_id":"JMU","station_name":"Jurangmangu","transit":false,"i_long":106.728916,"time":4,"line":6,"is_transit":false,"distance":1994,"i_lat":-6.288927},{"transit":false,"is_transit":false,"i_long":106.74273,"station_name":"Pondokranji","time":3,"station_id":"PDJ","distance":2179,"i_lat":-6.276362,"line":6},{"time":8,"i_long":106.780334,"station_id":"KBY","station_name":"Kebayoran","distance":6218,"transit":false,"is_transit":false,"i_lat":-6.237242,"line":6},{"transit":false,"i_long":106.79689,"station_id":"PLM","is_transit":false,"time":7,"line":6,"i_lat":-6.207404,"distance":3737,"station_name":"Palmerah"},{"time":6,"i_lat":-6.185545,"line":1,"is_transit":true,"transit":true,"i_long":106.811091,"station_name":"Tanah Abang","station_id":"THB","distance":3191},{"station_id":"DU","is_transit":false,"i_long":106.800832,"distance":3632,"station_name":"Duri","time":8,"i_lat":-6.155215,"transit":false,"line":1},{"transit":false,"is_transit":false,"i_long":106.79867,"i_lat":-6.144674,"station_id":"AK","time":4,"line":1,"distance":1230,"station_name":"Angke"},{"time":9,"distance":4102,"i_long":106.826365,"i_lat":-6.132549,"transit":true,"station_name":"Kampung Bandan","is_transit":true,"line":4,"station_id":"KPB"},{"i_long":106.812439,"time":3,"line":2,"station_id":"JAKK","distance":1364,"i_lat":-6.137569,"station_name":"Jakarta Kota","transit":true,"is_transit":true},{"is_transit":false,"station_name":"Jayakarta","i_long":106.820901,"transit":false,"line":2,"i_lat":-6.141205,"time":4,"distance":1264,"station_id":"JAY"},{"line":2,"i_long":106.82482,"transit":false,"station_id":"MGB","is_transit":false,"time":2,"distance":1080,"i_lat":-6.149769,"station_name":"Manggabesar"},{"i_lat":-6.160725,"i_long":106.827103,"line":2,"station_name":"Sawah Besar","distance":906,"transit":false,"station_id":"SW","is_transit":false,"time":2},{"station_name":"Juanda","distance":1149,"transit":false,"time":2,"station_id":"JUA","i_lat":-6.166716,"is_transit":false,"i_long":106.828284,"line":2},{"station_name":"Gondangdia","is_transit":false,"i_long":106.832183,"transit":false,"line":2,"time":4,"i_lat":-6.186295,"station_id":"GDD","distance":2015},{"time":3,"station_name":"Cikini","transit":false,"is_transit":false,"distance":1750,"i_long":106.840169,"line":2,"i_lat":-6.198556,"station_id":"CKI"},{"station_name":"Manggarai","station_id":"MRI","transit":true,"time":4,"distance":1590,"is_transit":true,"line":2,"i_lat":-6.209883,"i_long":106.84912},{"line":1,"i_lat":-6.212485,"station_name":"Matraman","time":2,"is_transit":false,"i_long":106.858896,"station_id":"MTR","distance":1275,"transit":false},{"station_id":"JNG","distance":1377,"time":8,"transit":false,"i_lat":-6.215091,"station_name":"Jatinegara","is_transit":false,"i_long":106.86807400000001,"line":1},{"station_name":"Klender","distance":3395,"line":1,"i_long":106.899548,"is_transit":false,"i_lat":-6.2135,"transit":false,"station_id":"KLD","time":3},{"distance":3100,"line":1,"i_lat":-6.215568,"station_id":"BUA","i_long":106.922662,"transit":false,"station_name":"Buaran","is_transit":false,"time":2},{"transit":false,"time":1,"station_id":"KLDB","i_lat":-6.217455,"is_transit":false,"i_long":106.939679,"line":1,"station_name":"Klenderbaru","distance":1305},{"i_long":106.951283,"line":1,"time":8,"transit":false,"i_lat":-6.219053,"station_id":"CUK","is_transit":false,"distance":1385,"station_name":"Cakung"},{"station_id":"KRI","i_lat":-6.224515,"distance":3097,"station_name":"Kranji","line":1,"time":3,"transit":false,"is_transit":false,"i_long":106.977657},{"station_name":"Bekasi","i_lat":-6.236616,"station_id":"BKS","distance":2520,"transit":false,"i_long":106.997013,"line":1,"is_transit":false,"time":4},{"station_id":"BKST","is_transit":false,"i_lat":-6.248029,"line":1,"station_name":"Bekasi Timur","time":2,"distance":2368,"i_long":107.016735,"transit":false},{"line":1,"station_id":"TB","time":7,"i_lat":-6.258864,"i_long":107.055722,"transit":false,"station_name":"Tambun","distance":4460,"is_transit":false},{"i_lat":-6.261877,"is_transit":false,"station_id":"CIT","i_long":107.083084,"line":1,"transit":false,"time":3,"distance":3420,"station_name":"Cibitung"}],[{"station_name":"Citeras","distance":0,"line":3,"time":0,"i_lat":-6.334892,"is_transit":false,"transit":false,"i_long":106.332092,"station_id":"CTR"},{"is_transit":false,"line":6,"time":10,"i_lat":-6.332307,"transit":false,"station_id":"MJ","i_long":106.394373,"distance":7293,"station_name":"Maja"},{"line":3,"transit":false,"station_name":"Cikoya","station_id":"CKY","time":4,"distance":1853,"i_long":106.411216,"is_transit":false,"i_lat":-6.33561},{"i_lat":-6.328533,"station_name":"Tigaraksa","time":3,"is_transit":false,"i_long":106.425991,"line":6,"station_id":"TGS","transit":false,"distance":2651},{"station_id":"TEJ","time":5,"i_long":106.460812,"station_name":"Tenjo","line":6,"i_lat":-6.327251,"transit":false,"distance":2974,"is_transit":false},{"i_long":106.491338,"time":5,"distance":3902,"i_lat":-6.338021,"station_name":"Daru","line":0,"station_id":"DAR","is_transit":false,"transit":false},{"time":6,"is_transit":false,"i_lat":-6.354349,"transit":false,"distance":2675,"i_long":106.508482,"station_id":"CJT","line":3,"station_name":"Cilejit"},{"i_lat":-6.3441410000000005,"line":6,"transit":false,"station_id":"PRP","time":9,"distance":7025,"station_name":"Parung Panjang","is_transit":false,"i_long":106.568863},{"is_transit":false,"line":3,"i_lat":-6.329547,"transit":false,"station_id":"CC","distance":5968,"i_long":106.617853,"time":8,"station_name":"Cicayur"},{"station_id":"CSK","transit":false,"line":3,"i_lat":-6.32484,"station_name":"Cisauk","distance":2519,"i_long":106.640411,"time":4,"is_transit":false},{"transit":false,"station_name":"Serpong","i_long":106.66566,"i_lat":-6.319871,"line":6,"station_id":"SRP","is_transit":false,"time":4,"distance":1784},{"line":6,"station_name":"Rawa Buntu","distance":2413,"i_long":106.675475,"transit":false,"station_id":"RU","is_transit":false,"time":4,"i_lat":-6.314823},{"station_name":"Sudimara","line":6,"i_long":106.712277,"is_transit":false,"transit":false,"time":6,"i_lat":-6.296963,"station_id":"SDM","distance":4566},{"is_transit":false,"transit":false,"station_name":"Jurangmangu","i_lat":-6.288927,"station_id":"JMU","time":4,"distance":1994,"i_long":106.728916,"line":6},{"station_name":"Pondokranji","distance":2179,"station_id":"PDJ","line":6,"transit":false,"time":3,"i_long":106.74273,"is_transit":false,"i_lat":-6.276362},{"line":6,"transit":false,"time":8,"i_long":106.780334,"station_name":"Kebayoran","station_id":"KBY","is_transit":false,"distance":6218,"i_lat":-6.237242},{"i_lat":-6.207404,"line":6,"transit":false,"is_transit":false,"time":7,"distance":3737,"station_id":"PLM","station_name":"Palmerah","i_long":106.79689},{"line":1,"time":6,"i_lat":-6.185545,"i_long":106.811091,"transit":true,"is_transit":true,"distance":3191,"station_id":"THB","station_name":"Tanah Abang"},{"distance":2029,"station_name":"Karet","station_id":"KAT","is_transit":false,"time":5,"i_long":106.816351,"transit":false,"i_lat":-6.20132,"line":1},{"time":1,"distance":471,"station_name":"Sudirman Baru","transit":false,"is_transit":false,"i_lat":-6.201433,"station_id":"SUDB","line":1,"i_long":106.819881},{"line":1,"transit":false,"station_name":"Sudirman","station_id":"SUD","is_transit":false,"distance":280,"i_lat":-6.202263,"time":1,"i_long":106.822649},{"i_long":106.84912,"transit":true,"is_transit":true,"distance":3186,"line":2,"station_id":"MRI","station_name":"Manggarai","time":4,"i_lat":-6.209883},{"distance":1590,"transit":false,"station_name":"Cikini","time":4,"station_id":"CKI","i_lat":-6.198556,"line":2,"i_long":106.840169,"is_transit":false},{"station_name":"Gondangdia","line":2,"time":3,"station_id":"GDD","i_lat":-6.186295,"i_long":106.832183,"is_transit":false,"transit":false,"distance":1750},{"station_name":"Juanda","station_id":"JUA","is_transit":false,"i_lat":-6.166716,"transit":false,"line":2,"time":4,"i_long":106.828284,"distance":2015},{"line":2,"i_lat":-6.160725,"station_name":"Sawah Besar","transit":false,"station_id":"SW","is_transit":false,"time":2,"distance":1149,"i_long":106.827103},{"station_id":"MGB","i_lat":-6.149769,"station_name":"Manggabesar","time":2,"line":2,"i_long":106.82482,"transit":false,"is_transit":false,"distance":906},{"is_transit":false,"line":2,"distance":1080,"time":2,"i_lat":-6.141205,"station_name":"Jayakarta","i_long":106.820901,"transit":false,"station_id":"JAY"},{"i_long":106.812439,"transit":true,"distance":1264,"station_name":"Jakarta Kota","station_id":"JAKK","is_transit":true,"line":2,"time":4,"i_lat":-6.137569},{"i_long":106.826365,"line":4,"time":3,"station_name":"Kampung Bandan","distance":1364,"is_transit":true,"i_lat":-6.132549,"transit":true,"station_id":"KPB"},{"is_transit":false,"station_id":"RJW","i_lat":-6.14505,"transit":false,"line":11,"distance":1444,"i_long":106.836569,"time":3,"station_name":"Rajawali"},{"is_transit":false,"transit":false,"station_name":"Kemayoran","station_id":"KMO","time":5,"i_lat":-6.161728,"i_long":106.839204,"line":11,"distance":1901},{"distance":1436,"station_id":"PSE","i_lat":-6.174784,"station_name":"Pasar Senen","time":4,"line":11,"transit":false,"i_long":106.84368,"is_transit":false},{"i_long":106.850107,"line":11,"station_name":"Gang Sentiong","station_id":"GST","transit":false,"is_transit":false,"distance":1567,"i_lat":-6.185975,"time":8},{"is_transit":false,"i_lat":-6.193792,"line":11,"transit":false,"station_name":"Kramat","station_id":"KMT","distance":973,"i_long":106.855437,"time":1},{"station_name":"Pondok Jati","i_lat":-6.209188,"i_long":106.861737,"transit":false,"line":11,"distance":1829,"station_id":"POK","time":2,"is_transit":false},{"distance":1236,"station_name":"Jatinegara","i_long":106.86807400000001,"is_transit":true,"i_lat":-6.215091,"time":9,"transit":true,"station_id":"JNG","line":1},{"time":3,"i_lat":-6.2135,"is_transit":false,"station_id":"KLD","i_long":106.899548,"distance":3395,"transit":false,"line":1,"station_name":"Klender"},{"i_long":106.922662,"station_name":"Buaran","time":2,"transit":false,"station_id":"BUA","i_lat":-6.215568,"is_transit":false,"distance":3100,"line":1},{"station_name":"Klenderbaru","line":1,"is_transit":false,"time":1,"station_id":"KLDB","transit":false,"distance":1305,"i_lat":-6.217455,"i_long":106.939679},{"line":1,"station_name":"Cakung","i_long":106.951283,"is_transit":false,"transit":false,"station_id":"CUK","i_lat":-6.219053,"time":8,"distance":1385},{"is_transit":false,"distance":3097,"i_long":106.977657,"transit":false,"time":3,"i_lat":-6.224515,"station_id":"KRI","line":1,"station_name":"Kranji"},{"transit":false,"i_lat":-6.236616,"station_id":"BKS","line":1,"distance":2520,"i_long":106.997013,"is_transit":false,"station_name":"Bekasi","time":4},{"distance":2368,"transit":false,"station_id":"BKST","line":1,"i_lat":-6.248029,"station_name":"Bekasi Timur","is_transit":false,"i_long":107.016735,"time":2},{"station_id":"TB","is_transit":false,"line":1,"station_name":"Tambun","time":7,"distance":4460,"i_lat":-6.258864,"i_long":107.055722,"transit":false},{"i_long":107.083084,"line":1,"i_lat":-6.261877,"is_transit":false,"station_id":"CIT","time":3,"distance":3420,"station_name":"Cibitung","transit":false}]]}