{"data":[[{"transit":false,"i_lat":-6.334892,"line":3,"time":0,"distance":0,"station_name":"Citeras","is_transit":false,"i_long":106.332092,"station_id":"CTR"},{"station_name":"Maja","line":6,"i_long":106.394373,"is_transit":false,"distance":7293,"time":10,"i_lat":-6.332307,"station_id":"MJ","transit":false},{"i_long":106.411216,"time":4,"station_id":"CKY","station_name":"Cikoya","is_transit":false,"distance":1853,"i_lat":-6.33561,"transit":false,"line":3},{"station_id":"TGS","i_long":106.425991,"transit":false,"station_name":"Tigaraksa","is_transit":false,"i_lat":-6.328533,"line":6,"distance":2651,"time":3},{"i_long":106.460812,"i_lat":-6.327251,"time":5,"transit":false,"line":6,"station_id":"TEJ","is_transit":false,"station_name":"Tenjo","distance":2974},{"i_long":106.491338,"transit":false,"is_transit":false,"time":5,"station_id":"DAR","line":0,"station_name":"Daru","i_lat":-6.338021,"distance":3902},{"time":6,"is_transit":false,"line":3,"i_lat":-6.354349,"station_name":"Cilejit","i_long":106.508482,"station_id":"CJT","transit":false,"distance":2675},{"station_name":"Parung Panjang","line":6,"i_long":106.568863,"i_lat":-6.3441410000000005,"time":9,"transit":false,"station_id":"PRP","distance":7025,"is_transit":false},{"station_id":"CC","station_name":"Cicayur","distance":5968,"transit":false,"i_lat":-6.329547,"time":8,"is_transit":false,"i_long":106.617853,"line":3},{"station_id":"CSK","i_long":106.640411,"distance":2519,"line":3,"is_transit":false,"station_name":"Cisauk","time":4,"i_lat":-6.32484,"transit":false},{"i_lat":-6.319871,"i_long":106.66566,"distance":1784,"transit":false,"line":6,"time":4,"is_transit":false,"station_name":"Serpong","station_id":"SRP"},{"i_lat":-6.314823,"line":6,"time":4,"is_transit":false,"transit":false,"i_long":106.675475,"station_name":"Rawa Buntu","distance":2413,"station_id":"RU"},{"station_name":"Sudimara","transit":false,"time":6,"station_id":"SDM","i_long":106.712277,"is_transit":false,"line":6,"i_lat":-6.296963,"distance":4566},{"i_lat":-6.288927,"line":6,"is_transit":false,"station_id":"JMU","time":4,"station_name":"Jurangmangu","transit":false,"i_long":106.728916,"distance":1994},{"transit":false,"i_lat":-6.276362,"distance":2179,"station_id":"PDJ","time":3,"station_name":"Pondokranji","is_transit":false,"i_long":106.74273,"line":6},{"time":8,"line":6,"distance":6218,"is_transit":false,"transit":false,"i_long":106.780334,"station_name":"Kebayoran","i_lat":-6.237242,"station_id":"KBY"},{"station_name":"Palmerah","i_long":106.79689,"distance":3737,"line":6,"i_lat":-6.207404,"station_id":"PLM","transit":false,"is_transit":false,"time":7},{"station_id":"THB","is_transit":true,"transit":true,"i_long":106.811091,"distance":3191,"line":1,"time":6,"station_name":"Tanah Abang","i_lat":-6.185545},{"i_long":106.816351,"station_name":"Karet","distance":2029,"line":1,"i_lat":-6.20132,"station_id":"KAT","transit":false,"time":5,"is_transit":false},{"is_transit":false,"station_id":"SUDB","i_long":106.819881,"i_lat":-6.201433,"station_name":"Sudirman Baru","line":1,"time":1,"distance":471,"transit":false},{"transit":false,"i_lat":-6.202263,"line":1,"i_long":106.822649,"time":1,"station_id":"SUD","distance":280,"station_name":"Sudirman","is_transit":false},{"i_long":106.84912,"station_name":"Manggarai","time":4,"station_id":"MRI","transit":true,"distance":3186,"line":2,"is_transit":true,"i_lat":-6.209883},{"is_transit":false,"i_lat":-6.226659,"station_name":"Tebet","distance":2610,"transit":false,"line":2,"time":4,"station_id":"TEB","i_long":106.857948},{"i_long":106.856607,"station_name":"Cawang","line":2,"time":2,"station_id":"CW","distance":1230,"i_lat":-6.242512,"transit":false,"is_transit":false},{"station_id":"DRN","station_name":"Duren Kalibata","i_long":106.85449,"time":3,"line":2,"is_transit":false,"transit":false,"distance":1546,"i_lat":-6.255332},{"is_transit":false,"station_name":"Pasar Minggu Baru","i_lat":-6.263214,"transit":false,"i_long":106.851577,"line":2,"distance":824,"station_id":"PSMB","time":2},{"distance":2380,"station_id":"PSM","time":2,"station_name":"Pasar Minggu","i_lat":-6.2842400000000005,"transit":false,"is_transit":false,"line":2,"i_long":106.843999},{"i_lat":-6.3080680000000005,"i_long":106.838896,"transit":false,"distance":2820,"time":4,"station_name":"Tanjung Barat","line":2,"station_id":"TNT","is_transit":false},{"station_name":"Lenteng Agung","station_id":"LNA","line":2,"time":3,"transit":false,"distance":2671,"i_lat":-6.330363,"i_long":106.832616,"is_transit":false}],[{"station_id":"CTR","time":0,"transit":false,"distance":0,"line":3,"is_transit":false,"i_lat":-6.334892,"i_long":106.332092,"station_name":"Citeras"},{"i_lat":-6.332307,"transit":false,"station_id":"MJ","is_transit":false,"time":10,"station_name":"Maja","distance":7293,"i_long":106.394373,"line":6},{"distance":1853,"i_long":106.411216,"time":4,"i_lat":-6.33561,"transit":false,"station_id":"CKY","station_name":"Cikoya","line":3,"is_transit":false},{"transit":false,"i_lat":-6.328533,"line":6,"i_long":106.425991,"station_name":"Tigaraksa","time":3,"distance":2651,"is_transit":false,"station_id":"TGS"},{"i_lat":-6.327251,"line":6,"is_transit":false,"distance":2974,"station_id":"TEJ","station_name":"Tenjo","transit":false,"time":5,"i_long":106.460812},{"transit":false,"time":5,"is_transit":false,"i_lat":-6.338021,"station_id":"DAR","station_name":"Daru","distance":3902,"line":0,"i_long":106.491338},{"i_lat":-6.354349,"station_name":"Cilejit","time":6,"i_long":106.508482,"station_id":"CJT","distance":2675,"line":3,"transit":false,"is_transit":false},{"line":6,"distance":7025,"station_name":"Parung Panjang","i_long":106.568863,"is_transit":false,"i_lat":-6.3441410000000005,"station_id":"PRP","time":9,"transit":false},{"time":8,"i_long":106.617853,"is_transit":false,"distance":5968,"station_name":"Cicayur","transit":false,"line":3,"station_id":"CC","i_lat":-6.329547},{"station_id":"CSK","i_long":106.640411,"line":3,"transit":false,"time":4,"distance":2519,"station_name":"Cisauk","i_lat":-6.32484,"is_transit":false},{"distance":1784,"time":4,"is_transit":false,"station_name":"Serpong","i_lat":-6.319871,"station_id":"SRP","transit":false,"i_long":106.66566,"line":6},{"time":4,"line":6,"station_id":"RU","station_name":"Rawa Buntu","distance":2413,"transit":false,"i_lat":-6.314823,"i_long":106.675475,"is_transit":false},{"i_lat":-6.296963,"time":6,"line":6,"station_name":"Sudimara","i_long":106.712277,"station_id":"SDM","is_transit":false,"distance":4566,"transit":false},{"station_id":"JMU","line":6,"is_transit":false,"distance":1994,"i_long":106.728916,"time":4,"station_name":"Jurangmangu","transit":false,"i_lat":-6.288927},{"time":3,"distance":2179,"line":6,"i_long":106.74273,"is_transit":false,"station_id":"PDJ","station_name":"Pondokranji","transit":false,"i_lat":-6.276362},{"is_transit":false,"i_long":106.780334,"station_id":"KBY","line":6,"distance":6218,"i_lat":-6.237242,"time":8,"station_name":"Kebayoran","transit":false},{"distance":3737,"i_lat":-6.207404,"is_transit":false,"line":6,"time":7,"station_name":"Palmerah","i_long":106.79689,"station_id":"PLM","transit":false},{"station_id":"THB","station_name":"Tanah Abang","i_long":106.811091,"distance":3191,"is_transit":true,"i_lat":-6.185545,"line":1,"time":6,"transit":true},{"station_name":"Duri","transit":false,"line":1,"i_long":106.800832,"station_id":"DU","is_transit":false,"i_lat":-6.155215,"distance":3632,"time":8},{"i_lat":-6.144674,"station_name":"Angke","distance":1230,"line":1,"station_id":"AK","time":4,"i_long":106.79867,"is_transit":false,"transit":false},{"line":4,"station_id":"KPB","i_lat":-6.132549,"station_name":"Kampung Bandan","transit":true,"i_long":106.826365,"time":9,"distance":4102,"is_transit":true},{"station_name":"Jakarta Kota","line":2,"transit":true,"distance":1364,"station_id":"JAKK","is_transit":true,"i_lat":-6.137569,"i_long":106.812439,"time":3},{"distance":1264,"station_id":"JAY","time":4,"is_transit":false,"i_lat":-6.141205,"line":2,"transit":false,"i_long":106.820901,"station_name":"Jayakarta"},{"is_transit":false,"time":2,"i_long":106.82482,"station_id":"MGB","station_name":"Manggabesar","i_lat":-6.149769,"line":2,"transit":false,"distance":1080},{"i_lat":-6.160725,"line":2,"i_long":106.827103,"distance":906,"station_id":"SW","station_name":"Sawah Besar","transit":false,"time":2,"is_transit":false},{"i_long":106.828284,"station_name":"Juanda","time":2,"transit":false,"station_id":"JUA","line":2,"distance":1149,"is_transit":false,"i_lat":-6.166716},{"transit":false,"is_transit":false,"time":4,"station_name":"Gondangdia","line":2,"station_id":"GDD","i_lat":-6.186295,"i_long":106.832183,"distance":2015},{"i_long":106.840169,"is_transit":false,"i_lat":-6.198556,"station_id":"CKI","line":2,"station_name":"Cikini","transit":false,"time":3,"distance":1750},{"is_transit":false,"transit":false,"station_name":"Manggarai","distance":1590,"i_long":106.84912,"line":2,"station_id":"MRI","time":4,"i_lat":-6.209883},{"distance":2610,"line":2,"station_id":"TEB","time":4,"transit":false,"i_lat":-6.226659,"i_long":106.857948,"is_transit":false,"station_name":"Tebet"},{"station_id":"CW","i_long":106.856607,"distance":1230,"time":2,"transit":false,"i_lat":-6.242512,"line":2,"is_transit":false,"station_name":"Cawang"},{"is_transit":false,"i_long":106.85449,"i_lat":-6.255332,"time":3,"station_id":"DRN","transit":false,"line":2,"distance":1546,"station_name":"Duren Kalibata"},{"i_lat":-6.263214,"is_transit":false,"station_name":"Pasar Minggu Baru","distance":824,"transit":false,"i_long":106.851577,"line":2,"time":2,"station_id":"PSMB"},{"line":2,"station_name":"Pasar Minggu","i_lat":-6.2842400000000005,"distance":2380,"transit":false,"is_transit":false,"time":2,"station_id":"PSM","i_long":106.843999},{"station_name":"Tanjung Barat","station_id":"TNT","line":2,"distance":2820,"time":4,"transit":false,"i_lat":-6.3080680000000005,"i_long":106.838896,"is_transit":false},{"i_long":106.832616,"station_id":"LNA","time":3,"transit":false,"distance":2671,"station_name":"Lenteng Agung","is_transit":false,"i_lat":-6.330363,"line":2}],[{"distance":0,"station_id":"CTR","transit":false,"i_long":106.332092,"line":3,"station_name":"Citeras","is_transit":false,"i_lat":-6.334892,"time":0},{"line":6,"distance":7293,"i_lat":-6.332307,"is_transit":false,"transit":false,"station_name":"Maja","i_long":106.394373,"station_id":"MJ","time":10},{"transit":false,"station_id":"CKY","distance":1853,"time":4,"station_name":"Cikoya","line":3,"i_long":106.411216,"is_transit":false,"i_lat":-6.33561},{"station_name":"Tigaraksa","distance":2651,"line":6,"is_transit":false,"time":3,"transit":false,"i_lat":-6.328533,"i_long":106.425991,"station_id":"TGS"},{"is_transit":false,"line":6,"i_lat":-6.327251,"transit":false,"station_id":"TEJ","distance":2974,"i_long":106.460812,"time":5,"station_name":"Tenjo"},{"line":0,"station_id":"DAR","is_transit":false,"i_lat":-6.338021,"station_name":"Daru","time":5,"i_long":106.491338,"distance":3902,"transit":false},{"station_name":"Cilejit","i_lat":-6.354349,"i_long":106.508482,"distance":2675,"station_id":"CJT","line":3,"time":6,"is_transit":false,"transit":false},{"time":9,"distance":7025,"i_lat":-6.3441410000000005,"i_long":106.568863,"station_name":"Parung Panjang","line":6,"station_id":"PRP","transit":false,"is_transit":false},{"transit":false,"i_long":106.617853,"time":8,"station_id":"CC","i_lat":-6.329547,"is_transit":false,"station_name":"Cicayur","distance":5968,"line":3},{"time":4,"transit":false,"is_transit":false,"station_name":"Cisauk","station_id":"CSK","i_lat":-6.32484,"i_long":106.640411,"distance":2519,"line":3},{"i_long":106.66566,"distance":1784,"i_lat":-6.319871,"is_transit":false,"transit":false,"line":6,"time":4,"station_name":"Serpong","station_id":"SRP"},{"line":6,"i_lat":-6.314823,"is_transit":false,"i_long":106.675475,"transit":false,"distance":2413,"time":4,"station_id":"RU","station_name":"Rawa Buntu"},{"is_transit":false,"i_long":106.712277,"station_id":"SDM","distance":4566,"line":6,"time":6,"i_lat":-6.296963,"station_name":"Sudimara","transit":false},{"line":6,"station_id":"JMU","distance":1994,"transit":false,"is_transit":false,"i_lat":-6.288927,"i_long":106.728916,"station_name":"Jurangmangu","time":4},{"transit":false,"is_transit":false,"i_lat":-6.276362,"distance":2179,"time":3,"i_long":106.74273,"line":6,"station_name":"Pondokranji","station_id":"PDJ"},{"station_id":"KBY","distance":6218,"time":8,"i_long":106.780334,"station_name":"Kebayoran","transit":false,"line":6,"is_transit":false,"i_lat":-6.237242},{"is_transit":false,"time":7,"station_id":"PLM","station_name":"Palmerah","transit":false,"distance":3737,"i_long":106.79689,"line":6,"i_lat":-6.207404},{"transit":true,"i_long":106.811091,"is_transit":true,"station_name":"Tanah Abang","line":1,"distance":3191,"time":6,"station_id":"THB","i_lat":-6.185545},{"i_lat":-6.155215,"line":1,"time":8,"station_id":"DU","station_name":"Duri","transit":false,"i_long":106.800832,"distance":3632,"is_transit":false},{"is_transit":false,"i_lat":-6.144674,"time":4,"i_long":106.79867,"line":1,"distance":1230,"station_name":"Angke","transit":false,"station_id":"AK"},{"station_name":"Kampung Bandan","i_long":106.826365,"time":9,"transit":true,"distance":4102,"station_id":"KPB","line":4,"is_transit":true,"i_lat":-6.132549},{"time":3,"station_name":"Rajawali","is_transit":false,"i_lat":-6.14505,"line":11,"station_id":"RJW","i_long":106.836569,"distance":1444,"transit":false},{"transit":false,"station_id":"KMO","line":11,"station_name":"Kemayoran","is_transit":false,"i_lat":-6.161728,"i_long":106.839204,"time":5,"distance":1901},{"i_lat":-6.174784,"station_id":"PSE","distance":1436,"is_transit":false,"transit":false,"station_name":"Pasar Senen","time":4,"line":11,"i_long":106.84368},{"distance":1567,"i_lat":-6.185975,"line":11,"time":8,"station_id":"GST","transit":false,"station_name":"Gang Sentiong","is_transit":false,"i_long":106.850107},{"distance":973,"i_lat":-6.193792,"station_name":"Kramat","time":1,"station_id":"KMT","transit":false,"i_long":106.855437,"is_transit":false,"line":11},{"station_name":"Pondok Jati","station_id":"POK","transit":false,"i_long":106.861737,"distance":1829,"i_lat":-6.209188,"time":2,"line":11,"is_transit":false},{"line":1,"transit":true,"station_id":"JNG","station_name":"Jatinegara","distance":1236,"is_transit":true,"time":9,"i_lat":-6.215091,"i_long":106.86807400000001},{"time":2,"station_id":"MTR","is_transit":false,"i_lat":-6.212485,"station_name":"Matraman","i_long":106.858896,"distance":1377,"line":1,"transit":false},{"distance":1275,"station_name":"Manggarai","station_id":"MRI","is_transit":true,"i_lat":-6.209883,"transit":true,"i_long":106.84912,"line":2,"time":2},{"is_transit":false,"time":4,"station_name":"Tebet","distance":2610,"i_lat":-6.226659,"i_long":106.857948,"line":2,"transit":false,"station_id":"TEB"},{"is_transit":false,"station_name":"Cawang","transit":false,"time":2,"distance":1230,"i_lat":-6.242512,"line":2,"station_id":"CW","i_long":106.856607},{"station_id":"DRN","station_name":"Duren Kalibata","i_lat":-6.255332,"line":2,"time":3,"transit":false,"is_transit":false,"distance":1546,"i_long":106.85449},{"transit":false,"station_id":"PSMB","station_name":"Pasar Minggu Baru","i_long":106.851577,"time":2,"line":2,"distance":824,"is_transit":false,"i_lat":-6.263214},{"i_long":106.843999,"distance":2380,"i_lat":-6.2842400000000005,"time":2,"transit":false,"line":2,"station_id":"PSM","station_name":"Pasar Minggu","is_transit":false},{"station_name":"Tanjung Barat","distance":2820,"is_transit":false,"time":4,"i_long":106.838896,"line":2,"transit":false,"i_lat":-6.3080680000000005,"station_id":"TNT"},{"i_long":106.832616,"line":2,"transit":false,"distance":2671,"station_id":"LNA","time":3,"station_name":"Lenteng Agung","is_transit":false,"i_lat":-6.330363}]]}