{"data":[[{"is_transit":false,"distance":0,"station_id":"CTR","transit":false,"i_lat":-6.334892,"i_long":106.332092,"station_name":"Citeras","line":0,"time":0},{"distance":7293,"i_long":106.394373,"i_lat":-6.332307,"transit":false,"is_transit":false,"time":10,"line":6,"station_id":"MJ","station_name":"Maja"},{"station_id":"CKY","station_name":"Cikoya","transit":false,"i_lat":-6.33561,"time":4,"line":0,"is_transit":false,"distance":1853,"i_long":106.411216},{"time":3,"line":6,"station_name":"Tigaraksa","distance":2651,"is_transit":false,"transit":false,"i_long":106.425991,"station_id":"TGS","i_lat":-6.328533},{"transit":false,"i_long":106.460812,"station_name":"Tenjo","station_id":"TEJ","line":6,"i_lat":-6.327251,"distance":2974,"time":5,"is_transit":false},{"distance":3902,"time":5,"i_lat":-6.338021,"line":0,"i_long":106.491338,"station_id":"DAR","is_transit":false,"transit":false,"station_name":"Daru"},{"transit":false,"i_lat":-6.354349,"i_long":106.508482,"distance":2675,"station_id":"CJT","station_name":"Cilejit","is_transit":false,"time":6,"line":0},{"is_transit":false,"time":9,"transit":false,"station_id":"PRP","i_long":106.568863,"line":6,"station_name":"Parung Panjang","i_lat":-6.3441410000000005,"distance":7025},{"is_transit":false,"line":0,"station_name":"Cicayur","distance":5968,"i_lat":-6.329547,"station_id":"CC","time":8,"transit":false,"i_long":106.617853},{"is_transit":false,"distance":2519,"i_long":106.640411,"line":0,"i_lat":-6.32484,"transit":false,"time":4,"station_name":"Cisauk","station_id":"CSK"},{"is_transit":false,"i_lat":-6.319871,"i_long":106.66566,"station_name":"Serpong","time":4,"station_id":"SRP","distance":1784,"transit":false,"line":6},{"distance":2413,"i_lat":-6.314823,"line":6,"transit":false,"station_name":"Rawa Buntu","station_id":"RU","is_transit":false,"time":4,"i_long":106.675475},{"i_lat":-6.296963,"transit":false,"station_id":"SDM","station_name":"Sudimara","i_long":106.712277,"time":6,"line":6,"distance":4566,"is_transit":false},{"transit":false,"i_long":106.728916,"time":4,"line":6,"station_id":"JMU","i_lat":-6.288927,"distance":1994,"is_transit":false,"station_name":"Jurangmangu"},{"time":3,"distance":2179,"transit":false,"station_id":"PDJ","station_name":"Pondokranji","i_lat":-6.276362,"line":6,"is_transit":false,"i_long":106.74273},{"station_id":"KBY","station_name":"Kebayoran","distance":6218,"time":8,"is_transit":false,"transit":false,"i_lat":-6.237242,"i_long":106.780334,"line":6}]]}