{"data":[[{"is_transit":false,"i_long":106.332092,"time":0,"transit":false,"station_name":"Citeras","distance":0,"i_lat":-6.334892,"station_id":"CTR","line":0},{"transit":false,"i_lat":-6.332307,"time":10,"i_long":106.394373,"line":6,"station_name":"Maja","station_id":"MJ","distance":7293,"is_transit":false},{"line":0,"transit":false,"station_id":"CKY","distance":1853,"is_transit":false,"i_lat":-6.33561,"station_name":"Cikoya","time":4,"i_long":106.411216},{"distance":2651,"transit":false,"i_long":106.425991,"line":6,"is_transit":false,"station_id":"TGS","station_name":"Tigaraksa","time":3,"i_lat":-6.328533},{"i_long":106.460812,"transit":false,"station_id":"TEJ","station_name":"Tenjo","time":5,"is_transit":false,"i_lat":-6.327251,"line":6,"distance":2974},{"is_transit":false,"i_lat":-6.338021,"distance":3902,"time":5,"transit":false,"station_id":"DAR","station_name":"Daru","i_long":106.491338,"line":0},{"time":6,"i_long":106.508482,"distance":2675,"transit":false,"station_id":"CJT","line":0,"station_name":"Cilejit","is_transit":false,"i_lat":-6.354349},{"station_id":"PRP","transit":false,"i_lat":-6.3441410000000005,"i_long":106.568863,"line":6,"is_transit":false,"station_name":"Parung Panjang","distance":7025,"time":9},{"line":0,"distance":5968,"is_transit":false,"transit":false,"i_lat":-6.329547,"i_long":106.617853,"time":8,"station_id":"CC","station_name":"Cicayur"},{"is_transit":false,"time":4,"transit":false,"distance":2519,"i_lat":-6.32484,"i_long":106.640411,"station_name":"Cisauk","line":0,"station_id":"CSK"},{"station_id":"SRP","station_name":"Serpong","distance":1784,"line":6,"time":4,"transit":false,"is_transit":false,"i_long":106.66566,"i_lat":-6.319871},{"line":6,"is_transit":false,"transit":false,"i_lat":-6.314823,"i_long":106.675475,"station_id":"RU","time":4,"station_name":"Rawa Buntu","distance":2413},{"station_id":"SDM","distance":4566,"line":6,"station_name":"Sudimara","time":6,"is_transit":false,"i_lat":-6.296963,"i_long":106.712277,"transit":false},{"line":6,"transit":false,"i_lat":-6.288927,"time":4,"distance":1994,"is_transit":false,"i_long":106.728916,"station_name":"Jurangmangu","station_id":"JMU"},{"is_transit":false,"transit":false,"time":3,"i_long":106.74273,"station_name":"Pondokranji","i_lat":-6.276362,"distance":2179,"line":6,"station_id":"PDJ"},{"time":8,"distance":6218,"i_lat":-6.237242,"station_name":"Kebayoran","is_transit":false,"transit":false,"line":6,"i_long":106.780334,"station_id":"KBY"},{"station_name":"Palmerah","i_lat":-6.207404,"station_id":"PLM","line":6,"i_long":106.79689,"transit":false,"time":7,"is_transit":false,"distance":3737},{"i_lat":-6.185545,"station_name":"Tanah Abang","line":1,"time":6,"distance":3191,"station_id":"THB","is_transit":true,"transit":true,"i_long":106.811091},{"is_transit":false,"time":5,"i_lat":-6.20132,"line":1,"distance":2029,"transit":false,"station_id":"KAT","i_long":106.816351,"station_name":"Karet"},{"i_lat":-6.201433,"station_id":"SUDB","is_transit":false,"i_long":106.819881,"transit":false,"line":1,"time":1,"station_name":"Sudirman Baru","distance":471},{"i_long":106.822649,"time":1,"i_lat":-6.202263,"station_id":"SUD","distance":280,"line":1,"station_name":"Sudirman","transit":false,"is_transit":false},{"transit":false,"i_lat":-6.209883,"distance":3186,"line":0,"is_transit":true,"time":4,"i_long":106.84912,"station_id":"MRI","station_name":"Manggarai"},{"i_lat":-6.212485,"station_name":"Matraman","is_transit":false,"distance":1275,"i_long":106.858896,"time":2,"transit":false,"station_id":"MTR","line":1}],[{"transit":false,"station_id":"CTR","is_transit":false,"line":0,"distance":0,"station_name":"Citeras","time":0,"i_lat":-6.334892,"i_long":106.332092},{"station_name":"Maja","transit":false,"i_lat":-6.332307,"station_id":"MJ","distance":7293,"i_long":106.394373,"line":6,"time":10,"is_transit":false},{"distance":1853,"station_id":"CKY","i_lat":-6.33561,"transit":false,"station_name":"Cikoya","line":0,"i_long":106.411216,"is_transit":false,"time":4},{"time":3,"is_transit":false,"distance":2651,"station_id":"TGS","station_name":"Tigaraksa","i_long":106.425991,"line":6,"i_lat":-6.328533,"transit":false},{"is_transit":false,"time":5,"distance":2974,"station_id":"TEJ","station_name":"Tenjo","i_lat":-6.327251,"i_long":106.460812,"transit":false,"line":6},{"station_name":"Daru","station_id":"DAR","line":0,"is_transit":false,"time":5,"distance":3902,"i_long":106.491338,"transit":false,"i_lat":-6.338021},{"i_lat":-6.354349,"i_long":106.508482,"is_transit":false,"station_id":"CJT","transit":false,"line":0,"station_name":"Cilejit","distance":2675,"time":6},{"distance":7025,"transit":false,"station_name":"Parung Panjang","time":9,"station_id":"PRP","line":6,"is_transit":false,"i_lat":-6.3441410000000005,"i_long":106.568863},{"station_id":"CC","distance":5968,"i_long":106.617853,"line":0,"station_name":"Cicayur","is_transit":false,"i_lat":-6.329547,"time":8,"transit":false},{"station_name":"Cisauk","i_lat":-6.32484,"transit":false,"is_transit":false,"station_id":"CSK","time":4,"i_long":106.640411,"distance":2519,"line":0},{"i_lat":-6.319871,"line":6,"is_transit":false,"i_long":106.66566,"station_name":"Serpong","station_id":"SRP","transit":false,"time":4,"distance":1784},{"transit":false,"i_lat":-6.314823,"station_name":"Rawa Buntu","time":4,"station_id":"RU","i_long":106.675475,"is_transit":false,"distance":2413,"line":6},{"time":6,"i_long":106.712277,"i_lat":-6.296963,"line":6,"station_id":"SDM","is_transit":false,"distance":4566,"transit":false,"station_name":"Sudimara"},{"station_name":"Jurangmangu","is_transit":false,"time":4,"transit":false,"line":6,"i_lat":-6.288927,"distance":1994,"station_id":"JMU","i_long":106.728916},{"station_id":"PDJ","i_lat":-6.276362,"distance":2179,"i_long":106.74273,"is_transit":false,"time":3,"station_name":"Pondokranji","transit":false,"line":6},{"transit":false,"i_long":106.780334,"line":6,"station_name":"Kebayoran","is_transit":false,"time":8,"station_id":"KBY","distance":6218,"i_lat":-6.237242},{"station_name":"Palmerah","line":6,"transit":false,"time":7,"i_lat":-6.207404,"is_transit":false,"i_long":106.79689,"station_id":"PLM","distance":3737},{"distance":3191,"i_lat":-6.185545,"time":6,"i_long":106.811091,"station_name":"Tanah Abang","line":1,"is_transit":true,"station_id":"THB","transit":true},{"time":8,"distance":3632,"station_id":"DU","is_transit":true,"i_lat":-6.155215,"station_name":"Duri","i_long":106.800832,"transit":true,"line":1},{"time":4,"station_id":"AK","is_transit":false,"transit":false,"station_name":"Angke","i_lat":-6.144674,"line":0,"distance":1230,"i_long":106.79867},{"time":9,"transit":true,"station_name":"Kampung Bandan","station_id":"KPB","i_lat":-6.132549,"line":0,"i_long":106.826365,"distance":4102,"is_transit":true},{"i_long":106.836569,"is_transit":false,"station_id":"RJW","time":3,"station_name":"Rajawali","distance":1444,"line":11,"i_lat":-6.14505,"transit":false},{"distance":1901,"transit":false,"i_lat":-6.161728,"station_id":"KMO","i_long":106.839204,"is_transit":false,"time":5,"station_name":"Kemayoran","line":11},{"time":4,"transit":false,"i_lat":-6.174784,"distance":1436,"line":11,"station_name":"Pasar Senen","i_long":106.84368,"is_transit":false,"station_id":"PSE"},{"time":8,"station_id":"GST","i_long":106.850107,"transit":false,"station_name":"Gang Sentiong","i_lat":-6.185975,"line":11,"distance":1567,"is_transit":false},{"transit":false,"i_lat":-6.193792,"i_long":106.855437,"station_name":"Kramat","distance":973,"station_id":"KMT","line":11,"is_transit":false,"time":1},{"time":2,"station_id":"POK","station_name":"Pondok Jati","is_transit":false,"i_lat":-6.209188,"i_long":106.861737,"transit":false,"distance":1829,"line":11},{"time":9,"station_name":"Jatinegara","station_id":"JNG","line":0,"i_lat":-6.215091,"is_transit":true,"transit":true,"i_long":106.86807400000001,"distance":1236},{"station_id":"MTR","transit":false,"station_name":"Matraman","i_lat":-6.212485,"is_transit":false,"time":2,"i_long":106.858896,"distance":1377,"line":1}],[{"transit":false,"line":0,"station_id":"CTR","i_long":106.332092,"i_lat":-6.334892,"time":0,"is_transit":false,"station_name":"Citeras","distance":0},{"i_lat":-6.332307,"station_id":"MJ","distance":7293,"station_name":"Maja","line":6,"transit":false,"i_long":106.394373,"is_transit":false,"time":10},{"i_lat":-6.33561,"i_long":106.411216,"time":4,"station_name":"Cikoya","line":0,"transit":false,"is_transit":false,"distance":1853,"station_id":"CKY"},{"station_id":"TGS","line":6,"transit":false,"i_lat":-6.328533,"time":3,"distance":2651,"is_transit":false,"i_long":106.425991,"station_name":"Tigaraksa"},{"station_id":"TEJ","i_long":106.460812,"time":5,"i_lat":-6.327251,"station_name":"Tenjo","distance":2974,"transit":false,"line":6,"is_transit":false},{"station_id":"DAR","time":5,"distance":3902,"transit":false,"is_transit":false,"line":0,"station_name":"Daru","i_long":106.491338,"i_lat":-6.338021},{"distance":2675,"is_transit":false,"time":6,"i_long":106.508482,"line":0,"station_id":"CJT","i_lat":-6.354349,"transit":false,"station_name":"Cilejit"},{"distance":7025,"station_name":"Parung Panjang","is_transit":false,"i_lat":-6.3441410000000005,"i_long":106.568863,"line":6,"time":9,"station_id":"PRP","transit":false},{"station_id":"CC","i_lat":-6.329547,"station_name":"Cicayur","i_long":106.617853,"time":8,"distance":5968,"transit":false,"is_transit":false,"line":0},{"station_name":"Cisauk","distance":2519,"i_long":106.640411,"station_id":"CSK","is_transit":false,"transit":false,"time":4,"i_lat":-6.32484,"line":0},{"station_name":"Serpong","station_id":"SRP","distance":1784,"i_lat":-6.319871,"time":4,"line":6,"is_transit":false,"transit":false,"i_long":106.66566},{"line":6,"distance":2413,"i_long":106.675475,"is_transit":false,"station_id":"RU","time":4,"transit":false,"station_name":"Rawa Buntu","i_lat":-6.314823},{"time":6,"distance":4566,"i_long":106.712277,"i_lat":-6.296963,"line":6,"station_id":"SDM","transit":false,"is_transit":false,"station_name":"Sudimara"},{"is_transit":false,"transit":false,"i_lat":-6.288927,"i_long":106.728916,"station_name":"Jurangmangu","station_id":"JMU","time":4,"distance":1994,"line":6},{"time":3,"transit":false,"i_long":106.74273,"station_id":"PDJ","distance":2179,"station_name":"Pondokranji","is_transit":false,"i_lat":-6.276362,"line":6},{"station_id":"KBY","i_long":106.780334,"distance":6218,"time":8,"line":6,"is_transit":false,"transit":false,"station_name":"Kebayoran","i_lat":-6.237242},{"i_lat":-6.207404,"line":6,"station_name":"Palmerah","is_transit":false,"time":7,"i_long":106.79689,"distance":3737,"transit":false,"station_id":"PLM"},{"station_name":"Tanah Abang","time":6,"i_long":106.811091,"distance":3191,"transit":true,"is_transit":true,"i_lat":-6.185545,"line":1,"station_id":"THB"},{"is_transit":true,"station_id":"DU","i_long":106.800832,"time":8,"line":1,"distance":3632,"station_name":"Duri","i_lat":-6.155215,"transit":true},{"i_long":106.79867,"line":0,"time":4,"is_transit":false,"distance":1230,"i_lat":-6.144674,"station_id":"AK","station_name":"Angke","transit":false},{"station_id":"KPB","i_long":106.826365,"i_lat":-6.132549,"time":9,"is_transit":true,"distance":4102,"line":0,"station_name":"Kampung Bandan","transit":false},{"time":3,"distance":1364,"station_name":"Jakarta Kota","i_lat":-6.137569,"is_transit":true,"transit":true,"line":0,"station_id":"JAKK","i_long":106.812439},{"i_lat":-6.141205,"i_long":106.820901,"distance":1264,"time":4,"station_id":"JAY","transit":false,"is_transit":false,"station_name":"Jayakarta","line":7},{"transit":false,"i_lat":-6.149769,"station_id":"MGB","station_name":"Manggabesar","i_long":106.82482,"time":2,"is_transit":false,"line":2,"distance":1080},{"station_id":"SW","i_lat":-6.160725,"time":2,"i_long":106.827103,"transit":false,"station_name":"Sawah Besar","is_transit":false,"line":2,"distance":906},{"is_transit":false,"distance":1149,"line":2,"station_name":"Juanda","i_long":106.828284,"transit":false,"time":2,"i_lat":-6.166716,"station_id":"JUA"},{"transit":false,"i_lat":-6.186295,"distance":2015,"station_name":"Gondangdia","station_id":"GDD","time":4,"i_long":106.832183,"is_transit":false,"line":2},{"distance":1750,"i_lat":-6.198556,"transit":false,"i_long":106.840169,"line":0,"station_name":"Cikini","is_transit":false,"station_id":"CKI","time":3},{"time":4,"distance":1590,"i_long":106.84912,"is_transit":true,"station_id":"MRI","station_name":"Manggarai","transit":true,"i_lat":-6.209883,"line":0},{"station_name":"Matraman","is_transit":false,"transit":false,"i_long":106.858896,"i_lat":-6.212485,"line":1,"time":2,"distance":1275,"station_id":"MTR"}],[{"i_lat":-6.334892,"is_transit":false,"station_id":"CTR","distance":0,"i_long":106.332092,"station_name":"Citeras","line":0,"transit":false,"time":0},{"i_lat":-6.332307,"station_name":"Maja","is_transit":false,"station_id":"MJ","distance":7293,"line":6,"transit":false,"time":10,"i_long":106.394373},{"line":0,"station_name":"Cikoya","is_transit":false,"distance":1853,"station_id":"CKY","time":4,"i_long":106.411216,"i_lat":-6.33561,"transit":false},{"i_long":106.425991,"is_transit":false,"station_name":"Tigaraksa","transit":false,"line":6,"distance":2651,"station_id":"TGS","time":3,"i_lat":-6.328533},{"distance":2974,"station_name":"Tenjo","i_long":106.460812,"transit":false,"station_id":"TEJ","time":5,"line":6,"i_lat":-6.327251,"is_transit":false},{"station_name":"Daru","is_transit":false,"i_lat":-6.338021,"i_long":106.491338,"station_id":"DAR","line":0,"transit":false,"distance":3902,"time":5},{"is_transit":false,"distance":2675,"line":0,"station_name":"Cilejit","i_lat":-6.354349,"station_id":"CJT","i_long":106.508482,"transit":false,"time":6},{"distance":7025,"i_long":106.568863,"transit":false,"line":6,"i_lat":-6.3441410000000005,"station_name":"Parung Panjang","is_transit":false,"station_id":"PRP","time":9},{"transit":false,"distance":5968,"is_transit":false,"time":8,"i_lat":-6.329547,"station_name":"Cicayur","line":0,"station_id":"CC","i_long":106.617853},{"line":0,"time":4,"distance":2519,"transit":false,"station_name":"Cisauk","is_transit":false,"i_lat":-6.32484,"station_id":"CSK","i_long":106.640411},{"i_long":106.66566,"transit":false,"time":4,"distance":1784,"i_lat":-6.319871,"line":6,"station_id":"SRP","station_name":"Serpong","is_transit":false},{"transit":false,"is_transit":false,"time":4,"station_id":"RU","station_name":"Rawa Buntu","distance":2413,"i_long":106.675475,"i_lat":-6.314823,"line":6},{"transit":false,"station_name":"Sudimara","is_transit":false,"i_lat":-6.296963,"time":6,"line":6,"station_id":"SDM","i_long":106.712277,"distance":4566},{"i_long":106.728916,"time":4,"transit":false,"is_transit":false,"distance":1994,"i_lat":-6.288927,"station_name":"Jurangmangu","station_id":"JMU","line":6},{"station_name":"Pondokranji","station_id":"PDJ","i_long":106.74273,"time":3,"transit":false,"is_transit":false,"distance":2179,"i_lat":-6.276362,"line":6},{"transit":false,"distance":6218,"line":6,"station_id":"KBY","i_lat":-6.237242,"time":8,"station_name":"Kebayoran","i_long":106.780334,"is_transit":false},{"is_transit":false,"transit":false,"line":6,"i_long":106.79689,"time":7,"station_name":"Palmerah","station_id":"PLM","i_lat":-6.207404,"distance":3737},{"is_transit":true,"station_id":"THB","distance":3191,"station_name":"Tanah Abang","i_long":106.811091,"time":6,"line":1,"transit":true,"i_lat":-6.185545},{"line":1,"distance":2029,"station_id":"KAT","station_name":"Karet","is_transit":false,"i_long":106.816351,"transit":false,"i_lat":-6.20132,"time":5},{"station_id":"SUDB","transit":false,"distance":471,"time":1,"i_long":106.819881,"is_transit":false,"i_lat":-6.201433,"line":1,"station_name":"Sudirman Baru"},{"transit":false,"distance":280,"station_id":"SUD","i_lat":-6.202263,"line":1,"is_transit":false,"time":1,"i_long":106.822649,"station_name":"Sudirman"},{"is_transit":true,"i_lat":-6.209883,"i_long":106.84912,"line":0,"station_id":"MRI","distance":3186,"station_name":"Manggarai","transit":true,"time":4},{"transit":false,"is_transit":false,"line":0,"time":4,"station_id":"CKI","station_name":"Cikini","distance":1590,"i_lat":-6.198556,"i_long":106.840169},{"time":3,"transit":false,"station_name":"Gondangdia","station_id":"GDD","is_transit":false,"i_long":106.832183,"line":2,"distance":1750,"i_lat":-6.186295},{"i_lat":-6.166716,"transit":false,"i_long":106.828284,"distance":2015,"line":2,"is_transit":false,"station_name":"Juanda","time":4,"station_id":"JUA"},{"transit":false,"i_long":106.827103,"line":2,"is_transit":false,"station_id":"SW","time":2,"i_lat":-6.160725,"station_name":"Sawah Besar","distance":1149},{"station_id":"MGB","station_name":"Manggabesar","i_long":106.82482,"line":2,"i_lat":-6.149769,"distance":906,"transit":false,"time":2,"is_transit":false},{"transit":false,"line":7,"time":2,"station_id":"JAY","distance":1080,"is_transit":false,"i_lat":-6.141205,"i_long":106.820901,"station_name":"Jayakarta"},{"is_transit":true,"station_id":"JAKK","transit":true,"i_long":106.812439,"distance":1264,"station_name":"Jakarta Kota","line":0,"time":4,"i_lat":-6.137569},{"i_lat":-6.132549,"station_name":"Kampung Bandan","line":0,"transit":true,"station_id":"KPB","i_long":106.826365,"time":3,"distance":1364,"is_transit":true},{"is_transit":false,"i_long":106.836569,"station_id":"RJW","transit":false,"line":11,"i_lat":-6.14505,"distance":1444,"time":3,"station_name":"Rajawali"},{"transit":false,"is_transit":false,"i_lat":-6.161728,"i_long":106.839204,"station_id":"KMO","station_name":"Kemayoran","time":5,"distance":1901,"line":11},{"line":11,"is_transit":false,"i_long":106.84368,"i_lat":-6.174784,"station_id":"PSE","station_name":"Pasar Senen","distance":1436,"time":4,"transit":false},{"line":11,"distance":1567,"station_id":"GST","i_lat":-6.185975,"station_name":"Gang Sentiong","time":8,"i_long":106.850107,"transit":false,"is_transit":false},{"time":1,"i_long":106.855437,"transit":false,"line":11,"is_transit":false,"distance":973,"station_name":"Kramat","i_lat":-6.193792,"station_id":"KMT"},{"i_long":106.861737,"line":11,"station_name":"Pondok Jati","time":2,"transit":false,"i_lat":-6.209188,"is_transit":false,"station_id":"POK","distance":1829},{"is_transit":true,"i_long":106.86807400000001,"distance":1236,"time":9,"i_lat":-6.215091,"transit":true,"line":0,"station_name":"Jatinegara","station_id":"JNG"},{"station_id":"MTR","time":2,"transit":false,"i_long":106.858896,"line":1,"station_name":"Matraman","is_transit":false,"distance":1377,"i_lat":-6.212485}]]}