{"data":[[{"i_lat":-6.334892,"station_name":"Citeras","station_id":"CTR","transit":false,"i_long":106.332092,"distance":0,"time":0,"is_transit":false,"line":3},{"distance":7293,"station_id":"MJ","i_lat":-6.332307,"is_transit":false,"transit":false,"line":6,"time":10,"i_long":106.394373,"station_name":"Maja"},{"is_transit":false,"time":4,"i_long":106.411216,"distance":1853,"i_lat":-6.33561,"transit":false,"station_id":"CKY","station_name":"Cikoya","line":3},{"time":3,"station_name":"Tigaraksa","i_lat":-6.328533,"i_long":106.425991,"line":6,"distance":2651,"transit":false,"is_transit":false,"station_id":"TGS"},{"transit":false,"i_long":106.460812,"line":6,"time":5,"i_lat":-6.327251,"distance":2974,"station_id":"TEJ","station_name":"Tenjo","is_transit":false},{"line":0,"time":5,"transit":false,"station_name":"Daru","is_transit":false,"distance":3902,"station_id":"DAR","i_long":106.491338,"i_lat":-6.338021},{"i_lat":-6.354349,"i_long":106.508482,"line":3,"time":6,"distance":2675,"is_transit":false,"station_id":"CJT","station_name":"Cilejit","transit":false},{"distance":7025,"transit":false,"i_long":106.568863,"i_lat":-6.3441410000000005,"station_id":"PRP","time":9,"station_name":"Parung Panjang","is_transit":false,"line":6},{"i_lat":-6.329547,"is_transit":false,"transit":false,"line":3,"time":8,"station_id":"CC","distance":5968,"i_long":106.617853,"station_name":"Cicayur"},{"station_name":"Cisauk","is_transit":false,"transit":false,"i_lat":-6.32484,"time":4,"station_id":"CSK","distance":2519,"i_long":106.640411,"line":3},{"line":6,"time":4,"transit":false,"distance":1784,"station_id":"SRP","i_lat":-6.319871,"station_name":"Serpong","is_transit":false,"i_long":106.66566},{"time":4,"line":6,"distance":2413,"station_name":"Rawa Buntu","i_lat":-6.314823,"transit":false,"i_long":106.675475,"station_id":"RU","is_transit":false},{"i_long":106.712277,"i_lat":-6.296963,"line":6,"distance":4566,"station_name":"Sudimara","transit":false,"is_transit":false,"station_id":"SDM","time":6},{"distance":1994,"station_name":"Jurangmangu","i_long":106.728916,"i_lat":-6.288927,"station_id":"JMU","time":4,"is_transit":false,"transit":false,"line":6},{"time":3,"station_id":"PDJ","is_transit":false,"transit":false,"station_name":"Pondokranji","distance":2179,"i_long":106.74273,"i_lat":-6.276362,"line":6},{"i_lat":-6.237242,"i_long":106.780334,"distance":6218,"station_id":"KBY","time":8,"is_transit":false,"line":6,"transit":false,"station_name":"Kebayoran"},{"is_transit":false,"i_long":106.79689,"station_id":"PLM","line":6,"transit":false,"distance":3737,"station_name":"Palmerah","i_lat":-6.207404,"time":7},{"is_transit":true,"distance":3191,"station_id":"THB","i_long":106.811091,"line":1,"transit":true,"station_name":"Tanah Abang","i_lat":-6.185545,"time":6},{"transit":false,"is_transit":false,"station_name":"Duri","time":8,"line":1,"i_long":106.800832,"station_id":"DU","distance":3632,"i_lat":-6.155215},{"line":1,"distance":1230,"station_id":"AK","time":4,"transit":false,"i_long":106.79867,"i_lat":-6.144674,"is_transit":false,"station_name":"Angke"}],[{"station_id":"CTR","distance":0,"i_lat":-6.334892,"line":3,"time":0,"station_name":"Citeras","i_long":106.332092,"is_transit":false,"transit":false},{"station_name":"Maja","i_lat":-6.332307,"distance":7293,"station_id":"MJ","transit":false,"is_transit":false,"i_long":106.394373,"line":6,"time":10},{"i_lat":-6.33561,"station_id":"CKY","line":3,"distance":1853,"time":4,"transit":false,"i_long":106.411216,"is_transit":false,"station_name":"Cikoya"},{"is_transit":false,"time":3,"i_lat":-6.328533,"transit":false,"distance":2651,"station_id":"TGS","line":6,"i_long":106.425991,"station_name":"Tigaraksa"},{"station_id":"TEJ","time":5,"distance":2974,"transit":false,"i_long":106.460812,"is_transit":false,"line":6,"i_lat":-6.327251,"station_name":"Tenjo"},{"distance":3902,"is_transit":false,"i_lat":-6.338021,"i_long":106.491338,"transit":false,"station_id":"DAR","station_name":"Daru","time":5,"line":0},{"station_id":"CJT","station_name":"Cilejit","time":6,"is_transit":false,"i_lat":-6.354349,"line":3,"i_long":106.508482,"distance":2675,"transit":false},{"line":6,"station_name":"Parung Panjang","i_long":106.568863,"distance":7025,"transit":false,"is_transit":false,"station_id":"PRP","time":9,"i_lat":-6.3441410000000005},{"time":8,"station_id":"CC","distance":5968,"i_lat":-6.329547,"i_long":106.617853,"line":3,"is_transit":false,"transit":false,"station_name":"Cicayur"},{"i_lat":-6.32484,"is_transit":false,"i_long":106.640411,"time":4,"line":3,"station_id":"CSK","distance":2519,"station_name":"Cisauk","transit":false},{"i_long":106.66566,"transit":false,"time":4,"station_name":"Serpong","i_lat":-6.319871,"distance":1784,"station_id":"SRP","line":6,"is_transit":false},{"i_lat":-6.314823,"is_transit":false,"transit":false,"station_name":"Rawa Buntu","line":6,"i_long":106.675475,"time":4,"distance":2413,"station_id":"RU"},{"distance":4566,"time":6,"transit":false,"i_long":106.712277,"is_transit":false,"station_name":"Sudimara","i_lat":-6.296963,"line":6,"station_id":"SDM"},{"line":6,"station_name":"Jurangmangu","station_id":"JMU","time":4,"is_transit":false,"distance":1994,"i_long":106.728916,"i_lat":-6.288927,"transit":false},{"time":3,"line":6,"distance":2179,"i_lat":-6.276362,"station_id":"PDJ","station_name":"Pondokranji","transit":false,"is_transit":false,"i_long":106.74273},{"i_long":106.780334,"time":8,"station_name":"Kebayoran","transit":false,"station_id":"KBY","line":6,"distance":6218,"is_transit":false,"i_lat":-6.237242},{"station_id":"PLM","station_name":"Palmerah","is_transit":false,"i_long":106.79689,"i_lat":-6.207404,"line":6,"transit":false,"time":7,"distance":3737},{"transit":true,"station_name":"Tanah Abang","i_long":106.811091,"line":1,"time":6,"distance":3191,"i_lat":-6.185545,"station_id":"THB","is_transit":true},{"i_lat":-6.20132,"station_name":"Karet","distance":2029,"transit":false,"station_id":"KAT","i_long":106.816351,"line":1,"time":5,"is_transit":false},{"station_id":"SUDB","i_lat":-6.201433,"transit":false,"is_transit":false,"i_long":106.819881,"line":1,"distance":471,"station_name":"Sudirman Baru","time":1},{"station_name":"Sudirman","i_lat":-6.202263,"station_id":"SUD","time":1,"distance":280,"i_long":106.822649,"is_transit":false,"line":1,"transit":false},{"station_name":"Manggarai","time":4,"is_transit":true,"distance":3186,"line":2,"i_lat":-6.209883,"i_long":106.84912,"transit":true,"station_id":"MRI"},{"transit":false,"i_long":106.840169,"distance":1590,"is_transit":false,"time":4,"station_id":"CKI","line":2,"i_lat":-6.198556,"station_name":"Cikini"},{"time":3,"i_long":106.832183,"is_transit":false,"i_lat":-6.186295,"station_id":"GDD","distance":1750,"line":2,"station_name":"Gondangdia","transit":false},{"line":2,"is_transit":false,"distance":2015,"station_id":"JUA","station_name":"Juanda","time":4,"transit":false,"i_lat":-6.166716,"i_long":106.828284},{"time":2,"i_long":106.827103,"station_name":"Sawah Besar","station_id":"SW","distance":1149,"i_lat":-6.160725,"transit":false,"is_transit":false,"line":2},{"station_name":"Manggabesar","transit":false,"distance":906,"time":2,"is_transit":false,"i_lat":-6.149769,"i_long":106.82482,"station_id":"MGB","line":2},{"i_lat":-6.141205,"line":2,"transit":false,"is_transit":false,"station_name":"Jayakarta","i_long":106.820901,"station_id":"JAY","time":2,"distance":1080},{"station_id":"JAKK","time":4,"station_name":"Jakarta Kota","transit":true,"is_transit":true,"i_lat":-6.137569,"i_long":106.812439,"distance":1264,"line":2},{"is_transit":true,"i_lat":-6.132549,"i_long":106.826365,"time":3,"station_name":"Kampung Bandan","transit":true,"line":4,"distance":1364,"station_id":"KPB"},{"transit":false,"line":1,"station_name":"Angke","time":9,"i_lat":-6.144674,"is_transit":false,"distance":4102,"i_long":106.79867,"station_id":"AK"}],[{"i_lat":-6.334892,"transit":false,"is_transit":false,"station_id":"CTR","distance":0,"time":0,"i_long":106.332092,"line":3,"station_name":"Citeras"},{"station_name":"Maja","line":6,"station_id":"MJ","time":10,"transit":false,"i_lat":-6.332307,"distance":7293,"i_long":106.394373,"is_transit":false},{"i_long":106.411216,"time":4,"transit":false,"is_transit":false,"line":3,"i_lat":-6.33561,"station_name":"Cikoya","station_id":"CKY","distance":1853},{"i_lat":-6.328533,"transit":false,"i_long":106.425991,"time":3,"is_transit":false,"distance":2651,"line":6,"station_name":"Tigaraksa","station_id":"TGS"},{"i_long":106.460812,"time":5,"is_transit":false,"line":6,"i_lat":-6.327251,"station_name":"Tenjo","station_id":"TEJ","distance":2974,"transit":false},{"transit":false,"i_lat":-6.338021,"station_id":"DAR","i_long":106.491338,"station_name":"Daru","is_transit":false,"distance":3902,"line":0,"time":5},{"station_name":"Cilejit","distance":2675,"transit":false,"i_long":106.508482,"i_lat":-6.354349,"line":3,"is_transit":false,"station_id":"CJT","time":6},{"i_long":106.568863,"transit":false,"is_transit":false,"line":6,"station_name":"Parung Panjang","station_id":"PRP","time":9,"distance":7025,"i_lat":-6.3441410000000005},{"station_id":"CC","station_name":"Cicayur","time":8,"transit":false,"i_lat":-6.329547,"i_long":106.617853,"is_transit":false,"distance":5968,"line":3},{"transit":false,"i_long":106.640411,"is_transit":false,"i_lat":-6.32484,"line":3,"station_id":"CSK","station_name":"Cisauk","time":4,"distance":2519},{"line":6,"distance":1784,"i_long":106.66566,"is_transit":false,"i_lat":-6.319871,"station_name":"Serpong","transit":false,"time":4,"station_id":"SRP"},{"i_long":106.675475,"station_id":"RU","line":6,"station_name":"Rawa Buntu","time":4,"transit":false,"is_transit":false,"distance":2413,"i_lat":-6.314823},{"transit":false,"i_long":106.712277,"time":6,"distance":4566,"station_id":"SDM","line":6,"station_name":"Sudimara","is_transit":false,"i_lat":-6.296963},{"line":6,"time":4,"station_id":"JMU","station_name":"Jurangmangu","is_transit":false,"distance":1994,"i_lat":-6.288927,"transit":false,"i_long":106.728916},{"station_name":"Pondokranji","is_transit":false,"distance":2179,"transit":false,"i_long":106.74273,"line":6,"i_lat":-6.276362,"station_id":"PDJ","time":3},{"distance":6218,"i_lat":-6.237242,"station_name":"Kebayoran","line":6,"station_id":"KBY","time":8,"is_transit":false,"transit":false,"i_long":106.780334},{"station_id":"PLM","i_lat":-6.207404,"line":6,"i_long":106.79689,"time":7,"distance":3737,"station_name":"Palmerah","transit":false,"is_transit":false},{"line":1,"i_lat":-6.185545,"is_transit":true,"station_id":"THB","distance":3191,"station_name":"Tanah Abang","time":6,"i_long":106.811091,"transit":true},{"station_name":"Karet","is_transit":false,"i_long":106.816351,"station_id":"KAT","line":1,"time":5,"transit":false,"distance":2029,"i_lat":-6.20132},{"is_transit":false,"distance":471,"i_long":106.819881,"station_id":"SUDB","station_name":"Sudirman Baru","time":1,"i_lat":-6.201433,"transit":false,"line":1},{"line":1,"station_name":"Sudirman","distance":280,"i_lat":-6.202263,"is_transit":false,"i_long":106.822649,"time":1,"station_id":"SUD","transit":false},{"distance":3186,"time":4,"i_lat":-6.209883,"station_id":"MRI","line":2,"i_long":106.84912,"transit":false,"station_name":"Manggarai","is_transit":false},{"i_lat":-6.212485,"distance":1275,"is_transit":false,"line":1,"time":2,"station_id":"MTR","station_name":"Matraman","transit":false,"i_long":106.858896},{"station_id":"JNG","transit":true,"time":8,"station_name":"Jatinegara","line":1,"i_long":106.86807400000001,"distance":1377,"is_transit":true,"i_lat":-6.215091},{"line":11,"time":2,"is_transit":false,"transit":false,"distance":1236,"i_lat":-6.209188,"i_long":106.861737,"station_id":"POK","station_name":"Pondok Jati"},{"distance":1829,"transit":false,"station_id":"KMT","i_lat":-6.193792,"station_name":"Kramat","i_long":106.855437,"time":2,"line":11,"is_transit":false},{"is_transit":false,"time":1,"line":11,"station_name":"Gang Sentiong","i_long":106.850107,"station_id":"GST","transit":false,"distance":973,"i_lat":-6.185975},{"time":8,"transit":false,"line":11,"is_transit":false,"station_name":"Pasar Senen","i_lat":-6.174784,"i_long":106.84368,"distance":1567,"station_id":"PSE"},{"distance":1436,"station_id":"KMO","i_long":106.839204,"time":4,"station_name":"Kemayoran","transit":false,"is_transit":false,"i_lat":-6.161728,"line":11},{"is_transit":false,"station_id":"RJW","i_lat":-6.14505,"i_long":106.836569,"line":11,"station_name":"Rajawali","time":5,"distance":1901,"transit":false},{"i_long":106.826365,"station_name":"Kampung Bandan","station_id":"KPB","is_transit":true,"time":3,"transit":true,"distance":1444,"i_lat":-6.132549,"line":4},{"time":9,"distance":4102,"station_id":"AK","transit":false,"i_lat":-6.144674,"station_name":"Angke","line":1,"is_transit":false,"i_long":106.79867}]]}