{"data":[[{"distance":0,"i_lat":-6.334892,"is_transit":false,"station_id":"CTR","line":3,"station_name":"Citeras","transit":false,"i_long":106.332092,"time":0},{"i_lat":-6.332307,"distance":7293,"is_transit":false,"transit":false,"time":10,"station_id":"MJ","i_long":106.394373,"line":6,"station_name":"Maja"},{"transit":false,"time":4,"i_lat":-6.33561,"station_id":"CKY","distance":1853,"station_name":"Cikoya","is_transit":false,"i_long":106.411216,"line":3},{"transit":false,"i_long":106.425991,"i_lat":-6.328533,"is_transit":false,"time":3,"line":6,"distance":2651,"station_name":"Tigaraksa","station_id":"TGS"},{"station_name":"Tenjo","station_id":"TEJ","time":5,"distance":2974,"is_transit":false,"i_lat":-6.327251,"i_long":106.460812,"transit":false,"line":6},{"station_name":"Daru","i_lat":-6.338021,"is_transit":false,"transit":false,"i_long":106.491338,"line":0,"station_id":"DAR","time":5,"distance":3902},{"transit":false,"time":6,"station_id":"CJT","station_name":"Cilejit","is_transit":false,"line":3,"distance":2675,"i_lat":-6.354349,"i_long":106.508482},{"distance":7025,"is_transit":false,"line":6,"station_id":"PRP","transit":false,"i_lat":-6.3441410000000005,"i_long":106.568863,"station_name":"Parung Panjang","time":9},{"i_long":106.617853,"station_id":"CC","distance":5968,"i_lat":-6.329547,"transit":false,"line":3,"time":8,"station_name":"Cicayur","is_transit":false},{"is_transit":false,"transit":false,"time":4,"distance":2519,"i_long":106.640411,"line":3,"i_lat":-6.32484,"station_id":"CSK","station_name":"Cisauk"},{"distance":1784,"is_transit":false,"time":4,"station_id":"SRP","station_name":"Serpong","i_lat":-6.319871,"i_long":106.66566,"transit":false,"line":6},{"time":4,"i_long":106.675475,"distance":2413,"transit":false,"line":6,"station_id":"RU","station_name":"Rawa Buntu","is_transit":false,"i_lat":-6.314823},{"transit":false,"station_id":"SDM","is_transit":false,"line":6,"station_name":"Sudimara","distance":4566,"i_lat":-6.296963,"i_long":106.712277,"time":6},{"station_name":"Jurangmangu","is_transit":false,"distance":1994,"line":6,"transit":false,"i_long":106.728916,"station_id":"JMU","time":4,"i_lat":-6.288927},{"distance":2179,"station_id":"PDJ","station_name":"Pondokranji","i_lat":-6.276362,"time":3,"i_long":106.74273,"is_transit":false,"line":6,"transit":false},{"station_id":"KBY","line":6,"is_transit":false,"station_name":"Kebayoran","i_long":106.780334,"time":8,"distance":6218,"transit":false,"i_lat":-6.237242},{"i_long":106.79689,"time":7,"line":6,"transit":false,"station_id":"PLM","station_name":"Palmerah","i_lat":-6.207404,"distance":3737,"is_transit":false},{"transit":true,"is_transit":true,"time":6,"line":1,"distance":3191,"station_name":"Tanah Abang","i_long":106.811091,"station_id":"THB","i_lat":-6.185545},{"transit":false,"station_name":"Duri","distance":3632,"time":8,"is_transit":false,"i_long":106.800832,"station_id":"DU","line":1,"i_lat":-6.155215},{"i_long":106.79867,"station_name":"Angke","is_transit":false,"distance":1230,"transit":false,"line":1,"time":4,"station_id":"AK","i_lat":-6.144674},{"station_name":"Kampung Bandan","i_long":106.826365,"is_transit":true,"distance":4102,"time":9,"station_id":"KPB","transit":true,"line":4,"i_lat":-6.132549},{"distance":2185,"is_transit":false,"line":4,"transit":false,"station_name":"Ancol","time":4,"station_id":"AC","i_lat":-6.128023,"i_long":106.84464},{"distance":4566,"station_name":"Tanjung Priuk","station_id":"TPK","i_long":106.880089,"i_lat":-6.1109480000000005,"line":4,"transit":false,"is_transit":false,"time":9}],[{"transit":false,"station_id":"CTR","i_long":106.332092,"is_transit":false,"distance":0,"line":3,"time":0,"station_name":"Citeras","i_lat":-6.334892},{"i_long":106.394373,"station_id":"MJ","distance":7293,"time":10,"i_lat":-6.332307,"is_transit":false,"transit":false,"station_name":"Maja","line":6},{"is_transit":false,"time":4,"line":3,"transit":false,"station_name":"Cikoya","i_lat":-6.33561,"i_long":106.411216,"distance":1853,"station_id":"CKY"},{"i_lat":-6.328533,"station_name":"Tigaraksa","i_long":106.425991,"line":6,"time":3,"distance":2651,"transit":false,"is_transit":false,"station_id":"TGS"},{"distance":2974,"i_lat":-6.327251,"station_name":"Tenjo","i_long":106.460812,"line":6,"transit":false,"station_id":"TEJ","is_transit":false,"time":5},{"distance":3902,"station_name":"Daru","i_lat":-6.338021,"transit":false,"line":0,"time":5,"is_transit":false,"i_long":106.491338,"station_id":"DAR"},{"distance":2675,"time":6,"i_long":106.508482,"line":3,"transit":false,"i_lat":-6.354349,"station_name":"Cilejit","station_id":"CJT","is_transit":false},{"i_long":106.568863,"line":6,"station_name":"Parung Panjang","transit":false,"i_lat":-6.3441410000000005,"time":9,"distance":7025,"is_transit":false,"station_id":"PRP"},{"distance":5968,"line":3,"transit":false,"time":8,"i_lat":-6.329547,"station_name":"Cicayur","is_transit":false,"station_id":"CC","i_long":106.617853},{"distance":2519,"is_transit":false,"station_id":"CSK","line":3,"station_name":"Cisauk","time":4,"i_long":106.640411,"transit":false,"i_lat":-6.32484},{"station_id":"SRP","time":4,"is_transit":false,"transit":false,"i_lat":-6.319871,"station_name":"Serpong","distance":1784,"i_long":106.66566,"line":6},{"i_long":106.675475,"distance":2413,"station_name":"Rawa Buntu","is_transit":false,"station_id":"RU","line":6,"i_lat":-6.314823,"transit":false,"time":4},{"line":6,"i_lat":-6.296963,"i_long":106.712277,"is_transit":false,"station_name":"Sudimara","distance":4566,"time":6,"transit":false,"station_id":"SDM"},{"station_name":"Jurangmangu","station_id":"JMU","i_lat":-6.288927,"i_long":106.728916,"is_transit":false,"transit":false,"time":4,"distance":1994,"line":6},{"station_name":"Pondokranji","is_transit":false,"distance":2179,"transit":false,"time":3,"i_lat":-6.276362,"station_id":"PDJ","i_long":106.74273,"line":6},{"is_transit":false,"station_id":"KBY","i_lat":-6.237242,"time":8,"i_long":106.780334,"transit":false,"distance":6218,"station_name":"Kebayoran","line":6},{"line":6,"i_lat":-6.207404,"distance":3737,"is_transit":false,"time":7,"i_long":106.79689,"station_name":"Palmerah","station_id":"PLM","transit":false},{"station_name":"Tanah Abang","time":6,"i_lat":-6.185545,"transit":true,"is_transit":true,"station_id":"THB","i_long":106.811091,"distance":3191,"line":1},{"station_id":"KAT","line":1,"transit":false,"station_name":"Karet","i_long":106.816351,"distance":2029,"time":5,"i_lat":-6.20132,"is_transit":false},{"line":1,"station_id":"SUDB","station_name":"Sudirman Baru","distance":471,"time":1,"i_long":106.819881,"transit":false,"is_transit":false,"i_lat":-6.201433},{"i_long":106.822649,"is_transit":false,"station_id":"SUD","i_lat":-6.202263,"distance":280,"time":1,"station_name":"Sudirman","line":1,"transit":false},{"transit":true,"i_lat":-6.209883,"distance":3186,"line":2,"i_long":106.84912,"station_id":"MRI","station_name":"Manggarai","time":4,"is_transit":true},{"is_transit":false,"transit":false,"distance":1590,"i_long":106.840169,"line":2,"i_lat":-6.198556,"time":4,"station_name":"Cikini","station_id":"CKI"},{"line":2,"time":3,"distance":1750,"station_name":"Gondangdia","station_id":"GDD","i_long":106.832183,"is_transit":false,"transit":false,"i_lat":-6.186295},{"is_transit":false,"station_id":"JUA","line":2,"transit":false,"time":4,"i_lat":-6.166716,"station_name":"Juanda","i_long":106.828284,"distance":2015},{"station_id":"SW","i_lat":-6.160725,"transit":false,"station_name":"Sawah Besar","is_transit":false,"distance":1149,"i_long":106.827103,"line":2,"time":2},{"i_long":106.82482,"i_lat":-6.149769,"is_transit":false,"transit":false,"station_name":"Manggabesar","distance":906,"station_id":"MGB","time":2,"line":2},{"transit":false,"time":2,"line":2,"station_name":"Jayakarta","i_long":106.820901,"distance":1080,"station_id":"JAY","i_lat":-6.141205,"is_transit":false},{"i_lat":-6.137569,"i_long":106.812439,"distance":1264,"station_name":"Jakarta Kota","transit":true,"station_id":"JAKK","line":2,"time":4,"is_transit":true},{"line":4,"station_name":"Kampung Bandan","station_id":"KPB","transit":true,"is_transit":true,"distance":1364,"time":3,"i_lat":-6.132549,"i_long":106.826365},{"time":4,"i_lat":-6.128023,"station_name":"Ancol","is_transit":false,"line":4,"transit":false,"station_id":"AC","i_long":106.84464,"distance":2185},{"time":9,"is_transit":false,"i_lat":-6.1109480000000005,"transit":false,"i_long":106.880089,"station_name":"Tanjung Priuk","distance":4566,"station_id":"TPK","line":4}],[{"i_lat":-6.334892,"station_id":"CTR","line":3,"transit":false,"is_transit":false,"distance":0,"station_name":"Citeras","i_long":106.332092,"time":0},{"transit":false,"is_transit":false,"i_lat":-6.332307,"line":6,"i_long":106.394373,"station_name":"Maja","time":10,"distance":7293,"station_id":"MJ"},{"i_long":106.411216,"is_transit":false,"transit":false,"distance":1853,"line":3,"i_lat":-6.33561,"station_id":"CKY","time":4,"station_name":"Cikoya"},{"station_id":"TGS","i_long":106.425991,"is_transit":false,"time":3,"line":6,"station_name":"Tigaraksa","i_lat":-6.328533,"distance":2651,"transit":false},{"is_transit":false,"station_id":"TEJ","i_long":106.460812,"line":6,"transit":false,"time":5,"station_name":"Tenjo","i_lat":-6.327251,"distance":2974},{"i_long":106.491338,"transit":false,"distance":3902,"line":0,"station_id":"DAR","time":5,"station_name":"Daru","i_lat":-6.338021,"is_transit":false},{"time":6,"i_lat":-6.354349,"station_id":"CJT","line":3,"i_long":106.508482,"station_name":"Cilejit","is_transit":false,"transit":false,"distance":2675},{"station_id":"PRP","distance":7025,"i_long":106.568863,"line":6,"is_transit":false,"transit":false,"station_name":"Parung Panjang","i_lat":-6.3441410000000005,"time":9},{"station_id":"CC","i_lat":-6.329547,"line":3,"station_name":"Cicayur","i_long":106.617853,"distance":5968,"time":8,"transit":false,"is_transit":false},{"distance":2519,"is_transit":false,"station_name":"Cisauk","i_lat":-6.32484,"line":3,"time":4,"station_id":"CSK","transit":false,"i_long":106.640411},{"time":4,"is_transit":false,"i_long":106.66566,"i_lat":-6.319871,"line":6,"station_id":"SRP","station_name":"Serpong","transit":false,"distance":1784},{"i_lat":-6.314823,"time":4,"i_long":106.675475,"transit":false,"distance":2413,"line":6,"is_transit":false,"station_name":"Rawa Buntu","station_id":"RU"},{"i_lat":-6.296963,"station_id":"SDM","time":6,"i_long":106.712277,"transit":false,"station_name":"Sudimara","is_transit":false,"distance":4566,"line":6},{"is_transit":false,"station_name":"Jurangmangu","time":4,"i_long":106.728916,"i_lat":-6.288927,"line":6,"transit":false,"distance":1994,"station_id":"JMU"},{"time":3,"i_lat":-6.276362,"station_name":"Pondokranji","distance":2179,"i_long":106.74273,"is_transit":false,"line":6,"transit":false,"station_id":"PDJ"},{"time":8,"station_name":"Kebayoran","transit":false,"i_long":106.780334,"line":6,"station_id":"KBY","is_transit":false,"distance":6218,"i_lat":-6.237242},{"i_long":106.79689,"distance":3737,"i_lat":-6.207404,"line":6,"transit":false,"station_name":"Palmerah","is_transit":false,"station_id":"PLM","time":7},{"is_transit":true,"distance":3191,"i_lat":-6.185545,"station_name":"Tanah Abang","time":6,"line":1,"station_id":"THB","transit":true,"i_long":106.811091},{"i_lat":-6.20132,"i_long":106.816351,"line":1,"transit":false,"distance":2029,"is_transit":false,"station_name":"Karet","time":5,"station_id":"KAT"},{"station_name":"Sudirman Baru","transit":false,"distance":471,"time":1,"i_lat":-6.201433,"is_transit":false,"line":1,"i_long":106.819881,"station_id":"SUDB"},{"i_lat":-6.202263,"station_name":"Sudirman","is_transit":false,"i_long":106.822649,"time":1,"transit":false,"line":1,"distance":280,"station_id":"SUD"},{"is_transit":false,"i_long":106.84912,"station_name":"Manggarai","time":4,"line":2,"i_lat":-6.209883,"transit":false,"station_id":"MRI","distance":3186},{"transit":false,"is_transit":false,"i_long":106.858896,"station_id":"MTR","station_name":"Matraman","distance":1275,"time":2,"i_lat":-6.212485,"line":1},{"station_name":"Jatinegara","transit":true,"is_transit":true,"time":8,"station_id":"JNG","i_lat":-6.215091,"line":1,"distance":1377,"i_long":106.86807400000001},{"line":11,"station_name":"Pondok Jati","i_long":106.861737,"transit":false,"station_id":"POK","distance":1236,"is_transit":false,"i_lat":-6.209188,"time":2},{"is_transit":false,"station_id":"KMT","i_lat":-6.193792,"line":11,"transit":false,"time":2,"station_name":"Kramat","i_long":106.855437,"distance":1829},{"station_name":"Gang Sentiong","station_id":"GST","is_transit":false,"distance":973,"i_lat":-6.185975,"line":11,"i_long":106.850107,"transit":false,"time":1},{"transit":false,"station_id":"PSE","i_lat":-6.174784,"is_transit":false,"distance":1567,"station_name":"Pasar Senen","line":11,"i_long":106.84368,"time":8},{"is_transit":false,"station_id":"KMO","transit":false,"distance":1436,"i_long":106.839204,"time":4,"i_lat":-6.161728,"station_name":"Kemayoran","line":11},{"line":11,"time":5,"i_long":106.836569,"is_transit":false,"i_lat":-6.14505,"station_id":"RJW","transit":false,"station_name":"Rajawali","distance":1901},{"line":4,"distance":1444,"i_lat":-6.132549,"transit":true,"time":3,"i_long":106.826365,"is_transit":true,"station_name":"Kampung Bandan","station_id":"KPB"},{"line":4,"time":4,"i_long":106.84464,"i_lat":-6.128023,"station_id":"AC","transit":false,"is_transit":false,"distance":2185,"station_name":"Ancol"},{"line":4,"station_id":"TPK","time":9,"i_lat":-6.1109480000000005,"transit":false,"is_transit":false,"distance":4566,"station_name":"Tanjung Priuk","i_long":106.880089}]]}