{"data":[[{"is_transit":false,"time":0,"station_id":"CTR","i_long":106.332092,"transit":false,"distance":0,"station_name":"Citeras","i_lat":-6.334892,"line":3},{"i_lat":-6.332307,"is_transit":false,"time":10,"station_name":"Maja","distance":7293,"i_long":106.394373,"line":6,"transit":false,"station_id":"MJ"},{"distance":1853,"station_id":"CKY","transit":false,"is_transit":false,"time":4,"station_name":"Cikoya","i_lat":-6.33561,"line":3,"i_long":106.411216},{"line":6,"station_id":"TGS","station_name":"Tigaraksa","i_lat":-6.328533,"i_long":106.425991,"is_transit":false,"distance":2651,"transit":false,"time":3},{"distance":2974,"transit":false,"station_name":"Tenjo","is_transit":false,"time":5,"station_id":"TEJ","i_lat":-6.327251,"i_long":106.460812,"line":6},{"is_transit":false,"distance":3902,"station_name":"Daru","transit":false,"line":0,"station_id":"DAR","i_long":106.491338,"time":5,"i_lat":-6.338021},{"distance":2675,"time":6,"transit":false,"i_long":106.508482,"is_transit":false,"station_name":"Cilejit","station_id":"CJT","line":3,"i_lat":-6.354349},{"station_name":"Parung Panjang","station_id":"PRP","line":6,"transit":false,"is_transit":false,"time":9,"i_lat":-6.3441410000000005,"i_long":106.568863,"distance":7025},{"is_transit":false,"line":3,"station_name":"Cicayur","station_id":"CC","time":8,"distance":5968,"transit":false,"i_long":106.617853,"i_lat":-6.329547},{"is_transit":false,"transit":false,"station_name":"Cisauk","distance":2519,"i_lat":-6.32484,"station_id":"CSK","i_long":106.640411,"line":3,"time":4},{"station_name":"Serpong","i_long":106.66566,"is_transit":false,"time":4,"transit":false,"distance":1784,"station_id":"SRP","i_lat":-6.319871,"line":6},{"station_id":"RU","i_lat":-6.314823,"distance":2413,"is_transit":false,"time":4,"line":6,"i_long":106.675475,"transit":false,"station_name":"Rawa Buntu"},{"distance":4566,"station_name":"Sudimara","line":6,"i_lat":-6.296963,"i_long":106.712277,"station_id":"SDM","is_transit":false,"transit":false,"time":6}]]}