{"data":[[{"station_id":"CTR","distance":0,"is_transit":false,"station_name":"Citeras","transit":false,"i_long":106.332092,"line":0,"i_lat":-6.334892,"time":0},{"line":6,"time":10,"distance":7293,"i_long":106.394373,"station_name":"Maja","is_transit":false,"transit":false,"station_id":"MJ","i_lat":-6.332307},{"time":4,"i_long":106.411216,"is_transit":false,"i_lat":-6.33561,"line":0,"station_id":"CKY","station_name":"Cikoya","distance":1853,"transit":false},{"distance":2651,"station_id":"TGS","time":3,"station_name":"Tigaraksa","transit":false,"i_lat":-6.328533,"is_transit":false,"line":6,"i_long":106.425991},{"station_id":"TEJ","time":5,"transit":false,"distance":2974,"i_lat":-6.327251,"station_name":"Tenjo","is_transit":false,"line":6,"i_long":106.460812},{"is_transit":false,"station_name":"Daru","station_id":"DAR","time":5,"transit":false,"distance":3902,"i_long":106.491338,"line":0,"i_lat":-6.338021}]]}