{"data":[[{"distance":0,"station_id":"CTR","station_name":"Citeras","i_lat":-6.334892,"line":3,"i_long":106.332092,"time":0,"transit":false,"is_transit":false},{"is_transit":false,"i_long":106.394373,"distance":7293,"time":10,"station_id":"MJ","line":6,"transit":false,"i_lat":-6.332307,"station_name":"Maja"},{"transit":false,"i_long":106.411216,"station_id":"CKY","distance":1853,"is_transit":false,"time":4,"i_lat":-6.33561,"station_name":"Cikoya","line":3},{"i_lat":-6.328533,"transit":false,"line":6,"i_long":106.425991,"is_transit":false,"time":3,"distance":2651,"station_name":"Tigaraksa","station_id":"TGS"},{"is_transit":false,"station_id":"TEJ","line":6,"time":5,"transit":false,"station_name":"Tenjo","i_lat":-6.327251,"distance":2974,"i_long":106.460812},{"distance":3902,"line":0,"time":5,"i_lat":-6.338021,"i_long":106.491338,"transit":false,"station_name":"Daru","is_transit":false,"station_id":"DAR"}]]}