{"data":[[{"station_name":"Citeras","transit":false,"station_id":"CTR","distance":0,"time":0,"i_lat":-6.334892,"i_long":106.332092,"line":3,"is_transit":false},{"i_lat":-6.332307,"station_name":"Maja","transit":false,"time":10,"i_long":106.394373,"distance":7293,"is_transit":false,"station_id":"MJ","line":6},{"distance":1853,"station_name":"Cikoya","i_long":106.411216,"time":4,"is_transit":false,"i_lat":-6.33561,"station_id":"CKY","transit":false,"line":3},{"transit":false,"distance":2651,"time":3,"station_name":"Tigaraksa","i_long":106.425991,"is_transit":false,"i_lat":-6.328533,"line":6,"station_id":"TGS"},{"station_name":"Tenjo","i_long":106.460812,"i_lat":-6.327251,"station_id":"TEJ","transit":false,"is_transit":false,"time":5,"distance":2974,"line":6},{"distance":3902,"i_long":106.491338,"i_lat":-6.338021,"line":0,"transit":false,"time":5,"station_id":"DAR","station_name":"Daru","is_transit":false}]]}