{"data":[[{"station_name":"Citeras","line":0,"distance":0,"station_id":"CTR","is_transit":false,"transit":false,"i_long":106.332092,"i_lat":-6.334892,"time":0},{"is_transit":false,"time":10,"i_lat":-6.332307,"i_long":106.394373,"distance":7293,"line":6,"transit":false,"station_id":"MJ","station_name":"Maja"},{"station_id":"CKY","transit":false,"is_transit":false,"i_long":106.411216,"distance":1853,"line":0,"station_name":"Cikoya","time":4,"i_lat":-6.33561},{"is_transit":false,"station_id":"TGS","time":3,"distance":2651,"station_name":"Tigaraksa","i_long":106.425991,"line":6,"i_lat":-6.328533,"transit":false},{"transit":false,"station_id":"TEJ","distance":2974,"is_transit":false,"line":6,"station_name":"Tenjo","time":5,"i_long":106.460812,"i_lat":-6.327251},{"i_lat":-6.338021,"station_name":"Daru","distance":3902,"transit":false,"line":0,"i_long":106.491338,"station_id":"DAR","is_transit":false,"time":5},{"i_long":106.508482,"i_lat":-6.354349,"is_transit":false,"station_id":"CJT","time":6,"line":0,"station_name":"Cilejit","transit":false,"distance":2675},{"i_long":106.568863,"station_id":"PRP","is_transit":false,"i_lat":-6.3441410000000005,"transit":false,"station_name":"Parung Panjang","time":9,"line":6,"distance":7025},{"transit":false,"i_lat":-6.329547,"i_long":106.617853,"line":0,"station_id":"CC","time":8,"station_name":"Cicayur","is_transit":false,"distance":5968},{"transit":false,"i_long":106.640411,"station_id":"CSK","i_lat":-6.32484,"line":0,"time":4,"distance":2519,"station_name":"Cisauk","is_transit":false},{"is_transit":false,"i_lat":-6.319871,"station_id":"SRP","distance":1784,"line":6,"transit":false,"station_name":"Serpong","i_long":106.66566,"time":4},{"i_long":106.675475,"transit":false,"station_id":"RU","station_name":"Rawa Buntu","is_transit":false,"distance":2413,"time":4,"i_lat":-6.314823,"line":6},{"is_transit":false,"transit":false,"station_name":"Sudimara","line":6,"distance":4566,"i_long":106.712277,"i_lat":-6.296963,"station_id":"SDM","time":6},{"is_transit":false,"i_lat":-6.288927,"line":6,"i_long":106.728916,"station_id":"JMU","time":4,"distance":1994,"transit":false,"station_name":"Jurangmangu"},{"distance":2179,"time":3,"transit":false,"i_lat":-6.276362,"i_long":106.74273,"line":6,"station_name":"Pondokranji","station_id":"PDJ","is_transit":false},{"station_name":"Kebayoran","distance":6218,"line":6,"transit":false,"is_transit":false,"time":8,"i_long":106.780334,"station_id":"KBY","i_lat":-6.237242},{"i_long":106.79689,"station_name":"Palmerah","is_transit":false,"transit":false,"distance":3737,"i_lat":-6.207404,"line":6,"station_id":"PLM","time":7},{"time":6,"is_transit":true,"station_id":"THB","transit":true,"distance":3191,"i_lat":-6.185545,"i_long":106.811091,"line":1,"station_name":"Tanah Abang"},{"station_id":"KAT","line":1,"time":5,"i_long":106.816351,"transit":false,"is_transit":false,"station_name":"Karet","distance":2029,"i_lat":-6.20132},{"station_name":"Sudirman Baru","is_transit":false,"time":1,"line":1,"station_id":"SUDB","distance":471,"i_long":106.819881,"i_lat":-6.201433,"transit":false},{"station_id":"SUD","i_lat":-6.202263,"time":1,"transit":false,"is_transit":false,"distance":280,"station_name":"Sudirman","i_long":106.822649,"line":1},{"station_id":"MRI","is_transit":true,"station_name":"Manggarai","time":4,"transit":false,"i_long":106.84912,"i_lat":-6.209883,"distance":3186,"line":0},{"time":2,"transit":false,"i_lat":-6.212485,"station_name":"Matraman","i_long":106.858896,"line":1,"is_transit":false,"station_id":"MTR","distance":1275},{"is_transit":true,"i_long":106.86807400000001,"distance":1377,"line":0,"transit":false,"station_name":"Jatinegara","i_lat":-6.215091,"time":8,"station_id":"JNG"},{"i_long":106.899548,"station_name":"Klender","line":1,"time":3,"station_id":"KLD","distance":3395,"transit":false,"is_transit":false,"i_lat":-6.2135},{"station_id":"BUA","station_name":"Buaran","distance":3100,"transit":false,"is_transit":false,"line":0,"i_long":106.922662,"i_lat":-6.215568,"time":2},{"i_lat":-6.217455,"station_id":"KLDB","distance":1305,"station_name":"Klenderbaru","i_long":106.939679,"transit":false,"time":1,"is_transit":false,"line":1},{"i_long":106.951283,"transit":false,"distance":1385,"line":0,"is_transit":false,"time":8,"station_name":"Cakung","station_id":"CUK","i_lat":-6.219053},{"i_lat":-6.224515,"i_long":106.977657,"distance":3097,"station_id":"KRI","time":3,"line":1,"is_transit":false,"transit":false,"station_name":"Kranji"}],[{"distance":0,"is_transit":false,"station_name":"Citeras","transit":false,"i_long":106.332092,"time":0,"station_id":"CTR","line":0,"i_lat":-6.334892},{"i_lat":-6.332307,"time":10,"line":6,"station_name":"Maja","i_long":106.394373,"is_transit":false,"transit":false,"distance":7293,"station_id":"MJ"},{"station_name":"Cikoya","i_lat":-6.33561,"i_long":106.411216,"line":0,"time":4,"is_transit":false,"distance":1853,"transit":false,"station_id":"CKY"},{"line":6,"transit":false,"distance":2651,"i_long":106.425991,"is_transit":false,"time":3,"i_lat":-6.328533,"station_name":"Tigaraksa","station_id":"TGS"},{"station_id":"TEJ","time":5,"transit":false,"i_lat":-6.327251,"station_name":"Tenjo","is_transit":false,"distance":2974,"line":6,"i_long":106.460812},{"station_name":"Daru","transit":false,"i_long":106.491338,"line":0,"distance":3902,"is_transit":false,"time":5,"station_id":"DAR","i_lat":-6.338021},{"i_lat":-6.354349,"distance":2675,"station_id":"CJT","station_name":"Cilejit","transit":false,"line":0,"is_transit":false,"time":6,"i_long":106.508482},{"time":9,"i_long":106.568863,"i_lat":-6.3441410000000005,"is_transit":false,"distance":7025,"line":6,"station_id":"PRP","station_name":"Parung Panjang","transit":false},{"station_id":"CC","i_lat":-6.329547,"station_name":"Cicayur","transit":false,"is_transit":false,"i_long":106.617853,"time":8,"distance":5968,"line":0},{"line":0,"is_transit":false,"i_lat":-6.32484,"station_id":"CSK","transit":false,"distance":2519,"i_long":106.640411,"time":4,"station_name":"Cisauk"},{"distance":1784,"i_lat":-6.319871,"station_id":"SRP","line":6,"transit":false,"i_long":106.66566,"time":4,"station_name":"Serpong","is_transit":false},{"station_name":"Rawa Buntu","transit":false,"time":4,"distance":2413,"i_long":106.675475,"station_id":"RU","is_transit":false,"i_lat":-6.314823,"line":6},{"station_name":"Sudimara","time":6,"is_transit":false,"transit":false,"distance":4566,"line":6,"i_lat":-6.296963,"station_id":"SDM","i_long":106.712277},{"i_lat":-6.288927,"station_name":"Jurangmangu","is_transit":false,"transit":false,"i_long":106.728916,"line":6,"time":4,"distance":1994,"station_id":"JMU"},{"line":6,"is_transit":false,"i_lat":-6.276362,"time":3,"distance":2179,"transit":false,"station_name":"Pondokranji","station_id":"PDJ","i_long":106.74273},{"line":6,"station_id":"KBY","transit":false,"time":8,"i_lat":-6.237242,"i_long":106.780334,"distance":6218,"station_name":"Kebayoran","is_transit":false},{"is_transit":false,"line":6,"distance":3737,"station_name":"Palmerah","transit":false,"time":7,"station_id":"PLM","i_lat":-6.207404,"i_long":106.79689},{"station_name":"Tanah Abang","i_lat":-6.185545,"transit":true,"time":6,"i_long":106.811091,"station_id":"THB","distance":3191,"line":1,"is_transit":true},{"transit":true,"line":1,"distance":3632,"i_lat":-6.155215,"station_name":"Duri","i_long":106.800832,"station_id":"DU","time":8,"is_transit":true},{"i_long":106.79867,"line":0,"station_id":"AK","distance":1230,"transit":false,"time":4,"i_lat":-6.144674,"station_name":"Angke","is_transit":false},{"i_lat":-6.132549,"time":9,"i_long":106.826365,"station_id":"KPB","is_transit":true,"transit":true,"distance":4102,"line":0,"station_name":"Kampung Bandan"},{"i_lat":-6.14505,"line":11,"distance":1444,"station_id":"RJW","is_transit":false,"station_name":"Rajawali","transit":false,"time":3,"i_long":106.836569},{"transit":false,"is_transit":false,"station_id":"KMO","station_name":"Kemayoran","i_long":106.839204,"time":5,"distance":1901,"line":11,"i_lat":-6.161728},{"distance":1436,"time":4,"transit":false,"i_long":106.84368,"i_lat":-6.174784,"station_id":"PSE","station_name":"Pasar Senen","line":11,"is_transit":false},{"i_lat":-6.185975,"is_transit":false,"station_id":"GST","transit":false,"line":11,"time":8,"i_long":106.850107,"distance":1567,"station_name":"Gang Sentiong"},{"station_name":"Kramat","i_long":106.855437,"distance":973,"transit":false,"i_lat":-6.193792,"line":11,"station_id":"KMT","time":1,"is_transit":false},{"i_lat":-6.209188,"i_long":106.861737,"distance":1829,"time":2,"line":11,"station_name":"Pondok Jati","station_id":"POK","is_transit":false,"transit":false},{"distance":1236,"is_transit":true,"station_id":"JNG","i_lat":-6.215091,"i_long":106.86807400000001,"time":9,"station_name":"Jatinegara","line":0,"transit":true},{"station_id":"KLD","is_transit":false,"transit":false,"distance":3395,"station_name":"Klender","time":3,"line":1,"i_long":106.899548,"i_lat":-6.2135},{"station_name":"Buaran","station_id":"BUA","i_long":106.922662,"distance":3100,"transit":false,"is_transit":false,"time":2,"i_lat":-6.215568,"line":0},{"station_id":"KLDB","transit":false,"distance":1305,"i_long":106.939679,"line":1,"time":1,"station_name":"Klenderbaru","is_transit":false,"i_lat":-6.217455},{"transit":false,"time":8,"i_long":106.951283,"station_name":"Cakung","is_transit":false,"distance":1385,"line":0,"station_id":"CUK","i_lat":-6.219053},{"station_name":"Kranji","is_transit":false,"transit":false,"line":1,"i_lat":-6.224515,"i_long":106.977657,"time":3,"distance":3097,"station_id":"KRI"}],[{"distance":0,"is_transit":false,"i_lat":-6.334892,"time":0,"station_id":"CTR","station_name":"Citeras","line":0,"transit":false,"i_long":106.332092},{"station_name":"Maja","transit":false,"time":10,"is_transit":false,"i_long":106.394373,"distance":7293,"i_lat":-6.332307,"station_id":"MJ","line":6},{"is_transit":false,"i_lat":-6.33561,"line":0,"transit":false,"i_long":106.411216,"time":4,"station_id":"CKY","distance":1853,"station_name":"Cikoya"},{"line":6,"is_transit":false,"i_lat":-6.328533,"i_long":106.425991,"distance":2651,"transit":false,"time":3,"station_name":"Tigaraksa","station_id":"TGS"},{"station_name":"Tenjo","station_id":"TEJ","time":5,"is_transit":false,"i_lat":-6.327251,"line":6,"i_long":106.460812,"distance":2974,"transit":false},{"time":5,"station_name":"Daru","transit":false,"distance":3902,"i_long":106.491338,"i_lat":-6.338021,"line":0,"station_id":"DAR","is_transit":false},{"i_lat":-6.354349,"i_long":106.508482,"line":0,"distance":2675,"transit":false,"time":6,"station_name":"Cilejit","station_id":"CJT","is_transit":false},{"line":6,"i_lat":-6.3441410000000005,"time":9,"station_name":"Parung Panjang","is_transit":false,"distance":7025,"transit":false,"i_long":106.568863,"station_id":"PRP"},{"i_lat":-6.329547,"is_transit":false,"station_name":"Cicayur","line":0,"station_id":"CC","transit":false,"time":8,"distance":5968,"i_long":106.617853},{"is_transit":false,"line":0,"station_name":"Cisauk","time":4,"i_lat":-6.32484,"station_id":"CSK","i_long":106.640411,"distance":2519,"transit":false},{"line":6,"is_transit":false,"i_lat":-6.319871,"i_long":106.66566,"time":4,"station_name":"Serpong","station_id":"SRP","distance":1784,"transit":false},{"transit":false,"distance":2413,"i_lat":-6.314823,"station_id":"RU","station_name":"Rawa Buntu","is_transit":false,"time":4,"i_long":106.675475,"line":6},{"is_transit":false,"time":6,"line":6,"station_id":"SDM","transit":false,"distance":4566,"i_lat":-6.296963,"i_long":106.712277,"station_name":"Sudimara"},{"station_name":"Jurangmangu","transit":false,"time":4,"is_transit":false,"i_long":106.728916,"i_lat":-6.288927,"station_id":"JMU","distance":1994,"line":6},{"transit":false,"is_transit":false,"station_name":"Pondokranji","time":3,"distance":2179,"i_long":106.74273,"line":6,"i_lat":-6.276362,"station_id":"PDJ"},{"line":6,"station_name":"Kebayoran","transit":false,"time":8,"i_lat":-6.237242,"i_long":106.780334,"station_id":"KBY","is_transit":false,"distance":6218},{"station_name":"Palmerah","time":7,"distance":3737,"i_lat":-6.207404,"i_long":106.79689,"transit":false,"station_id":"PLM","is_transit":false,"line":6},{"transit":true,"i_lat":-6.185545,"line":1,"station_name":"Tanah Abang","station_id":"THB","is_transit":true,"time":6,"i_long":106.811091,"distance":3191},{"distance":3632,"i_long":106.800832,"transit":true,"line":1,"i_lat":-6.155215,"is_transit":true,"station_id":"DU","station_name":"Duri","time":8},{"i_long":106.79867,"is_transit":false,"distance":1230,"line":0,"time":4,"station_name":"Angke","i_lat":-6.144674,"transit":false,"station_id":"AK"},{"time":9,"distance":4102,"i_long":106.826365,"transit":false,"line":0,"is_transit":true,"station_id":"KPB","i_lat":-6.132549,"station_name":"Kampung Bandan"},{"i_lat":-6.137569,"station_name":"Jakarta Kota","transit":true,"is_transit":true,"i_long":106.812439,"distance":1364,"line":0,"station_id":"JAKK","time":3},{"distance":1264,"station_id":"JAY","i_lat":-6.141205,"time":4,"line":7,"i_long":106.820901,"is_transit":false,"station_name":"Jayakarta","transit":false},{"i_lat":-6.149769,"time":2,"distance":1080,"is_transit":false,"station_id":"MGB","line":2,"transit":false,"i_long":106.82482,"station_name":"Manggabesar"},{"distance":906,"station_id":"SW","is_transit":false,"time":2,"station_name":"Sawah Besar","i_lat":-6.160725,"transit":false,"i_long":106.827103,"line":2},{"distance":1149,"station_id":"JUA","station_name":"Juanda","i_lat":-6.166716,"line":2,"i_long":106.828284,"time":2,"transit":false,"is_transit":false},{"station_name":"Gondangdia","distance":2015,"transit":false,"time":4,"line":2,"station_id":"GDD","i_long":106.832183,"is_transit":false,"i_lat":-6.186295},{"transit":false,"distance":1750,"line":0,"i_long":106.840169,"time":3,"is_transit":false,"station_id":"CKI","i_lat":-6.198556,"station_name":"Cikini"},{"i_long":106.84912,"station_id":"MRI","station_name":"Manggarai","time":4,"transit":true,"distance":1590,"i_lat":-6.209883,"line":0,"is_transit":true},{"station_name":"Matraman","line":1,"i_lat":-6.212485,"time":2,"station_id":"MTR","transit":false,"distance":1275,"i_long":106.858896,"is_transit":false},{"line":0,"is_transit":true,"transit":false,"i_long":106.86807400000001,"distance":1377,"time":8,"station_name":"Jatinegara","station_id":"JNG","i_lat":-6.215091},{"line":1,"station_id":"KLD","distance":3395,"station_name":"Klender","time":3,"transit":false,"is_transit":false,"i_lat":-6.2135,"i_long":106.899548},{"transit":false,"distance":3100,"is_transit":false,"i_lat":-6.215568,"station_name":"Buaran","line":0,"time":2,"i_long":106.922662,"station_id":"BUA"},{"i_long":106.939679,"line":1,"distance":1305,"station_name":"Klenderbaru","time":1,"is_transit":false,"transit":false,"i_lat":-6.217455,"station_id":"KLDB"},{"i_long":106.951283,"station_id":"CUK","is_transit":false,"line":0,"station_name":"Cakung","i_lat":-6.219053,"transit":false,"time":8,"distance":1385},{"is_transit":false,"station_id":"KRI","time":3,"i_long":106.977657,"i_lat":-6.224515,"station_name":"Kranji","transit":false,"line":1,"distance":3097}],[{"station_id":"CTR","distance":0,"is_transit":false,"line":0,"i_lat":-6.334892,"time":0,"transit":false,"i_long":106.332092,"station_name":"Citeras"},{"is_transit":false,"station_name":"Maja","time":10,"station_id":"MJ","distance":7293,"transit":false,"i_lat":-6.332307,"line":6,"i_long":106.394373},{"time":4,"station_name":"Cikoya","station_id":"CKY","i_lat":-6.33561,"transit":false,"is_transit":false,"line":0,"i_long":106.411216,"distance":1853},{"i_lat":-6.328533,"station_name":"Tigaraksa","distance":2651,"is_transit":false,"i_long":106.425991,"line":6,"transit":false,"station_id":"TGS","time":3},{"distance":2974,"is_transit":false,"station_id":"TEJ","line":6,"station_name":"Tenjo","i_lat":-6.327251,"time":5,"transit":false,"i_long":106.460812},{"station_id":"DAR","line":0,"time":5,"station_name":"Daru","transit":false,"i_long":106.491338,"is_transit":false,"distance":3902,"i_lat":-6.338021},{"is_transit":false,"i_lat":-6.354349,"station_name":"Cilejit","distance":2675,"line":0,"i_long":106.508482,"time":6,"transit":false,"station_id":"CJT"},{"time":9,"station_id":"PRP","distance":7025,"is_transit":false,"i_lat":-6.3441410000000005,"line":6,"station_name":"Parung Panjang","i_long":106.568863,"transit":false},{"distance":5968,"i_long":106.617853,"transit":false,"line":0,"is_transit":false,"station_id":"CC","station_name":"Cicayur","i_lat":-6.329547,"time":8},{"station_id":"CSK","transit":false,"i_lat":-6.32484,"distance":2519,"i_long":106.640411,"time":4,"line":0,"is_transit":false,"station_name":"Cisauk"},{"transit":false,"line":6,"i_lat":-6.319871,"distance":1784,"is_transit":false,"station_name":"Serpong","time":4,"i_long":106.66566,"station_id":"SRP"},{"i_lat":-6.314823,"distance":2413,"is_transit":false,"line":6,"time":4,"i_long":106.675475,"station_name":"Rawa Buntu","transit":false,"station_id":"RU"},{"i_long":106.712277,"distance":4566,"station_name":"Sudimara","is_transit":false,"time":6,"station_id":"SDM","i_lat":-6.296963,"line":6,"transit":false},{"transit":false,"station_name":"Jurangmangu","i_lat":-6.288927,"time":4,"station_id":"JMU","is_transit":false,"distance":1994,"i_long":106.728916,"line":6},{"distance":2179,"is_transit":false,"station_name":"Pondokranji","station_id":"PDJ","i_long":106.74273,"line":6,"transit":false,"time":3,"i_lat":-6.276362},{"is_transit":false,"station_name":"Kebayoran","distance":6218,"time":8,"transit":false,"i_lat":-6.237242,"i_long":106.780334,"line":6,"station_id":"KBY"},{"transit":false,"line":6,"time":7,"is_transit":false,"station_id":"PLM","i_lat":-6.207404,"distance":3737,"station_name":"Palmerah","i_long":106.79689},{"time":6,"distance":3191,"transit":true,"i_lat":-6.185545,"is_transit":true,"i_long":106.811091,"station_name":"Tanah Abang","line":1,"station_id":"THB"},{"line":1,"transit":false,"station_name":"Karet","distance":2029,"is_transit":false,"i_lat":-6.20132,"time":5,"station_id":"KAT","i_long":106.816351},{"distance":471,"line":1,"time":1,"transit":false,"i_long":106.819881,"is_transit":false,"station_name":"Sudirman Baru","station_id":"SUDB","i_lat":-6.201433},{"station_name":"Sudirman","transit":false,"distance":280,"line":1,"station_id":"SUD","is_transit":false,"time":1,"i_long":106.822649,"i_lat":-6.202263},{"is_transit":true,"station_id":"MRI","i_lat":-6.209883,"time":4,"line":0,"transit":true,"i_long":106.84912,"station_name":"Manggarai","distance":3186},{"distance":1590,"time":4,"i_lat":-6.198556,"line":0,"station_id":"CKI","station_name":"Cikini","is_transit":false,"transit":false,"i_long":106.840169},{"station_id":"GDD","distance":1750,"time":3,"station_name":"Gondangdia","transit":false,"i_lat":-6.186295,"line":2,"i_long":106.832183,"is_transit":false},{"transit":false,"station_id":"JUA","line":2,"distance":2015,"is_transit":false,"i_lat":-6.166716,"station_name":"Juanda","i_long":106.828284,"time":4},{"station_name":"Sawah Besar","station_id":"SW","i_lat":-6.160725,"time":2,"distance":1149,"transit":false,"line":2,"i_long":106.827103,"is_transit":false},{"distance":906,"is_transit":false,"time":2,"line":2,"i_lat":-6.149769,"station_id":"MGB","transit":false,"i_long":106.82482,"station_name":"Manggabesar"},{"i_lat":-6.141205,"station_id":"JAY","station_name":"Jayakarta","is_transit":false,"transit":false,"time":2,"line":7,"distance":1080,"i_long":106.820901},{"station_id":"JAKK","is_transit":true,"time":4,"i_long":106.812439,"distance":1264,"i_lat":-6.137569,"transit":true,"station_name":"Jakarta Kota","line":0},{"is_transit":true,"i_long":106.826365,"distance":1364,"station_id":"KPB","station_name":"Kampung Bandan","line":0,"transit":true,"i_lat":-6.132549,"time":3},{"i_long":106.836569,"transit":false,"distance":1444,"station_name":"Rajawali","station_id":"RJW","time":3,"is_transit":false,"i_lat":-6.14505,"line":11},{"station_id":"KMO","is_transit":false,"time":5,"distance":1901,"station_name":"Kemayoran","transit":false,"i_lat":-6.161728,"i_long":106.839204,"line":11},{"time":4,"i_long":106.84368,"line":11,"station_id":"PSE","station_name":"Pasar Senen","is_transit":false,"distance":1436,"transit":false,"i_lat":-6.174784},{"is_transit":false,"i_long":106.850107,"distance":1567,"line":11,"station_id":"GST","station_name":"Gang Sentiong","time":8,"i_lat":-6.185975,"transit":false},{"station_id":"KMT","line":11,"is_transit":false,"i_lat":-6.193792,"i_long":106.855437,"station_name":"Kramat","transit":false,"time":1,"distance":973},{"line":11,"station_name":"Pondok Jati","time":2,"distance":1829,"station_id":"POK","i_lat":-6.209188,"i_long":106.861737,"is_transit":false,"transit":false},{"distance":1236,"i_lat":-6.215091,"transit":true,"station_id":"JNG","is_transit":true,"i_long":106.86807400000001,"line":0,"station_name":"Jatinegara","time":9},{"transit":false,"is_transit":false,"i_lat":-6.2135,"distance":3395,"time":3,"i_long":106.899548,"station_id":"KLD","line":1,"station_name":"Klender"},{"i_long":106.922662,"line":0,"station_id":"BUA","station_name":"Buaran","time":2,"is_transit":false,"distance":3100,"i_lat":-6.215568,"transit":false},{"transit":false,"i_lat":-6.217455,"station_id":"KLDB","station_name":"Klenderbaru","is_transit":false,"time":1,"i_long":106.939679,"line":1,"distance":1305},{"is_transit":false,"i_long":106.951283,"transit":false,"distance":1385,"line":0,"time":8,"i_lat":-6.219053,"station_id":"CUK","station_name":"Cakung"},{"station_name":"Kranji","station_id":"KRI","i_long":106.977657,"line":1,"i_lat":-6.224515,"is_transit":false,"transit":false,"distance":3097,"time":3}]]}