{"data":[[{"is_transit":false,"line":3,"i_lat":-6.334892,"transit":false,"time":0,"i_long":106.332092,"station_name":"Citeras","distance":0,"station_id":"CTR"},{"time":10,"i_long":106.394373,"line":6,"distance":7293,"is_transit":false,"station_id":"MJ","i_lat":-6.332307,"station_name":"Maja","transit":false},{"time":4,"i_lat":-6.33561,"station_name":"Cikoya","line":3,"is_transit":false,"distance":1853,"station_id":"CKY","i_long":106.411216,"transit":false},{"transit":false,"station_id":"TGS","is_transit":false,"time":3,"i_long":106.425991,"distance":2651,"station_name":"Tigaraksa","line":6,"i_lat":-6.328533},{"station_name":"Tenjo","distance":2974,"station_id":"TEJ","i_lat":-6.327251,"is_transit":false,"transit":false,"time":5,"i_long":106.460812,"line":6},{"transit":false,"station_id":"DAR","is_transit":false,"station_name":"Daru","i_long":106.491338,"distance":3902,"line":0,"time":5,"i_lat":-6.338021},{"time":6,"distance":2675,"i_long":106.508482,"line":3,"is_transit":false,"station_id":"CJT","station_name":"Cilejit","i_lat":-6.354349,"transit":false},{"transit":false,"is_transit":false,"time":9,"station_id":"PRP","i_lat":-6.3441410000000005,"i_long":106.568863,"distance":7025,"station_name":"Parung Panjang","line":6},{"station_name":"Cicayur","is_transit":false,"station_id":"CC","transit":false,"i_lat":-6.329547,"time":8,"distance":5968,"line":3,"i_long":106.617853},{"transit":false,"station_id":"CSK","i_lat":-6.32484,"distance":2519,"is_transit":false,"i_long":106.640411,"time":4,"station_name":"Cisauk","line":3},{"line":6,"station_name":"Serpong","time":4,"transit":false,"is_transit":false,"distance":1784,"station_id":"SRP","i_lat":-6.319871,"i_long":106.66566},{"station_id":"RU","is_transit":false,"distance":2413,"i_lat":-6.314823,"station_name":"Rawa Buntu","time":4,"i_long":106.675475,"transit":false,"line":6},{"is_transit":false,"time":6,"line":6,"station_name":"Sudimara","distance":4566,"station_id":"SDM","transit":false,"i_lat":-6.296963,"i_long":106.712277},{"i_lat":-6.288927,"distance":1994,"station_name":"Jurangmangu","transit":false,"station_id":"JMU","is_transit":false,"i_long":106.728916,"line":6,"time":4},{"i_lat":-6.276362,"time":3,"station_id":"PDJ","distance":2179,"station_name":"Pondokranji","is_transit":false,"i_long":106.74273,"line":6,"transit":false},{"station_id":"KBY","line":6,"station_name":"Kebayoran","i_lat":-6.237242,"is_transit":false,"time":8,"distance":6218,"i_long":106.780334,"transit":false},{"transit":false,"i_lat":-6.207404,"i_long":106.79689,"line":6,"station_id":"PLM","is_transit":false,"time":7,"distance":3737,"station_name":"Palmerah"},{"line":1,"station_id":"THB","time":6,"distance":3191,"transit":true,"i_lat":-6.185545,"i_long":106.811091,"station_name":"Tanah Abang","is_transit":true},{"transit":false,"is_transit":false,"line":1,"distance":3632,"time":8,"i_long":106.800832,"station_id":"DU","i_lat":-6.155215,"station_name":"Duri"},{"line":1,"distance":1230,"station_name":"Angke","station_id":"AK","i_long":106.79867,"time":4,"i_lat":-6.144674,"transit":false,"is_transit":false},{"station_name":"Kampung Bandan","distance":4102,"station_id":"KPB","transit":true,"is_transit":true,"time":9,"i_lat":-6.132549,"i_long":106.826365,"line":4},{"distance":2185,"transit":false,"station_name":"Ancol","time":4,"line":4,"is_transit":false,"station_id":"AC","i_lat":-6.128023,"i_long":106.84464},{"transit":false,"is_transit":false,"time":9,"i_long":106.880089,"distance":4566,"station_name":"Tanjung Priuk","station_id":"TPK","i_lat":-6.1109480000000005,"line":4}],[{"station_id":"CTR","time":0,"distance":0,"transit":false,"i_lat":-6.334892,"i_long":106.332092,"line":3,"station_name":"Citeras","is_transit":false},{"station_id":"MJ","i_long":106.394373,"transit":false,"is_transit":false,"distance":7293,"i_lat":-6.332307,"station_name":"Maja","line":6,"time":10},{"transit":false,"time":4,"i_long":106.411216,"station_id":"CKY","station_name":"Cikoya","is_transit":false,"distance":1853,"i_lat":-6.33561,"line":3},{"is_transit":false,"i_lat":-6.328533,"station_name":"Tigaraksa","distance":2651,"time":3,"i_long":106.425991,"station_id":"TGS","line":6,"transit":false},{"line":6,"time":5,"transit":false,"distance":2974,"i_lat":-6.327251,"station_id":"TEJ","station_name":"Tenjo","i_long":106.460812,"is_transit":false},{"transit":false,"time":5,"station_name":"Daru","i_lat":-6.338021,"line":0,"station_id":"DAR","distance":3902,"is_transit":false,"i_long":106.491338},{"station_name":"Cilejit","i_long":106.508482,"line":3,"is_transit":false,"distance":2675,"transit":false,"i_lat":-6.354349,"time":6,"station_id":"CJT"},{"station_id":"PRP","i_long":106.568863,"time":9,"i_lat":-6.3441410000000005,"transit":false,"is_transit":false,"station_name":"Parung Panjang","distance":7025,"line":6},{"i_long":106.617853,"station_id":"CC","line":3,"is_transit":false,"i_lat":-6.329547,"distance":5968,"transit":false,"time":8,"station_name":"Cicayur"},{"transit":false,"station_id":"CSK","time":4,"is_transit":false,"distance":2519,"i_lat":-6.32484,"i_long":106.640411,"line":3,"station_name":"Cisauk"},{"is_transit":false,"i_lat":-6.319871,"i_long":106.66566,"time":4,"distance":1784,"station_name":"Serpong","line":6,"station_id":"SRP","transit":false},{"time":4,"station_name":"Rawa Buntu","station_id":"RU","transit":false,"is_transit":false,"distance":2413,"i_long":106.675475,"line":6,"i_lat":-6.314823},{"is_transit":false,"transit":false,"station_id":"SDM","time":6,"line":6,"i_long":106.712277,"i_lat":-6.296963,"distance":4566,"station_name":"Sudimara"},{"distance":1994,"line":6,"is_transit":false,"station_name":"Jurangmangu","station_id":"JMU","i_lat":-6.288927,"transit":false,"time":4,"i_long":106.728916},{"station_id":"PDJ","station_name":"Pondokranji","distance":2179,"i_long":106.74273,"line":6,"is_transit":false,"i_lat":-6.276362,"transit":false,"time":3},{"distance":6218,"time":8,"i_long":106.780334,"is_transit":false,"line":6,"station_name":"Kebayoran","transit":false,"station_id":"KBY","i_lat":-6.237242},{"station_id":"PLM","station_name":"Palmerah","is_transit":false,"distance":3737,"i_long":106.79689,"i_lat":-6.207404,"line":6,"time":7,"transit":false},{"is_transit":true,"i_long":106.811091,"distance":3191,"transit":true,"station_name":"Tanah Abang","time":6,"i_lat":-6.185545,"station_id":"THB","line":1},{"i_lat":-6.20132,"line":1,"is_transit":false,"transit":false,"station_name":"Karet","distance":2029,"station_id":"KAT","time":5,"i_long":106.816351},{"station_id":"SUDB","transit":false,"i_lat":-6.201433,"distance":471,"i_long":106.819881,"time":1,"station_name":"Sudirman Baru","line":1,"is_transit":false},{"distance":280,"transit":false,"is_transit":false,"i_long":106.822649,"time":1,"station_name":"Sudirman","station_id":"SUD","i_lat":-6.202263,"line":1},{"station_id":"MRI","station_name":"Manggarai","transit":true,"is_transit":true,"line":2,"distance":3186,"time":4,"i_long":106.84912,"i_lat":-6.209883},{"transit":false,"station_id":"CKI","i_long":106.840169,"line":2,"station_name":"Cikini","is_transit":false,"distance":1590,"time":4,"i_lat":-6.198556},{"time":3,"distance":1750,"line":2,"i_lat":-6.186295,"station_id":"GDD","is_transit":false,"transit":false,"station_name":"Gondangdia","i_long":106.832183},{"transit":false,"is_transit":false,"station_name":"Juanda","i_long":106.828284,"station_id":"JUA","line":2,"time":4,"distance":2015,"i_lat":-6.166716},{"line":2,"i_lat":-6.160725,"station_name":"Sawah Besar","station_id":"SW","i_long":106.827103,"transit":false,"is_transit":false,"time":2,"distance":1149},{"is_transit":false,"time":2,"i_lat":-6.149769,"i_long":106.82482,"transit":false,"station_name":"Manggabesar","distance":906,"line":2,"station_id":"MGB"},{"i_lat":-6.141205,"i_long":106.820901,"line":2,"is_transit":false,"transit":false,"station_name":"Jayakarta","station_id":"JAY","time":2,"distance":1080},{"transit":true,"is_transit":true,"station_name":"Jakarta Kota","station_id":"JAKK","line":2,"i_long":106.812439,"i_lat":-6.137569,"time":4,"distance":1264},{"transit":true,"distance":1364,"line":4,"station_name":"Kampung Bandan","time":3,"i_lat":-6.132549,"station_id":"KPB","is_transit":true,"i_long":106.826365},{"station_id":"AC","distance":2185,"i_lat":-6.128023,"time":4,"line":4,"i_long":106.84464,"station_name":"Ancol","is_transit":false,"transit":false},{"station_name":"Tanjung Priuk","transit":false,"distance":4566,"station_id":"TPK","time":9,"is_transit":false,"i_lat":-6.1109480000000005,"line":4,"i_long":106.880089}],[{"is_transit":false,"station_name":"Citeras","time":0,"line":3,"distance":0,"station_id":"CTR","i_lat":-6.334892,"transit":false,"i_long":106.332092},{"distance":7293,"station_name":"Maja","transit":false,"time":10,"is_transit":false,"line":6,"i_lat":-6.332307,"station_id":"MJ","i_long":106.394373},{"line":3,"station_name":"Cikoya","is_transit":false,"station_id":"CKY","i_lat":-6.33561,"distance":1853,"transit":false,"i_long":106.411216,"time":4},{"station_name":"Tigaraksa","transit":false,"i_long":106.425991,"station_id":"TGS","distance":2651,"is_transit":false,"line":6,"i_lat":-6.328533,"time":3},{"station_name":"Tenjo","transit":false,"station_id":"TEJ","time":5,"is_transit":false,"line":6,"i_lat":-6.327251,"i_long":106.460812,"distance":2974},{"transit":false,"i_lat":-6.338021,"station_name":"Daru","is_transit":false,"time":5,"station_id":"DAR","distance":3902,"i_long":106.491338,"line":0},{"i_long":106.508482,"transit":false,"distance":2675,"is_transit":false,"time":6,"line":3,"station_id":"CJT","station_name":"Cilejit","i_lat":-6.354349},{"transit":false,"line":6,"station_id":"PRP","i_long":106.568863,"time":9,"distance":7025,"i_lat":-6.3441410000000005,"station_name":"Parung Panjang","is_transit":false},{"distance":5968,"time":8,"line":3,"is_transit":false,"i_lat":-6.329547,"station_id":"CC","transit":false,"station_name":"Cicayur","i_long":106.617853},{"is_transit":false,"station_id":"CSK","i_long":106.640411,"station_name":"Cisauk","distance":2519,"i_lat":-6.32484,"transit":false,"line":3,"time":4},{"transit":false,"i_long":106.66566,"station_name":"Serpong","time":4,"is_transit":false,"station_id":"SRP","i_lat":-6.319871,"distance":1784,"line":6},{"i_long":106.675475,"time":4,"i_lat":-6.314823,"distance":2413,"transit":false,"line":6,"station_name":"Rawa Buntu","station_id":"RU","is_transit":false},{"time":6,"transit":false,"station_name":"Sudimara","station_id":"SDM","i_lat":-6.296963,"i_long":106.712277,"distance":4566,"line":6,"is_transit":false},{"i_long":106.728916,"transit":false,"station_name":"Jurangmangu","station_id":"JMU","time":4,"i_lat":-6.288927,"is_transit":false,"distance":1994,"line":6},{"station_name":"Pondokranji","time":3,"distance":2179,"i_long":106.74273,"i_lat":-6.276362,"is_transit":false,"station_id":"PDJ","transit":false,"line":6},{"i_lat":-6.237242,"transit":false,"line":6,"station_name":"Kebayoran","station_id":"KBY","time":8,"i_long":106.780334,"is_transit":false,"distance":6218},{"i_lat":-6.207404,"i_long":106.79689,"distance":3737,"line":6,"transit":false,"station_name":"Palmerah","is_transit":false,"station_id":"PLM","time":7},{"time":6,"transit":true,"station_id":"THB","line":1,"i_long":106.811091,"station_name":"Tanah Abang","distance":3191,"is_transit":true,"i_lat":-6.185545},{"is_transit":false,"station_id":"KAT","i_lat":-6.20132,"station_name":"Karet","line":1,"transit":false,"time":5,"i_long":106.816351,"distance":2029},{"line":1,"transit":false,"is_transit":false,"i_lat":-6.201433,"station_name":"Sudirman Baru","station_id":"SUDB","time":1,"distance":471,"i_long":106.819881},{"is_transit":false,"distance":280,"line":1,"station_id":"SUD","i_long":106.822649,"transit":false,"time":1,"i_lat":-6.202263,"station_name":"Sudirman"},{"station_name":"Manggarai","time":4,"line":2,"i_lat":-6.209883,"is_transit":false,"distance":3186,"station_id":"MRI","transit":false,"i_long":106.84912},{"i_lat":-6.212485,"line":1,"station_id":"MTR","is_transit":false,"i_long":106.858896,"station_name":"Matraman","time":2,"transit":false,"distance":1275},{"time":8,"i_lat":-6.215091,"transit":true,"distance":1377,"is_transit":true,"station_name":"Jatinegara","station_id":"JNG","i_long":106.86807400000001,"line":1},{"time":2,"i_lat":-6.209188,"line":11,"i_long":106.861737,"distance":1236,"is_transit":false,"transit":false,"station_name":"Pondok Jati","station_id":"POK"},{"line":11,"station_id":"KMT","station_name":"Kramat","time":2,"distance":1829,"is_transit":false,"i_long":106.855437,"transit":false,"i_lat":-6.193792},{"station_id":"GST","line":11,"station_name":"Gang Sentiong","distance":973,"i_lat":-6.185975,"time":1,"i_long":106.850107,"transit":false,"is_transit":false},{"i_lat":-6.174784,"i_long":106.84368,"line":11,"station_name":"Pasar Senen","station_id":"PSE","is_transit":false,"transit":false,"time":8,"distance":1567},{"station_id":"KMO","distance":1436,"i_lat":-6.161728,"time":4,"transit":false,"is_transit":false,"i_long":106.839204,"station_name":"Kemayoran","line":11},{"distance":1901,"transit":false,"i_long":106.836569,"station_id":"RJW","is_transit":false,"time":5,"i_lat":-6.14505,"line":11,"station_name":"Rajawali"},{"line":4,"i_lat":-6.132549,"time":3,"station_name":"Kampung Bandan","is_transit":true,"i_long":106.826365,"transit":true,"distance":1444,"station_id":"KPB"},{"distance":2185,"station_id":"AC","transit":false,"line":4,"station_name":"Ancol","i_lat":-6.128023,"time":4,"i_long":106.84464,"is_transit":false},{"is_transit":false,"time":9,"line":4,"transit":false,"station_id":"TPK","station_name":"Tanjung Priuk","distance":4566,"i_lat":-6.1109480000000005,"i_long":106.880089}]]}