{"data":[[{"distance":0,"i_long":106.332092,"line":3,"station_id":"CTR","i_lat":-6.334892,"is_transit":false,"station_name":"Citeras","transit":false,"time":0},{"i_long":106.394373,"line":6,"station_name":"Maja","is_transit":false,"transit":false,"station_id":"MJ","distance":7293,"i_lat":-6.332307,"time":10},{"time":4,"station_id":"CKY","line":3,"i_lat":-6.33561,"distance":1853,"station_name":"Cikoya","transit":false,"i_long":106.411216,"is_transit":false},{"transit":false,"station_id":"TGS","line":6,"i_long":106.425991,"station_name":"Tigaraksa","distance":2651,"time":3,"i_lat":-6.328533,"is_transit":false},{"transit":false,"time":5,"station_id":"TEJ","i_long":106.460812,"station_name":"Tenjo","i_lat":-6.327251,"line":6,"is_transit":false,"distance":2974},{"station_id":"DAR","transit":false,"is_transit":false,"station_name":"Daru","i_lat":-6.338021,"line":0,"i_long":106.491338,"time":5,"distance":3902},{"time":6,"is_transit":false,"distance":2675,"i_lat":-6.354349,"i_long":106.508482,"station_id":"CJT","station_name":"Cilejit","transit":false,"line":3},{"i_lat":-6.3441410000000005,"station_id":"PRP","is_transit":false,"station_name":"Parung Panjang","transit":false,"i_long":106.568863,"time":9,"line":6,"distance":7025},{"line":3,"distance":5968,"station_id":"CC","time":8,"station_name":"Cicayur","is_transit":false,"i_long":106.617853,"i_lat":-6.329547,"transit":false},{"station_id":"CSK","station_name":"Cisauk","i_lat":-6.32484,"line":3,"transit":false,"i_long":106.640411,"time":4,"is_transit":false,"distance":2519}]]}