{"data":[[{"line":3,"time":0,"is_transit":false,"i_long":106.332092,"transit":false,"station_name":"Citeras","distance":0,"station_id":"CTR","i_lat":-6.334892},{"distance":7293,"station_id":"MJ","i_lat":-6.332307,"transit":false,"time":10,"station_name":"Maja","i_long":106.394373,"line":6,"is_transit":false},{"station_id":"CKY","i_long":106.411216,"time":4,"transit":false,"line":3,"is_transit":false,"distance":1853,"i_lat":-6.33561,"station_name":"Cikoya"},{"distance":2651,"transit":false,"i_long":106.425991,"time":3,"line":6,"i_lat":-6.328533,"is_transit":false,"station_id":"TGS","station_name":"Tigaraksa"},{"station_id":"TEJ","line":6,"time":5,"distance":2974,"is_transit":false,"i_long":106.460812,"transit":false,"station_name":"Tenjo","i_lat":-6.327251},{"time":5,"station_name":"Daru","i_lat":-6.338021,"i_long":106.491338,"distance":3902,"is_transit":false,"station_id":"DAR","transit":false,"line":0},{"transit":false,"time":6,"i_long":106.508482,"line":3,"station_id":"CJT","distance":2675,"station_name":"Cilejit","is_transit":false,"i_lat":-6.354349},{"transit":false,"station_name":"Parung Panjang","i_long":106.568863,"distance":7025,"is_transit":false,"i_lat":-6.3441410000000005,"time":9,"station_id":"PRP","line":6},{"distance":5968,"line":3,"station_id":"CC","is_transit":false,"station_name":"Cicayur","time":8,"transit":false,"i_lat":-6.329547,"i_long":106.617853},{"station_name":"Cisauk","is_transit":false,"transit":false,"i_long":106.640411,"distance":2519,"line":3,"station_id":"CSK","i_lat":-6.32484,"time":4},{"station_name":"Serpong","transit":false,"is_transit":false,"i_long":106.66566,"line":6,"time":4,"distance":1784,"i_lat":-6.319871,"station_id":"SRP"},{"is_transit":false,"station_id":"RU","i_long":106.675475,"i_lat":-6.314823,"transit":false,"distance":2413,"station_name":"Rawa Buntu","time":4,"line":6},{"i_lat":-6.296963,"time":6,"station_name":"Sudimara","transit":false,"is_transit":false,"station_id":"SDM","i_long":106.712277,"distance":4566,"line":6},{"station_id":"JMU","i_long":106.728916,"distance":1994,"transit":false,"time":4,"i_lat":-6.288927,"is_transit":false,"line":6,"station_name":"Jurangmangu"},{"i_lat":-6.276362,"is_transit":false,"time":3,"station_id":"PDJ","station_name":"Pondokranji","line":6,"transit":false,"distance":2179,"i_long":106.74273},{"is_transit":false,"distance":6218,"station_id":"KBY","time":8,"transit":false,"i_lat":-6.237242,"i_long":106.780334,"line":6,"station_name":"Kebayoran"},{"time":7,"station_name":"Palmerah","distance":3737,"transit":false,"is_transit":false,"station_id":"PLM","i_lat":-6.207404,"i_long":106.79689,"line":6},{"time":6,"is_transit":true,"station_id":"THB","i_lat":-6.185545,"line":1,"distance":3191,"transit":true,"station_name":"Tanah Abang","i_long":106.811091},{"distance":2029,"time":5,"line":1,"station_name":"Karet","is_transit":false,"i_lat":-6.20132,"i_long":106.816351,"station_id":"KAT","transit":false},{"is_transit":false,"i_long":106.819881,"transit":false,"station_name":"Sudirman Baru","station_id":"SUDB","i_lat":-6.201433,"time":1,"distance":471,"line":1},{"line":1,"station_id":"SUD","distance":280,"transit":false,"is_transit":false,"station_name":"Sudirman","time":1,"i_lat":-6.202263,"i_long":106.822649},{"distance":3186,"line":2,"i_long":106.84912,"time":4,"transit":true,"station_id":"MRI","station_name":"Manggarai","is_transit":true,"i_lat":-6.209883},{"station_id":"TEB","time":4,"transit":false,"is_transit":false,"i_lat":-6.226659,"line":2,"distance":2610,"i_long":106.857948,"station_name":"Tebet"},{"i_lat":-6.242512,"i_long":106.856607,"time":2,"transit":false,"is_transit":false,"distance":1230,"line":2,"station_name":"Cawang","station_id":"CW"},{"transit":false,"station_id":"DRN","i_long":106.85449,"station_name":"Duren Kalibata","distance":1546,"time":3,"is_transit":false,"i_lat":-6.255332,"line":2},{"station_id":"PSMB","transit":false,"distance":824,"line":2,"is_transit":false,"station_name":"Pasar Minggu Baru","time":2,"i_lat":-6.263214,"i_long":106.851577},{"line":2,"station_name":"Pasar Minggu","distance":2380,"station_id":"PSM","i_long":106.843999,"time":2,"is_transit":false,"transit":false,"i_lat":-6.2842400000000005},{"i_lat":-6.3080680000000005,"station_name":"Tanjung Barat","time":4,"i_long":106.838896,"line":2,"station_id":"TNT","is_transit":false,"distance":2820,"transit":false},{"time":3,"is_transit":false,"line":2,"distance":2671,"i_lat":-6.330363,"transit":false,"i_long":106.832616,"station_name":"Lenteng Agung","station_id":"LNA"}],[{"transit":false,"is_transit":false,"distance":0,"i_lat":-6.334892,"station_name":"Citeras","line":3,"i_long":106.332092,"time":0,"station_id":"CTR"},{"is_transit":false,"station_id":"MJ","transit":false,"time":10,"i_lat":-6.332307,"i_long":106.394373,"distance":7293,"line":6,"station_name":"Maja"},{"station_name":"Cikoya","i_lat":-6.33561,"line":3,"station_id":"CKY","i_long":106.411216,"transit":false,"time":4,"distance":1853,"is_transit":false},{"distance":2651,"station_id":"TGS","line":6,"i_long":106.425991,"i_lat":-6.328533,"is_transit":false,"transit":false,"station_name":"Tigaraksa","time":3},{"line":6,"station_id":"TEJ","i_long":106.460812,"station_name":"Tenjo","i_lat":-6.327251,"distance":2974,"transit":false,"is_transit":false,"time":5},{"time":5,"station_id":"DAR","i_long":106.491338,"line":0,"distance":3902,"is_transit":false,"i_lat":-6.338021,"transit":false,"station_name":"Daru"},{"time":6,"line":3,"transit":false,"is_transit":false,"distance":2675,"station_name":"Cilejit","i_lat":-6.354349,"station_id":"CJT","i_long":106.508482},{"i_long":106.568863,"transit":false,"is_transit":false,"time":9,"i_lat":-6.3441410000000005,"distance":7025,"line":6,"station_name":"Parung Panjang","station_id":"PRP"},{"station_name":"Cicayur","time":8,"station_id":"CC","is_transit":false,"distance":5968,"i_long":106.617853,"i_lat":-6.329547,"line":3,"transit":false},{"transit":false,"station_id":"CSK","is_transit":false,"time":4,"station_name":"Cisauk","i_lat":-6.32484,"distance":2519,"line":3,"i_long":106.640411},{"station_name":"Serpong","station_id":"SRP","is_transit":false,"transit":false,"distance":1784,"i_long":106.66566,"line":6,"i_lat":-6.319871,"time":4},{"station_id":"RU","is_transit":false,"time":4,"i_lat":-6.314823,"station_name":"Rawa Buntu","transit":false,"distance":2413,"i_long":106.675475,"line":6},{"is_transit":false,"i_lat":-6.296963,"transit":false,"station_id":"SDM","distance":4566,"station_name":"Sudimara","i_long":106.712277,"time":6,"line":6},{"line":6,"distance":1994,"transit":false,"station_name":"Jurangmangu","is_transit":false,"time":4,"station_id":"JMU","i_long":106.728916,"i_lat":-6.288927},{"transit":false,"time":3,"i_lat":-6.276362,"station_name":"Pondokranji","line":6,"is_transit":false,"distance":2179,"station_id":"PDJ","i_long":106.74273},{"i_long":106.780334,"station_name":"Kebayoran","is_transit":false,"station_id":"KBY","distance":6218,"line":6,"time":8,"i_lat":-6.237242,"transit":false},{"transit":false,"line":6,"i_lat":-6.207404,"station_name":"Palmerah","distance":3737,"is_transit":false,"i_long":106.79689,"time":7,"station_id":"PLM"},{"line":1,"station_id":"THB","station_name":"Tanah Abang","i_lat":-6.185545,"i_long":106.811091,"is_transit":true,"distance":3191,"transit":true,"time":6},{"distance":3632,"transit":false,"station_name":"Duri","is_transit":false,"time":8,"station_id":"DU","i_lat":-6.155215,"i_long":106.800832,"line":1},{"is_transit":false,"distance":1230,"station_name":"Angke","transit":false,"line":1,"station_id":"AK","i_long":106.79867,"time":4,"i_lat":-6.144674},{"distance":4102,"time":9,"transit":true,"i_long":106.826365,"is_transit":true,"station_name":"Kampung Bandan","station_id":"KPB","line":4,"i_lat":-6.132549},{"station_name":"Jakarta Kota","station_id":"JAKK","line":2,"transit":true,"is_transit":true,"time":3,"i_lat":-6.137569,"i_long":106.812439,"distance":1364},{"is_transit":false,"line":2,"station_name":"Jayakarta","station_id":"JAY","time":4,"distance":1264,"transit":false,"i_long":106.820901,"i_lat":-6.141205},{"is_transit":false,"transit":false,"station_name":"Manggabesar","distance":1080,"i_lat":-6.149769,"station_id":"MGB","i_long":106.82482,"line":2,"time":2},{"station_name":"Sawah Besar","i_long":106.827103,"is_transit":false,"time":2,"transit":false,"distance":906,"station_id":"SW","i_lat":-6.160725,"line":2},{"station_id":"JUA","i_lat":-6.166716,"distance":1149,"is_transit":false,"time":2,"line":2,"i_long":106.828284,"transit":false,"station_name":"Juanda"},{"distance":2015,"station_name":"Gondangdia","line":2,"i_lat":-6.186295,"i_long":106.832183,"station_id":"GDD","is_transit":false,"transit":false,"time":4},{"line":2,"station_name":"Cikini","time":3,"distance":1750,"is_transit":false,"transit":false,"i_long":106.840169,"i_lat":-6.198556,"station_id":"CKI"},{"station_name":"Manggarai","is_transit":false,"i_lat":-6.209883,"i_long":106.84912,"transit":false,"time":4,"line":2,"station_id":"MRI","distance":1590},{"i_lat":-6.226659,"i_long":106.857948,"distance":2610,"transit":false,"is_transit":false,"time":4,"line":2,"station_id":"TEB","station_name":"Tebet"},{"time":2,"transit":false,"station_name":"Cawang","station_id":"CW","i_lat":-6.242512,"i_long":106.856607,"line":2,"is_transit":false,"distance":1230},{"is_transit":false,"i_lat":-6.255332,"time":3,"transit":false,"station_id":"DRN","i_long":106.85449,"distance":1546,"station_name":"Duren Kalibata","line":2},{"time":2,"station_id":"PSMB","distance":824,"line":2,"station_name":"Pasar Minggu Baru","i_long":106.851577,"i_lat":-6.263214,"transit":false,"is_transit":false},{"i_lat":-6.2842400000000005,"line":2,"distance":2380,"i_long":106.843999,"transit":false,"is_transit":false,"station_id":"PSM","time":2,"station_name":"Pasar Minggu"},{"transit":false,"is_transit":false,"time":4,"i_long":106.838896,"station_name":"Tanjung Barat","station_id":"TNT","line":2,"i_lat":-6.3080680000000005,"distance":2820},{"station_id":"LNA","is_transit":false,"line":2,"i_lat":-6.330363,"station_name":"Lenteng Agung","distance":2671,"transit":false,"i_long":106.832616,"time":3}],[{"station_name":"Citeras","station_id":"CTR","i_lat":-6.334892,"distance":0,"i_long":106.332092,"line":3,"time":0,"transit":false,"is_transit":false},{"i_lat":-6.332307,"line":6,"station_name":"Maja","i_long":106.394373,"station_id":"MJ","transit":false,"distance":7293,"is_transit":false,"time":10},{"station_name":"Cikoya","transit":false,"line":3,"time":4,"station_id":"CKY","distance":1853,"is_transit":false,"i_lat":-6.33561,"i_long":106.411216},{"is_transit":false,"i_lat":-6.328533,"distance":2651,"transit":false,"station_id":"TGS","station_name":"Tigaraksa","i_long":106.425991,"time":3,"line":6},{"is_transit":false,"transit":false,"station_name":"Tenjo","i_lat":-6.327251,"i_long":106.460812,"line":6,"distance":2974,"time":5,"station_id":"TEJ"},{"line":0,"time":5,"i_lat":-6.338021,"distance":3902,"is_transit":false,"transit":false,"station_name":"Daru","i_long":106.491338,"station_id":"DAR"},{"i_lat":-6.354349,"time":6,"station_id":"CJT","is_transit":false,"i_long":106.508482,"line":3,"transit":false,"station_name":"Cilejit","distance":2675},{"transit":false,"distance":7025,"time":9,"line":6,"station_id":"PRP","is_transit":false,"i_lat":-6.3441410000000005,"i_long":106.568863,"station_name":"Parung Panjang"},{"i_lat":-6.329547,"is_transit":false,"line":3,"station_name":"Cicayur","station_id":"CC","transit":false,"distance":5968,"i_long":106.617853,"time":8},{"time":4,"station_name":"Cisauk","is_transit":false,"distance":2519,"transit":false,"station_id":"CSK","line":3,"i_lat":-6.32484,"i_long":106.640411},{"station_name":"Serpong","station_id":"SRP","time":4,"line":6,"is_transit":false,"distance":1784,"transit":false,"i_lat":-6.319871,"i_long":106.66566},{"station_name":"Rawa Buntu","is_transit":false,"i_lat":-6.314823,"distance":2413,"transit":false,"time":4,"i_long":106.675475,"station_id":"RU","line":6},{"line":6,"station_name":"Sudimara","distance":4566,"i_lat":-6.296963,"station_id":"SDM","is_transit":false,"transit":false,"time":6,"i_long":106.712277},{"transit":false,"station_id":"JMU","i_lat":-6.288927,"i_long":106.728916,"line":6,"time":4,"distance":1994,"is_transit":false,"station_name":"Jurangmangu"},{"distance":2179,"station_id":"PDJ","time":3,"i_long":106.74273,"is_transit":false,"transit":false,"station_name":"Pondokranji","i_lat":-6.276362,"line":6},{"transit":false,"station_name":"Kebayoran","distance":6218,"station_id":"KBY","is_transit":false,"i_long":106.780334,"time":8,"i_lat":-6.237242,"line":6},{"station_name":"Palmerah","is_transit":false,"i_lat":-6.207404,"transit":false,"station_id":"PLM","line":6,"i_long":106.79689,"time":7,"distance":3737},{"station_id":"THB","distance":3191,"transit":true,"is_transit":true,"i_lat":-6.185545,"i_long":106.811091,"station_name":"Tanah Abang","line":1,"time":6},{"station_name":"Duri","i_lat":-6.155215,"i_long":106.800832,"distance":3632,"station_id":"DU","transit":false,"line":1,"is_transit":false,"time":8},{"i_lat":-6.144674,"station_id":"AK","transit":false,"time":4,"distance":1230,"line":1,"i_long":106.79867,"is_transit":false,"station_name":"Angke"},{"station_id":"KPB","is_transit":true,"i_lat":-6.132549,"transit":true,"distance":4102,"time":9,"i_long":106.826365,"station_name":"Kampung Bandan","line":4},{"i_lat":-6.14505,"line":11,"is_transit":false,"i_long":106.836569,"transit":false,"station_id":"RJW","station_name":"Rajawali","time":3,"distance":1444},{"is_transit":false,"i_long":106.839204,"line":11,"transit":false,"time":5,"distance":1901,"i_lat":-6.161728,"station_id":"KMO","station_name":"Kemayoran"},{"time":4,"station_id":"PSE","line":11,"distance":1436,"i_lat":-6.174784,"station_name":"Pasar Senen","transit":false,"is_transit":false,"i_long":106.84368},{"time":8,"distance":1567,"is_transit":false,"station_name":"Gang Sentiong","i_lat":-6.185975,"i_long":106.850107,"line":11,"station_id":"GST","transit":false},{"time":1,"station_name":"Kramat","is_transit":false,"line":11,"transit":false,"i_lat":-6.193792,"i_long":106.855437,"distance":973,"station_id":"KMT"},{"line":11,"i_lat":-6.209188,"transit":false,"station_name":"Pondok Jati","station_id":"POK","is_transit":false,"time":2,"distance":1829,"i_long":106.861737},{"station_id":"JNG","is_transit":true,"line":1,"transit":true,"station_name":"Jatinegara","time":9,"distance":1236,"i_lat":-6.215091,"i_long":106.86807400000001},{"line":1,"station_id":"MTR","transit":false,"i_lat":-6.212485,"is_transit":false,"station_name":"Matraman","i_long":106.858896,"time":2,"distance":1377},{"station_name":"Manggarai","time":2,"station_id":"MRI","i_long":106.84912,"i_lat":-6.209883,"line":2,"transit":true,"distance":1275,"is_transit":true},{"i_long":106.857948,"transit":false,"i_lat":-6.226659,"is_transit":false,"time":4,"distance":2610,"line":2,"station_name":"Tebet","station_id":"TEB"},{"i_long":106.856607,"i_lat":-6.242512,"time":2,"station_name":"Cawang","transit":false,"station_id":"CW","line":2,"is_transit":false,"distance":1230},{"is_transit":false,"station_id":"DRN","transit":false,"distance":1546,"station_name":"Duren Kalibata","i_lat":-6.255332,"i_long":106.85449,"time":3,"line":2},{"station_id":"PSMB","transit":false,"station_name":"Pasar Minggu Baru","distance":824,"time":2,"i_long":106.851577,"line":2,"is_transit":false,"i_lat":-6.263214},{"i_long":106.843999,"transit":false,"station_name":"Pasar Minggu","time":2,"distance":2380,"i_lat":-6.2842400000000005,"station_id":"PSM","line":2,"is_transit":false},{"station_id":"TNT","is_transit":false,"line":2,"time":4,"distance":2820,"i_long":106.838896,"transit":false,"station_name":"Tanjung Barat","i_lat":-6.3080680000000005},{"station_name":"Lenteng Agung","station_id":"LNA","distance":2671,"i_lat":-6.330363,"line":2,"transit":false,"is_transit":false,"i_long":106.832616,"time":3}]]}