{"data":[[{"time":0,"line":0,"station_id":"CTR","distance":0,"i_lat":-6.334892,"is_transit":false,"station_name":"Citeras","transit":false,"i_long":106.332092},{"is_transit":false,"i_long":106.394373,"station_id":"MJ","station_name":"Maja","line":6,"transit":false,"i_lat":-6.332307,"time":10,"distance":7293},{"station_name":"Cikoya","i_long":106.411216,"distance":1853,"i_lat":-6.33561,"is_transit":false,"station_id":"CKY","line":0,"time":4,"transit":false},{"station_id":"TGS","distance":2651,"line":6,"time":3,"transit":false,"i_lat":-6.328533,"i_long":106.425991,"is_transit":false,"station_name":"Tigaraksa"},{"i_long":106.460812,"transit":false,"time":5,"is_transit":false,"station_id":"TEJ","station_name":"Tenjo","i_lat":-6.327251,"line":6,"distance":2974},{"time":5,"i_lat":-6.338021,"station_id":"DAR","station_name":"Daru","line":0,"transit":false,"is_transit":false,"distance":3902,"i_long":106.491338},{"transit":false,"i_lat":-6.354349,"station_name":"Cilejit","time":6,"distance":2675,"station_id":"CJT","i_long":106.508482,"line":0,"is_transit":false},{"station_id":"PRP","transit":false,"time":9,"line":6,"i_lat":-6.3441410000000005,"distance":7025,"station_name":"Parung Panjang","is_transit":false,"i_long":106.568863},{"time":8,"distance":5968,"i_lat":-6.329547,"station_id":"CC","i_long":106.617853,"line":0,"transit":false,"station_name":"Cicayur","is_transit":false},{"station_id":"CSK","distance":2519,"i_long":106.640411,"line":0,"station_name":"Cisauk","i_lat":-6.32484,"time":4,"transit":false,"is_transit":false},{"distance":1784,"is_transit":false,"station_name":"Serpong","transit":false,"i_long":106.66566,"line":6,"station_id":"SRP","time":4,"i_lat":-6.319871},{"time":4,"distance":2413,"station_name":"Rawa Buntu","is_transit":false,"i_lat":-6.314823,"line":6,"transit":false,"station_id":"RU","i_long":106.675475},{"transit":false,"distance":4566,"is_transit":false,"time":6,"station_id":"SDM","station_name":"Sudimara","i_long":106.712277,"line":6,"i_lat":-6.296963},{"i_lat":-6.288927,"station_id":"JMU","line":6,"i_long":106.728916,"transit":false,"is_transit":false,"distance":1994,"station_name":"Jurangmangu","time":4},{"i_long":106.74273,"is_transit":false,"station_id":"PDJ","time":3,"distance":2179,"i_lat":-6.276362,"station_name":"Pondokranji","transit":false,"line":6},{"i_lat":-6.237242,"line":6,"i_long":106.780334,"is_transit":false,"time":8,"transit":false,"station_name":"Kebayoran","distance":6218,"station_id":"KBY"},{"line":6,"i_lat":-6.207404,"distance":3737,"i_long":106.79689,"station_name":"Palmerah","time":7,"station_id":"PLM","is_transit":false,"transit":false},{"time":6,"i_long":106.811091,"distance":3191,"i_lat":-6.185545,"station_id":"THB","is_transit":true,"station_name":"Tanah Abang","transit":true,"line":1},{"i_lat":-6.155215,"distance":3632,"transit":true,"i_long":106.800832,"line":1,"is_transit":true,"station_id":"DU","time":8,"station_name":"Duri"},{"distance":1230,"station_name":"Angke","transit":false,"line":0,"i_long":106.79867,"station_id":"AK","time":4,"i_lat":-6.144674,"is_transit":false}],[{"line":0,"time":0,"i_long":106.332092,"distance":0,"transit":false,"station_name":"Citeras","is_transit":false,"station_id":"CTR","i_lat":-6.334892},{"distance":7293,"line":6,"is_transit":false,"time":10,"i_long":106.394373,"transit":false,"station_id":"MJ","station_name":"Maja","i_lat":-6.332307},{"line":0,"i_lat":-6.33561,"station_id":"CKY","transit":false,"distance":1853,"station_name":"Cikoya","i_long":106.411216,"time":4,"is_transit":false},{"line":6,"station_id":"TGS","is_transit":false,"distance":2651,"station_name":"Tigaraksa","i_lat":-6.328533,"transit":false,"time":3,"i_long":106.425991},{"station_name":"Tenjo","transit":false,"distance":2974,"i_lat":-6.327251,"is_transit":false,"line":6,"station_id":"TEJ","i_long":106.460812,"time":5},{"station_name":"Daru","transit":false,"distance":3902,"line":0,"is_transit":false,"i_lat":-6.338021,"i_long":106.491338,"time":5,"station_id":"DAR"},{"time":6,"line":0,"station_name":"Cilejit","distance":2675,"is_transit":false,"i_lat":-6.354349,"transit":false,"station_id":"CJT","i_long":106.508482},{"transit":false,"is_transit":false,"station_name":"Parung Panjang","station_id":"PRP","distance":7025,"line":6,"i_lat":-6.3441410000000005,"i_long":106.568863,"time":9},{"distance":5968,"time":8,"station_id":"CC","i_lat":-6.329547,"station_name":"Cicayur","transit":false,"i_long":106.617853,"is_transit":false,"line":0},{"i_lat":-6.32484,"line":0,"time":4,"i_long":106.640411,"station_name":"Cisauk","station_id":"CSK","transit":false,"distance":2519,"is_transit":false},{"station_id":"SRP","station_name":"Serpong","distance":1784,"time":4,"line":6,"is_transit":false,"i_lat":-6.319871,"transit":false,"i_long":106.66566},{"time":4,"station_id":"RU","line":6,"is_transit":false,"station_name":"Rawa Buntu","i_lat":-6.314823,"i_long":106.675475,"distance":2413,"transit":false},{"station_id":"SDM","is_transit":false,"i_long":106.712277,"line":6,"time":6,"i_lat":-6.296963,"distance":4566,"station_name":"Sudimara","transit":false},{"station_name":"Jurangmangu","is_transit":false,"time":4,"line":6,"i_lat":-6.288927,"distance":1994,"i_long":106.728916,"transit":false,"station_id":"JMU"},{"i_lat":-6.276362,"is_transit":false,"distance":2179,"line":6,"i_long":106.74273,"station_id":"PDJ","time":3,"transit":false,"station_name":"Pondokranji"},{"station_name":"Kebayoran","transit":false,"station_id":"KBY","distance":6218,"i_lat":-6.237242,"line":6,"i_long":106.780334,"is_transit":false,"time":8},{"line":6,"i_lat":-6.207404,"transit":false,"i_long":106.79689,"station_id":"PLM","distance":3737,"is_transit":false,"time":7,"station_name":"Palmerah"},{"transit":true,"is_transit":true,"station_id":"THB","time":6,"i_lat":-6.185545,"i_long":106.811091,"distance":3191,"line":1,"station_name":"Tanah Abang"},{"station_name":"Karet","distance":2029,"is_transit":false,"transit":false,"i_long":106.816351,"line":1,"station_id":"KAT","time":5,"i_lat":-6.20132},{"distance":471,"station_id":"SUDB","is_transit":false,"i_long":106.819881,"line":1,"time":1,"transit":false,"i_lat":-6.201433,"station_name":"Sudirman Baru"},{"distance":280,"transit":false,"i_long":106.822649,"is_transit":false,"line":1,"station_name":"Sudirman","time":1,"station_id":"SUD","i_lat":-6.202263},{"is_transit":true,"distance":3186,"i_lat":-6.209883,"station_id":"MRI","line":0,"time":4,"station_name":"Manggarai","transit":true,"i_long":106.84912},{"station_name":"Cikini","station_id":"CKI","transit":false,"i_lat":-6.198556,"line":0,"time":4,"distance":1590,"i_long":106.840169,"is_transit":false},{"time":3,"transit":false,"station_id":"GDD","station_name":"Gondangdia","i_lat":-6.186295,"distance":1750,"is_transit":false,"i_long":106.832183,"line":2},{"station_id":"JUA","transit":false,"i_lat":-6.166716,"line":2,"i_long":106.828284,"time":4,"is_transit":false,"distance":2015,"station_name":"Juanda"},{"station_name":"Sawah Besar","station_id":"SW","transit":false,"distance":1149,"i_long":106.827103,"line":2,"is_transit":false,"time":2,"i_lat":-6.160725},{"time":2,"is_transit":false,"distance":906,"station_name":"Manggabesar","i_lat":-6.149769,"i_long":106.82482,"line":2,"transit":false,"station_id":"MGB"},{"station_name":"Jayakarta","transit":false,"distance":1080,"i_long":106.820901,"time":2,"line":7,"is_transit":false,"i_lat":-6.141205,"station_id":"JAY"},{"i_long":106.812439,"station_id":"JAKK","station_name":"Jakarta Kota","transit":true,"line":0,"is_transit":true,"i_lat":-6.137569,"time":4,"distance":1264},{"station_id":"KPB","station_name":"Kampung Bandan","transit":false,"distance":1364,"i_long":106.826365,"is_transit":true,"i_lat":-6.132549,"time":3,"line":0},{"time":9,"is_transit":false,"station_name":"Angke","i_long":106.79867,"transit":false,"line":0,"distance":4102,"station_id":"AK","i_lat":-6.144674}],[{"i_lat":-6.334892,"station_name":"Citeras","time":0,"transit":false,"is_transit":false,"line":0,"i_long":106.332092,"station_id":"CTR","distance":0},{"i_lat":-6.332307,"distance":7293,"station_id":"MJ","is_transit":false,"time":10,"station_name":"Maja","transit":false,"i_long":106.394373,"line":6},{"transit":false,"time":4,"station_id":"CKY","i_long":106.411216,"distance":1853,"line":0,"i_lat":-6.33561,"is_transit":false,"station_name":"Cikoya"},{"station_id":"TGS","distance":2651,"i_long":106.425991,"time":3,"i_lat":-6.328533,"transit":false,"line":6,"station_name":"Tigaraksa","is_transit":false},{"time":5,"is_transit":false,"i_lat":-6.327251,"line":6,"transit":false,"station_id":"TEJ","station_name":"Tenjo","i_long":106.460812,"distance":2974},{"time":5,"station_name":"Daru","i_lat":-6.338021,"distance":3902,"transit":false,"is_transit":false,"line":0,"station_id":"DAR","i_long":106.491338},{"time":6,"is_transit":false,"transit":false,"station_id":"CJT","distance":2675,"station_name":"Cilejit","i_lat":-6.354349,"line":0,"i_long":106.508482},{"station_name":"Parung Panjang","i_long":106.568863,"distance":7025,"i_lat":-6.3441410000000005,"station_id":"PRP","time":9,"is_transit":false,"transit":false,"line":6},{"is_transit":false,"transit":false,"time":8,"distance":5968,"station_name":"Cicayur","i_long":106.617853,"line":0,"i_lat":-6.329547,"station_id":"CC"},{"station_name":"Cisauk","transit":false,"station_id":"CSK","line":0,"i_lat":-6.32484,"i_long":106.640411,"is_transit":false,"time":4,"distance":2519},{"time":4,"station_name":"Serpong","i_long":106.66566,"station_id":"SRP","line":6,"is_transit":false,"transit":false,"i_lat":-6.319871,"distance":1784},{"line":6,"i_long":106.675475,"station_name":"Rawa Buntu","transit":false,"station_id":"RU","is_transit":false,"distance":2413,"i_lat":-6.314823,"time":4},{"time":6,"station_name":"Sudimara","distance":4566,"i_lat":-6.296963,"line":6,"is_transit":false,"station_id":"SDM","i_long":106.712277,"transit":false},{"is_transit":false,"i_long":106.728916,"time":4,"distance":1994,"station_name":"Jurangmangu","i_lat":-6.288927,"station_id":"JMU","transit":false,"line":6},{"time":3,"i_lat":-6.276362,"station_name":"Pondokranji","line":6,"transit":false,"station_id":"PDJ","is_transit":false,"distance":2179,"i_long":106.74273},{"i_long":106.780334,"is_transit":false,"transit":false,"time":8,"i_lat":-6.237242,"line":6,"station_name":"Kebayoran","distance":6218,"station_id":"KBY"},{"station_id":"PLM","distance":3737,"i_long":106.79689,"time":7,"i_lat":-6.207404,"transit":false,"station_name":"Palmerah","is_transit":false,"line":6},{"transit":true,"station_id":"THB","i_long":106.811091,"line":1,"time":6,"i_lat":-6.185545,"distance":3191,"station_name":"Tanah Abang","is_transit":true},{"i_long":106.816351,"time":5,"distance":2029,"transit":false,"line":1,"i_lat":-6.20132,"is_transit":false,"station_name":"Karet","station_id":"KAT"},{"i_long":106.819881,"station_name":"Sudirman Baru","transit":false,"i_lat":-6.201433,"is_transit":false,"time":1,"line":1,"station_id":"SUDB","distance":471},{"i_lat":-6.202263,"station_name":"Sudirman","time":1,"transit":false,"is_transit":false,"station_id":"SUD","distance":280,"i_long":106.822649,"line":1},{"time":4,"transit":false,"i_long":106.84912,"distance":3186,"line":0,"i_lat":-6.209883,"is_transit":true,"station_id":"MRI","station_name":"Manggarai"},{"distance":1275,"line":1,"station_name":"Matraman","i_lat":-6.212485,"i_long":106.858896,"is_transit":false,"time":2,"transit":false,"station_id":"MTR"},{"distance":1377,"line":0,"i_long":106.86807400000001,"station_name":"Jatinegara","is_transit":true,"station_id":"JNG","time":8,"transit":true,"i_lat":-6.215091},{"distance":1236,"i_long":106.861737,"station_id":"POK","i_lat":-6.209188,"time":2,"line":11,"transit":false,"is_transit":false,"station_name":"Pondok Jati"},{"line":11,"station_id":"KMT","is_transit":false,"distance":1829,"i_long":106.855437,"station_name":"Kramat","i_lat":-6.193792,"time":2,"transit":false},{"distance":973,"transit":false,"i_lat":-6.185975,"station_name":"Gang Sentiong","station_id":"GST","i_long":106.850107,"is_transit":false,"line":11,"time":1},{"time":8,"line":11,"distance":1567,"transit":false,"i_long":106.84368,"station_name":"Pasar Senen","is_transit":false,"station_id":"PSE","i_lat":-6.174784},{"i_long":106.839204,"distance":1436,"i_lat":-6.161728,"is_transit":false,"time":4,"station_name":"Kemayoran","station_id":"KMO","line":11,"transit":false},{"i_long":106.836569,"is_transit":false,"station_id":"RJW","line":11,"transit":false,"time":5,"distance":1901,"i_lat":-6.14505,"station_name":"Rajawali"},{"i_lat":-6.132549,"station_id":"KPB","line":0,"is_transit":true,"distance":1444,"time":3,"i_long":106.826365,"station_name":"Kampung Bandan","transit":true},{"transit":false,"i_long":106.79867,"station_id":"AK","i_lat":-6.144674,"is_transit":false,"distance":4102,"line":0,"station_name":"Angke","time":9}]]}