{"data":[[{"distance":0,"i_lat":-6.334892,"line":3,"station_name":"Citeras","is_transit":false,"i_long":106.332092,"station_id":"CTR","time":0,"transit":false},{"station_id":"MJ","is_transit":false,"i_long":106.394373,"transit":false,"i_lat":-6.332307,"time":10,"station_name":"Maja","line":6,"distance":7293},{"time":4,"is_transit":false,"i_long":106.411216,"i_lat":-6.33561,"distance":1853,"line":3,"station_name":"Cikoya","station_id":"CKY","transit":false},{"station_name":"Tigaraksa","line":6,"distance":2651,"transit":false,"station_id":"TGS","is_transit":false,"time":3,"i_lat":-6.328533,"i_long":106.425991},{"time":5,"station_id":"TEJ","transit":false,"i_long":106.460812,"i_lat":-6.327251,"station_name":"Tenjo","distance":2974,"is_transit":false,"line":6},{"is_transit":false,"line":0,"station_id":"DAR","time":5,"station_name":"Daru","distance":3902,"transit":false,"i_lat":-6.338021,"i_long":106.491338},{"i_long":106.508482,"transit":false,"station_id":"CJT","line":3,"time":6,"station_name":"Cilejit","distance":2675,"is_transit":false,"i_lat":-6.354349},{"distance":7025,"station_id":"PRP","line":6,"i_long":106.568863,"station_name":"Parung Panjang","is_transit":false,"transit":false,"i_lat":-6.3441410000000005,"time":9},{"station_id":"CC","i_lat":-6.329547,"line":3,"transit":false,"is_transit":false,"distance":5968,"i_long":106.617853,"time":8,"station_name":"Cicayur"},{"station_name":"Cisauk","line":3,"transit":false,"distance":2519,"time":4,"i_long":106.640411,"station_id":"CSK","i_lat":-6.32484,"is_transit":false},{"station_id":"SRP","time":4,"i_long":106.66566,"is_transit":false,"station_name":"Serpong","distance":1784,"i_lat":-6.319871,"line":6,"transit":false},{"is_transit":false,"transit":false,"i_long":106.675475,"i_lat":-6.314823,"line":6,"distance":2413,"time":4,"station_id":"RU","station_name":"Rawa Buntu"},{"i_long":106.712277,"line":6,"station_id":"SDM","distance":4566,"transit":false,"i_lat":-6.296963,"time":6,"station_name":"Sudimara","is_transit":false},{"transit":false,"i_lat":-6.288927,"station_id":"JMU","distance":1994,"i_long":106.728916,"line":6,"is_transit":false,"time":4,"station_name":"Jurangmangu"},{"transit":false,"i_lat":-6.276362,"station_name":"Pondokranji","line":6,"i_long":106.74273,"station_id":"PDJ","time":3,"distance":2179,"is_transit":false},{"i_long":106.780334,"time":8,"station_name":"Kebayoran","i_lat":-6.237242,"line":6,"is_transit":false,"distance":6218,"station_id":"KBY","transit":false},{"i_lat":-6.207404,"station_name":"Palmerah","is_transit":false,"line":6,"i_long":106.79689,"time":7,"transit":false,"distance":3737,"station_id":"PLM"},{"distance":3191,"is_transit":true,"station_id":"THB","line":1,"i_lat":-6.185545,"time":6,"station_name":"Tanah Abang","transit":true,"i_long":106.811091},{"distance":2029,"station_id":"KAT","station_name":"Karet","i_long":106.816351,"transit":false,"i_lat":-6.20132,"time":5,"line":1,"is_transit":false},{"time":1,"distance":471,"i_long":106.819881,"station_name":"Sudirman Baru","transit":false,"line":1,"is_transit":false,"i_lat":-6.201433,"station_id":"SUDB"},{"i_lat":-6.202263,"i_long":106.822649,"is_transit":false,"line":1,"time":1,"distance":280,"station_name":"Sudirman","station_id":"SUD","transit":false},{"line":2,"i_lat":-6.209883,"i_long":106.84912,"station_name":"Manggarai","station_id":"MRI","is_transit":false,"time":4,"transit":false,"distance":3186},{"station_name":"Matraman","i_lat":-6.212485,"time":2,"i_long":106.858896,"line":1,"is_transit":false,"distance":1275,"station_id":"MTR","transit":false}],[{"line":3,"station_name":"Citeras","station_id":"CTR","is_transit":false,"time":0,"distance":0,"transit":false,"i_lat":-6.334892,"i_long":106.332092},{"station_id":"MJ","i_lat":-6.332307,"station_name":"Maja","line":6,"i_long":106.394373,"time":10,"transit":false,"is_transit":false,"distance":7293},{"station_name":"Cikoya","i_lat":-6.33561,"line":3,"transit":false,"i_long":106.411216,"is_transit":false,"distance":1853,"station_id":"CKY","time":4},{"distance":2651,"time":3,"station_id":"TGS","station_name":"Tigaraksa","i_lat":-6.328533,"i_long":106.425991,"is_transit":false,"transit":false,"line":6},{"is_transit":false,"line":6,"i_lat":-6.327251,"station_id":"TEJ","transit":false,"station_name":"Tenjo","i_long":106.460812,"time":5,"distance":2974},{"station_name":"Daru","is_transit":false,"transit":false,"i_lat":-6.338021,"line":0,"time":5,"station_id":"DAR","i_long":106.491338,"distance":3902},{"distance":2675,"transit":false,"station_name":"Cilejit","i_lat":-6.354349,"line":3,"is_transit":false,"time":6,"station_id":"CJT","i_long":106.508482},{"distance":7025,"station_name":"Parung Panjang","is_transit":false,"i_long":106.568863,"i_lat":-6.3441410000000005,"station_id":"PRP","transit":false,"time":9,"line":6},{"line":3,"i_lat":-6.329547,"station_id":"CC","i_long":106.617853,"time":8,"is_transit":false,"distance":5968,"station_name":"Cicayur","transit":false},{"transit":false,"line":3,"station_name":"Cisauk","is_transit":false,"distance":2519,"i_long":106.640411,"station_id":"CSK","i_lat":-6.32484,"time":4},{"station_id":"SRP","i_long":106.66566,"i_lat":-6.319871,"station_name":"Serpong","transit":false,"line":6,"distance":1784,"is_transit":false,"time":4},{"i_long":106.675475,"time":4,"is_transit":false,"line":6,"distance":2413,"transit":false,"station_id":"RU","i_lat":-6.314823,"station_name":"Rawa Buntu"},{"i_long":106.712277,"station_name":"Sudimara","transit":false,"i_lat":-6.296963,"time":6,"station_id":"SDM","distance":4566,"line":6,"is_transit":false},{"i_lat":-6.288927,"distance":1994,"transit":false,"station_id":"JMU","is_transit":false,"line":6,"i_long":106.728916,"time":4,"station_name":"Jurangmangu"},{"time":3,"is_transit":false,"distance":2179,"station_name":"Pondokranji","transit":false,"i_lat":-6.276362,"line":6,"i_long":106.74273,"station_id":"PDJ"},{"time":8,"distance":6218,"transit":false,"i_lat":-6.237242,"station_name":"Kebayoran","i_long":106.780334,"is_transit":false,"station_id":"KBY","line":6},{"transit":false,"i_long":106.79689,"is_transit":false,"line":6,"distance":3737,"i_lat":-6.207404,"time":7,"station_name":"Palmerah","station_id":"PLM"},{"station_id":"THB","station_name":"Tanah Abang","transit":true,"i_lat":-6.185545,"i_long":106.811091,"distance":3191,"time":6,"is_transit":true,"line":1},{"i_lat":-6.155215,"time":8,"is_transit":false,"station_name":"Duri","station_id":"DU","i_long":106.800832,"line":1,"distance":3632,"transit":false},{"time":4,"transit":false,"station_id":"AK","distance":1230,"is_transit":false,"i_long":106.79867,"line":1,"station_name":"Angke","i_lat":-6.144674},{"i_long":106.826365,"time":9,"line":4,"is_transit":true,"distance":4102,"transit":true,"station_name":"Kampung Bandan","station_id":"KPB","i_lat":-6.132549},{"distance":1444,"transit":false,"i_lat":-6.14505,"station_id":"RJW","i_long":106.836569,"is_transit":false,"station_name":"Rajawali","line":11,"time":3},{"time":5,"is_transit":false,"i_long":106.839204,"station_id":"KMO","station_name":"Kemayoran","transit":false,"line":11,"i_lat":-6.161728,"distance":1901},{"is_transit":false,"station_name":"Pasar Senen","i_long":106.84368,"station_id":"PSE","distance":1436,"transit":false,"line":11,"time":4,"i_lat":-6.174784},{"line":11,"i_long":106.850107,"is_transit":false,"time":8,"station_id":"GST","i_lat":-6.185975,"transit":false,"distance":1567,"station_name":"Gang Sentiong"},{"is_transit":false,"distance":973,"line":11,"station_id":"KMT","i_lat":-6.193792,"i_long":106.855437,"station_name":"Kramat","time":1,"transit":false},{"is_transit":false,"station_id":"POK","transit":false,"line":11,"i_lat":-6.209188,"distance":1829,"time":2,"i_long":106.861737,"station_name":"Pondok Jati"},{"distance":1236,"time":9,"transit":true,"line":1,"i_lat":-6.215091,"is_transit":true,"i_long":106.86807400000001,"station_name":"Jatinegara","station_id":"JNG"},{"station_name":"Matraman","transit":false,"i_long":106.858896,"is_transit":false,"distance":1377,"time":2,"i_lat":-6.212485,"line":1,"station_id":"MTR"}],[{"transit":false,"i_lat":-6.334892,"distance":0,"i_long":106.332092,"station_name":"Citeras","line":3,"time":0,"is_transit":false,"station_id":"CTR"},{"i_lat":-6.332307,"station_name":"Maja","station_id":"MJ","distance":7293,"is_transit":false,"time":10,"transit":false,"line":6,"i_long":106.394373},{"transit":false,"station_id":"CKY","time":4,"i_lat":-6.33561,"distance":1853,"line":3,"is_transit":false,"station_name":"Cikoya","i_long":106.411216},{"station_name":"Tigaraksa","i_lat":-6.328533,"time":3,"distance":2651,"transit":false,"i_long":106.425991,"line":6,"station_id":"TGS","is_transit":false},{"station_name":"Tenjo","transit":false,"i_lat":-6.327251,"i_long":106.460812,"station_id":"TEJ","is_transit":false,"line":6,"time":5,"distance":2974},{"station_id":"DAR","transit":false,"i_long":106.491338,"is_transit":false,"i_lat":-6.338021,"distance":3902,"station_name":"Daru","time":5,"line":0},{"distance":2675,"is_transit":false,"station_name":"Cilejit","station_id":"CJT","transit":false,"time":6,"i_lat":-6.354349,"i_long":106.508482,"line":3},{"transit":false,"time":9,"i_long":106.568863,"is_transit":false,"line":6,"station_id":"PRP","distance":7025,"i_lat":-6.3441410000000005,"station_name":"Parung Panjang"},{"time":8,"line":3,"is_transit":false,"i_long":106.617853,"distance":5968,"transit":false,"i_lat":-6.329547,"station_name":"Cicayur","station_id":"CC"},{"i_long":106.640411,"distance":2519,"line":3,"station_id":"CSK","station_name":"Cisauk","is_transit":false,"i_lat":-6.32484,"transit":false,"time":4},{"station_name":"Serpong","station_id":"SRP","transit":false,"i_long":106.66566,"is_transit":false,"distance":1784,"time":4,"i_lat":-6.319871,"line":6},{"station_id":"RU","transit":false,"station_name":"Rawa Buntu","i_long":106.675475,"is_transit":false,"distance":2413,"time":4,"i_lat":-6.314823,"line":6},{"is_transit":false,"time":6,"station_id":"SDM","station_name":"Sudimara","line":6,"i_long":106.712277,"transit":false,"i_lat":-6.296963,"distance":4566},{"time":4,"line":6,"distance":1994,"station_id":"JMU","station_name":"Jurangmangu","i_long":106.728916,"is_transit":false,"transit":false,"i_lat":-6.288927},{"distance":2179,"i_lat":-6.276362,"station_id":"PDJ","line":6,"time":3,"i_long":106.74273,"is_transit":false,"station_name":"Pondokranji","transit":false},{"station_id":"KBY","i_lat":-6.237242,"line":6,"is_transit":false,"distance":6218,"time":8,"transit":false,"i_long":106.780334,"station_name":"Kebayoran"},{"station_name":"Palmerah","time":7,"station_id":"PLM","i_long":106.79689,"distance":3737,"i_lat":-6.207404,"line":6,"transit":false,"is_transit":false},{"distance":3191,"i_lat":-6.185545,"transit":true,"time":6,"line":1,"station_name":"Tanah Abang","i_long":106.811091,"station_id":"THB","is_transit":true},{"i_lat":-6.155215,"i_long":106.800832,"is_transit":false,"line":1,"distance":3632,"station_id":"DU","station_name":"Duri","time":8,"transit":false},{"station_id":"AK","is_transit":false,"station_name":"Angke","line":1,"time":4,"transit":false,"i_long":106.79867,"i_lat":-6.144674,"distance":1230},{"i_long":106.826365,"line":4,"i_lat":-6.132549,"transit":true,"station_id":"KPB","time":9,"is_transit":true,"station_name":"Kampung Bandan","distance":4102},{"transit":true,"is_transit":true,"line":2,"station_id":"JAKK","i_lat":-6.137569,"time":3,"distance":1364,"station_name":"Jakarta Kota","i_long":106.812439},{"station_id":"JAY","time":4,"transit":false,"station_name":"Jayakarta","line":2,"is_transit":false,"i_lat":-6.141205,"i_long":106.820901,"distance":1264},{"station_name":"Manggabesar","i_lat":-6.149769,"line":2,"distance":1080,"transit":false,"time":2,"i_long":106.82482,"is_transit":false,"station_id":"MGB"},{"i_lat":-6.160725,"i_long":106.827103,"transit":false,"station_name":"Sawah Besar","distance":906,"station_id":"SW","is_transit":false,"time":2,"line":2},{"transit":false,"distance":1149,"i_long":106.828284,"station_id":"JUA","i_lat":-6.166716,"station_name":"Juanda","time":2,"line":2,"is_transit":false},{"is_transit":false,"time":4,"station_id":"GDD","i_long":106.832183,"line":2,"distance":2015,"station_name":"Gondangdia","transit":false,"i_lat":-6.186295},{"i_lat":-6.198556,"station_id":"CKI","distance":1750,"time":3,"is_transit":false,"station_name":"Cikini","transit":false,"i_long":106.840169,"line":2},{"station_id":"MRI","i_long":106.84912,"line":2,"is_transit":true,"transit":true,"i_lat":-6.209883,"distance":1590,"time":4,"station_name":"Manggarai"},{"station_name":"Matraman","station_id":"MTR","transit":false,"line":1,"is_transit":false,"distance":1275,"time":2,"i_long":106.858896,"i_lat":-6.212485}],[{"distance":0,"transit":false,"is_transit":false,"i_long":106.332092,"time":0,"station_name":"Citeras","station_id":"CTR","i_lat":-6.334892,"line":3},{"transit":false,"station_name":"Maja","station_id":"MJ","is_transit":false,"distance":7293,"line":6,"time":10,"i_lat":-6.332307,"i_long":106.394373},{"i_long":106.411216,"distance":1853,"station_id":"CKY","i_lat":-6.33561,"line":3,"transit":false,"is_transit":false,"time":4,"station_name":"Cikoya"},{"i_lat":-6.328533,"is_transit":false,"distance":2651,"line":6,"station_id":"TGS","transit":false,"i_long":106.425991,"time":3,"station_name":"Tigaraksa"},{"is_transit":false,"transit":false,"station_name":"Tenjo","line":6,"distance":2974,"time":5,"i_lat":-6.327251,"i_long":106.460812,"station_id":"TEJ"},{"station_name":"Daru","station_id":"DAR","i_lat":-6.338021,"distance":3902,"line":0,"transit":false,"i_long":106.491338,"is_transit":false,"time":5},{"distance":2675,"station_name":"Cilejit","station_id":"CJT","transit":false,"line":3,"i_lat":-6.354349,"i_long":106.508482,"time":6,"is_transit":false},{"station_id":"PRP","transit":false,"line":6,"time":9,"i_long":106.568863,"distance":7025,"station_name":"Parung Panjang","is_transit":false,"i_lat":-6.3441410000000005},{"is_transit":false,"station_id":"CC","i_lat":-6.329547,"distance":5968,"time":8,"transit":false,"i_long":106.617853,"line":3,"station_name":"Cicayur"},{"line":3,"station_id":"CSK","is_transit":false,"i_lat":-6.32484,"transit":false,"distance":2519,"station_name":"Cisauk","i_long":106.640411,"time":4},{"line":6,"transit":false,"i_lat":-6.319871,"is_transit":false,"distance":1784,"time":4,"i_long":106.66566,"station_id":"SRP","station_name":"Serpong"},{"station_name":"Rawa Buntu","distance":2413,"is_transit":false,"time":4,"i_lat":-6.314823,"transit":false,"i_long":106.675475,"station_id":"RU","line":6},{"station_name":"Sudimara","is_transit":false,"distance":4566,"transit":false,"station_id":"SDM","time":6,"i_lat":-6.296963,"i_long":106.712277,"line":6},{"station_id":"JMU","time":4,"station_name":"Jurangmangu","line":6,"transit":false,"i_long":106.728916,"distance":1994,"is_transit":false,"i_lat":-6.288927},{"station_id":"PDJ","distance":2179,"time":3,"station_name":"Pondokranji","transit":false,"i_lat":-6.276362,"line":6,"is_transit":false,"i_long":106.74273},{"line":6,"station_id":"KBY","is_transit":false,"i_lat":-6.237242,"time":8,"i_long":106.780334,"distance":6218,"transit":false,"station_name":"Kebayoran"},{"station_name":"Palmerah","is_transit":false,"time":7,"station_id":"PLM","i_lat":-6.207404,"i_long":106.79689,"line":6,"distance":3737,"transit":false},{"distance":3191,"transit":true,"is_transit":true,"i_lat":-6.185545,"i_long":106.811091,"time":6,"station_name":"Tanah Abang","line":1,"station_id":"THB"},{"is_transit":false,"station_id":"KAT","transit":false,"station_name":"Karet","line":1,"time":5,"i_lat":-6.20132,"distance":2029,"i_long":106.816351},{"time":1,"is_transit":false,"i_lat":-6.201433,"line":1,"transit":false,"station_name":"Sudirman Baru","distance":471,"station_id":"SUDB","i_long":106.819881},{"station_name":"Sudirman","distance":280,"i_lat":-6.202263,"line":1,"is_transit":false,"transit":false,"station_id":"SUD","i_long":106.822649,"time":1},{"i_long":106.84912,"transit":true,"line":2,"i_lat":-6.209883,"is_transit":true,"station_id":"MRI","time":4,"distance":3186,"station_name":"Manggarai"},{"i_long":106.840169,"time":4,"station_id":"CKI","station_name":"Cikini","line":2,"is_transit":false,"i_lat":-6.198556,"distance":1590,"transit":false},{"transit":false,"i_long":106.832183,"distance":1750,"is_transit":false,"time":3,"station_id":"GDD","i_lat":-6.186295,"line":2,"station_name":"Gondangdia"},{"transit":false,"line":2,"is_transit":false,"time":4,"i_lat":-6.166716,"station_name":"Juanda","distance":2015,"station_id":"JUA","i_long":106.828284},{"transit":false,"line":2,"station_id":"SW","i_long":106.827103,"i_lat":-6.160725,"is_transit":false,"distance":1149,"time":2,"station_name":"Sawah Besar"},{"i_long":106.82482,"is_transit":false,"distance":906,"line":2,"transit":false,"i_lat":-6.149769,"time":2,"station_id":"MGB","station_name":"Manggabesar"},{"is_transit":false,"time":2,"distance":1080,"i_long":106.820901,"transit":false,"i_lat":-6.141205,"station_id":"JAY","line":2,"station_name":"Jayakarta"},{"station_name":"Jakarta Kota","is_transit":true,"i_lat":-6.137569,"i_long":106.812439,"distance":1264,"time":4,"transit":true,"line":2,"station_id":"JAKK"},{"i_long":106.826365,"distance":1364,"time":3,"i_lat":-6.132549,"transit":true,"line":4,"station_name":"Kampung Bandan","station_id":"KPB","is_transit":true},{"distance":1444,"station_name":"Rajawali","station_id":"RJW","i_lat":-6.14505,"transit":false,"time":3,"line":11,"i_long":106.836569,"is_transit":false},{"i_lat":-6.161728,"line":11,"time":5,"station_name":"Kemayoran","distance":1901,"is_transit":false,"i_long":106.839204,"transit":false,"station_id":"KMO"},{"is_transit":false,"transit":false,"station_name":"Pasar Senen","line":11,"time":4,"station_id":"PSE","distance":1436,"i_lat":-6.174784,"i_long":106.84368},{"time":8,"station_id":"GST","distance":1567,"transit":false,"i_lat":-6.185975,"i_long":106.850107,"line":11,"station_name":"Gang Sentiong","is_transit":false},{"transit":false,"time":1,"station_id":"KMT","station_name":"Kramat","i_lat":-6.193792,"distance":973,"line":11,"is_transit":false,"i_long":106.855437},{"is_transit":false,"station_name":"Pondok Jati","transit":false,"distance":1829,"station_id":"POK","i_lat":-6.209188,"line":11,"i_long":106.861737,"time":2},{"distance":1236,"station_id":"JNG","time":9,"station_name":"Jatinegara","line":1,"i_lat":-6.215091,"transit":true,"i_long":106.86807400000001,"is_transit":true},{"distance":1377,"station_id":"MTR","i_long":106.858896,"transit":false,"is_transit":false,"i_lat":-6.212485,"time":2,"line":1,"station_name":"Matraman"}]]}