{"data":[[{"distance":0,"line":3,"is_transit":false,"transit":false,"i_lat":-6.334892,"i_long":106.332092,"time":0,"station_id":"CTR","station_name":"Citeras"},{"i_lat":-6.332307,"i_long":106.394373,"line":6,"distance":7293,"station_id":"MJ","station_name":"Maja","is_transit":false,"time":10,"transit":false},{"time":4,"station_id":"CKY","i_lat":-6.33561,"i_long":106.411216,"line":3,"transit":false,"distance":1853,"station_name":"Cikoya","is_transit":false},{"i_lat":-6.328533,"distance":2651,"station_id":"TGS","time":3,"is_transit":false,"transit":false,"line":6,"i_long":106.425991,"station_name":"Tigaraksa"},{"station_id":"TEJ","i_long":106.460812,"distance":2974,"is_transit":false,"time":5,"transit":false,"line":6,"station_name":"Tenjo","i_lat":-6.327251},{"transit":false,"i_lat":-6.338021,"line":0,"is_transit":false,"time":5,"station_id":"DAR","i_long":106.491338,"distance":3902,"station_name":"Daru"},{"is_transit":false,"time":6,"i_lat":-6.354349,"i_long":106.508482,"distance":2675,"transit":false,"line":3,"station_id":"CJT","station_name":"Cilejit"},{"transit":false,"i_long":106.568863,"station_id":"PRP","is_transit":false,"line":6,"i_lat":-6.3441410000000005,"time":9,"distance":7025,"station_name":"Parung Panjang"},{"station_id":"CC","is_transit":false,"i_lat":-6.329547,"line":3,"distance":5968,"i_long":106.617853,"transit":false,"station_name":"Cicayur","time":8},{"line":3,"is_transit":false,"transit":false,"distance":2519,"station_id":"CSK","time":4,"station_name":"Cisauk","i_lat":-6.32484,"i_long":106.640411},{"transit":false,"is_transit":false,"time":4,"i_lat":-6.319871,"line":6,"i_long":106.66566,"station_id":"SRP","station_name":"Serpong","distance":1784},{"distance":2413,"station_id":"RU","station_name":"Rawa Buntu","time":4,"i_lat":-6.314823,"i_long":106.675475,"is_transit":false,"transit":false,"line":6},{"station_name":"Sudimara","i_lat":-6.296963,"transit":false,"time":6,"line":6,"is_transit":false,"i_long":106.712277,"distance":4566,"station_id":"SDM"},{"time":4,"transit":false,"station_id":"JMU","i_lat":-6.288927,"station_name":"Jurangmangu","distance":1994,"is_transit":false,"i_long":106.728916,"line":6},{"time":3,"is_transit":false,"i_long":106.74273,"transit":false,"distance":2179,"station_id":"PDJ","station_name":"Pondokranji","i_lat":-6.276362,"line":6},{"station_name":"Kebayoran","transit":false,"i_long":106.780334,"is_transit":false,"i_lat":-6.237242,"station_id":"KBY","line":6,"time":8,"distance":6218},{"time":7,"is_transit":false,"i_long":106.79689,"distance":3737,"transit":false,"i_lat":-6.207404,"line":6,"station_id":"PLM","station_name":"Palmerah"},{"station_id":"THB","line":1,"time":6,"station_name":"Tanah Abang","transit":true,"i_lat":-6.185545,"is_transit":true,"i_long":106.811091,"distance":3191},{"i_long":106.816351,"i_lat":-6.20132,"line":1,"station_id":"KAT","transit":false,"distance":2029,"station_name":"Karet","time":5,"is_transit":false},{"distance":471,"time":1,"i_long":106.819881,"i_lat":-6.201433,"is_transit":false,"line":1,"station_name":"Sudirman Baru","station_id":"SUDB","transit":false},{"station_name":"Sudirman","transit":false,"i_long":106.822649,"is_transit":false,"line":1,"distance":280,"i_lat":-6.202263,"time":1,"station_id":"SUD"},{"line":2,"i_long":106.84912,"distance":3186,"time":4,"station_name":"Manggarai","station_id":"MRI","i_lat":-6.209883,"transit":true,"is_transit":true},{"is_transit":false,"line":2,"station_name":"Tebet","station_id":"TEB","distance":2610,"i_lat":-6.226659,"time":4,"transit":false,"i_long":106.857948},{"i_long":106.856607,"station_id":"CW","distance":1230,"is_transit":false,"station_name":"Cawang","time":2,"transit":false,"i_lat":-6.242512,"line":2},{"i_long":106.85449,"station_name":"Duren Kalibata","distance":1546,"is_transit":false,"i_lat":-6.255332,"transit":false,"line":2,"station_id":"DRN","time":3},{"i_lat":-6.263214,"station_name":"Pasar Minggu Baru","time":2,"is_transit":false,"distance":824,"i_long":106.851577,"line":2,"station_id":"PSMB","transit":false},{"i_long":106.843999,"time":2,"transit":false,"line":2,"distance":2380,"station_id":"PSM","station_name":"Pasar Minggu","is_transit":false,"i_lat":-6.2842400000000005},{"transit":false,"distance":2820,"i_long":106.838896,"station_name":"Tanjung Barat","time":4,"i_lat":-6.3080680000000005,"line":2,"station_id":"TNT","is_transit":false},{"station_name":"Lenteng Agung","distance":2671,"i_long":106.832616,"station_id":"LNA","i_lat":-6.330363,"time":3,"transit":false,"is_transit":false,"line":2}],[{"transit":false,"is_transit":false,"line":3,"station_id":"CTR","i_long":106.332092,"station_name":"Citeras","i_lat":-6.334892,"distance":0,"time":0},{"i_lat":-6.332307,"is_transit":false,"station_id":"MJ","distance":7293,"station_name":"Maja","i_long":106.394373,"line":6,"transit":false,"time":10},{"line":3,"i_long":106.411216,"transit":false,"time":4,"station_name":"Cikoya","is_transit":false,"distance":1853,"station_id":"CKY","i_lat":-6.33561},{"transit":false,"station_id":"TGS","distance":2651,"is_transit":false,"station_name":"Tigaraksa","i_lat":-6.328533,"i_long":106.425991,"line":6,"time":3},{"transit":false,"time":5,"is_transit":false,"line":6,"i_lat":-6.327251,"station_id":"TEJ","distance":2974,"i_long":106.460812,"station_name":"Tenjo"},{"time":5,"distance":3902,"station_id":"DAR","is_transit":false,"transit":false,"i_long":106.491338,"station_name":"Daru","i_lat":-6.338021,"line":0},{"i_lat":-6.354349,"time":6,"station_id":"CJT","is_transit":false,"i_long":106.508482,"transit":false,"station_name":"Cilejit","distance":2675,"line":3},{"time":9,"station_name":"Parung Panjang","line":6,"transit":false,"is_transit":false,"distance":7025,"station_id":"PRP","i_lat":-6.3441410000000005,"i_long":106.568863},{"i_lat":-6.329547,"line":3,"station_name":"Cicayur","is_transit":false,"i_long":106.617853,"station_id":"CC","distance":5968,"transit":false,"time":8},{"time":4,"station_name":"Cisauk","transit":false,"line":3,"i_long":106.640411,"distance":2519,"i_lat":-6.32484,"station_id":"CSK","is_transit":false},{"station_name":"Serpong","station_id":"SRP","time":4,"distance":1784,"i_lat":-6.319871,"line":6,"is_transit":false,"transit":false,"i_long":106.66566},{"station_name":"Rawa Buntu","transit":false,"is_transit":false,"i_long":106.675475,"time":4,"station_id":"RU","i_lat":-6.314823,"distance":2413,"line":6},{"i_lat":-6.296963,"station_name":"Sudimara","i_long":106.712277,"time":6,"transit":false,"distance":4566,"station_id":"SDM","is_transit":false,"line":6},{"station_id":"JMU","time":4,"station_name":"Jurangmangu","line":6,"distance":1994,"i_long":106.728916,"is_transit":false,"i_lat":-6.288927,"transit":false},{"distance":2179,"line":6,"i_lat":-6.276362,"is_transit":false,"station_id":"PDJ","station_name":"Pondokranji","i_long":106.74273,"transit":false,"time":3},{"transit":false,"distance":6218,"time":8,"station_name":"Kebayoran","is_transit":false,"station_id":"KBY","i_lat":-6.237242,"i_long":106.780334,"line":6},{"i_lat":-6.207404,"i_long":106.79689,"transit":false,"time":7,"station_id":"PLM","line":6,"distance":3737,"station_name":"Palmerah","is_transit":false},{"distance":3191,"is_transit":true,"station_name":"Tanah Abang","station_id":"THB","line":1,"i_long":106.811091,"i_lat":-6.185545,"transit":true,"time":6},{"station_name":"Duri","i_long":106.800832,"time":8,"transit":false,"is_transit":false,"i_lat":-6.155215,"line":1,"station_id":"DU","distance":3632},{"time":4,"line":1,"is_transit":false,"station_name":"Angke","i_long":106.79867,"transit":false,"station_id":"AK","distance":1230,"i_lat":-6.144674},{"is_transit":true,"station_name":"Kampung Bandan","distance":4102,"i_long":106.826365,"time":9,"transit":true,"i_lat":-6.132549,"station_id":"KPB","line":4},{"i_lat":-6.137569,"line":2,"distance":1364,"is_transit":true,"time":3,"i_long":106.812439,"station_id":"JAKK","station_name":"Jakarta Kota","transit":true},{"station_name":"Jayakarta","i_lat":-6.141205,"i_long":106.820901,"transit":false,"distance":1264,"is_transit":false,"line":2,"time":4,"station_id":"JAY"},{"distance":1080,"station_id":"MGB","i_long":106.82482,"transit":false,"station_name":"Manggabesar","time":2,"is_transit":false,"line":2,"i_lat":-6.149769},{"i_long":106.827103,"station_id":"SW","is_transit":false,"time":2,"line":2,"transit":false,"station_name":"Sawah Besar","distance":906,"i_lat":-6.160725},{"transit":false,"station_name":"Juanda","distance":1149,"is_transit":false,"line":2,"time":2,"station_id":"JUA","i_lat":-6.166716,"i_long":106.828284},{"i_lat":-6.186295,"distance":2015,"line":2,"station_id":"GDD","station_name":"Gondangdia","transit":false,"time":4,"is_transit":false,"i_long":106.832183},{"station_name":"Cikini","station_id":"CKI","is_transit":false,"time":3,"i_lat":-6.198556,"line":2,"transit":false,"distance":1750,"i_long":106.840169},{"transit":false,"i_long":106.84912,"time":4,"station_name":"Manggarai","line":2,"station_id":"MRI","distance":1590,"is_transit":false,"i_lat":-6.209883},{"distance":2610,"i_long":106.857948,"transit":false,"i_lat":-6.226659,"line":2,"is_transit":false,"station_id":"TEB","station_name":"Tebet","time":4},{"i_lat":-6.242512,"is_transit":false,"station_id":"CW","station_name":"Cawang","i_long":106.856607,"line":2,"transit":false,"distance":1230,"time":2},{"time":3,"station_name":"Duren Kalibata","station_id":"DRN","is_transit":false,"line":2,"distance":1546,"i_long":106.85449,"i_lat":-6.255332,"transit":false},{"is_transit":false,"i_lat":-6.263214,"station_id":"PSMB","i_long":106.851577,"line":2,"station_name":"Pasar Minggu Baru","time":2,"transit":false,"distance":824},{"station_name":"Pasar Minggu","station_id":"PSM","distance":2380,"is_transit":false,"line":2,"transit":false,"i_long":106.843999,"time":2,"i_lat":-6.2842400000000005},{"station_id":"TNT","distance":2820,"transit":false,"i_long":106.838896,"time":4,"line":2,"is_transit":false,"i_lat":-6.3080680000000005,"station_name":"Tanjung Barat"},{"station_id":"LNA","distance":2671,"time":3,"station_name":"Lenteng Agung","i_lat":-6.330363,"transit":false,"is_transit":false,"i_long":106.832616,"line":2}],[{"time":0,"is_transit":false,"i_long":106.332092,"i_lat":-6.334892,"transit":false,"distance":0,"station_name":"Citeras","line":3,"station_id":"CTR"},{"i_lat":-6.332307,"i_long":106.394373,"line":6,"station_name":"Maja","distance":7293,"is_transit":false,"time":10,"station_id":"MJ","transit":false},{"station_id":"CKY","station_name":"Cikoya","transit":false,"line":3,"distance":1853,"i_long":106.411216,"is_transit":false,"time":4,"i_lat":-6.33561},{"time":3,"i_lat":-6.328533,"station_name":"Tigaraksa","i_long":106.425991,"transit":false,"distance":2651,"station_id":"TGS","is_transit":false,"line":6},{"station_name":"Tenjo","line":6,"distance":2974,"time":5,"i_long":106.460812,"station_id":"TEJ","transit":false,"i_lat":-6.327251,"is_transit":false},{"line":0,"i_long":106.491338,"transit":false,"station_name":"Daru","i_lat":-6.338021,"time":5,"station_id":"DAR","distance":3902,"is_transit":false},{"station_name":"Cilejit","transit":false,"station_id":"CJT","i_lat":-6.354349,"i_long":106.508482,"is_transit":false,"time":6,"distance":2675,"line":3},{"i_lat":-6.3441410000000005,"station_id":"PRP","distance":7025,"transit":false,"is_transit":false,"line":6,"i_long":106.568863,"station_name":"Parung Panjang","time":9},{"station_id":"CC","station_name":"Cicayur","distance":5968,"i_lat":-6.329547,"line":3,"time":8,"is_transit":false,"i_long":106.617853,"transit":false},{"station_name":"Cisauk","i_long":106.640411,"distance":2519,"station_id":"CSK","is_transit":false,"i_lat":-6.32484,"transit":false,"line":3,"time":4},{"is_transit":false,"station_id":"SRP","time":4,"line":6,"distance":1784,"transit":false,"station_name":"Serpong","i_lat":-6.319871,"i_long":106.66566},{"station_name":"Rawa Buntu","transit":false,"distance":2413,"line":6,"station_id":"RU","is_transit":false,"i_long":106.675475,"i_lat":-6.314823,"time":4},{"time":6,"station_id":"SDM","line":6,"distance":4566,"is_transit":false,"station_name":"Sudimara","i_long":106.712277,"transit":false,"i_lat":-6.296963},{"station_name":"Jurangmangu","i_long":106.728916,"station_id":"JMU","distance":1994,"is_transit":false,"line":6,"transit":false,"time":4,"i_lat":-6.288927},{"transit":false,"i_long":106.74273,"is_transit":false,"line":6,"station_id":"PDJ","station_name":"Pondokranji","distance":2179,"i_lat":-6.276362,"time":3},{"transit":false,"station_id":"KBY","i_long":106.780334,"station_name":"Kebayoran","is_transit":false,"time":8,"i_lat":-6.237242,"line":6,"distance":6218},{"transit":false,"time":7,"station_name":"Palmerah","i_long":106.79689,"is_transit":false,"line":6,"distance":3737,"i_lat":-6.207404,"station_id":"PLM"},{"time":6,"i_long":106.811091,"i_lat":-6.185545,"station_name":"Tanah Abang","station_id":"THB","transit":true,"line":1,"is_transit":true,"distance":3191},{"distance":3632,"is_transit":false,"line":1,"station_id":"DU","i_lat":-6.155215,"transit":false,"time":8,"station_name":"Duri","i_long":106.800832},{"distance":1230,"is_transit":false,"i_lat":-6.144674,"line":1,"station_id":"AK","station_name":"Angke","transit":false,"time":4,"i_long":106.79867},{"i_long":106.826365,"line":4,"distance":4102,"transit":true,"station_name":"Kampung Bandan","time":9,"is_transit":true,"i_lat":-6.132549,"station_id":"KPB"},{"is_transit":false,"line":11,"distance":1444,"transit":false,"i_lat":-6.14505,"time":3,"station_name":"Rajawali","i_long":106.836569,"station_id":"RJW"},{"i_long":106.839204,"line":11,"distance":1901,"is_transit":false,"station_id":"KMO","transit":false,"time":5,"station_name":"Kemayoran","i_lat":-6.161728},{"is_transit":false,"time":4,"distance":1436,"i_lat":-6.174784,"station_id":"PSE","station_name":"Pasar Senen","line":11,"transit":false,"i_long":106.84368},{"distance":1567,"line":11,"i_long":106.850107,"station_id":"GST","transit":false,"is_transit":false,"time":8,"station_name":"Gang Sentiong","i_lat":-6.185975},{"station_id":"KMT","i_lat":-6.193792,"distance":973,"station_name":"Kramat","line":11,"i_long":106.855437,"time":1,"transit":false,"is_transit":false},{"transit":false,"time":2,"station_id":"POK","distance":1829,"station_name":"Pondok Jati","i_lat":-6.209188,"is_transit":false,"i_long":106.861737,"line":11},{"time":9,"station_id":"JNG","station_name":"Jatinegara","is_transit":true,"transit":true,"distance":1236,"i_long":106.86807400000001,"line":1,"i_lat":-6.215091},{"distance":1377,"transit":false,"time":2,"i_long":106.858896,"station_id":"MTR","is_transit":false,"i_lat":-6.212485,"line":1,"station_name":"Matraman"},{"station_name":"Manggarai","transit":true,"station_id":"MRI","distance":1275,"time":2,"i_lat":-6.209883,"i_long":106.84912,"line":2,"is_transit":true},{"i_lat":-6.226659,"i_long":106.857948,"station_id":"TEB","line":2,"distance":2610,"station_name":"Tebet","transit":false,"is_transit":false,"time":4},{"i_lat":-6.242512,"station_id":"CW","station_name":"Cawang","transit":false,"is_transit":false,"time":2,"distance":1230,"i_long":106.856607,"line":2},{"transit":false,"distance":1546,"is_transit":false,"time":3,"i_long":106.85449,"line":2,"i_lat":-6.255332,"station_id":"DRN","station_name":"Duren Kalibata"},{"station_id":"PSMB","line":2,"i_long":106.851577,"i_lat":-6.263214,"station_name":"Pasar Minggu Baru","transit":false,"is_transit":false,"time":2,"distance":824},{"line":2,"i_long":106.843999,"distance":2380,"i_lat":-6.2842400000000005,"station_name":"Pasar Minggu","is_transit":false,"station_id":"PSM","transit":false,"time":2},{"is_transit":false,"i_long":106.838896,"station_name":"Tanjung Barat","line":2,"transit":false,"i_lat":-6.3080680000000005,"station_id":"TNT","time":4,"distance":2820},{"time":3,"is_transit":false,"station_id":"LNA","transit":false,"distance":2671,"i_lat":-6.330363,"i_long":106.832616,"station_name":"Lenteng Agung","line":2}]]}