{"data":[[{"distance":0,"time":0,"transit":false,"i_long":106.332092,"is_transit":false,"station_name":"Citeras","i_lat":-6.334892,"line":3,"station_id":"CTR"},{"line":6,"station_name":"Maja","time":10,"distance":7293,"station_id":"MJ","is_transit":false,"i_long":106.394373,"i_lat":-6.332307,"transit":false},{"time":4,"line":3,"distance":1853,"i_lat":-6.33561,"station_id":"CKY","station_name":"Cikoya","is_transit":false,"transit":false,"i_long":106.411216},{"i_long":106.425991,"time":3,"station_name":"Tigaraksa","transit":false,"station_id":"TGS","line":6,"distance":2651,"is_transit":false,"i_lat":-6.328533},{"station_id":"TEJ","station_name":"Tenjo","is_transit":false,"i_long":106.460812,"i_lat":-6.327251,"line":6,"transit":false,"time":5,"distance":2974},{"i_lat":-6.338021,"station_name":"Daru","i_long":106.491338,"distance":3902,"line":0,"time":5,"station_id":"DAR","is_transit":false,"transit":false},{"time":6,"station_id":"CJT","i_lat":-6.354349,"i_long":106.508482,"is_transit":false,"station_name":"Cilejit","distance":2675,"line":3,"transit":false},{"distance":7025,"station_name":"Parung Panjang","i_lat":-6.3441410000000005,"line":6,"is_transit":false,"time":9,"station_id":"PRP","transit":false,"i_long":106.568863},{"station_name":"Cicayur","transit":false,"line":3,"distance":5968,"i_lat":-6.329547,"i_long":106.617853,"time":8,"is_transit":false,"station_id":"CC"},{"i_lat":-6.32484,"time":4,"i_long":106.640411,"distance":2519,"station_name":"Cisauk","is_transit":false,"line":3,"transit":false,"station_id":"CSK"},{"is_transit":false,"i_long":106.66566,"transit":false,"line":6,"station_name":"Serpong","time":4,"station_id":"SRP","distance":1784,"i_lat":-6.319871},{"i_lat":-6.314823,"is_transit":false,"station_name":"Rawa Buntu","distance":2413,"station_id":"RU","i_long":106.675475,"time":4,"transit":false,"line":6},{"is_transit":false,"i_lat":-6.296963,"line":6,"i_long":106.712277,"transit":false,"distance":4566,"station_name":"Sudimara","time":6,"station_id":"SDM"},{"transit":false,"is_transit":false,"i_long":106.728916,"distance":1994,"i_lat":-6.288927,"line":6,"station_id":"JMU","time":4,"station_name":"Jurangmangu"},{"i_lat":-6.276362,"line":6,"i_long":106.74273,"transit":false,"station_id":"PDJ","distance":2179,"is_transit":false,"time":3,"station_name":"Pondokranji"},{"time":8,"is_transit":false,"transit":false,"i_long":106.780334,"station_name":"Kebayoran","i_lat":-6.237242,"line":6,"distance":6218,"station_id":"KBY"},{"station_name":"Palmerah","time":7,"station_id":"PLM","is_transit":false,"i_long":106.79689,"distance":3737,"transit":false,"i_lat":-6.207404,"line":6},{"line":1,"distance":3191,"transit":true,"station_id":"THB","i_lat":-6.185545,"station_name":"Tanah Abang","time":6,"i_long":106.811091,"is_transit":true},{"station_id":"KAT","i_lat":-6.20132,"time":5,"i_long":106.816351,"distance":2029,"station_name":"Karet","is_transit":false,"line":1,"transit":false},{"distance":471,"station_name":"Sudirman Baru","transit":false,"line":1,"i_long":106.819881,"time":1,"is_transit":false,"i_lat":-6.201433,"station_id":"SUDB"},{"transit":false,"is_transit":false,"i_lat":-6.202263,"i_long":106.822649,"line":1,"distance":280,"time":1,"station_id":"SUD","station_name":"Sudirman"},{"i_lat":-6.209883,"distance":3186,"station_name":"Manggarai","transit":true,"is_transit":true,"time":4,"line":2,"station_id":"MRI","i_long":106.84912},{"i_long":106.857948,"time":4,"transit":false,"is_transit":false,"i_lat":-6.226659,"line":2,"station_id":"TEB","station_name":"Tebet","distance":2610},{"distance":1230,"time":2,"i_lat":-6.242512,"station_id":"CW","station_name":"Cawang","transit":false,"is_transit":false,"i_long":106.856607,"line":2},{"time":3,"is_transit":false,"station_id":"DRN","station_name":"Duren Kalibata","transit":false,"i_lat":-6.255332,"i_long":106.85449,"line":2,"distance":1546},{"station_id":"PSMB","i_long":106.851577,"time":2,"is_transit":false,"transit":false,"station_name":"Pasar Minggu Baru","distance":824,"i_lat":-6.263214,"line":2},{"distance":2380,"i_long":106.843999,"line":2,"station_name":"Pasar Minggu","station_id":"PSM","time":2,"i_lat":-6.2842400000000005,"is_transit":false,"transit":false},{"time":4,"distance":2820,"i_long":106.838896,"station_name":"Tanjung Barat","station_id":"TNT","i_lat":-6.3080680000000005,"is_transit":false,"line":2,"transit":false},{"i_lat":-6.330363,"i_long":106.832616,"transit":false,"station_name":"Lenteng Agung","line":2,"time":3,"distance":2671,"station_id":"LNA","is_transit":false},{"station_id":"UP","time":2,"station_name":"Univ. Pancasila","transit":false,"distance":1029,"is_transit":false,"i_long":106.834175,"i_lat":-6.339291,"line":2},{"i_lat":-6.360749,"transit":false,"station_id":"UI","line":2,"time":3,"is_transit":false,"i_long":106.831474,"distance":2264,"station_name":"Univ. Indonesia"},{"time":2,"transit":false,"station_name":"Pondok Cina","distance":1109,"i_lat":-6.369073,"line":2,"station_id":"POC","i_long":106.831114,"is_transit":false},{"distance":2727,"line":2,"transit":false,"is_transit":false,"i_lat":-6.391065,"i_long":106.819451,"time":4,"station_id":"DPB","station_name":"Depokbaru"},{"station_name":"Depok","i_long":106.816926,"i_lat":-6.405256,"station_id":"DP","line":2,"time":3,"is_transit":false,"transit":false,"distance":1584}],[{"time":0,"is_transit":false,"station_id":"CTR","i_long":106.332092,"distance":0,"transit":false,"station_name":"Citeras","line":3,"i_lat":-6.334892},{"station_name":"Maja","station_id":"MJ","i_lat":-6.332307,"is_transit":false,"i_long":106.394373,"line":6,"transit":false,"time":10,"distance":7293},{"line":3,"distance":1853,"station_name":"Cikoya","station_id":"CKY","transit":false,"time":4,"is_transit":false,"i_lat":-6.33561,"i_long":106.411216},{"time":3,"is_transit":false,"transit":false,"i_lat":-6.328533,"line":6,"station_name":"Tigaraksa","station_id":"TGS","i_long":106.425991,"distance":2651},{"transit":false,"is_transit":false,"i_long":106.460812,"distance":2974,"station_name":"Tenjo","time":5,"station_id":"TEJ","line":6,"i_lat":-6.327251},{"distance":3902,"time":5,"transit":false,"i_lat":-6.338021,"is_transit":false,"line":0,"station_id":"DAR","station_name":"Daru","i_long":106.491338},{"i_long":106.508482,"transit":false,"station_name":"Cilejit","is_transit":false,"station_id":"CJT","line":3,"i_lat":-6.354349,"time":6,"distance":2675},{"transit":false,"station_id":"PRP","line":6,"station_name":"Parung Panjang","i_long":106.568863,"is_transit":false,"distance":7025,"time":9,"i_lat":-6.3441410000000005},{"time":8,"station_name":"Cicayur","transit":false,"is_transit":false,"i_long":106.617853,"i_lat":-6.329547,"station_id":"CC","line":3,"distance":5968},{"station_name":"Cisauk","distance":2519,"transit":false,"time":4,"is_transit":false,"line":3,"i_long":106.640411,"station_id":"CSK","i_lat":-6.32484},{"station_id":"SRP","line":6,"transit":false,"time":4,"i_lat":-6.319871,"station_name":"Serpong","i_long":106.66566,"is_transit":false,"distance":1784},{"station_name":"Rawa Buntu","station_id":"RU","i_long":106.675475,"time":4,"i_lat":-6.314823,"distance":2413,"transit":false,"line":6,"is_transit":false},{"i_lat":-6.296963,"station_name":"Sudimara","transit":false,"distance":4566,"i_long":106.712277,"is_transit":false,"time":6,"station_id":"SDM","line":6},{"i_lat":-6.288927,"time":4,"station_name":"Jurangmangu","is_transit":false,"transit":false,"station_id":"JMU","i_long":106.728916,"distance":1994,"line":6},{"line":6,"time":3,"is_transit":false,"distance":2179,"transit":false,"station_id":"PDJ","station_name":"Pondokranji","i_long":106.74273,"i_lat":-6.276362},{"transit":false,"is_transit":false,"time":8,"i_long":106.780334,"distance":6218,"station_id":"KBY","i_lat":-6.237242,"line":6,"station_name":"Kebayoran"},{"line":6,"is_transit":false,"i_lat":-6.207404,"station_name":"Palmerah","i_long":106.79689,"transit":false,"station_id":"PLM","time":7,"distance":3737},{"station_name":"Tanah Abang","is_transit":true,"time":6,"distance":3191,"i_long":106.811091,"i_lat":-6.185545,"line":1,"transit":true,"station_id":"THB"},{"distance":3632,"time":8,"station_id":"DU","i_lat":-6.155215,"is_transit":false,"transit":false,"station_name":"Duri","i_long":106.800832,"line":1},{"i_long":106.79867,"time":4,"line":1,"station_id":"AK","distance":1230,"transit":false,"is_transit":false,"i_lat":-6.144674,"station_name":"Angke"},{"station_id":"KPB","station_name":"Kampung Bandan","is_transit":true,"i_long":106.826365,"time":9,"i_lat":-6.132549,"distance":4102,"transit":true,"line":4},{"station_id":"JAKK","line":2,"station_name":"Jakarta Kota","time":3,"distance":1364,"transit":true,"is_transit":true,"i_lat":-6.137569,"i_long":106.812439},{"transit":false,"line":2,"i_long":106.820901,"distance":1264,"time":4,"is_transit":false,"station_id":"JAY","i_lat":-6.141205,"station_name":"Jayakarta"},{"is_transit":false,"transit":false,"time":2,"line":2,"i_long":106.82482,"distance":1080,"i_lat":-6.149769,"station_name":"Manggabesar","station_id":"MGB"},{"time":2,"transit":false,"is_transit":false,"station_name":"Sawah Besar","distance":906,"i_lat":-6.160725,"i_long":106.827103,"station_id":"SW","line":2},{"time":2,"line":2,"is_transit":false,"distance":1149,"station_id":"JUA","transit":false,"i_lat":-6.166716,"station_name":"Juanda","i_long":106.828284},{"time":4,"station_id":"GDD","is_transit":false,"distance":2015,"line":2,"station_name":"Gondangdia","i_lat":-6.186295,"i_long":106.832183,"transit":false},{"distance":1750,"is_transit":false,"time":3,"i_lat":-6.198556,"transit":false,"station_id":"CKI","station_name":"Cikini","i_long":106.840169,"line":2},{"is_transit":false,"distance":1590,"time":4,"i_lat":-6.209883,"station_name":"Manggarai","i_long":106.84912,"transit":false,"line":2,"station_id":"MRI"},{"station_id":"TEB","distance":2610,"is_transit":false,"time":4,"line":2,"i_lat":-6.226659,"station_name":"Tebet","i_long":106.857948,"transit":false},{"time":2,"distance":1230,"i_long":106.856607,"station_name":"Cawang","station_id":"CW","i_lat":-6.242512,"is_transit":false,"line":2,"transit":false},{"i_lat":-6.255332,"line":2,"distance":1546,"transit":false,"station_name":"Duren Kalibata","i_long":106.85449,"time":3,"is_transit":false,"station_id":"DRN"},{"time":2,"i_long":106.851577,"is_transit":false,"distance":824,"transit":false,"station_id":"PSMB","i_lat":-6.263214,"line":2,"station_name":"Pasar Minggu Baru"},{"time":2,"is_transit":false,"transit":false,"station_id":"PSM","line":2,"distance":2380,"i_long":106.843999,"station_name":"Pasar Minggu","i_lat":-6.2842400000000005},{"distance":2820,"i_lat":-6.3080680000000005,"station_name":"Tanjung Barat","transit":false,"time":4,"is_transit":false,"i_long":106.838896,"line":2,"station_id":"TNT"},{"time":3,"station_name":"Lenteng Agung","distance":2671,"is_transit":false,"line":2,"transit":false,"station_id":"LNA","i_lat":-6.330363,"i_long":106.832616},{"distance":1029,"station_name":"Univ. Pancasila","i_long":106.834175,"time":2,"i_lat":-6.339291,"is_transit":false,"line":2,"station_id":"UP","transit":false},{"station_id":"UI","is_transit":false,"line":2,"i_lat":-6.360749,"distance":2264,"transit":false,"station_name":"Univ. Indonesia","time":3,"i_long":106.831474},{"time":2,"transit":false,"i_long":106.831114,"station_id":"POC","i_lat":-6.369073,"station_name":"Pondok Cina","distance":1109,"line":2,"is_transit":false},{"station_name":"Depokbaru","distance":2727,"i_lat":-6.391065,"transit":false,"time":4,"is_transit":false,"i_long":106.819451,"line":2,"station_id":"DPB"},{"station_name":"Depok","distance":1584,"i_lat":-6.405256,"transit":false,"station_id":"DP","time":3,"i_long":106.816926,"is_transit":false,"line":2}],[{"distance":0,"time":0,"station_name":"Citeras","is_transit":false,"station_id":"CTR","line":3,"transit":false,"i_lat":-6.334892,"i_long":106.332092},{"time":10,"line":6,"station_name":"Maja","is_transit":false,"station_id":"MJ","i_long":106.394373,"i_lat":-6.332307,"transit":false,"distance":7293},{"station_name":"Cikoya","is_transit":false,"distance":1853,"line":3,"i_long":106.411216,"transit":false,"i_lat":-6.33561,"station_id":"CKY","time":4},{"time":3,"distance":2651,"transit":false,"i_lat":-6.328533,"i_long":106.425991,"is_transit":false,"station_name":"Tigaraksa","station_id":"TGS","line":6},{"distance":2974,"time":5,"is_transit":false,"i_lat":-6.327251,"station_name":"Tenjo","station_id":"TEJ","i_long":106.460812,"transit":false,"line":6},{"station_id":"DAR","time":5,"line":0,"station_name":"Daru","distance":3902,"transit":false,"is_transit":false,"i_long":106.491338,"i_lat":-6.338021},{"distance":2675,"i_lat":-6.354349,"transit":false,"station_name":"Cilejit","station_id":"CJT","time":6,"is_transit":false,"i_long":106.508482,"line":3},{"is_transit":false,"transit":false,"time":9,"i_long":106.568863,"line":6,"station_name":"Parung Panjang","distance":7025,"i_lat":-6.3441410000000005,"station_id":"PRP"},{"transit":false,"distance":5968,"station_id":"CC","i_lat":-6.329547,"line":3,"is_transit":false,"station_name":"Cicayur","i_long":106.617853,"time":8},{"station_id":"CSK","is_transit":false,"i_long":106.640411,"time":4,"distance":2519,"transit":false,"station_name":"Cisauk","i_lat":-6.32484,"line":3},{"i_lat":-6.319871,"i_long":106.66566,"transit":false,"is_transit":false,"distance":1784,"station_name":"Serpong","time":4,"station_id":"SRP","line":6},{"time":4,"distance":2413,"transit":false,"station_name":"Rawa Buntu","is_transit":false,"station_id":"RU","i_lat":-6.314823,"i_long":106.675475,"line":6},{"time":6,"station_id":"SDM","transit":false,"station_name":"Sudimara","i_long":106.712277,"i_lat":-6.296963,"line":6,"distance":4566,"is_transit":false},{"station_id":"JMU","i_lat":-6.288927,"line":6,"distance":1994,"transit":false,"is_transit":false,"i_long":106.728916,"station_name":"Jurangmangu","time":4},{"i_lat":-6.276362,"station_name":"Pondokranji","line":6,"time":3,"i_long":106.74273,"is_transit":false,"distance":2179,"station_id":"PDJ","transit":false},{"station_name":"Kebayoran","station_id":"KBY","time":8,"line":6,"is_transit":false,"i_lat":-6.237242,"distance":6218,"transit":false,"i_long":106.780334},{"distance":3737,"transit":false,"i_lat":-6.207404,"station_id":"PLM","time":7,"i_long":106.79689,"is_transit":false,"line":6,"station_name":"Palmerah"},{"transit":true,"i_lat":-6.185545,"time":6,"station_id":"THB","line":1,"station_name":"Tanah Abang","distance":3191,"is_transit":true,"i_long":106.811091},{"time":8,"line":1,"transit":false,"i_lat":-6.155215,"station_name":"Duri","is_transit":false,"i_long":106.800832,"distance":3632,"station_id":"DU"},{"line":1,"transit":false,"is_transit":false,"station_id":"AK","time":4,"station_name":"Angke","distance":1230,"i_lat":-6.144674,"i_long":106.79867},{"time":9,"i_long":106.826365,"is_transit":true,"i_lat":-6.132549,"station_id":"KPB","station_name":"Kampung Bandan","distance":4102,"line":4,"transit":true},{"transit":false,"line":11,"distance":1444,"time":3,"is_transit":false,"station_id":"RJW","station_name":"Rajawali","i_long":106.836569,"i_lat":-6.14505},{"line":11,"i_long":106.839204,"station_name":"Kemayoran","is_transit":false,"transit":false,"distance":1901,"station_id":"KMO","i_lat":-6.161728,"time":5},{"is_transit":false,"line":11,"distance":1436,"i_long":106.84368,"station_name":"Pasar Senen","time":4,"station_id":"PSE","i_lat":-6.174784,"transit":false},{"transit":false,"i_lat":-6.185975,"i_long":106.850107,"line":11,"station_id":"GST","time":8,"is_transit":false,"station_name":"Gang Sentiong","distance":1567},{"i_long":106.855437,"line":11,"distance":973,"transit":false,"is_transit":false,"station_id":"KMT","station_name":"Kramat","i_lat":-6.193792,"time":1},{"station_id":"POK","distance":1829,"transit":false,"line":11,"station_name":"Pondok Jati","is_transit":false,"i_lat":-6.209188,"i_long":106.861737,"time":2},{"transit":true,"i_long":106.86807400000001,"i_lat":-6.215091,"station_name":"Jatinegara","distance":1236,"time":9,"station_id":"JNG","is_transit":true,"line":1},{"i_long":106.858896,"station_id":"MTR","transit":false,"station_name":"Matraman","is_transit":false,"i_lat":-6.212485,"distance":1377,"line":1,"time":2},{"transit":true,"line":2,"station_id":"MRI","i_lat":-6.209883,"station_name":"Manggarai","i_long":106.84912,"is_transit":true,"time":2,"distance":1275},{"i_lat":-6.226659,"distance":2610,"is_transit":false,"station_id":"TEB","time":4,"line":2,"i_long":106.857948,"station_name":"Tebet","transit":false},{"i_lat":-6.242512,"distance":1230,"time":2,"line":2,"is_transit":false,"station_name":"Cawang","transit":false,"station_id":"CW","i_long":106.856607},{"i_lat":-6.255332,"time":3,"i_long":106.85449,"transit":false,"is_transit":false,"station_id":"DRN","distance":1546,"station_name":"Duren Kalibata","line":2},{"station_name":"Pasar Minggu Baru","station_id":"PSMB","distance":824,"i_lat":-6.263214,"time":2,"line":2,"transit":false,"is_transit":false,"i_long":106.851577},{"line":2,"station_id":"PSM","i_lat":-6.2842400000000005,"i_long":106.843999,"transit":false,"is_transit":false,"distance":2380,"time":2,"station_name":"Pasar Minggu"},{"station_name":"Tanjung Barat","time":4,"i_lat":-6.3080680000000005,"transit":false,"distance":2820,"is_transit":false,"station_id":"TNT","i_long":106.838896,"line":2},{"time":3,"station_name":"Lenteng Agung","i_long":106.832616,"line":2,"station_id":"LNA","transit":false,"i_lat":-6.330363,"distance":2671,"is_transit":false},{"distance":1029,"station_id":"UP","line":2,"transit":false,"time":2,"i_lat":-6.339291,"station_name":"Univ. Pancasila","is_transit":false,"i_long":106.834175},{"time":3,"station_id":"UI","i_lat":-6.360749,"station_name":"Univ. Indonesia","transit":false,"i_long":106.831474,"is_transit":false,"distance":2264,"line":2},{"i_long":106.831114,"line":2,"time":2,"i_lat":-6.369073,"distance":1109,"transit":false,"station_id":"POC","station_name":"Pondok Cina","is_transit":false},{"i_long":106.819451,"transit":false,"is_transit":false,"time":4,"distance":2727,"station_name":"Depokbaru","i_lat":-6.391065,"line":2,"station_id":"DPB"},{"is_transit":false,"transit":false,"i_long":106.816926,"line":2,"station_id":"DP","distance":1584,"i_lat":-6.405256,"time":3,"station_name":"Depok"}]]}