{"data":[[{"transit":false,"station_id":"CTR","is_transit":false,"time":0,"distance":0,"i_long":106.332092,"line":0,"station_name":"Citeras","i_lat":-6.334892},{"is_transit":false,"transit":false,"station_id":"MJ","line":6,"station_name":"Maja","i_lat":-6.332307,"distance":7293,"i_long":106.394373,"time":10},{"i_lat":-6.33561,"is_transit":false,"time":4,"line":0,"distance":1853,"station_id":"CKY","station_name":"Cikoya","transit":false,"i_long":106.411216},{"time":3,"distance":2651,"station_name":"Tigaraksa","is_transit":false,"i_lat":-6.328533,"i_long":106.425991,"line":6,"station_id":"TGS","transit":false},{"station_name":"Tenjo","time":5,"line":6,"distance":2974,"station_id":"TEJ","is_transit":false,"i_lat":-6.327251,"i_long":106.460812,"transit":false},{"transit":false,"is_transit":false,"time":5,"station_name":"Daru","distance":3902,"station_id":"DAR","i_lat":-6.338021,"i_long":106.491338,"line":0},{"transit":false,"distance":2675,"is_transit":false,"i_lat":-6.354349,"i_long":106.508482,"station_id":"CJT","station_name":"Cilejit","line":0,"time":6},{"distance":7025,"transit":false,"is_transit":false,"line":6,"i_lat":-6.3441410000000005,"time":9,"station_name":"Parung Panjang","i_long":106.568863,"station_id":"PRP"},{"is_transit":false,"time":8,"line":0,"station_name":"Cicayur","i_long":106.617853,"transit":false,"i_lat":-6.329547,"distance":5968,"station_id":"CC"},{"time":4,"i_lat":-6.32484,"line":0,"station_name":"Cisauk","transit":false,"station_id":"CSK","distance":2519,"is_transit":false,"i_long":106.640411},{"station_id":"SRP","station_name":"Serpong","is_transit":false,"i_lat":-6.319871,"i_long":106.66566,"transit":false,"line":6,"time":4,"distance":1784},{"line":6,"is_transit":false,"distance":2413,"station_id":"RU","station_name":"Rawa Buntu","i_long":106.675475,"i_lat":-6.314823,"time":4,"transit":false},{"distance":4566,"transit":false,"time":6,"is_transit":false,"line":6,"station_id":"SDM","i_long":106.712277,"station_name":"Sudimara","i_lat":-6.296963},{"station_id":"JMU","i_lat":-6.288927,"distance":1994,"station_name":"Jurangmangu","transit":false,"time":4,"line":6,"i_long":106.728916,"is_transit":false},{"transit":false,"station_name":"Pondokranji","time":3,"station_id":"PDJ","i_lat":-6.276362,"i_long":106.74273,"distance":2179,"is_transit":false,"line":6},{"i_lat":-6.237242,"line":6,"transit":false,"i_long":106.780334,"station_id":"KBY","station_name":"Kebayoran","is_transit":false,"time":8,"distance":6218},{"distance":3737,"line":6,"transit":false,"time":7,"i_lat":-6.207404,"station_name":"Palmerah","i_long":106.79689,"station_id":"PLM","is_transit":false},{"distance":3191,"i_lat":-6.185545,"station_id":"THB","i_long":106.811091,"transit":true,"is_transit":true,"time":6,"station_name":"Tanah Abang","line":1},{"station_name":"Karet","distance":2029,"transit":false,"line":1,"is_transit":false,"i_long":106.816351,"time":5,"i_lat":-6.20132,"station_id":"KAT"},{"i_lat":-6.201433,"time":1,"transit":false,"distance":471,"station_name":"Sudirman Baru","is_transit":false,"i_long":106.819881,"line":1,"station_id":"SUDB"},{"i_lat":-6.202263,"is_transit":false,"transit":false,"i_long":106.822649,"line":1,"time":1,"distance":280,"station_name":"Sudirman","station_id":"SUD"},{"transit":true,"i_lat":-6.209883,"station_name":"Manggarai","i_long":106.84912,"line":0,"distance":3186,"time":4,"is_transit":true,"station_id":"MRI"},{"station_id":"TEB","i_lat":-6.226659,"i_long":106.857948,"transit":false,"is_transit":false,"station_name":"Tebet","line":2,"time":4,"distance":2610},{"time":2,"line":0,"i_lat":-6.242512,"transit":false,"station_id":"CW","station_name":"Cawang","is_transit":false,"i_long":106.856607,"distance":1230},{"distance":1546,"time":3,"station_id":"DRN","transit":false,"i_lat":-6.255332,"i_long":106.85449,"line":0,"is_transit":false,"station_name":"Duren Kalibata"},{"i_long":106.851577,"distance":824,"station_name":"Pasar Minggu Baru","transit":false,"line":2,"time":2,"i_lat":-6.263214,"is_transit":false,"station_id":"PSMB"},{"time":2,"station_name":"Pasar Minggu","is_transit":false,"line":2,"transit":false,"station_id":"PSM","i_lat":-6.2842400000000005,"distance":2380,"i_long":106.843999},{"is_transit":false,"i_lat":-6.3080680000000005,"station_id":"TNT","time":4,"distance":2820,"i_long":106.838896,"line":2,"station_name":"Tanjung Barat","transit":false},{"station_id":"LNA","station_name":"Lenteng Agung","distance":2671,"transit":false,"time":3,"is_transit":false,"i_lat":-6.330363,"i_long":106.832616,"line":2},{"distance":1029,"station_name":"Univ. Pancasila","is_transit":false,"line":2,"i_lat":-6.339291,"i_long":106.834175,"transit":false,"station_id":"UP","time":2},{"time":3,"i_lat":-6.360749,"transit":false,"i_long":106.831474,"distance":2264,"is_transit":false,"station_id":"UI","station_name":"Univ. Indonesia","line":2},{"station_name":"Pondok Cina","i_lat":-6.369073,"distance":1109,"is_transit":false,"line":2,"transit":false,"i_long":106.831114,"time":2,"station_id":"POC"},{"station_name":"Depokbaru","line":0,"i_long":106.819451,"i_lat":-6.391065,"transit":false,"is_transit":false,"distance":2727,"time":4,"station_id":"DPB"},{"transit":false,"is_transit":false,"i_lat":-6.405256,"i_long":106.816926,"distance":1584,"station_id":"DP","line":0,"station_name":"Depok","time":3}],[{"station_id":"CTR","time":0,"transit":false,"distance":0,"i_long":106.332092,"line":0,"station_name":"Citeras","is_transit":false,"i_lat":-6.334892},{"time":10,"line":6,"transit":false,"i_long":106.394373,"i_lat":-6.332307,"distance":7293,"station_name":"Maja","is_transit":false,"station_id":"MJ"},{"distance":1853,"is_transit":false,"i_lat":-6.33561,"transit":false,"station_name":"Cikoya","line":0,"station_id":"CKY","i_long":106.411216,"time":4},{"i_long":106.425991,"station_name":"Tigaraksa","time":3,"i_lat":-6.328533,"distance":2651,"line":6,"station_id":"TGS","transit":false,"is_transit":false},{"i_lat":-6.327251,"line":6,"station_name":"Tenjo","is_transit":false,"station_id":"TEJ","time":5,"transit":false,"i_long":106.460812,"distance":2974},{"time":5,"is_transit":false,"distance":3902,"i_lat":-6.338021,"i_long":106.491338,"line":0,"station_id":"DAR","station_name":"Daru","transit":false},{"i_lat":-6.354349,"time":6,"i_long":106.508482,"station_name":"Cilejit","transit":false,"station_id":"CJT","line":0,"distance":2675,"is_transit":false},{"line":6,"i_lat":-6.3441410000000005,"station_name":"Parung Panjang","transit":false,"station_id":"PRP","distance":7025,"is_transit":false,"time":9,"i_long":106.568863},{"line":0,"is_transit":false,"time":8,"distance":5968,"station_name":"Cicayur","i_lat":-6.329547,"station_id":"CC","i_long":106.617853,"transit":false},{"distance":2519,"station_id":"CSK","time":4,"i_lat":-6.32484,"i_long":106.640411,"transit":false,"station_name":"Cisauk","line":0,"is_transit":false},{"time":4,"transit":false,"is_transit":false,"station_id":"SRP","distance":1784,"station_name":"Serpong","i_long":106.66566,"line":6,"i_lat":-6.319871},{"is_transit":false,"distance":2413,"station_name":"Rawa Buntu","line":6,"transit":false,"i_lat":-6.314823,"station_id":"RU","i_long":106.675475,"time":4},{"i_long":106.712277,"distance":4566,"transit":false,"time":6,"station_id":"SDM","is_transit":false,"i_lat":-6.296963,"line":6,"station_name":"Sudimara"},{"distance":1994,"i_lat":-6.288927,"transit":false,"is_transit":false,"i_long":106.728916,"time":4,"station_name":"Jurangmangu","station_id":"JMU","line":6},{"distance":2179,"i_long":106.74273,"is_transit":false,"i_lat":-6.276362,"station_id":"PDJ","line":6,"station_name":"Pondokranji","time":3,"transit":false},{"distance":6218,"station_name":"Kebayoran","station_id":"KBY","transit":false,"line":6,"time":8,"i_long":106.780334,"i_lat":-6.237242,"is_transit":false},{"distance":3737,"station_name":"Palmerah","line":6,"i_long":106.79689,"i_lat":-6.207404,"station_id":"PLM","is_transit":false,"transit":false,"time":7},{"station_id":"THB","transit":true,"distance":3191,"station_name":"Tanah Abang","i_long":106.811091,"time":6,"is_transit":true,"line":1,"i_lat":-6.185545},{"i_long":106.800832,"station_id":"DU","i_lat":-6.155215,"transit":true,"station_name":"Duri","is_transit":true,"distance":3632,"line":1,"time":8},{"distance":1230,"transit":false,"station_id":"AK","station_name":"Angke","i_lat":-6.144674,"i_long":106.79867,"time":4,"is_transit":false,"line":0},{"i_lat":-6.132549,"distance":4102,"i_long":106.826365,"transit":false,"station_name":"Kampung Bandan","line":0,"time":9,"is_transit":true,"station_id":"KPB"},{"transit":true,"distance":1364,"station_name":"Jakarta Kota","time":3,"i_lat":-6.137569,"station_id":"JAKK","is_transit":true,"i_long":106.812439,"line":0},{"distance":1264,"transit":false,"i_long":106.820901,"station_id":"JAY","i_lat":-6.141205,"is_transit":false,"time":4,"line":7,"station_name":"Jayakarta"},{"transit":false,"station_id":"MGB","station_name":"Manggabesar","line":2,"distance":1080,"is_transit":false,"time":2,"i_lat":-6.149769,"i_long":106.82482},{"i_long":106.827103,"transit":false,"station_id":"SW","station_name":"Sawah Besar","distance":906,"i_lat":-6.160725,"time":2,"is_transit":false,"line":2},{"i_long":106.828284,"time":2,"is_transit":false,"line":2,"station_name":"Juanda","distance":1149,"transit":false,"i_lat":-6.166716,"station_id":"JUA"},{"i_long":106.832183,"is_transit":false,"station_name":"Gondangdia","station_id":"GDD","line":2,"distance":2015,"transit":false,"i_lat":-6.186295,"time":4},{"station_name":"Cikini","transit":false,"line":0,"station_id":"CKI","i_lat":-6.198556,"distance":1750,"i_long":106.840169,"time":3,"is_transit":false},{"station_id":"MRI","i_long":106.84912,"line":0,"distance":1590,"transit":true,"is_transit":true,"time":4,"station_name":"Manggarai","i_lat":-6.209883},{"time":4,"station_id":"TEB","line":2,"distance":2610,"transit":false,"i_lat":-6.226659,"i_long":106.857948,"station_name":"Tebet","is_transit":false},{"station_name":"Cawang","station_id":"CW","time":2,"transit":false,"is_transit":false,"i_lat":-6.242512,"i_long":106.856607,"line":0,"distance":1230},{"transit":false,"i_lat":-6.255332,"is_transit":false,"station_id":"DRN","line":0,"i_long":106.85449,"time":3,"distance":1546,"station_name":"Duren Kalibata"},{"i_long":106.851577,"station_id":"PSMB","time":2,"station_name":"Pasar Minggu Baru","line":2,"distance":824,"transit":false,"is_transit":false,"i_lat":-6.263214},{"time":2,"transit":false,"i_long":106.843999,"line":2,"station_id":"PSM","is_transit":false,"i_lat":-6.2842400000000005,"station_name":"Pasar Minggu","distance":2380},{"station_name":"Tanjung Barat","transit":false,"station_id":"TNT","i_lat":-6.3080680000000005,"i_long":106.838896,"distance":2820,"is_transit":false,"line":2,"time":4},{"time":3,"is_transit":false,"i_long":106.832616,"i_lat":-6.330363,"distance":2671,"station_name":"Lenteng Agung","line":2,"station_id":"LNA","transit":false},{"station_name":"Univ. Pancasila","is_transit":false,"i_long":106.834175,"line":2,"transit":false,"i_lat":-6.339291,"distance":1029,"time":2,"station_id":"UP"},{"station_id":"UI","i_lat":-6.360749,"time":3,"line":2,"distance":2264,"transit":false,"station_name":"Univ. Indonesia","i_long":106.831474,"is_transit":false},{"is_transit":false,"i_long":106.831114,"station_name":"Pondok Cina","time":2,"station_id":"POC","distance":1109,"i_lat":-6.369073,"transit":false,"line":2},{"is_transit":false,"time":4,"transit":false,"i_lat":-6.391065,"i_long":106.819451,"station_id":"DPB","line":0,"station_name":"Depokbaru","distance":2727},{"distance":1584,"transit":false,"is_transit":false,"i_lat":-6.405256,"i_long":106.816926,"station_name":"Depok","time":3,"line":0,"station_id":"DP"}],[{"i_lat":-6.334892,"i_long":106.332092,"transit":false,"station_name":"Citeras","is_transit":false,"time":0,"line":0,"station_id":"CTR","distance":0},{"i_long":106.394373,"transit":false,"station_name":"Maja","line":6,"time":10,"i_lat":-6.332307,"distance":7293,"station_id":"MJ","is_transit":false},{"i_lat":-6.33561,"transit":false,"station_name":"Cikoya","i_long":106.411216,"is_transit":false,"time":4,"line":0,"distance":1853,"station_id":"CKY"},{"station_name":"Tigaraksa","time":3,"transit":false,"distance":2651,"station_id":"TGS","i_lat":-6.328533,"line":6,"i_long":106.425991,"is_transit":false},{"line":6,"station_name":"Tenjo","station_id":"TEJ","transit":false,"time":5,"is_transit":false,"i_lat":-6.327251,"distance":2974,"i_long":106.460812},{"distance":3902,"time":5,"i_lat":-6.338021,"station_id":"DAR","station_name":"Daru","is_transit":false,"transit":false,"i_long":106.491338,"line":0},{"i_long":106.508482,"line":0,"time":6,"is_transit":false,"distance":2675,"transit":false,"station_id":"CJT","i_lat":-6.354349,"station_name":"Cilejit"},{"time":9,"station_name":"Parung Panjang","i_lat":-6.3441410000000005,"i_long":106.568863,"line":6,"transit":false,"station_id":"PRP","distance":7025,"is_transit":false},{"station_name":"Cicayur","time":8,"is_transit":false,"station_id":"CC","i_lat":-6.329547,"transit":false,"i_long":106.617853,"distance":5968,"line":0},{"line":0,"i_long":106.640411,"time":4,"i_lat":-6.32484,"station_name":"Cisauk","distance":2519,"station_id":"CSK","transit":false,"is_transit":false},{"is_transit":false,"line":6,"station_id":"SRP","i_long":106.66566,"i_lat":-6.319871,"station_name":"Serpong","time":4,"distance":1784,"transit":false},{"station_id":"RU","i_lat":-6.314823,"distance":2413,"is_transit":false,"time":4,"transit":false,"line":6,"station_name":"Rawa Buntu","i_long":106.675475},{"i_long":106.712277,"station_id":"SDM","i_lat":-6.296963,"distance":4566,"transit":false,"time":6,"line":6,"is_transit":false,"station_name":"Sudimara"},{"distance":1994,"time":4,"station_name":"Jurangmangu","line":6,"transit":false,"i_lat":-6.288927,"is_transit":false,"station_id":"JMU","i_long":106.728916},{"i_long":106.74273,"line":6,"transit":false,"station_name":"Pondokranji","i_lat":-6.276362,"station_id":"PDJ","distance":2179,"time":3,"is_transit":false},{"is_transit":false,"distance":6218,"i_lat":-6.237242,"station_name":"Kebayoran","i_long":106.780334,"station_id":"KBY","transit":false,"line":6,"time":8},{"station_name":"Palmerah","line":6,"distance":3737,"i_long":106.79689,"is_transit":false,"i_lat":-6.207404,"transit":false,"time":7,"station_id":"PLM"},{"is_transit":true,"transit":true,"i_lat":-6.185545,"time":6,"distance":3191,"i_long":106.811091,"station_id":"THB","station_name":"Tanah Abang","line":1},{"distance":3632,"transit":true,"i_lat":-6.155215,"station_id":"DU","i_long":106.800832,"time":8,"is_transit":true,"line":1,"station_name":"Duri"},{"station_id":"AK","station_name":"Angke","is_transit":false,"transit":false,"distance":1230,"i_lat":-6.144674,"time":4,"i_long":106.79867,"line":0},{"i_long":106.826365,"distance":4102,"line":0,"station_name":"Kampung Bandan","transit":true,"is_transit":true,"time":9,"station_id":"KPB","i_lat":-6.132549},{"i_lat":-6.14505,"transit":false,"time":3,"is_transit":false,"line":11,"distance":1444,"station_id":"RJW","station_name":"Rajawali","i_long":106.836569},{"i_long":106.839204,"station_name":"Kemayoran","is_transit":false,"time":5,"station_id":"KMO","distance":1901,"transit":false,"i_lat":-6.161728,"line":11},{"distance":1436,"station_id":"PSE","i_long":106.84368,"station_name":"Pasar Senen","time":4,"transit":false,"is_transit":false,"line":11,"i_lat":-6.174784},{"transit":false,"time":8,"distance":1567,"station_id":"GST","i_lat":-6.185975,"i_long":106.850107,"line":11,"station_name":"Gang Sentiong","is_transit":false},{"line":11,"station_id":"KMT","i_long":106.855437,"is_transit":false,"station_name":"Kramat","transit":false,"i_lat":-6.193792,"distance":973,"time":1},{"station_id":"POK","station_name":"Pondok Jati","i_long":106.861737,"is_transit":false,"line":11,"distance":1829,"i_lat":-6.209188,"transit":false,"time":2},{"transit":true,"station_id":"JNG","time":9,"distance":1236,"is_transit":true,"station_name":"Jatinegara","i_long":106.86807400000001,"line":0,"i_lat":-6.215091},{"i_long":106.858896,"distance":1377,"is_transit":false,"i_lat":-6.212485,"line":1,"station_name":"Matraman","time":2,"transit":false,"station_id":"MTR"},{"station_name":"Manggarai","is_transit":true,"line":0,"time":2,"i_lat":-6.209883,"station_id":"MRI","i_long":106.84912,"transit":true,"distance":1275},{"is_transit":false,"distance":2610,"station_id":"TEB","transit":false,"station_name":"Tebet","i_long":106.857948,"i_lat":-6.226659,"time":4,"line":2},{"is_transit":false,"transit":false,"line":0,"distance":1230,"i_lat":-6.242512,"station_id":"CW","time":2,"station_name":"Cawang","i_long":106.856607},{"i_long":106.85449,"transit":false,"line":0,"station_name":"Duren Kalibata","station_id":"DRN","i_lat":-6.255332,"is_transit":false,"distance":1546,"time":3},{"transit":false,"station_id":"PSMB","line":2,"i_lat":-6.263214,"time":2,"distance":824,"station_name":"Pasar Minggu Baru","is_transit":false,"i_long":106.851577},{"transit":false,"i_long":106.843999,"station_id":"PSM","distance":2380,"is_transit":false,"i_lat":-6.2842400000000005,"line":2,"station_name":"Pasar Minggu","time":2},{"station_name":"Tanjung Barat","line":2,"i_long":106.838896,"time":4,"is_transit":false,"transit":false,"i_lat":-6.3080680000000005,"distance":2820,"station_id":"TNT"},{"is_transit":false,"station_id":"LNA","time":3,"distance":2671,"station_name":"Lenteng Agung","i_lat":-6.330363,"i_long":106.832616,"line":2,"transit":false},{"time":2,"is_transit":false,"line":2,"station_name":"Univ. Pancasila","station_id":"UP","distance":1029,"transit":false,"i_long":106.834175,"i_lat":-6.339291},{"station_id":"UI","station_name":"Univ. Indonesia","i_lat":-6.360749,"time":3,"i_long":106.831474,"line":2,"transit":false,"distance":2264,"is_transit":false},{"line":2,"time":2,"station_name":"Pondok Cina","transit":false,"i_long":106.831114,"is_transit":false,"station_id":"POC","distance":1109,"i_lat":-6.369073},{"line":0,"station_name":"Depokbaru","is_transit":false,"distance":2727,"station_id":"DPB","i_lat":-6.391065,"time":4,"i_long":106.819451,"transit":false},{"i_long":106.816926,"transit":false,"is_transit":false,"i_lat":-6.405256,"station_id":"DP","line":0,"time":3,"distance":1584,"station_name":"Depok"}]]}