{"data":[[{"station_id":"CTR","station_name":"Citeras","distance":0,"transit":false,"line":3,"is_transit":false,"time":0,"i_lat":-6.334892,"i_long":106.332092},{"distance":7293,"i_lat":-6.332307,"station_id":"MJ","time":10,"is_transit":false,"i_long":106.394373,"transit":false,"station_name":"Maja","line":6},{"line":3,"station_id":"CKY","is_transit":false,"station_name":"Cikoya","distance":1853,"transit":false,"i_long":106.411216,"time":4,"i_lat":-6.33561},{"transit":false,"time":3,"i_long":106.425991,"is_transit":false,"station_name":"Tigaraksa","i_lat":-6.328533,"distance":2651,"station_id":"TGS","line":6},{"i_lat":-6.327251,"is_transit":false,"time":5,"line":6,"transit":false,"station_id":"TEJ","station_name":"Tenjo","i_long":106.460812,"distance":2974},{"time":5,"i_lat":-6.338021,"line":0,"station_name":"Daru","transit":false,"station_id":"DAR","is_transit":false,"distance":3902,"i_long":106.491338},{"i_long":106.508482,"line":3,"transit":false,"station_id":"CJT","i_lat":-6.354349,"station_name":"Cilejit","time":6,"is_transit":false,"distance":2675},{"i_long":106.568863,"transit":false,"is_transit":false,"time":9,"distance":7025,"station_id":"PRP","i_lat":-6.3441410000000005,"line":6,"station_name":"Parung Panjang"},{"distance":5968,"i_long":106.617853,"line":3,"station_name":"Cicayur","i_lat":-6.329547,"is_transit":false,"station_id":"CC","transit":false,"time":8},{"transit":false,"i_long":106.640411,"time":4,"is_transit":false,"station_id":"CSK","station_name":"Cisauk","line":3,"distance":2519,"i_lat":-6.32484},{"station_name":"Serpong","line":6,"time":4,"i_lat":-6.319871,"i_long":106.66566,"transit":false,"station_id":"SRP","is_transit":false,"distance":1784},{"transit":false,"i_lat":-6.314823,"line":6,"i_long":106.675475,"time":4,"station_id":"RU","is_transit":false,"station_name":"Rawa Buntu","distance":2413},{"transit":false,"i_lat":-6.296963,"is_transit":false,"line":6,"station_id":"SDM","i_long":106.712277,"time":6,"distance":4566,"station_name":"Sudimara"},{"station_id":"JMU","i_lat":-6.288927,"distance":1994,"station_name":"Jurangmangu","is_transit":false,"time":4,"i_long":106.728916,"line":6,"transit":false},{"i_long":106.74273,"station_id":"PDJ","distance":2179,"line":6,"i_lat":-6.276362,"time":3,"transit":false,"is_transit":false,"station_name":"Pondokranji"},{"station_name":"Kebayoran","station_id":"KBY","i_lat":-6.237242,"i_long":106.780334,"time":8,"transit":false,"line":6,"is_transit":false,"distance":6218}]]}