{"data":[[{"station_name":"Citeras","i_lat":-6.334892,"distance":0,"i_long":106.332092,"station_id":"CTR","time":0,"is_transit":false,"transit":false,"line":0},{"line":6,"station_name":"Maja","is_transit":false,"station_id":"MJ","i_long":106.394373,"distance":7293,"transit":false,"i_lat":-6.332307,"time":10},{"time":4,"is_transit":false,"transit":false,"distance":1853,"i_lat":-6.33561,"i_long":106.411216,"station_name":"Cikoya","line":0,"station_id":"CKY"},{"is_transit":false,"i_lat":-6.328533,"transit":false,"time":3,"station_name":"Tigaraksa","i_long":106.425991,"station_id":"TGS","distance":2651,"line":6},{"is_transit":false,"transit":false,"i_long":106.460812,"line":6,"i_lat":-6.327251,"distance":2974,"station_name":"Tenjo","time":5,"station_id":"TEJ"},{"distance":3902,"time":5,"station_name":"Daru","transit":false,"station_id":"DAR","i_lat":-6.338021,"i_long":106.491338,"is_transit":false,"line":0},{"line":0,"time":6,"distance":2675,"is_transit":false,"i_long":106.508482,"i_lat":-6.354349,"station_name":"Cilejit","station_id":"CJT","transit":false},{"line":6,"is_transit":false,"station_id":"PRP","time":9,"station_name":"Parung Panjang","i_long":106.568863,"transit":false,"distance":7025,"i_lat":-6.3441410000000005},{"is_transit":false,"station_name":"Cicayur","transit":false,"line":0,"i_long":106.617853,"station_id":"CC","distance":5968,"time":8,"i_lat":-6.329547}]]}