{"data":[[{"distance":0,"transit":false,"line":3,"station_name":"Citeras","is_transit":false,"station_id":"CTR","i_lat":-6.334892,"i_long":106.332092,"time":0},{"is_transit":false,"distance":7293,"station_id":"MJ","transit":false,"i_lat":-6.332307,"i_long":106.394373,"time":10,"line":6,"station_name":"Maja"},{"is_transit":false,"distance":1853,"transit":false,"i_lat":-6.33561,"line":3,"station_name":"Cikoya","station_id":"CKY","time":4,"i_long":106.411216},{"transit":false,"station_name":"Tigaraksa","is_transit":false,"time":3,"i_lat":-6.328533,"station_id":"TGS","line":6,"i_long":106.425991,"distance":2651},{"is_transit":false,"distance":2974,"i_lat":-6.327251,"station_id":"TEJ","i_long":106.460812,"time":5,"line":6,"transit":false,"station_name":"Tenjo"},{"time":5,"transit":false,"station_id":"DAR","i_lat":-6.338021,"line":0,"is_transit":false,"station_name":"Daru","distance":3902,"i_long":106.491338},{"i_lat":-6.354349,"transit":false,"i_long":106.508482,"station_name":"Cilejit","distance":2675,"is_transit":false,"line":3,"time":6,"station_id":"CJT"},{"station_name":"Parung Panjang","line":6,"transit":false,"distance":7025,"time":9,"station_id":"PRP","is_transit":false,"i_lat":-6.3441410000000005,"i_long":106.568863},{"station_id":"CC","station_name":"Cicayur","time":8,"distance":5968,"is_transit":false,"i_lat":-6.329547,"line":3,"transit":false,"i_long":106.617853},{"is_transit":false,"time":4,"station_name":"Cisauk","i_long":106.640411,"line":3,"distance":2519,"i_lat":-6.32484,"transit":false,"station_id":"CSK"},{"station_name":"Serpong","distance":1784,"i_lat":-6.319871,"transit":false,"time":4,"line":6,"is_transit":false,"i_long":106.66566,"station_id":"SRP"},{"i_long":106.675475,"time":4,"line":6,"station_id":"RU","transit":false,"i_lat":-6.314823,"is_transit":false,"distance":2413,"station_name":"Rawa Buntu"},{"is_transit":false,"line":6,"distance":4566,"transit":false,"station_id":"SDM","station_name":"Sudimara","time":6,"i_lat":-6.296963,"i_long":106.712277},{"transit":false,"station_name":"Jurangmangu","distance":1994,"i_lat":-6.288927,"station_id":"JMU","is_transit":false,"line":6,"i_long":106.728916,"time":4},{"distance":2179,"station_id":"PDJ","i_long":106.74273,"line":6,"transit":false,"station_name":"Pondokranji","is_transit":false,"i_lat":-6.276362,"time":3}]]}