{"data":[[{"is_transit":false,"station_name":"Citeras","station_id":"CTR","transit":false,"i_long":106.332092,"line":3,"i_lat":-6.334892,"distance":0,"time":0},{"distance":7293,"time":10,"i_lat":-6.332307,"i_long":106.394373,"line":6,"station_name":"Maja","station_id":"MJ","transit":false,"is_transit":false},{"i_long":106.411216,"time":4,"line":3,"distance":1853,"station_name":"Cikoya","station_id":"CKY","transit":false,"i_lat":-6.33561,"is_transit":false},{"distance":2651,"line":6,"time":3,"i_long":106.425991,"station_id":"TGS","station_name":"Tigaraksa","is_transit":false,"transit":false,"i_lat":-6.328533},{"transit":false,"distance":2974,"station_id":"TEJ","station_name":"Tenjo","line":6,"i_lat":-6.327251,"time":5,"is_transit":false,"i_long":106.460812},{"line":0,"transit":false,"station_id":"DAR","time":5,"station_name":"Daru","is_transit":false,"i_long":106.491338,"distance":3902,"i_lat":-6.338021},{"transit":false,"line":3,"station_name":"Cilejit","i_long":106.508482,"distance":2675,"time":6,"is_transit":false,"station_id":"CJT","i_lat":-6.354349},{"time":9,"line":6,"station_id":"PRP","station_name":"Parung Panjang","is_transit":false,"i_lat":-6.3441410000000005,"i_long":106.568863,"distance":7025,"transit":false},{"station_id":"CC","is_transit":false,"i_lat":-6.329547,"i_long":106.617853,"line":3,"transit":false,"station_name":"Cicayur","time":8,"distance":5968},{"is_transit":false,"time":4,"station_id":"CSK","i_lat":-6.32484,"i_long":106.640411,"distance":2519,"line":3,"station_name":"Cisauk","transit":false},{"i_long":106.66566,"time":4,"station_id":"SRP","i_lat":-6.319871,"transit":false,"distance":1784,"station_name":"Serpong","is_transit":false,"line":6},{"station_id":"RU","distance":2413,"i_lat":-6.314823,"i_long":106.675475,"time":4,"is_transit":false,"line":6,"transit":false,"station_name":"Rawa Buntu"},{"station_id":"SDM","i_lat":-6.296963,"transit":false,"station_name":"Sudimara","time":6,"i_long":106.712277,"line":6,"distance":4566,"is_transit":false}]]}