{"data":[[{"station_name":"Citeras","is_transit":false,"line":0,"i_lat":-6.334892,"station_id":"CTR","time":0,"i_long":106.332092,"transit":false,"distance":0},{"i_lat":-6.332307,"transit":false,"is_transit":false,"i_long":106.394373,"time":10,"distance":7293,"line":6,"station_id":"MJ","station_name":"Maja"},{"time":4,"distance":1853,"line":0,"i_long":106.411216,"is_transit":false,"station_id":"CKY","i_lat":-6.33561,"transit":false,"station_name":"Cikoya"},{"transit":false,"i_long":106.425991,"is_transit":false,"distance":2651,"i_lat":-6.328533,"line":6,"time":3,"station_id":"TGS","station_name":"Tigaraksa"},{"station_id":"TEJ","is_transit":false,"time":5,"i_lat":-6.327251,"distance":2974,"transit":false,"i_long":106.460812,"station_name":"Tenjo","line":6},{"distance":3902,"station_name":"Daru","station_id":"DAR","is_transit":false,"line":0,"time":5,"i_lat":-6.338021,"i_long":106.491338,"transit":false},{"distance":2675,"is_transit":false,"transit":false,"station_name":"Cilejit","line":0,"station_id":"CJT","i_lat":-6.354349,"time":6,"i_long":106.508482},{"distance":7025,"i_lat":-6.3441410000000005,"i_long":106.568863,"station_name":"Parung Panjang","transit":false,"line":6,"time":9,"is_transit":false,"station_id":"PRP"},{"i_lat":-6.329547,"i_long":106.617853,"line":0,"station_name":"Cicayur","station_id":"CC","is_transit":false,"time":8,"transit":false,"distance":5968},{"is_transit":false,"line":0,"transit":false,"i_lat":-6.32484,"station_id":"CSK","distance":2519,"i_long":106.640411,"time":4,"station_name":"Cisauk"},{"is_transit":false,"i_long":106.66566,"station_id":"SRP","time":4,"distance":1784,"station_name":"Serpong","i_lat":-6.319871,"line":6,"transit":false},{"time":4,"line":6,"distance":2413,"station_id":"RU","is_transit":false,"i_lat":-6.314823,"i_long":106.675475,"transit":false,"station_name":"Rawa Buntu"},{"is_transit":false,"distance":4566,"transit":false,"i_long":106.712277,"time":6,"station_id":"SDM","station_name":"Sudimara","i_lat":-6.296963,"line":6},{"transit":false,"line":6,"i_long":106.728916,"is_transit":false,"station_id":"JMU","time":4,"distance":1994,"station_name":"Jurangmangu","i_lat":-6.288927},{"is_transit":false,"station_name":"Pondokranji","transit":false,"i_lat":-6.276362,"time":3,"i_long":106.74273,"line":6,"distance":2179,"station_id":"PDJ"},{"time":8,"is_transit":false,"transit":false,"line":6,"distance":6218,"station_id":"KBY","station_name":"Kebayoran","i_long":106.780334,"i_lat":-6.237242},{"station_name":"Palmerah","transit":false,"i_lat":-6.207404,"distance":3737,"i_long":106.79689,"line":6,"time":7,"station_id":"PLM","is_transit":false},{"is_transit":true,"i_lat":-6.185545,"station_id":"THB","line":1,"time":6,"distance":3191,"station_name":"Tanah Abang","transit":true,"i_long":106.811091},{"station_id":"DU","is_transit":true,"station_name":"Duri","transit":true,"i_lat":-6.155215,"i_long":106.800832,"distance":3632,"line":1,"time":8},{"transit":false,"distance":1230,"i_lat":-6.144674,"time":4,"station_id":"AK","station_name":"Angke","line":0,"is_transit":false,"i_long":106.79867},{"is_transit":true,"distance":4102,"station_name":"Kampung Bandan","time":9,"i_lat":-6.132549,"line":0,"station_id":"KPB","transit":false,"i_long":106.826365},{"i_long":106.812439,"i_lat":-6.137569,"line":0,"is_transit":true,"distance":1364,"station_id":"JAKK","station_name":"Jakarta Kota","time":3,"transit":true},{"i_lat":-6.141205,"transit":false,"line":7,"distance":1264,"station_id":"JAY","time":4,"i_long":106.820901,"station_name":"Jayakarta","is_transit":false},{"i_lat":-6.149769,"is_transit":false,"line":2,"distance":1080,"station_name":"Manggabesar","station_id":"MGB","i_long":106.82482,"time":2,"transit":false},{"time":2,"distance":906,"station_name":"Sawah Besar","station_id":"SW","transit":false,"i_lat":-6.160725,"line":2,"i_long":106.827103,"is_transit":false}],[{"transit":false,"distance":0,"is_transit":false,"i_long":106.332092,"station_id":"CTR","i_lat":-6.334892,"line":0,"station_name":"Citeras","time":0},{"transit":false,"i_long":106.394373,"line":6,"distance":7293,"is_transit":false,"time":10,"i_lat":-6.332307,"station_id":"MJ","station_name":"Maja"},{"i_long":106.411216,"distance":1853,"line":0,"is_transit":false,"station_name":"Cikoya","i_lat":-6.33561,"time":4,"transit":false,"station_id":"CKY"},{"is_transit":false,"station_id":"TGS","time":3,"station_name":"Tigaraksa","i_long":106.425991,"distance":2651,"transit":false,"line":6,"i_lat":-6.328533},{"station_name":"Tenjo","i_lat":-6.327251,"station_id":"TEJ","transit":false,"distance":2974,"time":5,"is_transit":false,"i_long":106.460812,"line":6},{"time":5,"line":0,"distance":3902,"i_lat":-6.338021,"station_id":"DAR","transit":false,"is_transit":false,"station_name":"Daru","i_long":106.491338},{"station_id":"CJT","i_lat":-6.354349,"time":6,"is_transit":false,"distance":2675,"transit":false,"station_name":"Cilejit","line":0,"i_long":106.508482},{"is_transit":false,"i_long":106.568863,"station_id":"PRP","transit":false,"line":6,"time":9,"i_lat":-6.3441410000000005,"distance":7025,"station_name":"Parung Panjang"},{"transit":false,"i_lat":-6.329547,"line":0,"distance":5968,"is_transit":false,"i_long":106.617853,"station_id":"CC","station_name":"Cicayur","time":8},{"i_long":106.640411,"station_id":"CSK","distance":2519,"line":0,"is_transit":false,"transit":false,"time":4,"station_name":"Cisauk","i_lat":-6.32484},{"i_lat":-6.319871,"station_name":"Serpong","is_transit":false,"i_long":106.66566,"line":6,"distance":1784,"transit":false,"time":4,"station_id":"SRP"},{"station_id":"RU","i_long":106.675475,"line":6,"station_name":"Rawa Buntu","i_lat":-6.314823,"is_transit":false,"distance":2413,"time":4,"transit":false},{"transit":false,"station_id":"SDM","time":6,"station_name":"Sudimara","i_lat":-6.296963,"is_transit":false,"i_long":106.712277,"line":6,"distance":4566},{"i_long":106.728916,"station_id":"JMU","distance":1994,"line":6,"transit":false,"station_name":"Jurangmangu","i_lat":-6.288927,"time":4,"is_transit":false},{"i_long":106.74273,"line":6,"station_id":"PDJ","transit":false,"distance":2179,"is_transit":false,"i_lat":-6.276362,"time":3,"station_name":"Pondokranji"},{"station_name":"Kebayoran","i_lat":-6.237242,"time":8,"transit":false,"distance":6218,"line":6,"station_id":"KBY","is_transit":false,"i_long":106.780334},{"is_transit":false,"transit":false,"line":6,"i_lat":-6.207404,"i_long":106.79689,"station_id":"PLM","time":7,"distance":3737,"station_name":"Palmerah"},{"line":1,"station_name":"Tanah Abang","station_id":"THB","is_transit":true,"i_long":106.811091,"transit":true,"time":6,"i_lat":-6.185545,"distance":3191},{"time":5,"distance":2029,"is_transit":false,"station_id":"KAT","transit":false,"i_lat":-6.20132,"station_name":"Karet","i_long":106.816351,"line":1},{"i_lat":-6.201433,"time":1,"i_long":106.819881,"station_id":"SUDB","station_name":"Sudirman Baru","line":1,"distance":471,"is_transit":false,"transit":false},{"i_lat":-6.202263,"line":1,"i_long":106.822649,"distance":280,"station_name":"Sudirman","time":1,"is_transit":false,"transit":false,"station_id":"SUD"},{"station_name":"Manggarai","station_id":"MRI","i_lat":-6.209883,"i_long":106.84912,"distance":3186,"is_transit":true,"line":0,"time":4,"transit":true},{"transit":false,"line":0,"station_id":"CKI","is_transit":false,"i_long":106.840169,"station_name":"Cikini","i_lat":-6.198556,"time":4,"distance":1590},{"is_transit":false,"i_lat":-6.186295,"transit":false,"distance":1750,"station_name":"Gondangdia","i_long":106.832183,"time":3,"line":2,"station_id":"GDD"},{"distance":2015,"i_long":106.828284,"station_id":"JUA","i_lat":-6.166716,"station_name":"Juanda","line":2,"transit":false,"is_transit":false,"time":4},{"i_long":106.827103,"station_name":"Sawah Besar","station_id":"SW","time":2,"distance":1149,"i_lat":-6.160725,"transit":false,"is_transit":false,"line":2}],[{"time":0,"station_name":"Citeras","line":0,"station_id":"CTR","distance":0,"transit":false,"i_long":106.332092,"is_transit":false,"i_lat":-6.334892},{"i_long":106.394373,"line":6,"station_id":"MJ","time":10,"distance":7293,"transit":false,"station_name":"Maja","is_transit":false,"i_lat":-6.332307},{"distance":1853,"time":4,"line":0,"transit":false,"station_name":"Cikoya","i_lat":-6.33561,"station_id":"CKY","is_transit":false,"i_long":106.411216},{"transit":false,"i_long":106.425991,"line":6,"i_lat":-6.328533,"station_name":"Tigaraksa","is_transit":false,"station_id":"TGS","distance":2651,"time":3},{"station_name":"Tenjo","line":6,"distance":2974,"time":5,"i_long":106.460812,"i_lat":-6.327251,"transit":false,"station_id":"TEJ","is_transit":false},{"line":0,"i_long":106.491338,"time":5,"transit":false,"station_id":"DAR","is_transit":false,"i_lat":-6.338021,"station_name":"Daru","distance":3902},{"transit":false,"is_transit":false,"distance":2675,"i_lat":-6.354349,"station_name":"Cilejit","i_long":106.508482,"time":6,"line":0,"station_id":"CJT"},{"station_name":"Parung Panjang","i_lat":-6.3441410000000005,"is_transit":false,"time":9,"station_id":"PRP","line":6,"transit":false,"distance":7025,"i_long":106.568863},{"is_transit":false,"time":8,"station_name":"Cicayur","distance":5968,"i_lat":-6.329547,"line":0,"station_id":"CC","transit":false,"i_long":106.617853},{"transit":false,"i_long":106.640411,"line":0,"station_id":"CSK","is_transit":false,"distance":2519,"i_lat":-6.32484,"time":4,"station_name":"Cisauk"},{"line":6,"transit":false,"time":4,"is_transit":false,"i_long":106.66566,"distance":1784,"station_id":"SRP","i_lat":-6.319871,"station_name":"Serpong"},{"station_name":"Rawa Buntu","transit":false,"i_long":106.675475,"distance":2413,"time":4,"line":6,"i_lat":-6.314823,"station_id":"RU","is_transit":false},{"i_lat":-6.296963,"station_id":"SDM","is_transit":false,"transit":false,"i_long":106.712277,"time":6,"station_name":"Sudimara","distance":4566,"line":6},{"i_lat":-6.288927,"i_long":106.728916,"station_name":"Jurangmangu","transit":false,"line":6,"time":4,"station_id":"JMU","is_transit":false,"distance":1994},{"distance":2179,"line":6,"station_id":"PDJ","time":3,"is_transit":false,"i_long":106.74273,"station_name":"Pondokranji","transit":false,"i_lat":-6.276362},{"is_transit":false,"distance":6218,"transit":false,"station_id":"KBY","station_name":"Kebayoran","i_long":106.780334,"i_lat":-6.237242,"time":8,"line":6},{"line":6,"is_transit":false,"station_id":"PLM","time":7,"distance":3737,"transit":false,"i_long":106.79689,"station_name":"Palmerah","i_lat":-6.207404},{"i_long":106.811091,"line":1,"is_transit":true,"time":6,"i_lat":-6.185545,"station_id":"THB","station_name":"Tanah Abang","distance":3191,"transit":true},{"station_name":"Duri","station_id":"DU","i_long":106.800832,"time":8,"i_lat":-6.155215,"transit":true,"is_transit":true,"line":1,"distance":3632},{"i_long":106.79867,"is_transit":false,"distance":1230,"station_name":"Angke","transit":false,"i_lat":-6.144674,"line":0,"station_id":"AK","time":4},{"distance":4102,"station_name":"Kampung Bandan","time":9,"transit":true,"i_lat":-6.132549,"line":0,"is_transit":true,"station_id":"KPB","i_long":106.826365},{"is_transit":false,"distance":1444,"i_lat":-6.14505,"station_id":"RJW","station_name":"Rajawali","time":3,"i_long":106.836569,"line":11,"transit":false},{"station_name":"Kemayoran","is_transit":false,"time":5,"station_id":"KMO","distance":1901,"i_long":106.839204,"line":11,"transit":false,"i_lat":-6.161728},{"i_lat":-6.174784,"station_name":"Pasar Senen","station_id":"PSE","i_long":106.84368,"is_transit":false,"distance":1436,"transit":false,"time":4,"line":11},{"i_long":106.850107,"is_transit":false,"i_lat":-6.185975,"station_name":"Gang Sentiong","transit":false,"line":11,"time":8,"station_id":"GST","distance":1567},{"line":11,"i_long":106.855437,"station_id":"KMT","i_lat":-6.193792,"distance":973,"is_transit":false,"time":1,"transit":false,"station_name":"Kramat"},{"transit":false,"i_lat":-6.209188,"time":2,"station_name":"Pondok Jati","distance":1829,"is_transit":false,"i_long":106.861737,"line":11,"station_id":"POK"},{"station_id":"JNG","transit":true,"i_long":106.86807400000001,"line":0,"is_transit":true,"distance":1236,"time":9,"station_name":"Jatinegara","i_lat":-6.215091},{"i_long":106.858896,"station_id":"MTR","distance":1377,"station_name":"Matraman","transit":false,"i_lat":-6.212485,"is_transit":false,"time":2,"line":1},{"line":0,"transit":true,"time":2,"station_id":"MRI","distance":1275,"is_transit":true,"i_lat":-6.209883,"i_long":106.84912,"station_name":"Manggarai"},{"station_id":"CKI","time":4,"distance":1590,"line":0,"transit":false,"is_transit":false,"i_lat":-6.198556,"station_name":"Cikini","i_long":106.840169},{"station_id":"GDD","distance":1750,"i_long":106.832183,"line":2,"transit":false,"station_name":"Gondangdia","time":3,"is_transit":false,"i_lat":-6.186295},{"time":4,"station_name":"Juanda","distance":2015,"station_id":"JUA","is_transit":false,"transit":false,"i_lat":-6.166716,"i_long":106.828284,"line":2},{"line":2,"distance":1149,"time":2,"station_id":"SW","station_name":"Sawah Besar","transit":false,"i_lat":-6.160725,"is_transit":false,"i_long":106.827103}],[{"line":0,"station_name":"Citeras","time":0,"distance":0,"i_lat":-6.334892,"i_long":106.332092,"station_id":"CTR","is_transit":false,"transit":false},{"i_long":106.394373,"distance":7293,"transit":false,"line":6,"station_id":"MJ","is_transit":false,"i_lat":-6.332307,"time":10,"station_name":"Maja"},{"time":4,"distance":1853,"station_name":"Cikoya","i_lat":-6.33561,"line":0,"transit":false,"i_long":106.411216,"is_transit":false,"station_id":"CKY"},{"is_transit":false,"station_id":"TGS","distance":2651,"i_long":106.425991,"i_lat":-6.328533,"line":6,"station_name":"Tigaraksa","transit":false,"time":3},{"time":5,"line":6,"is_transit":false,"transit":false,"station_id":"TEJ","distance":2974,"i_lat":-6.327251,"station_name":"Tenjo","i_long":106.460812},{"i_lat":-6.338021,"line":0,"time":5,"transit":false,"station_id":"DAR","station_name":"Daru","distance":3902,"is_transit":false,"i_long":106.491338},{"station_id":"CJT","i_lat":-6.354349,"line":0,"i_long":106.508482,"station_name":"Cilejit","is_transit":false,"time":6,"transit":false,"distance":2675},{"station_name":"Parung Panjang","distance":7025,"station_id":"PRP","line":6,"is_transit":false,"i_lat":-6.3441410000000005,"time":9,"transit":false,"i_long":106.568863},{"transit":false,"station_name":"Cicayur","i_long":106.617853,"i_lat":-6.329547,"is_transit":false,"line":0,"station_id":"CC","time":8,"distance":5968},{"time":4,"station_name":"Cisauk","transit":false,"i_lat":-6.32484,"distance":2519,"station_id":"CSK","line":0,"i_long":106.640411,"is_transit":false},{"line":6,"station_id":"SRP","station_name":"Serpong","is_transit":false,"distance":1784,"transit":false,"i_lat":-6.319871,"time":4,"i_long":106.66566},{"is_transit":false,"transit":false,"i_long":106.675475,"line":6,"distance":2413,"time":4,"i_lat":-6.314823,"station_id":"RU","station_name":"Rawa Buntu"},{"i_lat":-6.296963,"line":6,"distance":4566,"is_transit":false,"time":6,"i_long":106.712277,"station_name":"Sudimara","transit":false,"station_id":"SDM"},{"i_long":106.728916,"station_id":"JMU","time":4,"distance":1994,"is_transit":false,"station_name":"Jurangmangu","i_lat":-6.288927,"line":6,"transit":false},{"i_lat":-6.276362,"time":3,"transit":false,"distance":2179,"station_id":"PDJ","station_name":"Pondokranji","is_transit":false,"i_long":106.74273,"line":6},{"time":8,"transit":false,"i_long":106.780334,"line":6,"distance":6218,"is_transit":false,"station_name":"Kebayoran","station_id":"KBY","i_lat":-6.237242},{"time":7,"distance":3737,"i_long":106.79689,"station_name":"Palmerah","station_id":"PLM","line":6,"is_transit":false,"i_lat":-6.207404,"transit":false},{"i_long":106.811091,"i_lat":-6.185545,"is_transit":true,"station_name":"Tanah Abang","distance":3191,"transit":true,"time":6,"line":1,"station_id":"THB"},{"line":1,"time":5,"transit":false,"is_transit":false,"distance":2029,"i_long":106.816351,"station_name":"Karet","i_lat":-6.20132,"station_id":"KAT"},{"station_name":"Sudirman Baru","station_id":"SUDB","time":1,"i_lat":-6.201433,"i_long":106.819881,"line":1,"is_transit":false,"distance":471,"transit":false},{"is_transit":false,"station_name":"Sudirman","station_id":"SUD","line":1,"distance":280,"i_long":106.822649,"transit":false,"i_lat":-6.202263,"time":1},{"i_lat":-6.209883,"is_transit":true,"i_long":106.84912,"station_name":"Manggarai","time":4,"transit":false,"station_id":"MRI","line":0,"distance":3186},{"is_transit":false,"transit":false,"distance":1275,"i_lat":-6.212485,"i_long":106.858896,"station_name":"Matraman","time":2,"line":1,"station_id":"MTR"},{"is_transit":true,"i_long":106.86807400000001,"station_name":"Jatinegara","time":8,"transit":true,"i_lat":-6.215091,"line":0,"distance":1377,"station_id":"JNG"},{"line":11,"is_transit":false,"distance":1236,"time":2,"i_long":106.861737,"i_lat":-6.209188,"station_name":"Pondok Jati","station_id":"POK","transit":false},{"distance":1829,"i_lat":-6.193792,"transit":false,"i_long":106.855437,"line":11,"station_id":"KMT","station_name":"Kramat","time":2,"is_transit":false},{"i_long":106.850107,"is_transit":false,"i_lat":-6.185975,"line":11,"transit":false,"station_id":"GST","distance":973,"time":1,"station_name":"Gang Sentiong"},{"is_transit":false,"line":11,"time":8,"distance":1567,"station_name":"Pasar Senen","i_lat":-6.174784,"station_id":"PSE","i_long":106.84368,"transit":false},{"station_id":"KMO","is_transit":false,"i_long":106.839204,"distance":1436,"line":11,"station_name":"Kemayoran","time":4,"transit":false,"i_lat":-6.161728},{"is_transit":false,"i_long":106.836569,"time":5,"line":11,"distance":1901,"station_name":"Rajawali","i_lat":-6.14505,"station_id":"RJW","transit":false},{"transit":true,"time":3,"station_name":"Kampung Bandan","i_lat":-6.132549,"is_transit":true,"distance":1444,"station_id":"KPB","i_long":106.826365,"line":0},{"station_name":"Jakarta Kota","line":0,"is_transit":true,"i_lat":-6.137569,"i_long":106.812439,"distance":1364,"station_id":"JAKK","transit":true,"time":3},{"distance":1264,"i_lat":-6.141205,"i_long":106.820901,"transit":false,"line":7,"is_transit":false,"station_id":"JAY","time":4,"station_name":"Jayakarta"},{"line":2,"station_id":"MGB","is_transit":false,"distance":1080,"station_name":"Manggabesar","i_lat":-6.149769,"time":2,"transit":false,"i_long":106.82482},{"time":2,"i_long":106.827103,"transit":false,"distance":906,"station_name":"Sawah Besar","station_id":"SW","is_transit":false,"i_lat":-6.160725,"line":2}]]}