{"data":[[{"time":0,"is_transit":false,"station_name":"Citeras","i_long":106.332092,"station_id":"CTR","distance":0,"i_lat":-6.334892,"line":3,"transit":false},{"distance":7293,"time":10,"i_lat":-6.332307,"i_long":106.394373,"station_id":"MJ","transit":false,"line":6,"is_transit":false,"station_name":"Maja"},{"station_name":"Cikoya","is_transit":false,"i_lat":-6.33561,"station_id":"CKY","time":4,"i_long":106.411216,"distance":1853,"transit":false,"line":3},{"i_long":106.425991,"is_transit":false,"line":6,"transit":false,"time":3,"station_id":"TGS","i_lat":-6.328533,"distance":2651,"station_name":"Tigaraksa"},{"transit":false,"i_long":106.460812,"station_name":"Tenjo","line":6,"station_id":"TEJ","distance":2974,"i_lat":-6.327251,"time":5,"is_transit":false},{"transit":false,"station_name":"Daru","time":5,"i_lat":-6.338021,"distance":3902,"i_long":106.491338,"station_id":"DAR","line":0,"is_transit":false},{"is_transit":false,"station_id":"CJT","i_lat":-6.354349,"transit":false,"line":3,"distance":2675,"i_long":106.508482,"station_name":"Cilejit","time":6},{"distance":7025,"transit":false,"is_transit":false,"station_id":"PRP","i_long":106.568863,"line":6,"station_name":"Parung Panjang","time":9,"i_lat":-6.3441410000000005},{"distance":5968,"is_transit":false,"station_id":"CC","station_name":"Cicayur","i_lat":-6.329547,"line":3,"i_long":106.617853,"transit":false,"time":8},{"distance":2519,"is_transit":false,"time":4,"i_long":106.640411,"station_id":"CSK","station_name":"Cisauk","i_lat":-6.32484,"line":3,"transit":false},{"i_long":106.66566,"line":6,"transit":false,"distance":1784,"station_id":"SRP","station_name":"Serpong","i_lat":-6.319871,"is_transit":false,"time":4},{"station_id":"RU","is_transit":false,"distance":2413,"station_name":"Rawa Buntu","i_lat":-6.314823,"i_long":106.675475,"transit":false,"line":6,"time":4},{"station_id":"SDM","i_long":106.712277,"time":6,"distance":4566,"line":6,"transit":false,"is_transit":false,"i_lat":-6.296963,"station_name":"Sudimara"},{"line":6,"is_transit":false,"time":4,"distance":1994,"i_lat":-6.288927,"transit":false,"station_name":"Jurangmangu","i_long":106.728916,"station_id":"JMU"},{"station_name":"Pondokranji","distance":2179,"station_id":"PDJ","i_long":106.74273,"line":6,"time":3,"is_transit":false,"i_lat":-6.276362,"transit":false},{"i_lat":-6.237242,"time":8,"i_long":106.780334,"line":6,"distance":6218,"station_id":"KBY","is_transit":false,"transit":false,"station_name":"Kebayoran"},{"station_id":"PLM","time":7,"distance":3737,"i_lat":-6.207404,"i_long":106.79689,"transit":false,"is_transit":false,"station_name":"Palmerah","line":6},{"transit":true,"station_id":"THB","line":1,"i_lat":-6.185545,"i_long":106.811091,"time":6,"distance":3191,"station_name":"Tanah Abang","is_transit":true},{"time":8,"line":1,"distance":3632,"station_id":"DU","i_long":106.800832,"is_transit":true,"station_name":"Duri","transit":true,"i_lat":-6.155215},{"station_name":"Grogol","station_id":"GGL","line":5,"transit":false,"distance":1700,"time":3,"is_transit":false,"i_lat":-6.162021,"i_long":106.788277},{"line":5,"station_name":"Pesing","transit":false,"distance":2036,"i_long":106.771379,"time":2,"is_transit":false,"station_id":"PSG","i_lat":-6.161433},{"station_id":"TKO","station_name":"Taman Kota","i_long":106.756522,"transit":false,"distance":1614,"time":2,"is_transit":false,"line":5,"i_lat":-6.1587309999999995},{"time":2,"transit":false,"station_id":"BOI","station_name":"Bojongindah","is_transit":false,"i_long":106.737035,"distance":2334,"line":5,"i_lat":-6.159876},{"is_transit":false,"station_name":"Rawa Buaya","i_long":106.723064,"transit":false,"i_lat":-6.162758,"line":5,"time":4,"station_id":"RW","distance":1152},{"station_name":"Kalideres","distance":2504,"transit":false,"line":5,"time":3,"station_id":"KDS","i_long":106.701612,"is_transit":false,"i_lat":-6.166068},{"i_lat":-6.169933,"line":5,"station_name":"Poris","i_long":106.679458,"is_transit":false,"station_id":"PI","distance":2548,"transit":false,"time":3},{"station_name":"Batuceper","i_long":106.665036,"distance":1834,"station_id":"BPR","is_transit":false,"i_lat":-6.171811,"line":5,"transit":false,"time":3},{"station_name":"Tanah Tinggi","i_lat":-6.17331,"is_transit":false,"distance":2028,"i_long":106.64657,"line":5,"transit":false,"time":3,"station_id":"TTI"}],[{"line":3,"station_id":"CTR","is_transit":false,"station_name":"Citeras","distance":0,"transit":false,"i_long":106.332092,"i_lat":-6.334892,"time":0},{"time":10,"is_transit":false,"i_long":106.394373,"station_name":"Maja","station_id":"MJ","distance":7293,"transit":false,"i_lat":-6.332307,"line":6},{"i_lat":-6.33561,"station_id":"CKY","transit":false,"station_name":"Cikoya","time":4,"distance":1853,"is_transit":false,"i_long":106.411216,"line":3},{"station_id":"TGS","i_lat":-6.328533,"i_long":106.425991,"station_name":"Tigaraksa","transit":false,"time":3,"distance":2651,"line":6,"is_transit":false},{"is_transit":false,"station_id":"TEJ","time":5,"transit":false,"i_lat":-6.327251,"i_long":106.460812,"distance":2974,"line":6,"station_name":"Tenjo"},{"distance":3902,"transit":false,"is_transit":false,"station_id":"DAR","i_lat":-6.338021,"station_name":"Daru","time":5,"i_long":106.491338,"line":0},{"is_transit":false,"station_name":"Cilejit","station_id":"CJT","distance":2675,"line":3,"transit":false,"time":6,"i_long":106.508482,"i_lat":-6.354349},{"distance":7025,"transit":false,"station_id":"PRP","station_name":"Parung Panjang","i_lat":-6.3441410000000005,"time":9,"is_transit":false,"i_long":106.568863,"line":6},{"line":3,"station_id":"CC","station_name":"Cicayur","distance":5968,"time":8,"i_long":106.617853,"i_lat":-6.329547,"is_transit":false,"transit":false},{"i_long":106.640411,"is_transit":false,"distance":2519,"transit":false,"station_id":"CSK","line":3,"station_name":"Cisauk","time":4,"i_lat":-6.32484},{"is_transit":false,"time":4,"station_id":"SRP","transit":false,"i_lat":-6.319871,"distance":1784,"station_name":"Serpong","i_long":106.66566,"line":6},{"distance":2413,"i_lat":-6.314823,"is_transit":false,"transit":false,"i_long":106.675475,"station_name":"Rawa Buntu","line":6,"time":4,"station_id":"RU"},{"time":6,"is_transit":false,"line":6,"distance":4566,"station_id":"SDM","transit":false,"station_name":"Sudimara","i_lat":-6.296963,"i_long":106.712277},{"station_id":"JMU","is_transit":false,"time":4,"station_name":"Jurangmangu","line":6,"i_lat":-6.288927,"transit":false,"distance":1994,"i_long":106.728916},{"time":3,"i_long":106.74273,"station_id":"PDJ","station_name":"Pondokranji","transit":false,"i_lat":-6.276362,"is_transit":false,"line":6,"distance":2179},{"time":8,"i_lat":-6.237242,"line":6,"is_transit":false,"distance":6218,"i_long":106.780334,"station_id":"KBY","station_name":"Kebayoran","transit":false},{"i_lat":-6.207404,"transit":false,"distance":3737,"station_id":"PLM","i_long":106.79689,"is_transit":false,"line":6,"time":7,"station_name":"Palmerah"},{"i_lat":-6.185545,"i_long":106.811091,"time":6,"transit":true,"line":1,"distance":3191,"station_id":"THB","is_transit":true,"station_name":"Tanah Abang"},{"line":1,"i_lat":-6.20132,"is_transit":false,"distance":2029,"time":5,"station_id":"KAT","transit":false,"i_long":106.816351,"station_name":"Karet"},{"time":1,"i_lat":-6.201433,"station_id":"SUDB","transit":false,"station_name":"Sudirman Baru","is_transit":false,"i_long":106.819881,"distance":471,"line":1},{"station_id":"SUD","is_transit":false,"station_name":"Sudirman","line":1,"i_lat":-6.202263,"distance":280,"transit":false,"i_long":106.822649,"time":1},{"i_lat":-6.209883,"i_long":106.84912,"is_transit":true,"transit":true,"time":4,"station_name":"Manggarai","line":2,"station_id":"MRI","distance":3186},{"is_transit":false,"time":4,"station_id":"CKI","distance":1590,"transit":false,"line":2,"i_long":106.840169,"station_name":"Cikini","i_lat":-6.198556},{"station_name":"Gondangdia","i_long":106.832183,"is_transit":false,"i_lat":-6.186295,"station_id":"GDD","line":2,"transit":false,"distance":1750,"time":3},{"distance":2015,"line":2,"transit":false,"is_transit":false,"i_lat":-6.166716,"i_long":106.828284,"station_id":"JUA","station_name":"Juanda","time":4},{"distance":1149,"transit":false,"i_long":106.827103,"i_lat":-6.160725,"line":2,"is_transit":false,"station_id":"SW","time":2,"station_name":"Sawah Besar"},{"line":2,"i_lat":-6.149769,"station_id":"MGB","time":2,"i_long":106.82482,"station_name":"Manggabesar","is_transit":false,"distance":906,"transit":false},{"distance":1080,"station_name":"Jayakarta","time":2,"transit":false,"line":2,"station_id":"JAY","is_transit":false,"i_long":106.820901,"i_lat":-6.141205},{"station_id":"JAKK","station_name":"Jakarta Kota","distance":1264,"i_long":106.812439,"line":2,"is_transit":true,"time":4,"i_lat":-6.137569,"transit":true},{"time":3,"transit":true,"i_lat":-6.132549,"i_long":106.826365,"is_transit":true,"station_id":"KPB","station_name":"Kampung Bandan","line":4,"distance":1364},{"is_transit":false,"distance":4102,"time":9,"station_name":"Angke","transit":false,"i_long":106.79867,"station_id":"AK","line":1,"i_lat":-6.144674},{"station_id":"DU","is_transit":true,"transit":true,"i_lat":-6.155215,"station_name":"Duri","line":1,"i_long":106.800832,"time":4,"distance":1230},{"distance":1700,"time":3,"is_transit":false,"transit":false,"i_long":106.788277,"line":5,"station_name":"Grogol","station_id":"GGL","i_lat":-6.162021},{"is_transit":false,"time":2,"station_name":"Pesing","distance":2036,"station_id":"PSG","i_long":106.771379,"transit":false,"i_lat":-6.161433,"line":5},{"line":5,"station_id":"TKO","time":2,"i_lat":-6.1587309999999995,"distance":1614,"i_long":106.756522,"is_transit":false,"transit":false,"station_name":"Taman Kota"},{"station_id":"BOI","i_long":106.737035,"time":2,"is_transit":false,"i_lat":-6.159876,"line":5,"distance":2334,"station_name":"Bojongindah","transit":false},{"distance":1152,"is_transit":false,"station_name":"Rawa Buaya","transit":false,"i_long":106.723064,"station_id":"RW","i_lat":-6.162758,"time":4,"line":5},{"station_name":"Kalideres","is_transit":false,"time":3,"station_id":"KDS","i_lat":-6.166068,"line":5,"transit":false,"i_long":106.701612,"distance":2504},{"time":3,"line":5,"is_transit":false,"station_id":"PI","distance":2548,"transit":false,"station_name":"Poris","i_lat":-6.169933,"i_long":106.679458},{"station_id":"BPR","is_transit":false,"i_lat":-6.171811,"line":5,"distance":1834,"station_name":"Batuceper","time":3,"transit":false,"i_long":106.665036},{"i_lat":-6.17331,"station_id":"TTI","station_name":"Tanah Tinggi","i_long":106.64657,"line":5,"time":3,"transit":false,"is_transit":false,"distance":2028}],[{"time":0,"station_name":"Citeras","i_lat":-6.334892,"i_long":106.332092,"is_transit":false,"transit":false,"line":3,"station_id":"CTR","distance":0},{"is_transit":false,"distance":7293,"station_name":"Maja","i_lat":-6.332307,"i_long":106.394373,"line":6,"station_id":"MJ","time":10,"transit":false},{"i_lat":-6.33561,"time":4,"is_transit":false,"distance":1853,"station_name":"Cikoya","station_id":"CKY","transit":false,"i_long":106.411216,"line":3},{"time":3,"i_long":106.425991,"line":6,"station_id":"TGS","distance":2651,"is_transit":false,"station_name":"Tigaraksa","i_lat":-6.328533,"transit":false},{"transit":false,"i_long":106.460812,"distance":2974,"is_transit":false,"i_lat":-6.327251,"station_id":"TEJ","station_name":"Tenjo","time":5,"line":6},{"i_long":106.491338,"transit":false,"station_id":"DAR","i_lat":-6.338021,"station_name":"Daru","is_transit":false,"distance":3902,"line":0,"time":5},{"is_transit":false,"station_name":"Cilejit","time":6,"i_long":106.508482,"line":3,"transit":false,"i_lat":-6.354349,"station_id":"CJT","distance":2675},{"station_name":"Parung Panjang","is_transit":false,"time":9,"distance":7025,"station_id":"PRP","i_long":106.568863,"i_lat":-6.3441410000000005,"line":6,"transit":false},{"i_lat":-6.329547,"time":8,"is_transit":false,"distance":5968,"line":3,"station_name":"Cicayur","transit":false,"i_long":106.617853,"station_id":"CC"},{"is_transit":false,"i_long":106.640411,"distance":2519,"line":3,"time":4,"station_id":"CSK","station_name":"Cisauk","i_lat":-6.32484,"transit":false},{"time":4,"line":6,"station_name":"Serpong","i_long":106.66566,"station_id":"SRP","is_transit":false,"transit":false,"distance":1784,"i_lat":-6.319871},{"i_long":106.675475,"is_transit":false,"line":6,"i_lat":-6.314823,"station_name":"Rawa Buntu","distance":2413,"time":4,"station_id":"RU","transit":false},{"distance":4566,"is_transit":false,"station_id":"SDM","time":6,"i_long":106.712277,"i_lat":-6.296963,"transit":false,"station_name":"Sudimara","line":6},{"station_name":"Jurangmangu","station_id":"JMU","i_long":106.728916,"distance":1994,"transit":false,"time":4,"line":6,"is_transit":false,"i_lat":-6.288927},{"i_long":106.74273,"line":6,"station_id":"PDJ","is_transit":false,"transit":false,"time":3,"distance":2179,"station_name":"Pondokranji","i_lat":-6.276362},{"station_name":"Kebayoran","distance":6218,"station_id":"KBY","transit":false,"time":8,"is_transit":false,"i_long":106.780334,"line":6,"i_lat":-6.237242},{"time":7,"distance":3737,"station_id":"PLM","i_long":106.79689,"is_transit":false,"transit":false,"i_lat":-6.207404,"line":6,"station_name":"Palmerah"},{"station_id":"THB","line":1,"time":6,"is_transit":true,"station_name":"Tanah Abang","i_lat":-6.185545,"i_long":106.811091,"distance":3191,"transit":true},{"is_transit":false,"i_long":106.816351,"station_id":"KAT","i_lat":-6.20132,"transit":false,"time":5,"distance":2029,"line":1,"station_name":"Karet"},{"is_transit":false,"i_lat":-6.201433,"station_name":"Sudirman Baru","station_id":"SUDB","time":1,"transit":false,"distance":471,"line":1,"i_long":106.819881},{"station_name":"Sudirman","i_lat":-6.202263,"time":1,"i_long":106.822649,"station_id":"SUD","distance":280,"is_transit":false,"transit":false,"line":1},{"station_id":"MRI","transit":false,"station_name":"Manggarai","i_lat":-6.209883,"i_long":106.84912,"line":2,"time":4,"is_transit":false,"distance":3186},{"is_transit":false,"station_id":"MTR","line":1,"station_name":"Matraman","distance":1275,"i_long":106.858896,"i_lat":-6.212485,"transit":false,"time":2},{"time":8,"is_transit":true,"i_long":106.86807400000001,"station_name":"Jatinegara","distance":1377,"station_id":"JNG","transit":true,"line":1,"i_lat":-6.215091},{"transit":false,"is_transit":false,"i_long":106.861737,"station_id":"POK","line":11,"time":2,"i_lat":-6.209188,"distance":1236,"station_name":"Pondok Jati"},{"time":2,"is_transit":false,"line":11,"transit":false,"station_name":"Kramat","i_lat":-6.193792,"i_long":106.855437,"station_id":"KMT","distance":1829},{"time":1,"transit":false,"distance":973,"is_transit":false,"station_name":"Gang Sentiong","i_long":106.850107,"i_lat":-6.185975,"station_id":"GST","line":11},{"line":11,"transit":false,"distance":1567,"is_transit":false,"station_name":"Pasar Senen","i_long":106.84368,"time":8,"i_lat":-6.174784,"station_id":"PSE"},{"i_lat":-6.161728,"line":11,"time":4,"is_transit":false,"station_name":"Kemayoran","i_long":106.839204,"transit":false,"distance":1436,"station_id":"KMO"},{"i_long":106.836569,"distance":1901,"line":11,"is_transit":false,"i_lat":-6.14505,"station_id":"RJW","station_name":"Rajawali","time":5,"transit":false},{"i_long":106.826365,"distance":1444,"is_transit":true,"station_name":"Kampung Bandan","line":4,"transit":true,"time":3,"station_id":"KPB","i_lat":-6.132549},{"distance":4102,"time":9,"line":1,"station_id":"AK","is_transit":false,"i_long":106.79867,"transit":false,"station_name":"Angke","i_lat":-6.144674},{"station_id":"DU","distance":1230,"line":1,"i_long":106.800832,"time":4,"is_transit":true,"transit":true,"i_lat":-6.155215,"station_name":"Duri"},{"is_transit":false,"i_lat":-6.162021,"transit":false,"i_long":106.788277,"line":5,"station_name":"Grogol","distance":1700,"time":3,"station_id":"GGL"},{"transit":false,"station_id":"PSG","distance":2036,"i_lat":-6.161433,"i_long":106.771379,"time":2,"line":5,"is_transit":false,"station_name":"Pesing"},{"i_lat":-6.1587309999999995,"station_name":"Taman Kota","distance":1614,"transit":false,"i_long":106.756522,"is_transit":false,"line":5,"time":2,"station_id":"TKO"},{"station_name":"Bojongindah","i_long":106.737035,"line":5,"time":2,"station_id":"BOI","transit":false,"i_lat":-6.159876,"distance":2334,"is_transit":false},{"i_long":106.723064,"time":4,"distance":1152,"is_transit":false,"station_name":"Rawa Buaya","line":5,"transit":false,"station_id":"RW","i_lat":-6.162758},{"transit":false,"time":3,"line":5,"i_lat":-6.166068,"distance":2504,"i_long":106.701612,"station_id":"KDS","is_transit":false,"station_name":"Kalideres"},{"i_long":106.679458,"distance":2548,"station_id":"PI","i_lat":-6.169933,"is_transit":false,"time":3,"transit":false,"station_name":"Poris","line":5},{"i_long":106.665036,"is_transit":false,"line":5,"time":3,"distance":1834,"i_lat":-6.171811,"station_id":"BPR","station_name":"Batuceper","transit":false},{"transit":false,"station_id":"TTI","is_transit":false,"i_lat":-6.17331,"distance":2028,"station_name":"Tanah Tinggi","time":3,"i_long":106.64657,"line":5}]]}