{"data":[[{"station_id":"CTR","is_transit":false,"distance":0,"line":3,"i_lat":-6.334892,"station_name":"Citeras","transit":false,"time":0,"i_long":106.332092},{"time":10,"i_lat":-6.332307,"transit":false,"distance":7293,"line":6,"is_transit":false,"i_long":106.394373,"station_name":"Maja","station_id":"MJ"},{"time":4,"station_name":"Cikoya","transit":false,"distance":1853,"i_lat":-6.33561,"line":3,"station_id":"CKY","i_long":106.411216,"is_transit":false},{"transit":false,"i_lat":-6.328533,"distance":2651,"station_id":"TGS","station_name":"Tigaraksa","time":3,"i_long":106.425991,"line":6,"is_transit":false},{"transit":false,"station_id":"TEJ","time":5,"i_lat":-6.327251,"station_name":"Tenjo","distance":2974,"i_long":106.460812,"line":6,"is_transit":false},{"transit":false,"line":0,"station_id":"DAR","i_long":106.491338,"i_lat":-6.338021,"time":5,"station_name":"Daru","distance":3902,"is_transit":false},{"transit":false,"distance":2675,"station_id":"CJT","i_lat":-6.354349,"station_name":"Cilejit","is_transit":false,"time":6,"line":3,"i_long":106.508482},{"station_id":"PRP","distance":7025,"i_lat":-6.3441410000000005,"i_long":106.568863,"time":9,"is_transit":false,"transit":false,"line":6,"station_name":"Parung Panjang"},{"station_id":"CC","is_transit":false,"i_lat":-6.329547,"transit":false,"distance":5968,"time":8,"station_name":"Cicayur","line":3,"i_long":106.617853},{"station_id":"CSK","is_transit":false,"time":4,"i_lat":-6.32484,"line":3,"transit":false,"distance":2519,"i_long":106.640411,"station_name":"Cisauk"},{"i_long":106.66566,"is_transit":false,"station_name":"Serpong","transit":false,"distance":1784,"i_lat":-6.319871,"time":4,"line":6,"station_id":"SRP"},{"station_name":"Rawa Buntu","is_transit":false,"i_long":106.675475,"line":6,"station_id":"RU","time":4,"i_lat":-6.314823,"distance":2413,"transit":false},{"station_name":"Sudimara","i_long":106.712277,"line":6,"distance":4566,"transit":false,"time":6,"is_transit":false,"i_lat":-6.296963,"station_id":"SDM"},{"station_name":"Jurangmangu","is_transit":false,"i_long":106.728916,"line":6,"station_id":"JMU","i_lat":-6.288927,"distance":1994,"transit":false,"time":4},{"station_id":"PDJ","station_name":"Pondokranji","transit":false,"distance":2179,"time":3,"i_lat":-6.276362,"line":6,"is_transit":false,"i_long":106.74273},{"station_name":"Kebayoran","transit":false,"time":8,"i_long":106.780334,"distance":6218,"is_transit":false,"i_lat":-6.237242,"line":6,"station_id":"KBY"},{"distance":3737,"i_lat":-6.207404,"station_name":"Palmerah","station_id":"PLM","is_transit":false,"transit":false,"i_long":106.79689,"line":6,"time":7}]]}