{"data":[[{"is_transit":false,"transit":false,"station_id":"CTR","station_name":"Citeras","i_long":106.332092,"time":0,"distance":0,"i_lat":-6.334892,"line":3},{"time":10,"station_name":"Maja","distance":7293,"i_long":106.394373,"station_id":"MJ","i_lat":-6.332307,"transit":false,"is_transit":false,"line":6},{"time":4,"station_name":"Cikoya","i_lat":-6.33561,"transit":false,"distance":1853,"station_id":"CKY","is_transit":false,"i_long":106.411216,"line":3},{"station_id":"TGS","time":3,"station_name":"Tigaraksa","distance":2651,"is_transit":false,"i_lat":-6.328533,"i_long":106.425991,"line":6,"transit":false},{"station_name":"Tenjo","i_long":106.460812,"time":5,"i_lat":-6.327251,"line":6,"is_transit":false,"transit":false,"station_id":"TEJ","distance":2974},{"station_id":"DAR","station_name":"Daru","transit":false,"is_transit":false,"distance":3902,"line":0,"time":5,"i_lat":-6.338021,"i_long":106.491338},{"i_long":106.508482,"transit":false,"i_lat":-6.354349,"station_id":"CJT","time":6,"distance":2675,"station_name":"Cilejit","line":3,"is_transit":false},{"i_lat":-6.3441410000000005,"i_long":106.568863,"line":6,"station_name":"Parung Panjang","transit":false,"station_id":"PRP","time":9,"distance":7025,"is_transit":false},{"station_name":"Cicayur","is_transit":false,"time":8,"station_id":"CC","i_lat":-6.329547,"i_long":106.617853,"transit":false,"line":3,"distance":5968},{"line":3,"i_lat":-6.32484,"station_name":"Cisauk","station_id":"CSK","is_transit":false,"transit":false,"distance":2519,"time":4,"i_long":106.640411},{"time":4,"distance":1784,"transit":false,"station_id":"SRP","i_lat":-6.319871,"line":6,"is_transit":false,"i_long":106.66566,"station_name":"Serpong"},{"station_name":"Rawa Buntu","is_transit":false,"transit":false,"distance":2413,"line":6,"station_id":"RU","i_lat":-6.314823,"i_long":106.675475,"time":4},{"transit":false,"distance":4566,"station_name":"Sudimara","i_lat":-6.296963,"line":6,"i_long":106.712277,"time":6,"station_id":"SDM","is_transit":false},{"line":6,"time":4,"station_id":"JMU","i_lat":-6.288927,"distance":1994,"transit":false,"station_name":"Jurangmangu","i_long":106.728916,"is_transit":false},{"is_transit":false,"time":3,"i_long":106.74273,"station_id":"PDJ","line":6,"station_name":"Pondokranji","i_lat":-6.276362,"distance":2179,"transit":false},{"time":8,"i_long":106.780334,"distance":6218,"station_name":"Kebayoran","line":6,"station_id":"KBY","is_transit":false,"i_lat":-6.237242,"transit":false},{"line":6,"station_id":"PLM","is_transit":false,"time":7,"i_lat":-6.207404,"station_name":"Palmerah","distance":3737,"i_long":106.79689,"transit":false},{"is_transit":true,"transit":true,"i_long":106.811091,"station_id":"THB","distance":3191,"i_lat":-6.185545,"time":6,"line":1,"station_name":"Tanah Abang"},{"i_long":106.816351,"distance":2029,"i_lat":-6.20132,"is_transit":false,"time":5,"line":1,"station_name":"Karet","station_id":"KAT","transit":false},{"time":1,"is_transit":false,"station_name":"Sudirman Baru","i_lat":-6.201433,"i_long":106.819881,"station_id":"SUDB","line":1,"transit":false,"distance":471},{"station_id":"SUD","time":1,"is_transit":false,"distance":280,"station_name":"Sudirman","i_long":106.822649,"line":1,"transit":false,"i_lat":-6.202263},{"station_name":"Manggarai","transit":false,"time":4,"line":2,"i_long":106.84912,"distance":3186,"is_transit":false,"station_id":"MRI","i_lat":-6.209883},{"station_id":"MTR","transit":false,"station_name":"Matraman","i_lat":-6.212485,"line":1,"i_long":106.858896,"time":2,"distance":1275,"is_transit":false},{"is_transit":false,"i_lat":-6.215091,"transit":false,"i_long":106.86807400000001,"station_name":"Jatinegara","station_id":"JNG","distance":1377,"time":8,"line":1},{"line":1,"station_id":"KLD","transit":false,"station_name":"Klender","time":3,"distance":3395,"is_transit":false,"i_long":106.899548,"i_lat":-6.2135},{"is_transit":false,"transit":false,"station_name":"Buaran","station_id":"BUA","i_lat":-6.215568,"i_long":106.922662,"time":2,"line":1,"distance":3100},{"station_name":"Klenderbaru","transit":false,"is_transit":false,"line":1,"station_id":"KLDB","i_lat":-6.217455,"i_long":106.939679,"time":1,"distance":1305},{"is_transit":false,"station_id":"CUK","line":1,"station_name":"Cakung","time":8,"distance":1385,"i_lat":-6.219053,"transit":false,"i_long":106.951283},{"transit":false,"i_lat":-6.224515,"line":1,"station_id":"KRI","is_transit":false,"station_name":"Kranji","distance":3097,"i_long":106.977657,"time":3},{"station_id":"BKS","transit":false,"line":1,"i_lat":-6.236616,"is_transit":false,"station_name":"Bekasi","time":4,"i_long":106.997013,"distance":2520},{"is_transit":false,"station_name":"Bekasi Timur","station_id":"BKST","i_long":107.016735,"transit":false,"distance":2368,"time":2,"line":1,"i_lat":-6.248029}],[{"station_name":"Citeras","line":3,"i_long":106.332092,"station_id":"CTR","i_lat":-6.334892,"distance":0,"time":0,"is_transit":false,"transit":false},{"station_name":"Maja","time":10,"distance":7293,"i_long":106.394373,"station_id":"MJ","is_transit":false,"transit":false,"i_lat":-6.332307,"line":6},{"station_id":"CKY","line":3,"distance":1853,"station_name":"Cikoya","is_transit":false,"transit":false,"i_lat":-6.33561,"i_long":106.411216,"time":4},{"distance":2651,"line":6,"i_long":106.425991,"station_name":"Tigaraksa","transit":false,"is_transit":false,"time":3,"i_lat":-6.328533,"station_id":"TGS"},{"station_name":"Tenjo","i_long":106.460812,"distance":2974,"line":6,"i_lat":-6.327251,"station_id":"TEJ","is_transit":false,"time":5,"transit":false},{"time":5,"transit":false,"distance":3902,"station_name":"Daru","station_id":"DAR","i_long":106.491338,"line":0,"is_transit":false,"i_lat":-6.338021},{"time":6,"station_id":"CJT","distance":2675,"transit":false,"i_long":106.508482,"station_name":"Cilejit","line":3,"is_transit":false,"i_lat":-6.354349},{"i_long":106.568863,"is_transit":false,"station_name":"Parung Panjang","distance":7025,"transit":false,"station_id":"PRP","time":9,"i_lat":-6.3441410000000005,"line":6},{"is_transit":false,"time":8,"i_lat":-6.329547,"line":3,"distance":5968,"station_id":"CC","station_name":"Cicayur","transit":false,"i_long":106.617853},{"is_transit":false,"station_id":"CSK","i_long":106.640411,"station_name":"Cisauk","i_lat":-6.32484,"transit":false,"distance":2519,"line":3,"time":4},{"station_id":"SRP","line":6,"distance":1784,"time":4,"station_name":"Serpong","transit":false,"i_lat":-6.319871,"i_long":106.66566,"is_transit":false},{"station_name":"Rawa Buntu","station_id":"RU","i_lat":-6.314823,"is_transit":false,"time":4,"distance":2413,"i_long":106.675475,"line":6,"transit":false},{"station_id":"SDM","is_transit":false,"i_long":106.712277,"line":6,"transit":false,"i_lat":-6.296963,"time":6,"station_name":"Sudimara","distance":4566},{"station_name":"Jurangmangu","is_transit":false,"time":4,"distance":1994,"i_lat":-6.288927,"line":6,"transit":false,"i_long":106.728916,"station_id":"JMU"},{"transit":false,"is_transit":false,"i_lat":-6.276362,"station_id":"PDJ","station_name":"Pondokranji","time":3,"distance":2179,"line":6,"i_long":106.74273},{"transit":false,"i_long":106.780334,"line":6,"i_lat":-6.237242,"station_name":"Kebayoran","is_transit":false,"time":8,"station_id":"KBY","distance":6218},{"transit":false,"line":6,"is_transit":false,"station_id":"PLM","distance":3737,"time":7,"i_long":106.79689,"station_name":"Palmerah","i_lat":-6.207404},{"is_transit":true,"line":1,"i_long":106.811091,"distance":3191,"i_lat":-6.185545,"station_name":"Tanah Abang","station_id":"THB","transit":true,"time":6},{"station_name":"Duri","station_id":"DU","transit":false,"i_long":106.800832,"is_transit":false,"distance":3632,"line":1,"i_lat":-6.155215,"time":8},{"transit":false,"time":4,"station_name":"Angke","i_lat":-6.144674,"i_long":106.79867,"distance":1230,"is_transit":false,"station_id":"AK","line":1},{"time":9,"distance":4102,"station_name":"Kampung Bandan","i_long":106.826365,"line":4,"i_lat":-6.132549,"is_transit":true,"transit":true,"station_id":"KPB"},{"station_name":"Rajawali","station_id":"RJW","i_long":106.836569,"is_transit":false,"line":11,"transit":false,"distance":1444,"i_lat":-6.14505,"time":3},{"i_lat":-6.161728,"station_id":"KMO","distance":1901,"station_name":"Kemayoran","i_long":106.839204,"is_transit":false,"time":5,"transit":false,"line":11},{"i_long":106.84368,"transit":false,"station_name":"Pasar Senen","time":4,"i_lat":-6.174784,"distance":1436,"line":11,"station_id":"PSE","is_transit":false},{"is_transit":false,"station_id":"GST","station_name":"Gang Sentiong","i_long":106.850107,"transit":false,"i_lat":-6.185975,"distance":1567,"line":11,"time":8},{"time":1,"is_transit":false,"i_lat":-6.193792,"i_long":106.855437,"station_name":"Kramat","line":11,"distance":973,"transit":false,"station_id":"KMT"},{"distance":1829,"station_name":"Pondok Jati","time":2,"i_lat":-6.209188,"transit":false,"is_transit":false,"i_long":106.861737,"station_id":"POK","line":11},{"is_transit":true,"transit":true,"i_long":106.86807400000001,"line":1,"station_name":"Jatinegara","distance":1236,"time":9,"i_lat":-6.215091,"station_id":"JNG"},{"i_long":106.899548,"station_id":"KLD","time":3,"i_lat":-6.2135,"station_name":"Klender","transit":false,"is_transit":false,"distance":3395,"line":1},{"i_lat":-6.215568,"is_transit":false,"line":1,"transit":false,"station_name":"Buaran","distance":3100,"time":2,"station_id":"BUA","i_long":106.922662},{"is_transit":false,"station_id":"KLDB","station_name":"Klenderbaru","line":1,"i_lat":-6.217455,"i_long":106.939679,"distance":1305,"transit":false,"time":1},{"distance":1385,"i_long":106.951283,"line":1,"station_name":"Cakung","is_transit":false,"i_lat":-6.219053,"station_id":"CUK","time":8,"transit":false},{"i_long":106.977657,"is_transit":false,"distance":3097,"station_id":"KRI","i_lat":-6.224515,"transit":false,"time":3,"station_name":"Kranji","line":1},{"station_name":"Bekasi","i_lat":-6.236616,"line":1,"time":4,"transit":false,"i_long":106.997013,"is_transit":false,"distance":2520,"station_id":"BKS"},{"time":2,"i_lat":-6.248029,"i_long":107.016735,"transit":false,"line":1,"distance":2368,"station_name":"Bekasi Timur","station_id":"BKST","is_transit":false}],[{"station_name":"Citeras","time":0,"distance":0,"i_lat":-6.334892,"is_transit":false,"line":3,"station_id":"CTR","transit":false,"i_long":106.332092},{"line":6,"is_transit":false,"time":10,"station_id":"MJ","transit":false,"distance":7293,"i_lat":-6.332307,"i_long":106.394373,"station_name":"Maja"},{"i_long":106.411216,"i_lat":-6.33561,"time":4,"station_name":"Cikoya","station_id":"CKY","line":3,"is_transit":false,"transit":false,"distance":1853},{"is_transit":false,"line":6,"station_name":"Tigaraksa","station_id":"TGS","transit":false,"distance":2651,"i_long":106.425991,"time":3,"i_lat":-6.328533},{"is_transit":false,"distance":2974,"i_lat":-6.327251,"line":6,"time":5,"station_name":"Tenjo","transit":false,"i_long":106.460812,"station_id":"TEJ"},{"transit":false,"station_name":"Daru","station_id":"DAR","is_transit":false,"time":5,"distance":3902,"i_lat":-6.338021,"i_long":106.491338,"line":0},{"i_lat":-6.354349,"station_id":"CJT","time":6,"transit":false,"i_long":106.508482,"is_transit":false,"station_name":"Cilejit","line":3,"distance":2675},{"is_transit":false,"station_id":"PRP","i_lat":-6.3441410000000005,"i_long":106.568863,"distance":7025,"station_name":"Parung Panjang","time":9,"line":6,"transit":false},{"i_long":106.617853,"station_id":"CC","i_lat":-6.329547,"distance":5968,"line":3,"station_name":"Cicayur","is_transit":false,"transit":false,"time":8},{"station_id":"CSK","time":4,"distance":2519,"station_name":"Cisauk","transit":false,"i_long":106.640411,"is_transit":false,"line":3,"i_lat":-6.32484},{"station_id":"SRP","is_transit":false,"transit":false,"distance":1784,"i_lat":-6.319871,"i_long":106.66566,"line":6,"time":4,"station_name":"Serpong"},{"transit":false,"line":6,"station_name":"Rawa Buntu","station_id":"RU","i_lat":-6.314823,"distance":2413,"time":4,"i_long":106.675475,"is_transit":false},{"station_id":"SDM","i_long":106.712277,"line":6,"distance":4566,"transit":false,"is_transit":false,"i_lat":-6.296963,"station_name":"Sudimara","time":6},{"i_long":106.728916,"line":6,"station_id":"JMU","is_transit":false,"time":4,"distance":1994,"i_lat":-6.288927,"transit":false,"station_name":"Jurangmangu"},{"i_lat":-6.276362,"station_id":"PDJ","distance":2179,"line":6,"is_transit":false,"time":3,"station_name":"Pondokranji","i_long":106.74273,"transit":false},{"i_lat":-6.237242,"station_id":"KBY","station_name":"Kebayoran","distance":6218,"i_long":106.780334,"transit":false,"line":6,"time":8,"is_transit":false},{"line":6,"transit":false,"is_transit":false,"time":7,"i_lat":-6.207404,"station_id":"PLM","i_long":106.79689,"station_name":"Palmerah","distance":3737},{"time":6,"line":1,"station_name":"Tanah Abang","distance":3191,"i_lat":-6.185545,"is_transit":true,"i_long":106.811091,"transit":true,"station_id":"THB"},{"i_long":106.800832,"distance":3632,"i_lat":-6.155215,"station_id":"DU","transit":false,"is_transit":false,"line":1,"time":8,"station_name":"Duri"},{"station_id":"AK","station_name":"Angke","is_transit":false,"transit":false,"distance":1230,"line":1,"i_lat":-6.144674,"time":4,"i_long":106.79867},{"distance":4102,"station_id":"KPB","transit":true,"i_lat":-6.132549,"i_long":106.826365,"line":4,"time":9,"is_transit":true,"station_name":"Kampung Bandan"},{"line":2,"i_long":106.812439,"time":3,"distance":1364,"transit":true,"station_id":"JAKK","is_transit":true,"i_lat":-6.137569,"station_name":"Jakarta Kota"},{"is_transit":false,"transit":false,"station_name":"Jayakarta","distance":1264,"station_id":"JAY","i_long":106.820901,"time":4,"i_lat":-6.141205,"line":2},{"station_name":"Manggabesar","line":2,"is_transit":false,"i_long":106.82482,"transit":false,"time":2,"station_id":"MGB","distance":1080,"i_lat":-6.149769},{"time":2,"line":2,"distance":906,"station_id":"SW","i_lat":-6.160725,"station_name":"Sawah Besar","transit":false,"is_transit":false,"i_long":106.827103},{"distance":1149,"station_id":"JUA","i_lat":-6.166716,"line":2,"station_name":"Juanda","i_long":106.828284,"time":2,"is_transit":false,"transit":false},{"station_name":"Gondangdia","distance":2015,"line":2,"is_transit":false,"transit":false,"i_long":106.832183,"time":4,"i_lat":-6.186295,"station_id":"GDD"},{"line":2,"transit":false,"station_name":"Cikini","station_id":"CKI","i_long":106.840169,"is_transit":false,"time":3,"distance":1750,"i_lat":-6.198556},{"is_transit":true,"line":2,"time":4,"station_name":"Manggarai","station_id":"MRI","distance":1590,"transit":true,"i_lat":-6.209883,"i_long":106.84912},{"station_id":"MTR","transit":false,"time":2,"distance":1275,"line":1,"i_long":106.858896,"is_transit":false,"i_lat":-6.212485,"station_name":"Matraman"},{"station_name":"Jatinegara","is_transit":false,"i_lat":-6.215091,"i_long":106.86807400000001,"transit":false,"station_id":"JNG","distance":1377,"line":1,"time":8},{"i_long":106.899548,"is_transit":false,"i_lat":-6.2135,"station_id":"KLD","distance":3395,"time":3,"transit":false,"line":1,"station_name":"Klender"},{"i_lat":-6.215568,"time":2,"distance":3100,"is_transit":false,"station_name":"Buaran","station_id":"BUA","transit":false,"i_long":106.922662,"line":1},{"station_id":"KLDB","distance":1305,"i_lat":-6.217455,"i_long":106.939679,"is_transit":false,"time":1,"line":1,"transit":false,"station_name":"Klenderbaru"},{"station_id":"CUK","i_lat":-6.219053,"transit":false,"station_name":"Cakung","time":8,"i_long":106.951283,"line":1,"is_transit":false,"distance":1385},{"time":3,"distance":3097,"station_id":"KRI","station_name":"Kranji","line":1,"transit":false,"i_long":106.977657,"i_lat":-6.224515,"is_transit":false},{"i_long":106.997013,"line":1,"is_transit":false,"i_lat":-6.236616,"distance":2520,"time":4,"transit":false,"station_name":"Bekasi","station_id":"BKS"},{"station_name":"Bekasi Timur","i_lat":-6.248029,"time":2,"station_id":"BKST","transit":false,"is_transit":false,"line":1,"i_long":107.016735,"distance":2368}],[{"line":3,"time":0,"station_id":"CTR","transit":false,"distance":0,"i_long":106.332092,"station_name":"Citeras","is_transit":false,"i_lat":-6.334892},{"station_id":"MJ","transit":false,"line":6,"is_transit":false,"time":10,"distance":7293,"station_name":"Maja","i_long":106.394373,"i_lat":-6.332307},{"i_lat":-6.33561,"i_long":106.411216,"station_id":"CKY","distance":1853,"transit":false,"station_name":"Cikoya","is_transit":false,"time":4,"line":3},{"station_name":"Tigaraksa","time":3,"line":6,"i_long":106.425991,"distance":2651,"transit":false,"i_lat":-6.328533,"is_transit":false,"station_id":"TGS"},{"time":5,"station_id":"TEJ","station_name":"Tenjo","is_transit":false,"i_lat":-6.327251,"transit":false,"distance":2974,"i_long":106.460812,"line":6},{"time":5,"station_name":"Daru","line":0,"station_id":"DAR","distance":3902,"i_lat":-6.338021,"i_long":106.491338,"transit":false,"is_transit":false},{"line":3,"transit":false,"i_long":106.508482,"time":6,"distance":2675,"i_lat":-6.354349,"station_name":"Cilejit","is_transit":false,"station_id":"CJT"},{"is_transit":false,"transit":false,"i_long":106.568863,"distance":7025,"station_name":"Parung Panjang","station_id":"PRP","i_lat":-6.3441410000000005,"line":6,"time":9},{"is_transit":false,"station_id":"CC","station_name":"Cicayur","i_lat":-6.329547,"time":8,"distance":5968,"i_long":106.617853,"transit":false,"line":3},{"i_lat":-6.32484,"i_long":106.640411,"is_transit":false,"transit":false,"distance":2519,"line":3,"station_id":"CSK","time":4,"station_name":"Cisauk"},{"time":4,"distance":1784,"i_long":106.66566,"line":6,"transit":false,"station_name":"Serpong","station_id":"SRP","i_lat":-6.319871,"is_transit":false},{"is_transit":false,"line":6,"station_name":"Rawa Buntu","transit":false,"distance":2413,"i_long":106.675475,"i_lat":-6.314823,"station_id":"RU","time":4},{"is_transit":false,"i_lat":-6.296963,"transit":false,"time":6,"distance":4566,"i_long":106.712277,"station_name":"Sudimara","station_id":"SDM","line":6},{"station_id":"JMU","time":4,"distance":1994,"i_lat":-6.288927,"line":6,"station_name":"Jurangmangu","is_transit":false,"transit":false,"i_long":106.728916},{"transit":false,"time":3,"line":6,"station_name":"Pondokranji","i_long":106.74273,"i_lat":-6.276362,"is_transit":false,"station_id":"PDJ","distance":2179},{"time":8,"station_id":"KBY","station_name":"Kebayoran","line":6,"distance":6218,"is_transit":false,"i_long":106.780334,"i_lat":-6.237242,"transit":false},{"station_id":"PLM","station_name":"Palmerah","line":6,"time":7,"i_lat":-6.207404,"transit":false,"is_transit":false,"i_long":106.79689,"distance":3737},{"i_long":106.811091,"transit":true,"line":1,"station_id":"THB","station_name":"Tanah Abang","is_transit":true,"time":6,"distance":3191,"i_lat":-6.185545},{"transit":false,"station_name":"Karet","time":5,"i_long":106.816351,"is_transit":false,"station_id":"KAT","distance":2029,"i_lat":-6.20132,"line":1},{"line":1,"time":1,"is_transit":false,"station_id":"SUDB","transit":false,"i_lat":-6.201433,"distance":471,"i_long":106.819881,"station_name":"Sudirman Baru"},{"station_name":"Sudirman","is_transit":false,"transit":false,"station_id":"SUD","distance":280,"i_long":106.822649,"line":1,"i_lat":-6.202263,"time":1},{"i_lat":-6.209883,"line":2,"station_name":"Manggarai","i_long":106.84912,"time":4,"distance":3186,"station_id":"MRI","transit":true,"is_transit":true},{"time":4,"station_name":"Cikini","distance":1590,"station_id":"CKI","transit":false,"is_transit":false,"line":2,"i_lat":-6.198556,"i_long":106.840169},{"distance":1750,"i_long":106.832183,"i_lat":-6.186295,"station_id":"GDD","is_transit":false,"time":3,"line":2,"station_name":"Gondangdia","transit":false},{"transit":false,"i_long":106.828284,"station_id":"JUA","line":2,"i_lat":-6.166716,"station_name":"Juanda","time":4,"distance":2015,"is_transit":false},{"transit":false,"distance":1149,"i_long":106.827103,"is_transit":false,"station_name":"Sawah Besar","i_lat":-6.160725,"time":2,"line":2,"station_id":"SW"},{"transit":false,"station_id":"MGB","line":2,"is_transit":false,"time":2,"i_long":106.82482,"i_lat":-6.149769,"distance":906,"station_name":"Manggabesar"},{"line":2,"transit":false,"is_transit":false,"i_lat":-6.141205,"station_name":"Jayakarta","station_id":"JAY","distance":1080,"i_long":106.820901,"time":2},{"station_name":"Jakarta Kota","station_id":"JAKK","time":4,"line":2,"i_lat":-6.137569,"transit":true,"i_long":106.812439,"is_transit":true,"distance":1264},{"is_transit":true,"transit":true,"station_name":"Kampung Bandan","i_long":106.826365,"line":4,"i_lat":-6.132549,"station_id":"KPB","time":3,"distance":1364},{"is_transit":false,"i_long":106.836569,"line":11,"transit":false,"i_lat":-6.14505,"station_id":"RJW","distance":1444,"station_name":"Rajawali","time":3},{"line":11,"i_long":106.839204,"i_lat":-6.161728,"station_name":"Kemayoran","time":5,"is_transit":false,"station_id":"KMO","transit":false,"distance":1901},{"is_transit":false,"transit":false,"time":4,"distance":1436,"i_lat":-6.174784,"station_id":"PSE","i_long":106.84368,"station_name":"Pasar Senen","line":11},{"station_name":"Gang Sentiong","i_lat":-6.185975,"i_long":106.850107,"transit":false,"station_id":"GST","line":11,"distance":1567,"is_transit":false,"time":8},{"i_long":106.855437,"time":1,"transit":false,"line":11,"station_id":"KMT","i_lat":-6.193792,"station_name":"Kramat","is_transit":false,"distance":973},{"line":11,"i_long":106.861737,"time":2,"station_name":"Pondok Jati","is_transit":false,"transit":false,"distance":1829,"station_id":"POK","i_lat":-6.209188},{"time":9,"transit":true,"i_long":106.86807400000001,"line":1,"station_id":"JNG","station_name":"Jatinegara","i_lat":-6.215091,"is_transit":true,"distance":1236},{"distance":3395,"i_lat":-6.2135,"station_name":"Klender","is_transit":false,"transit":false,"i_long":106.899548,"line":1,"station_id":"KLD","time":3},{"is_transit":false,"i_lat":-6.215568,"i_long":106.922662,"station_id":"BUA","distance":3100,"line":1,"time":2,"station_name":"Buaran","transit":false},{"station_id":"KLDB","is_transit":false,"time":1,"station_name":"Klenderbaru","distance":1305,"i_long":106.939679,"line":1,"i_lat":-6.217455,"transit":false},{"i_lat":-6.219053,"line":1,"station_id":"CUK","distance":1385,"transit":false,"i_long":106.951283,"station_name":"Cakung","is_transit":false,"time":8},{"transit":false,"distance":3097,"i_lat":-6.224515,"is_transit":false,"station_name":"Kranji","time":3,"i_long":106.977657,"station_id":"KRI","line":1},{"station_id":"BKS","transit":false,"distance":2520,"i_long":106.997013,"i_lat":-6.236616,"line":1,"time":4,"station_name":"Bekasi","is_transit":false},{"transit":false,"distance":2368,"is_transit":false,"station_name":"Bekasi Timur","time":2,"i_lat":-6.248029,"i_long":107.016735,"station_id":"BKST","line":1}]]}