{"data":[[{"i_lat":-6.334892,"line":3,"transit":false,"time":0,"is_transit":false,"distance":0,"station_id":"CTR","i_long":106.332092,"station_name":"Citeras"},{"line":6,"distance":7293,"is_transit":false,"time":10,"station_name":"Maja","i_lat":-6.332307,"i_long":106.394373,"station_id":"MJ","transit":false},{"i_long":106.411216,"is_transit":false,"station_name":"Cikoya","station_id":"CKY","line":3,"i_lat":-6.33561,"distance":1853,"transit":false,"time":4},{"i_lat":-6.328533,"line":6,"station_id":"TGS","transit":false,"time":3,"i_long":106.425991,"is_transit":false,"station_name":"Tigaraksa","distance":2651},{"time":5,"is_transit":false,"station_name":"Tenjo","transit":false,"distance":2974,"line":6,"station_id":"TEJ","i_lat":-6.327251,"i_long":106.460812},{"i_long":106.491338,"is_transit":false,"station_id":"DAR","i_lat":-6.338021,"distance":3902,"transit":false,"time":5,"station_name":"Daru","line":0},{"station_id":"CJT","is_transit":false,"time":6,"distance":2675,"transit":false,"i_lat":-6.354349,"i_long":106.508482,"line":3,"station_name":"Cilejit"},{"is_transit":false,"i_long":106.568863,"station_id":"PRP","transit":false,"line":6,"station_name":"Parung Panjang","distance":7025,"time":9,"i_lat":-6.3441410000000005},{"transit":false,"time":8,"is_transit":false,"i_lat":-6.329547,"line":3,"distance":5968,"i_long":106.617853,"station_id":"CC","station_name":"Cicayur"},{"i_long":106.640411,"station_name":"Cisauk","transit":false,"is_transit":false,"time":4,"distance":2519,"line":3,"station_id":"CSK","i_lat":-6.32484},{"time":4,"is_transit":false,"line":6,"i_lat":-6.319871,"i_long":106.66566,"transit":false,"station_name":"Serpong","station_id":"SRP","distance":1784},{"i_long":106.675475,"is_transit":false,"time":4,"distance":2413,"transit":false,"i_lat":-6.314823,"line":6,"station_name":"Rawa Buntu","station_id":"RU"},{"i_long":106.712277,"station_id":"SDM","i_lat":-6.296963,"line":6,"transit":false,"time":6,"station_name":"Sudimara","is_transit":false,"distance":4566},{"i_long":106.728916,"i_lat":-6.288927,"station_name":"Jurangmangu","time":4,"distance":1994,"is_transit":false,"station_id":"JMU","line":6,"transit":false},{"i_lat":-6.276362,"station_name":"Pondokranji","distance":2179,"line":6,"is_transit":false,"time":3,"station_id":"PDJ","i_long":106.74273,"transit":false},{"is_transit":false,"station_name":"Kebayoran","i_lat":-6.237242,"transit":false,"station_id":"KBY","time":8,"line":6,"i_long":106.780334,"distance":6218}]]}