{"data":[[{"station_name":"Citeras","is_transit":false,"time":0,"line":0,"i_lat":-6.334892,"distance":0,"i_long":106.332092,"transit":false,"station_id":"CTR"},{"i_lat":-6.332307,"is_transit":false,"distance":7293,"line":6,"i_long":106.394373,"station_id":"MJ","time":10,"transit":false,"station_name":"Maja"},{"station_name":"Cikoya","transit":false,"station_id":"CKY","distance":1853,"i_lat":-6.33561,"line":0,"i_long":106.411216,"is_transit":false,"time":4},{"line":6,"i_lat":-6.328533,"transit":false,"i_long":106.425991,"station_id":"TGS","distance":2651,"is_transit":false,"time":3,"station_name":"Tigaraksa"},{"is_transit":false,"station_name":"Tenjo","i_lat":-6.327251,"transit":false,"line":6,"distance":2974,"time":5,"i_long":106.460812,"station_id":"TEJ"},{"line":0,"transit":false,"i_long":106.491338,"is_transit":false,"distance":3902,"time":5,"station_name":"Daru","station_id":"DAR","i_lat":-6.338021},{"time":6,"i_lat":-6.354349,"is_transit":false,"distance":2675,"transit":false,"line":0,"station_name":"Cilejit","i_long":106.508482,"station_id":"CJT"},{"distance":7025,"time":9,"transit":false,"station_name":"Parung Panjang","station_id":"PRP","i_lat":-6.3441410000000005,"line":6,"is_transit":false,"i_long":106.568863},{"station_id":"CC","time":8,"station_name":"Cicayur","is_transit":false,"i_lat":-6.329547,"i_long":106.617853,"line":0,"transit":false,"distance":5968},{"i_lat":-6.32484,"station_name":"Cisauk","is_transit":false,"station_id":"CSK","line":0,"distance":2519,"transit":false,"i_long":106.640411,"time":4},{"line":6,"is_transit":false,"transit":false,"time":4,"distance":1784,"i_long":106.66566,"i_lat":-6.319871,"station_name":"Serpong","station_id":"SRP"},{"i_lat":-6.314823,"line":6,"distance":2413,"station_name":"Rawa Buntu","transit":false,"is_transit":false,"time":4,"i_long":106.675475,"station_id":"RU"},{"time":6,"transit":false,"station_id":"SDM","station_name":"Sudimara","i_lat":-6.296963,"distance":4566,"i_long":106.712277,"is_transit":false,"line":6}]]}