{"data":[[{"station_name":"Citeras","line":3,"i_long":106.332092,"transit":false,"station_id":"CTR","time":0,"is_transit":false,"distance":0,"i_lat":-6.334892},{"station_name":"Maja","time":10,"station_id":"MJ","distance":7293,"transit":false,"i_long":106.394373,"line":6,"i_lat":-6.332307,"is_transit":false},{"distance":1853,"transit":false,"station_id":"CKY","i_lat":-6.33561,"line":3,"is_transit":false,"i_long":106.411216,"station_name":"Cikoya","time":4},{"line":6,"station_id":"TGS","i_long":106.425991,"transit":false,"time":3,"station_name":"Tigaraksa","is_transit":false,"i_lat":-6.328533,"distance":2651},{"i_lat":-6.327251,"i_long":106.460812,"transit":false,"is_transit":false,"distance":2974,"line":6,"station_id":"TEJ","time":5,"station_name":"Tenjo"},{"transit":false,"station_name":"Daru","time":5,"i_lat":-6.338021,"i_long":106.491338,"line":0,"distance":3902,"is_transit":false,"station_id":"DAR"},{"is_transit":false,"i_lat":-6.354349,"station_id":"CJT","transit":false,"distance":2675,"station_name":"Cilejit","i_long":106.508482,"line":3,"time":6},{"i_long":106.568863,"line":6,"distance":7025,"station_name":"Parung Panjang","time":9,"is_transit":false,"station_id":"PRP","i_lat":-6.3441410000000005,"transit":false},{"transit":false,"line":3,"i_lat":-6.329547,"station_id":"CC","time":8,"distance":5968,"station_name":"Cicayur","is_transit":false,"i_long":106.617853},{"i_long":106.640411,"station_id":"CSK","station_name":"Cisauk","distance":2519,"is_transit":false,"i_lat":-6.32484,"transit":false,"time":4,"line":3},{"time":4,"is_transit":false,"i_lat":-6.319871,"distance":1784,"i_long":106.66566,"station_id":"SRP","line":6,"transit":false,"station_name":"Serpong"},{"station_id":"RU","i_long":106.675475,"line":6,"time":4,"is_transit":false,"transit":false,"distance":2413,"station_name":"Rawa Buntu","i_lat":-6.314823},{"transit":false,"distance":4566,"station_name":"Sudimara","i_lat":-6.296963,"line":6,"is_transit":false,"station_id":"SDM","time":6,"i_long":106.712277},{"transit":false,"distance":1994,"station_id":"JMU","line":6,"time":4,"is_transit":false,"i_lat":-6.288927,"station_name":"Jurangmangu","i_long":106.728916},{"distance":2179,"station_name":"Pondokranji","station_id":"PDJ","transit":false,"is_transit":false,"i_lat":-6.276362,"i_long":106.74273,"line":6,"time":3}]]}