{"data":[[{"station_name":"Citeras","transit":false,"is_transit":false,"distance":0,"time":0,"station_id":"CTR","i_lat":-6.334892,"i_long":106.332092,"line":3},{"i_lat":-6.332307,"station_id":"MJ","distance":7293,"line":6,"station_name":"Maja","is_transit":false,"transit":false,"time":10,"i_long":106.394373},{"is_transit":false,"transit":false,"line":3,"station_id":"CKY","distance":1853,"time":4,"station_name":"Cikoya","i_lat":-6.33561,"i_long":106.411216},{"i_long":106.425991,"i_lat":-6.328533,"station_id":"TGS","station_name":"Tigaraksa","distance":2651,"is_transit":false,"transit":false,"line":6,"time":3},{"line":6,"station_name":"Tenjo","distance":2974,"i_lat":-6.327251,"station_id":"TEJ","time":5,"i_long":106.460812,"is_transit":false,"transit":false},{"i_lat":-6.338021,"distance":3902,"station_name":"Daru","station_id":"DAR","line":0,"is_transit":false,"i_long":106.491338,"transit":false,"time":5},{"station_name":"Cilejit","line":3,"time":6,"station_id":"CJT","transit":false,"i_lat":-6.354349,"is_transit":false,"distance":2675,"i_long":106.508482},{"distance":7025,"station_id":"PRP","station_name":"Parung Panjang","transit":false,"i_lat":-6.3441410000000005,"i_long":106.568863,"time":9,"is_transit":false,"line":6},{"i_long":106.617853,"i_lat":-6.329547,"station_name":"Cicayur","station_id":"CC","is_transit":false,"distance":5968,"line":3,"time":8,"transit":false},{"station_id":"CSK","station_name":"Cisauk","time":4,"transit":false,"i_lat":-6.32484,"is_transit":false,"distance":2519,"i_long":106.640411,"line":3},{"distance":1784,"time":4,"is_transit":false,"station_id":"SRP","line":6,"transit":false,"i_lat":-6.319871,"i_long":106.66566,"station_name":"Serpong"},{"i_long":106.675475,"line":6,"time":4,"i_lat":-6.314823,"is_transit":false,"station_name":"Rawa Buntu","distance":2413,"station_id":"RU","transit":false},{"i_long":106.712277,"time":6,"transit":false,"line":6,"distance":4566,"is_transit":false,"i_lat":-6.296963,"station_name":"Sudimara","station_id":"SDM"},{"distance":1994,"station_name":"Jurangmangu","station_id":"JMU","i_long":106.728916,"time":4,"transit":false,"line":6,"is_transit":false,"i_lat":-6.288927},{"i_long":106.74273,"line":6,"station_id":"PDJ","transit":false,"distance":2179,"time":3,"is_transit":false,"station_name":"Pondokranji","i_lat":-6.276362},{"station_id":"KBY","time":8,"transit":false,"line":6,"i_lat":-6.237242,"i_long":106.780334,"station_name":"Kebayoran","distance":6218,"is_transit":false},{"is_transit":false,"line":6,"distance":3737,"i_long":106.79689,"station_id":"PLM","time":7,"station_name":"Palmerah","transit":false,"i_lat":-6.207404},{"transit":true,"station_id":"THB","i_long":106.811091,"line":1,"time":6,"station_name":"Tanah Abang","is_transit":true,"i_lat":-6.185545,"distance":3191},{"is_transit":false,"station_id":"KAT","time":5,"i_lat":-6.20132,"transit":false,"i_long":106.816351,"station_name":"Karet","line":1,"distance":2029},{"station_id":"SUDB","distance":471,"i_long":106.819881,"line":1,"station_name":"Sudirman Baru","is_transit":false,"time":1,"transit":false,"i_lat":-6.201433},{"station_name":"Sudirman","time":1,"i_lat":-6.202263,"line":1,"transit":false,"i_long":106.822649,"distance":280,"station_id":"SUD","is_transit":false},{"station_id":"MRI","line":2,"station_name":"Manggarai","distance":3186,"transit":false,"is_transit":false,"time":4,"i_lat":-6.209883,"i_long":106.84912},{"line":1,"station_name":"Matraman","i_long":106.858896,"station_id":"MTR","distance":1275,"time":2,"transit":false,"i_lat":-6.212485,"is_transit":false},{"transit":false,"distance":1377,"station_name":"Jatinegara","i_lat":-6.215091,"time":8,"is_transit":false,"i_long":106.86807400000001,"station_id":"JNG","line":1},{"station_id":"KLD","time":3,"i_lat":-6.2135,"station_name":"Klender","transit":false,"is_transit":false,"distance":3395,"i_long":106.899548,"line":1},{"line":1,"i_lat":-6.215568,"distance":3100,"station_name":"Buaran","station_id":"BUA","time":2,"transit":false,"i_long":106.922662,"is_transit":false},{"distance":1305,"transit":false,"is_transit":false,"line":1,"i_lat":-6.217455,"station_name":"Klenderbaru","i_long":106.939679,"station_id":"KLDB","time":1},{"time":8,"transit":false,"i_lat":-6.219053,"line":1,"i_long":106.951283,"is_transit":false,"distance":1385,"station_id":"CUK","station_name":"Cakung"},{"time":3,"station_name":"Kranji","distance":3097,"i_lat":-6.224515,"line":1,"i_long":106.977657,"station_id":"KRI","is_transit":false,"transit":false},{"station_name":"Bekasi","distance":2520,"i_lat":-6.236616,"line":1,"is_transit":false,"station_id":"BKS","transit":false,"time":4,"i_long":106.997013},{"i_lat":-6.248029,"station_name":"Bekasi Timur","time":2,"distance":2368,"is_transit":false,"station_id":"BKST","transit":false,"i_long":107.016735,"line":1}],[{"time":0,"transit":false,"line":3,"station_id":"CTR","station_name":"Citeras","i_lat":-6.334892,"i_long":106.332092,"distance":0,"is_transit":false},{"distance":7293,"time":10,"i_long":106.394373,"is_transit":false,"station_id":"MJ","line":6,"station_name":"Maja","transit":false,"i_lat":-6.332307},{"station_id":"CKY","i_lat":-6.33561,"time":4,"station_name":"Cikoya","distance":1853,"is_transit":false,"transit":false,"line":3,"i_long":106.411216},{"line":6,"transit":false,"distance":2651,"station_id":"TGS","station_name":"Tigaraksa","time":3,"i_long":106.425991,"is_transit":false,"i_lat":-6.328533},{"distance":2974,"line":6,"is_transit":false,"transit":false,"station_id":"TEJ","i_long":106.460812,"time":5,"i_lat":-6.327251,"station_name":"Tenjo"},{"is_transit":false,"transit":false,"time":5,"i_long":106.491338,"station_name":"Daru","station_id":"DAR","i_lat":-6.338021,"line":0,"distance":3902},{"line":3,"i_lat":-6.354349,"i_long":106.508482,"transit":false,"time":6,"station_id":"CJT","is_transit":false,"station_name":"Cilejit","distance":2675},{"time":9,"i_lat":-6.3441410000000005,"line":6,"distance":7025,"station_name":"Parung Panjang","i_long":106.568863,"transit":false,"is_transit":false,"station_id":"PRP"},{"time":8,"i_long":106.617853,"i_lat":-6.329547,"distance":5968,"is_transit":false,"transit":false,"station_name":"Cicayur","line":3,"station_id":"CC"},{"i_lat":-6.32484,"distance":2519,"station_name":"Cisauk","transit":false,"time":4,"i_long":106.640411,"line":3,"is_transit":false,"station_id":"CSK"},{"transit":false,"station_name":"Serpong","distance":1784,"i_lat":-6.319871,"i_long":106.66566,"station_id":"SRP","time":4,"line":6,"is_transit":false},{"line":6,"station_name":"Rawa Buntu","is_transit":false,"transit":false,"distance":2413,"i_lat":-6.314823,"i_long":106.675475,"time":4,"station_id":"RU"},{"is_transit":false,"station_name":"Sudimara","i_lat":-6.296963,"distance":4566,"station_id":"SDM","line":6,"transit":false,"i_long":106.712277,"time":6},{"station_name":"Jurangmangu","i_lat":-6.288927,"station_id":"JMU","time":4,"transit":false,"is_transit":false,"i_long":106.728916,"line":6,"distance":1994},{"station_id":"PDJ","station_name":"Pondokranji","i_long":106.74273,"distance":2179,"is_transit":false,"line":6,"time":3,"i_lat":-6.276362,"transit":false},{"transit":false,"time":8,"station_name":"Kebayoran","is_transit":false,"i_long":106.780334,"distance":6218,"station_id":"KBY","i_lat":-6.237242,"line":6},{"i_lat":-6.207404,"is_transit":false,"station_id":"PLM","transit":false,"time":7,"line":6,"station_name":"Palmerah","i_long":106.79689,"distance":3737},{"station_name":"Tanah Abang","i_long":106.811091,"transit":true,"line":1,"is_transit":true,"station_id":"THB","distance":3191,"i_lat":-6.185545,"time":6},{"i_long":106.800832,"line":1,"station_name":"Duri","i_lat":-6.155215,"station_id":"DU","time":8,"transit":false,"distance":3632,"is_transit":false},{"time":4,"is_transit":false,"transit":false,"station_name":"Angke","i_lat":-6.144674,"i_long":106.79867,"line":1,"distance":1230,"station_id":"AK"},{"is_transit":true,"station_id":"KPB","time":9,"i_lat":-6.132549,"i_long":106.826365,"line":4,"station_name":"Kampung Bandan","transit":true,"distance":4102},{"station_name":"Rajawali","distance":1444,"time":3,"i_long":106.836569,"transit":false,"is_transit":false,"i_lat":-6.14505,"line":11,"station_id":"RJW"},{"is_transit":false,"station_name":"Kemayoran","i_lat":-6.161728,"distance":1901,"time":5,"i_long":106.839204,"line":11,"transit":false,"station_id":"KMO"},{"line":11,"distance":1436,"station_name":"Pasar Senen","is_transit":false,"station_id":"PSE","i_lat":-6.174784,"i_long":106.84368,"transit":false,"time":4},{"distance":1567,"time":8,"is_transit":false,"i_lat":-6.185975,"i_long":106.850107,"station_id":"GST","transit":false,"station_name":"Gang Sentiong","line":11},{"i_long":106.855437,"i_lat":-6.193792,"station_name":"Kramat","is_transit":false,"distance":973,"transit":false,"line":11,"station_id":"KMT","time":1},{"is_transit":false,"time":2,"station_name":"Pondok Jati","distance":1829,"line":11,"i_long":106.861737,"station_id":"POK","transit":false,"i_lat":-6.209188},{"station_id":"JNG","i_long":106.86807400000001,"station_name":"Jatinegara","distance":1236,"is_transit":true,"i_lat":-6.215091,"line":1,"transit":true,"time":9},{"time":3,"transit":false,"i_long":106.899548,"is_transit":false,"station_name":"Klender","i_lat":-6.2135,"distance":3395,"station_id":"KLD","line":1},{"station_name":"Buaran","i_long":106.922662,"transit":false,"is_transit":false,"distance":3100,"time":2,"line":1,"station_id":"BUA","i_lat":-6.215568},{"transit":false,"station_name":"Klenderbaru","i_lat":-6.217455,"is_transit":false,"distance":1305,"i_long":106.939679,"line":1,"time":1,"station_id":"KLDB"},{"transit":false,"line":1,"is_transit":false,"station_name":"Cakung","distance":1385,"i_long":106.951283,"time":8,"i_lat":-6.219053,"station_id":"CUK"},{"station_id":"KRI","transit":false,"is_transit":false,"time":3,"i_lat":-6.224515,"i_long":106.977657,"station_name":"Kranji","line":1,"distance":3097},{"i_long":106.997013,"station_name":"Bekasi","distance":2520,"is_transit":false,"transit":false,"station_id":"BKS","line":1,"i_lat":-6.236616,"time":4},{"station_id":"BKST","transit":false,"distance":2368,"time":2,"is_transit":false,"station_name":"Bekasi Timur","i_lat":-6.248029,"i_long":107.016735,"line":1}],[{"i_lat":-6.334892,"station_name":"Citeras","time":0,"transit":false,"station_id":"CTR","is_transit":false,"distance":0,"i_long":106.332092,"line":3},{"i_long":106.394373,"distance":7293,"is_transit":false,"station_id":"MJ","transit":false,"i_lat":-6.332307,"station_name":"Maja","time":10,"line":6},{"distance":1853,"is_transit":false,"i_lat":-6.33561,"station_id":"CKY","station_name":"Cikoya","time":4,"i_long":106.411216,"line":3,"transit":false},{"i_long":106.425991,"time":3,"is_transit":false,"transit":false,"line":6,"distance":2651,"i_lat":-6.328533,"station_id":"TGS","station_name":"Tigaraksa"},{"distance":2974,"i_long":106.460812,"station_id":"TEJ","line":6,"station_name":"Tenjo","transit":false,"time":5,"i_lat":-6.327251,"is_transit":false},{"i_lat":-6.338021,"station_id":"DAR","time":5,"i_long":106.491338,"distance":3902,"station_name":"Daru","line":0,"is_transit":false,"transit":false},{"station_id":"CJT","is_transit":false,"distance":2675,"line":3,"station_name":"Cilejit","i_lat":-6.354349,"i_long":106.508482,"time":6,"transit":false},{"time":9,"distance":7025,"is_transit":false,"transit":false,"i_lat":-6.3441410000000005,"line":6,"i_long":106.568863,"station_id":"PRP","station_name":"Parung Panjang"},{"distance":5968,"i_lat":-6.329547,"line":3,"station_name":"Cicayur","is_transit":false,"i_long":106.617853,"transit":false,"station_id":"CC","time":8},{"is_transit":false,"i_lat":-6.32484,"station_id":"CSK","transit":false,"time":4,"i_long":106.640411,"station_name":"Cisauk","distance":2519,"line":3},{"i_long":106.66566,"transit":false,"i_lat":-6.319871,"time":4,"station_name":"Serpong","is_transit":false,"line":6,"station_id":"SRP","distance":1784},{"station_name":"Rawa Buntu","transit":false,"time":4,"i_lat":-6.314823,"station_id":"RU","line":6,"distance":2413,"i_long":106.675475,"is_transit":false},{"i_long":106.712277,"station_id":"SDM","station_name":"Sudimara","distance":4566,"transit":false,"line":6,"i_lat":-6.296963,"time":6,"is_transit":false},{"i_lat":-6.288927,"i_long":106.728916,"time":4,"line":6,"transit":false,"is_transit":false,"station_id":"JMU","station_name":"Jurangmangu","distance":1994},{"line":6,"station_name":"Pondokranji","i_long":106.74273,"transit":false,"is_transit":false,"time":3,"i_lat":-6.276362,"station_id":"PDJ","distance":2179},{"line":6,"time":8,"i_lat":-6.237242,"station_id":"KBY","transit":false,"station_name":"Kebayoran","distance":6218,"is_transit":false,"i_long":106.780334},{"distance":3737,"i_long":106.79689,"station_name":"Palmerah","is_transit":false,"station_id":"PLM","transit":false,"line":6,"time":7,"i_lat":-6.207404},{"i_lat":-6.185545,"is_transit":true,"time":6,"line":1,"i_long":106.811091,"station_name":"Tanah Abang","station_id":"THB","distance":3191,"transit":true},{"is_transit":false,"transit":false,"i_long":106.800832,"distance":3632,"line":1,"station_id":"DU","i_lat":-6.155215,"station_name":"Duri","time":8},{"transit":false,"distance":1230,"is_transit":false,"time":4,"station_id":"AK","station_name":"Angke","i_lat":-6.144674,"i_long":106.79867,"line":1},{"distance":4102,"i_long":106.826365,"line":4,"is_transit":true,"i_lat":-6.132549,"station_id":"KPB","time":9,"transit":true,"station_name":"Kampung Bandan"},{"distance":1364,"station_name":"Jakarta Kota","i_long":106.812439,"time":3,"transit":true,"is_transit":true,"station_id":"JAKK","i_lat":-6.137569,"line":2},{"transit":false,"is_transit":false,"line":2,"station_name":"Jayakarta","i_lat":-6.141205,"time":4,"station_id":"JAY","i_long":106.820901,"distance":1264},{"is_transit":false,"time":2,"station_id":"MGB","transit":false,"distance":1080,"i_lat":-6.149769,"line":2,"i_long":106.82482,"station_name":"Manggabesar"},{"i_lat":-6.160725,"line":2,"station_name":"Sawah Besar","station_id":"SW","is_transit":false,"i_long":106.827103,"distance":906,"time":2,"transit":false},{"station_id":"JUA","station_name":"Juanda","distance":1149,"is_transit":false,"time":2,"transit":false,"line":2,"i_long":106.828284,"i_lat":-6.166716},{"i_lat":-6.186295,"distance":2015,"line":2,"transit":false,"i_long":106.832183,"station_name":"Gondangdia","time":4,"is_transit":false,"station_id":"GDD"},{"is_transit":false,"station_name":"Cikini","station_id":"CKI","transit":false,"time":3,"i_lat":-6.198556,"i_long":106.840169,"distance":1750,"line":2},{"line":2,"station_id":"MRI","transit":true,"i_lat":-6.209883,"i_long":106.84912,"time":4,"distance":1590,"is_transit":true,"station_name":"Manggarai"},{"is_transit":false,"time":2,"i_lat":-6.212485,"line":1,"i_long":106.858896,"distance":1275,"station_name":"Matraman","transit":false,"station_id":"MTR"},{"distance":1377,"is_transit":false,"i_lat":-6.215091,"station_id":"JNG","time":8,"transit":false,"i_long":106.86807400000001,"station_name":"Jatinegara","line":1},{"station_id":"KLD","station_name":"Klender","time":3,"i_lat":-6.2135,"is_transit":false,"i_long":106.899548,"line":1,"transit":false,"distance":3395},{"transit":false,"distance":3100,"station_id":"BUA","time":2,"station_name":"Buaran","i_lat":-6.215568,"i_long":106.922662,"line":1,"is_transit":false},{"station_id":"KLDB","transit":false,"is_transit":false,"i_long":106.939679,"station_name":"Klenderbaru","time":1,"i_lat":-6.217455,"line":1,"distance":1305},{"i_long":106.951283,"is_transit":false,"transit":false,"time":8,"station_name":"Cakung","station_id":"CUK","distance":1385,"i_lat":-6.219053,"line":1},{"station_id":"KRI","i_lat":-6.224515,"is_transit":false,"time":3,"station_name":"Kranji","line":1,"distance":3097,"transit":false,"i_long":106.977657},{"transit":false,"i_long":106.997013,"station_name":"Bekasi","i_lat":-6.236616,"distance":2520,"time":4,"line":1,"station_id":"BKS","is_transit":false},{"station_name":"Bekasi Timur","line":1,"time":2,"transit":false,"station_id":"BKST","distance":2368,"i_lat":-6.248029,"is_transit":false,"i_long":107.016735}],[{"station_id":"CTR","is_transit":false,"transit":false,"station_name":"Citeras","distance":0,"i_lat":-6.334892,"line":3,"i_long":106.332092,"time":0},{"is_transit":false,"time":10,"station_id":"MJ","transit":false,"i_long":106.394373,"i_lat":-6.332307,"line":6,"station_name":"Maja","distance":7293},{"is_transit":false,"station_name":"Cikoya","transit":false,"i_lat":-6.33561,"line":3,"distance":1853,"time":4,"station_id":"CKY","i_long":106.411216},{"station_name":"Tigaraksa","station_id":"TGS","distance":2651,"is_transit":false,"transit":false,"i_long":106.425991,"time":3,"i_lat":-6.328533,"line":6},{"transit":false,"i_long":106.460812,"line":6,"station_id":"TEJ","distance":2974,"is_transit":false,"i_lat":-6.327251,"time":5,"station_name":"Tenjo"},{"i_lat":-6.338021,"station_name":"Daru","transit":false,"is_transit":false,"i_long":106.491338,"station_id":"DAR","distance":3902,"time":5,"line":0},{"line":3,"transit":false,"i_long":106.508482,"station_name":"Cilejit","is_transit":false,"distance":2675,"station_id":"CJT","time":6,"i_lat":-6.354349},{"i_long":106.568863,"distance":7025,"station_id":"PRP","station_name":"Parung Panjang","i_lat":-6.3441410000000005,"is_transit":false,"line":6,"time":9,"transit":false},{"time":8,"line":3,"i_long":106.617853,"distance":5968,"transit":false,"i_lat":-6.329547,"station_name":"Cicayur","is_transit":false,"station_id":"CC"},{"transit":false,"time":4,"station_id":"CSK","i_long":106.640411,"is_transit":false,"station_name":"Cisauk","distance":2519,"line":3,"i_lat":-6.32484},{"transit":false,"i_lat":-6.319871,"line":6,"distance":1784,"station_name":"Serpong","i_long":106.66566,"station_id":"SRP","is_transit":false,"time":4},{"station_id":"RU","i_lat":-6.314823,"transit":false,"distance":2413,"is_transit":false,"station_name":"Rawa Buntu","time":4,"i_long":106.675475,"line":6},{"line":6,"station_name":"Sudimara","time":6,"is_transit":false,"station_id":"SDM","i_lat":-6.296963,"distance":4566,"transit":false,"i_long":106.712277},{"time":4,"is_transit":false,"transit":false,"i_long":106.728916,"line":6,"i_lat":-6.288927,"station_name":"Jurangmangu","station_id":"JMU","distance":1994},{"i_long":106.74273,"time":3,"transit":false,"is_transit":false,"station_id":"PDJ","i_lat":-6.276362,"line":6,"station_name":"Pondokranji","distance":2179},{"i_long":106.780334,"station_name":"Kebayoran","line":6,"is_transit":false,"transit":false,"distance":6218,"time":8,"i_lat":-6.237242,"station_id":"KBY"},{"line":6,"distance":3737,"time":7,"station_id":"PLM","is_transit":false,"i_lat":-6.207404,"station_name":"Palmerah","transit":false,"i_long":106.79689},{"time":6,"i_long":106.811091,"station_name":"Tanah Abang","line":1,"distance":3191,"station_id":"THB","transit":true,"is_transit":true,"i_lat":-6.185545},{"is_transit":false,"line":1,"i_lat":-6.20132,"station_id":"KAT","station_name":"Karet","time":5,"i_long":106.816351,"transit":false,"distance":2029},{"is_transit":false,"time":1,"transit":false,"line":1,"i_lat":-6.201433,"i_long":106.819881,"distance":471,"station_name":"Sudirman Baru","station_id":"SUDB"},{"time":1,"i_lat":-6.202263,"station_id":"SUD","distance":280,"line":1,"is_transit":false,"transit":false,"station_name":"Sudirman","i_long":106.822649},{"station_name":"Manggarai","i_long":106.84912,"line":2,"distance":3186,"transit":true,"station_id":"MRI","is_transit":true,"time":4,"i_lat":-6.209883},{"transit":false,"time":4,"line":2,"station_id":"CKI","distance":1590,"station_name":"Cikini","is_transit":false,"i_lat":-6.198556,"i_long":106.840169},{"time":3,"distance":1750,"is_transit":false,"transit":false,"i_long":106.832183,"i_lat":-6.186295,"station_name":"Gondangdia","station_id":"GDD","line":2},{"station_name":"Juanda","i_long":106.828284,"i_lat":-6.166716,"distance":2015,"station_id":"JUA","is_transit":false,"transit":false,"line":2,"time":4},{"distance":1149,"time":2,"line":2,"station_id":"SW","station_name":"Sawah Besar","transit":false,"is_transit":false,"i_lat":-6.160725,"i_long":106.827103},{"transit":false,"is_transit":false,"station_id":"MGB","line":2,"time":2,"station_name":"Manggabesar","i_long":106.82482,"distance":906,"i_lat":-6.149769},{"transit":false,"line":2,"i_long":106.820901,"distance":1080,"time":2,"i_lat":-6.141205,"station_id":"JAY","is_transit":false,"station_name":"Jayakarta"},{"station_name":"Jakarta Kota","is_transit":true,"i_lat":-6.137569,"time":4,"i_long":106.812439,"distance":1264,"station_id":"JAKK","transit":true,"line":2},{"time":3,"i_lat":-6.132549,"i_long":106.826365,"line":4,"is_transit":true,"station_name":"Kampung Bandan","transit":true,"station_id":"KPB","distance":1364},{"i_lat":-6.14505,"i_long":106.836569,"distance":1444,"transit":false,"line":11,"station_name":"Rajawali","time":3,"is_transit":false,"station_id":"RJW"},{"station_id":"KMO","time":5,"is_transit":false,"transit":false,"i_long":106.839204,"distance":1901,"line":11,"i_lat":-6.161728,"station_name":"Kemayoran"},{"time":4,"i_lat":-6.174784,"transit":false,"distance":1436,"i_long":106.84368,"line":11,"station_name":"Pasar Senen","is_transit":false,"station_id":"PSE"},{"station_id":"GST","time":8,"transit":false,"i_long":106.850107,"distance":1567,"station_name":"Gang Sentiong","line":11,"i_lat":-6.185975,"is_transit":false},{"distance":973,"transit":false,"station_name":"Kramat","is_transit":false,"i_long":106.855437,"i_lat":-6.193792,"station_id":"KMT","time":1,"line":11},{"line":11,"is_transit":false,"i_long":106.861737,"distance":1829,"transit":false,"time":2,"station_id":"POK","i_lat":-6.209188,"station_name":"Pondok Jati"},{"time":9,"distance":1236,"station_id":"JNG","station_name":"Jatinegara","line":1,"transit":true,"i_lat":-6.215091,"is_transit":true,"i_long":106.86807400000001},{"distance":3395,"transit":false,"i_lat":-6.2135,"line":1,"station_name":"Klender","is_transit":false,"station_id":"KLD","i_long":106.899548,"time":3},{"line":1,"station_name":"Buaran","station_id":"BUA","transit":false,"distance":3100,"time":2,"i_lat":-6.215568,"i_long":106.922662,"is_transit":false},{"line":1,"station_id":"KLDB","distance":1305,"time":1,"transit":false,"i_long":106.939679,"station_name":"Klenderbaru","is_transit":false,"i_lat":-6.217455},{"time":8,"i_long":106.951283,"line":1,"station_id":"CUK","distance":1385,"is_transit":false,"station_name":"Cakung","i_lat":-6.219053,"transit":false},{"transit":false,"i_long":106.977657,"distance":3097,"is_transit":false,"i_lat":-6.224515,"station_id":"KRI","station_name":"Kranji","time":3,"line":1},{"i_long":106.997013,"transit":false,"station_id":"BKS","i_lat":-6.236616,"station_name":"Bekasi","is_transit":false,"distance":2520,"line":1,"time":4},{"station_name":"Bekasi Timur","is_transit":false,"time":2,"i_long":107.016735,"line":1,"transit":false,"i_lat":-6.248029,"station_id":"BKST","distance":2368}]]}