{"data":[[{"i_lat":-6.334892,"i_long":106.332092,"transit":false,"time":0,"distance":0,"is_transit":false,"line":3,"station_id":"CTR","station_name":"Citeras"},{"is_transit":false,"line":6,"time":10,"transit":false,"i_lat":-6.332307,"i_long":106.394373,"distance":7293,"station_id":"MJ","station_name":"Maja"},{"i_long":106.411216,"distance":1853,"transit":false,"station_name":"Cikoya","is_transit":false,"station_id":"CKY","i_lat":-6.33561,"time":4,"line":3},{"distance":2651,"i_long":106.425991,"time":3,"line":6,"transit":false,"i_lat":-6.328533,"station_name":"Tigaraksa","is_transit":false,"station_id":"TGS"},{"distance":2974,"line":6,"station_id":"TEJ","is_transit":false,"station_name":"Tenjo","i_long":106.460812,"i_lat":-6.327251,"time":5,"transit":false},{"is_transit":false,"i_lat":-6.338021,"time":5,"transit":false,"station_name":"Daru","i_long":106.491338,"line":0,"distance":3902,"station_id":"DAR"},{"is_transit":false,"distance":2675,"i_lat":-6.354349,"station_name":"Cilejit","i_long":106.508482,"time":6,"station_id":"CJT","transit":false,"line":3},{"time":9,"distance":7025,"is_transit":false,"station_id":"PRP","i_lat":-6.3441410000000005,"i_long":106.568863,"line":6,"station_name":"Parung Panjang","transit":false},{"distance":5968,"station_id":"CC","i_lat":-6.329547,"line":3,"station_name":"Cicayur","time":8,"is_transit":false,"transit":false,"i_long":106.617853},{"is_transit":false,"transit":false,"time":4,"station_id":"CSK","i_long":106.640411,"distance":2519,"i_lat":-6.32484,"line":3,"station_name":"Cisauk"},{"i_lat":-6.319871,"time":4,"station_name":"Serpong","is_transit":false,"transit":false,"station_id":"SRP","i_long":106.66566,"distance":1784,"line":6},{"is_transit":false,"i_long":106.675475,"transit":false,"distance":2413,"i_lat":-6.314823,"line":6,"time":4,"station_name":"Rawa Buntu","station_id":"RU"},{"i_lat":-6.296963,"station_id":"SDM","station_name":"Sudimara","distance":4566,"line":6,"time":6,"is_transit":false,"i_long":106.712277,"transit":false},{"i_long":106.728916,"time":4,"station_name":"Jurangmangu","distance":1994,"transit":false,"line":6,"is_transit":false,"station_id":"JMU","i_lat":-6.288927},{"line":6,"distance":2179,"transit":false,"time":3,"is_transit":false,"station_id":"PDJ","station_name":"Pondokranji","i_lat":-6.276362,"i_long":106.74273},{"time":8,"transit":false,"i_lat":-6.237242,"i_long":106.780334,"line":6,"distance":6218,"station_id":"KBY","station_name":"Kebayoran","is_transit":false},{"line":6,"station_id":"PLM","transit":false,"i_long":106.79689,"time":7,"distance":3737,"station_name":"Palmerah","is_transit":false,"i_lat":-6.207404},{"distance":3191,"is_transit":true,"line":1,"i_long":106.811091,"transit":true,"time":6,"station_name":"Tanah Abang","station_id":"THB","i_lat":-6.185545},{"i_lat":-6.20132,"station_name":"Karet","is_transit":false,"line":1,"time":5,"transit":false,"i_long":106.816351,"station_id":"KAT","distance":2029},{"distance":471,"time":1,"station_name":"Sudirman Baru","transit":false,"station_id":"SUDB","i_long":106.819881,"is_transit":false,"i_lat":-6.201433,"line":1},{"i_long":106.822649,"station_name":"Sudirman","line":1,"distance":280,"time":1,"is_transit":false,"transit":false,"station_id":"SUD","i_lat":-6.202263},{"i_long":106.84912,"transit":false,"i_lat":-6.209883,"station_name":"Manggarai","is_transit":false,"time":4,"line":2,"distance":3186,"station_id":"MRI"},{"station_id":"MTR","distance":1275,"transit":false,"time":2,"is_transit":false,"i_lat":-6.212485,"i_long":106.858896,"line":1,"station_name":"Matraman"},{"transit":false,"station_name":"Jatinegara","time":8,"i_long":106.86807400000001,"is_transit":false,"distance":1377,"station_id":"JNG","i_lat":-6.215091,"line":1},{"distance":3395,"i_long":106.899548,"is_transit":false,"line":1,"station_id":"KLD","station_name":"Klender","i_lat":-6.2135,"transit":false,"time":3},{"time":2,"distance":3100,"i_long":106.922662,"transit":false,"station_id":"BUA","station_name":"Buaran","is_transit":false,"i_lat":-6.215568,"line":1},{"station_id":"KLDB","distance":1305,"time":1,"i_long":106.939679,"line":1,"transit":false,"is_transit":false,"i_lat":-6.217455,"station_name":"Klenderbaru"},{"distance":1385,"i_lat":-6.219053,"transit":false,"station_name":"Cakung","line":1,"is_transit":false,"station_id":"CUK","i_long":106.951283,"time":8},{"distance":3097,"i_lat":-6.224515,"time":3,"transit":false,"station_id":"KRI","line":1,"is_transit":false,"station_name":"Kranji","i_long":106.977657}],[{"station_id":"CTR","transit":false,"i_long":106.332092,"is_transit":false,"line":3,"i_lat":-6.334892,"time":0,"distance":0,"station_name":"Citeras"},{"i_long":106.394373,"station_name":"Maja","time":10,"line":6,"transit":false,"station_id":"MJ","is_transit":false,"i_lat":-6.332307,"distance":7293},{"distance":1853,"station_id":"CKY","i_long":106.411216,"i_lat":-6.33561,"time":4,"line":3,"station_name":"Cikoya","is_transit":false,"transit":false},{"is_transit":false,"station_name":"Tigaraksa","station_id":"TGS","transit":false,"i_long":106.425991,"line":6,"i_lat":-6.328533,"distance":2651,"time":3},{"distance":2974,"time":5,"i_lat":-6.327251,"i_long":106.460812,"line":6,"station_name":"Tenjo","transit":false,"station_id":"TEJ","is_transit":false},{"i_long":106.491338,"time":5,"line":0,"distance":3902,"station_name":"Daru","transit":false,"station_id":"DAR","i_lat":-6.338021,"is_transit":false},{"distance":2675,"line":3,"time":6,"i_long":106.508482,"station_name":"Cilejit","station_id":"CJT","transit":false,"is_transit":false,"i_lat":-6.354349},{"transit":false,"distance":7025,"station_id":"PRP","station_name":"Parung Panjang","line":6,"i_lat":-6.3441410000000005,"time":9,"is_transit":false,"i_long":106.568863},{"line":3,"transit":false,"station_id":"CC","time":8,"station_name":"Cicayur","is_transit":false,"i_long":106.617853,"distance":5968,"i_lat":-6.329547},{"transit":false,"line":3,"station_name":"Cisauk","i_long":106.640411,"distance":2519,"time":4,"is_transit":false,"station_id":"CSK","i_lat":-6.32484},{"time":4,"line":6,"station_id":"SRP","station_name":"Serpong","is_transit":false,"i_lat":-6.319871,"i_long":106.66566,"distance":1784,"transit":false},{"station_id":"RU","is_transit":false,"i_lat":-6.314823,"i_long":106.675475,"line":6,"transit":false,"station_name":"Rawa Buntu","distance":2413,"time":4},{"is_transit":false,"time":6,"station_id":"SDM","i_lat":-6.296963,"i_long":106.712277,"distance":4566,"line":6,"station_name":"Sudimara","transit":false},{"i_long":106.728916,"time":4,"station_id":"JMU","i_lat":-6.288927,"transit":false,"distance":1994,"station_name":"Jurangmangu","is_transit":false,"line":6},{"station_id":"PDJ","distance":2179,"i_lat":-6.276362,"i_long":106.74273,"time":3,"is_transit":false,"line":6,"transit":false,"station_name":"Pondokranji"},{"station_id":"KBY","i_lat":-6.237242,"transit":false,"station_name":"Kebayoran","time":8,"i_long":106.780334,"line":6,"distance":6218,"is_transit":false},{"distance":3737,"is_transit":false,"station_id":"PLM","station_name":"Palmerah","line":6,"transit":false,"i_long":106.79689,"i_lat":-6.207404,"time":7},{"i_long":106.811091,"station_name":"Tanah Abang","transit":true,"time":6,"line":1,"distance":3191,"is_transit":true,"station_id":"THB","i_lat":-6.185545},{"line":1,"transit":false,"station_name":"Duri","is_transit":false,"i_lat":-6.155215,"time":8,"i_long":106.800832,"distance":3632,"station_id":"DU"},{"i_lat":-6.144674,"line":1,"distance":1230,"station_id":"AK","i_long":106.79867,"transit":false,"time":4,"is_transit":false,"station_name":"Angke"},{"transit":true,"time":9,"distance":4102,"is_transit":true,"i_long":106.826365,"i_lat":-6.132549,"station_id":"KPB","station_name":"Kampung Bandan","line":4},{"time":3,"i_lat":-6.14505,"is_transit":false,"station_id":"RJW","line":11,"station_name":"Rajawali","transit":false,"i_long":106.836569,"distance":1444},{"i_lat":-6.161728,"distance":1901,"transit":false,"is_transit":false,"time":5,"station_id":"KMO","i_long":106.839204,"line":11,"station_name":"Kemayoran"},{"transit":false,"time":4,"i_lat":-6.174784,"station_id":"PSE","distance":1436,"station_name":"Pasar Senen","is_transit":false,"i_long":106.84368,"line":11},{"transit":false,"i_long":106.850107,"i_lat":-6.185975,"is_transit":false,"time":8,"line":11,"distance":1567,"station_name":"Gang Sentiong","station_id":"GST"},{"station_name":"Kramat","station_id":"KMT","distance":973,"time":1,"is_transit":false,"i_lat":-6.193792,"i_long":106.855437,"transit":false,"line":11},{"station_name":"Pondok Jati","i_lat":-6.209188,"is_transit":false,"transit":false,"i_long":106.861737,"line":11,"station_id":"POK","time":2,"distance":1829},{"transit":true,"time":9,"station_name":"Jatinegara","station_id":"JNG","is_transit":true,"line":1,"distance":1236,"i_lat":-6.215091,"i_long":106.86807400000001},{"distance":3395,"is_transit":false,"line":1,"station_id":"KLD","transit":false,"i_lat":-6.2135,"i_long":106.899548,"station_name":"Klender","time":3},{"i_long":106.922662,"station_id":"BUA","distance":3100,"i_lat":-6.215568,"transit":false,"line":1,"station_name":"Buaran","time":2,"is_transit":false},{"is_transit":false,"transit":false,"distance":1305,"time":1,"i_long":106.939679,"line":1,"i_lat":-6.217455,"station_id":"KLDB","station_name":"Klenderbaru"},{"distance":1385,"is_transit":false,"time":8,"station_id":"CUK","station_name":"Cakung","i_lat":-6.219053,"i_long":106.951283,"transit":false,"line":1},{"time":3,"i_long":106.977657,"distance":3097,"transit":false,"line":1,"station_id":"KRI","station_name":"Kranji","is_transit":false,"i_lat":-6.224515}],[{"line":3,"time":0,"station_id":"CTR","distance":0,"station_name":"Citeras","i_lat":-6.334892,"transit":false,"is_transit":false,"i_long":106.332092},{"transit":false,"line":6,"distance":7293,"i_long":106.394373,"i_lat":-6.332307,"station_name":"Maja","time":10,"station_id":"MJ","is_transit":false},{"distance":1853,"i_long":106.411216,"is_transit":false,"line":3,"i_lat":-6.33561,"station_id":"CKY","time":4,"station_name":"Cikoya","transit":false},{"station_name":"Tigaraksa","distance":2651,"transit":false,"station_id":"TGS","time":3,"is_transit":false,"i_lat":-6.328533,"line":6,"i_long":106.425991},{"i_long":106.460812,"line":6,"time":5,"distance":2974,"station_id":"TEJ","transit":false,"station_name":"Tenjo","is_transit":false,"i_lat":-6.327251},{"line":0,"i_long":106.491338,"transit":false,"time":5,"station_name":"Daru","station_id":"DAR","i_lat":-6.338021,"is_transit":false,"distance":3902},{"station_id":"CJT","is_transit":false,"distance":2675,"transit":false,"station_name":"Cilejit","time":6,"line":3,"i_long":106.508482,"i_lat":-6.354349},{"transit":false,"line":6,"station_id":"PRP","station_name":"Parung Panjang","distance":7025,"i_lat":-6.3441410000000005,"time":9,"is_transit":false,"i_long":106.568863},{"station_name":"Cicayur","time":8,"i_long":106.617853,"station_id":"CC","i_lat":-6.329547,"line":3,"transit":false,"is_transit":false,"distance":5968},{"time":4,"station_id":"CSK","is_transit":false,"station_name":"Cisauk","line":3,"transit":false,"i_long":106.640411,"i_lat":-6.32484,"distance":2519},{"i_long":106.66566,"distance":1784,"i_lat":-6.319871,"line":6,"station_name":"Serpong","transit":false,"is_transit":false,"time":4,"station_id":"SRP"},{"station_id":"RU","transit":false,"station_name":"Rawa Buntu","i_lat":-6.314823,"distance":2413,"line":6,"time":4,"i_long":106.675475,"is_transit":false},{"i_long":106.712277,"is_transit":false,"time":6,"i_lat":-6.296963,"station_id":"SDM","distance":4566,"transit":false,"station_name":"Sudimara","line":6},{"line":6,"station_id":"JMU","i_lat":-6.288927,"distance":1994,"transit":false,"time":4,"station_name":"Jurangmangu","is_transit":false,"i_long":106.728916},{"is_transit":false,"i_lat":-6.276362,"time":3,"station_name":"Pondokranji","line":6,"station_id":"PDJ","distance":2179,"i_long":106.74273,"transit":false},{"station_id":"KBY","distance":6218,"transit":false,"station_name":"Kebayoran","i_long":106.780334,"is_transit":false,"line":6,"i_lat":-6.237242,"time":8},{"transit":false,"is_transit":false,"i_lat":-6.207404,"station_name":"Palmerah","time":7,"distance":3737,"i_long":106.79689,"line":6,"station_id":"PLM"},{"station_name":"Tanah Abang","time":6,"station_id":"THB","i_long":106.811091,"line":1,"is_transit":true,"i_lat":-6.185545,"transit":true,"distance":3191},{"station_id":"DU","distance":3632,"is_transit":false,"i_lat":-6.155215,"i_long":106.800832,"time":8,"station_name":"Duri","line":1,"transit":false},{"station_name":"Angke","i_long":106.79867,"line":1,"transit":false,"distance":1230,"is_transit":false,"i_lat":-6.144674,"time":4,"station_id":"AK"},{"time":9,"transit":true,"line":4,"i_lat":-6.132549,"station_id":"KPB","i_long":106.826365,"station_name":"Kampung Bandan","is_transit":true,"distance":4102},{"station_id":"JAKK","is_transit":true,"time":3,"i_lat":-6.137569,"i_long":106.812439,"distance":1364,"line":2,"station_name":"Jakarta Kota","transit":true},{"distance":1264,"transit":false,"time":4,"station_name":"Jayakarta","is_transit":false,"i_lat":-6.141205,"line":2,"i_long":106.820901,"station_id":"JAY"},{"transit":false,"i_lat":-6.149769,"is_transit":false,"time":2,"station_name":"Manggabesar","i_long":106.82482,"distance":1080,"line":2,"station_id":"MGB"},{"station_id":"SW","time":2,"transit":false,"is_transit":false,"i_long":106.827103,"i_lat":-6.160725,"station_name":"Sawah Besar","line":2,"distance":906},{"station_name":"Juanda","i_long":106.828284,"time":2,"i_lat":-6.166716,"transit":false,"distance":1149,"station_id":"JUA","is_transit":false,"line":2},{"time":4,"transit":false,"i_lat":-6.186295,"station_id":"GDD","station_name":"Gondangdia","is_transit":false,"i_long":106.832183,"line":2,"distance":2015},{"line":2,"distance":1750,"station_id":"CKI","i_lat":-6.198556,"is_transit":false,"time":3,"transit":false,"station_name":"Cikini","i_long":106.840169},{"time":4,"transit":true,"distance":1590,"is_transit":true,"station_id":"MRI","station_name":"Manggarai","i_lat":-6.209883,"line":2,"i_long":106.84912},{"transit":false,"distance":1275,"i_lat":-6.212485,"time":2,"is_transit":false,"station_id":"MTR","station_name":"Matraman","line":1,"i_long":106.858896},{"distance":1377,"time":8,"transit":false,"station_id":"JNG","i_lat":-6.215091,"line":1,"i_long":106.86807400000001,"station_name":"Jatinegara","is_transit":false},{"is_transit":false,"station_name":"Klender","station_id":"KLD","i_lat":-6.2135,"distance":3395,"i_long":106.899548,"transit":false,"time":3,"line":1},{"distance":3100,"is_transit":false,"time":2,"line":1,"i_long":106.922662,"transit":false,"station_name":"Buaran","station_id":"BUA","i_lat":-6.215568},{"station_id":"KLDB","i_long":106.939679,"is_transit":false,"line":1,"distance":1305,"i_lat":-6.217455,"time":1,"station_name":"Klenderbaru","transit":false},{"station_name":"Cakung","time":8,"i_lat":-6.219053,"line":1,"is_transit":false,"i_long":106.951283,"transit":false,"station_id":"CUK","distance":1385},{"time":3,"transit":false,"station_id":"KRI","i_long":106.977657,"i_lat":-6.224515,"distance":3097,"line":1,"station_name":"Kranji","is_transit":false}],[{"i_lat":-6.334892,"is_transit":false,"time":0,"distance":0,"line":3,"transit":false,"station_name":"Citeras","station_id":"CTR","i_long":106.332092},{"transit":false,"time":10,"i_long":106.394373,"is_transit":false,"i_lat":-6.332307,"line":6,"station_id":"MJ","distance":7293,"station_name":"Maja"},{"line":3,"station_name":"Cikoya","is_transit":false,"i_long":106.411216,"transit":false,"station_id":"CKY","time":4,"i_lat":-6.33561,"distance":1853},{"i_long":106.425991,"time":3,"station_id":"TGS","station_name":"Tigaraksa","is_transit":false,"line":6,"transit":false,"distance":2651,"i_lat":-6.328533},{"station_name":"Tenjo","i_long":106.460812,"distance":2974,"time":5,"station_id":"TEJ","i_lat":-6.327251,"line":6,"is_transit":false,"transit":false},{"line":0,"distance":3902,"is_transit":false,"i_lat":-6.338021,"transit":false,"time":5,"station_id":"DAR","station_name":"Daru","i_long":106.491338},{"station_name":"Cilejit","is_transit":false,"i_lat":-6.354349,"line":3,"transit":false,"station_id":"CJT","distance":2675,"time":6,"i_long":106.508482},{"distance":7025,"transit":false,"i_lat":-6.3441410000000005,"i_long":106.568863,"station_id":"PRP","line":6,"station_name":"Parung Panjang","time":9,"is_transit":false},{"i_lat":-6.329547,"time":8,"is_transit":false,"transit":false,"station_name":"Cicayur","line":3,"distance":5968,"station_id":"CC","i_long":106.617853},{"time":4,"i_lat":-6.32484,"is_transit":false,"station_name":"Cisauk","station_id":"CSK","i_long":106.640411,"line":3,"transit":false,"distance":2519},{"i_long":106.66566,"distance":1784,"i_lat":-6.319871,"time":4,"station_name":"Serpong","station_id":"SRP","line":6,"is_transit":false,"transit":false},{"station_id":"RU","distance":2413,"station_name":"Rawa Buntu","i_long":106.675475,"i_lat":-6.314823,"line":6,"time":4,"is_transit":false,"transit":false},{"i_long":106.712277,"station_name":"Sudimara","time":6,"is_transit":false,"transit":false,"distance":4566,"i_lat":-6.296963,"station_id":"SDM","line":6},{"distance":1994,"transit":false,"i_lat":-6.288927,"time":4,"station_name":"Jurangmangu","line":6,"is_transit":false,"i_long":106.728916,"station_id":"JMU"},{"station_name":"Pondokranji","station_id":"PDJ","i_lat":-6.276362,"distance":2179,"is_transit":false,"transit":false,"time":3,"i_long":106.74273,"line":6},{"station_id":"KBY","transit":false,"i_lat":-6.237242,"i_long":106.780334,"station_name":"Kebayoran","distance":6218,"time":8,"is_transit":false,"line":6},{"distance":3737,"transit":false,"is_transit":false,"i_lat":-6.207404,"i_long":106.79689,"station_name":"Palmerah","time":7,"station_id":"PLM","line":6},{"i_long":106.811091,"station_name":"Tanah Abang","station_id":"THB","transit":true,"i_lat":-6.185545,"distance":3191,"is_transit":true,"line":1,"time":6},{"distance":2029,"time":5,"station_id":"KAT","line":1,"station_name":"Karet","is_transit":false,"i_long":106.816351,"transit":false,"i_lat":-6.20132},{"station_name":"Sudirman Baru","i_long":106.819881,"i_lat":-6.201433,"time":1,"station_id":"SUDB","transit":false,"is_transit":false,"line":1,"distance":471},{"i_lat":-6.202263,"time":1,"distance":280,"station_name":"Sudirman","i_long":106.822649,"is_transit":false,"station_id":"SUD","transit":false,"line":1},{"transit":true,"i_long":106.84912,"line":2,"station_name":"Manggarai","time":4,"distance":3186,"station_id":"MRI","is_transit":true,"i_lat":-6.209883},{"i_lat":-6.198556,"distance":1590,"station_id":"CKI","is_transit":false,"line":2,"transit":false,"i_long":106.840169,"station_name":"Cikini","time":4},{"station_name":"Gondangdia","time":3,"distance":1750,"is_transit":false,"i_long":106.832183,"i_lat":-6.186295,"line":2,"transit":false,"station_id":"GDD"},{"i_lat":-6.166716,"transit":false,"station_id":"JUA","time":4,"line":2,"i_long":106.828284,"distance":2015,"station_name":"Juanda","is_transit":false},{"distance":1149,"station_name":"Sawah Besar","transit":false,"is_transit":false,"time":2,"i_lat":-6.160725,"station_id":"SW","i_long":106.827103,"line":2},{"distance":906,"station_id":"MGB","line":2,"i_long":106.82482,"transit":false,"station_name":"Manggabesar","time":2,"is_transit":false,"i_lat":-6.149769},{"i_lat":-6.141205,"station_name":"Jayakarta","distance":1080,"is_transit":false,"time":2,"station_id":"JAY","transit":false,"line":2,"i_long":106.820901},{"is_transit":true,"line":2,"distance":1264,"i_lat":-6.137569,"i_long":106.812439,"station_name":"Jakarta Kota","transit":true,"station_id":"JAKK","time":4},{"i_long":106.826365,"transit":true,"i_lat":-6.132549,"distance":1364,"line":4,"station_id":"KPB","station_name":"Kampung Bandan","time":3,"is_transit":true},{"line":11,"station_name":"Rajawali","i_long":106.836569,"distance":1444,"time":3,"station_id":"RJW","transit":false,"i_lat":-6.14505,"is_transit":false},{"distance":1901,"transit":false,"time":5,"line":11,"station_name":"Kemayoran","is_transit":false,"station_id":"KMO","i_long":106.839204,"i_lat":-6.161728},{"time":4,"transit":false,"station_name":"Pasar Senen","distance":1436,"is_transit":false,"station_id":"PSE","i_lat":-6.174784,"line":11,"i_long":106.84368},{"line":11,"is_transit":false,"time":8,"transit":false,"i_lat":-6.185975,"distance":1567,"station_name":"Gang Sentiong","station_id":"GST","i_long":106.850107},{"line":11,"time":1,"distance":973,"transit":false,"station_name":"Kramat","station_id":"KMT","is_transit":false,"i_lat":-6.193792,"i_long":106.855437},{"time":2,"station_id":"POK","station_name":"Pondok Jati","line":11,"transit":false,"distance":1829,"is_transit":false,"i_lat":-6.209188,"i_long":106.861737},{"distance":1236,"transit":true,"station_name":"Jatinegara","i_long":106.86807400000001,"station_id":"JNG","is_transit":true,"i_lat":-6.215091,"time":9,"line":1},{"is_transit":false,"station_id":"KLD","station_name":"Klender","distance":3395,"i_lat":-6.2135,"transit":false,"i_long":106.899548,"line":1,"time":3},{"line":1,"time":2,"is_transit":false,"transit":false,"distance":3100,"station_id":"BUA","i_long":106.922662,"i_lat":-6.215568,"station_name":"Buaran"},{"distance":1305,"transit":false,"is_transit":false,"station_name":"Klenderbaru","i_lat":-6.217455,"i_long":106.939679,"line":1,"time":1,"station_id":"KLDB"},{"distance":1385,"i_long":106.951283,"time":8,"station_name":"Cakung","station_id":"CUK","transit":false,"line":1,"i_lat":-6.219053,"is_transit":false},{"is_transit":false,"i_lat":-6.224515,"time":3,"i_long":106.977657,"line":1,"distance":3097,"transit":false,"station_id":"KRI","station_name":"Kranji"}]]}