{"data":[[{"line":3,"distance":0,"i_long":106.332092,"station_id":"CTR","station_name":"Citeras","is_transit":false,"transit":false,"time":0,"i_lat":-6.334892},{"line":6,"time":10,"is_transit":false,"i_long":106.394373,"station_name":"Maja","station_id":"MJ","i_lat":-6.332307,"distance":7293,"transit":false},{"line":3,"distance":1853,"station_name":"Cikoya","station_id":"CKY","time":4,"i_long":106.411216,"i_lat":-6.33561,"is_transit":false,"transit":false},{"is_transit":false,"time":3,"station_name":"Tigaraksa","distance":2651,"transit":false,"i_lat":-6.328533,"i_long":106.425991,"station_id":"TGS","line":6},{"distance":2974,"i_long":106.460812,"i_lat":-6.327251,"time":5,"line":6,"transit":false,"station_name":"Tenjo","station_id":"TEJ","is_transit":false},{"is_transit":false,"i_lat":-6.338021,"line":0,"station_id":"DAR","transit":false,"time":5,"distance":3902,"i_long":106.491338,"station_name":"Daru"},{"i_long":106.508482,"i_lat":-6.354349,"transit":false,"line":3,"station_name":"Cilejit","distance":2675,"time":6,"station_id":"CJT","is_transit":false},{"i_long":106.568863,"is_transit":false,"distance":7025,"station_id":"PRP","i_lat":-6.3441410000000005,"station_name":"Parung Panjang","line":6,"transit":false,"time":9},{"transit":false,"is_transit":false,"time":8,"station_id":"CC","line":3,"i_lat":-6.329547,"distance":5968,"station_name":"Cicayur","i_long":106.617853},{"station_id":"CSK","line":3,"i_long":106.640411,"station_name":"Cisauk","distance":2519,"is_transit":false,"time":4,"i_lat":-6.32484,"transit":false},{"transit":false,"station_id":"SRP","distance":1784,"is_transit":false,"i_lat":-6.319871,"station_name":"Serpong","time":4,"i_long":106.66566,"line":6},{"line":6,"i_long":106.675475,"transit":false,"station_id":"RU","time":4,"is_transit":false,"distance":2413,"i_lat":-6.314823,"station_name":"Rawa Buntu"},{"distance":4566,"i_lat":-6.296963,"station_name":"Sudimara","time":6,"is_transit":false,"line":6,"transit":false,"station_id":"SDM","i_long":106.712277},{"is_transit":false,"distance":1994,"line":6,"station_name":"Jurangmangu","transit":false,"i_lat":-6.288927,"i_long":106.728916,"time":4,"station_id":"JMU"},{"i_long":106.74273,"station_id":"PDJ","line":6,"station_name":"Pondokranji","is_transit":false,"transit":false,"time":3,"distance":2179,"i_lat":-6.276362},{"is_transit":false,"i_lat":-6.237242,"station_name":"Kebayoran","distance":6218,"transit":false,"time":8,"i_long":106.780334,"station_id":"KBY","line":6},{"transit":false,"line":6,"time":7,"distance":3737,"i_long":106.79689,"is_transit":false,"station_name":"Palmerah","station_id":"PLM","i_lat":-6.207404},{"line":1,"station_id":"THB","time":6,"is_transit":true,"transit":true,"distance":3191,"i_long":106.811091,"station_name":"Tanah Abang","i_lat":-6.185545},{"time":8,"i_long":106.800832,"is_transit":true,"station_name":"Duri","distance":3632,"i_lat":-6.155215,"station_id":"DU","line":1,"transit":true},{"is_transit":false,"i_lat":-6.162021,"i_long":106.788277,"line":5,"time":3,"distance":1700,"transit":false,"station_name":"Grogol","station_id":"GGL"},{"i_lat":-6.161433,"station_name":"Pesing","i_long":106.771379,"line":5,"station_id":"PSG","transit":false,"is_transit":false,"distance":2036,"time":2},{"station_id":"TKO","transit":false,"distance":1614,"i_long":106.756522,"line":5,"is_transit":false,"station_name":"Taman Kota","time":2,"i_lat":-6.1587309999999995},{"time":2,"station_id":"BOI","transit":false,"is_transit":false,"station_name":"Bojongindah","distance":2334,"line":5,"i_long":106.737035,"i_lat":-6.159876},{"i_lat":-6.162758,"station_name":"Rawa Buaya","station_id":"RW","time":4,"transit":false,"line":5,"i_long":106.723064,"distance":1152,"is_transit":false},{"transit":false,"station_id":"KDS","distance":2504,"i_long":106.701612,"is_transit":false,"time":3,"station_name":"Kalideres","line":5,"i_lat":-6.166068},{"time":3,"line":5,"transit":false,"distance":2548,"i_lat":-6.169933,"station_name":"Poris","station_id":"PI","is_transit":false,"i_long":106.679458},{"transit":false,"station_name":"Batuceper","i_long":106.665036,"station_id":"BPR","line":5,"distance":1834,"i_lat":-6.171811,"is_transit":false,"time":3},{"station_id":"TTI","station_name":"Tanah Tinggi","time":3,"distance":2028,"transit":false,"i_long":106.64657,"is_transit":false,"i_lat":-6.17331,"line":5}],[{"transit":false,"i_lat":-6.334892,"station_name":"Citeras","is_transit":false,"distance":0,"i_long":106.332092,"station_id":"CTR","time":0,"line":3},{"line":6,"distance":7293,"i_long":106.394373,"station_name":"Maja","time":10,"is_transit":false,"i_lat":-6.332307,"transit":false,"station_id":"MJ"},{"time":4,"station_name":"Cikoya","transit":false,"i_lat":-6.33561,"station_id":"CKY","distance":1853,"line":3,"is_transit":false,"i_long":106.411216},{"time":3,"i_lat":-6.328533,"line":6,"transit":false,"station_id":"TGS","station_name":"Tigaraksa","i_long":106.425991,"is_transit":false,"distance":2651},{"i_lat":-6.327251,"transit":false,"station_id":"TEJ","is_transit":false,"line":6,"i_long":106.460812,"station_name":"Tenjo","distance":2974,"time":5},{"is_transit":false,"station_name":"Daru","line":0,"time":5,"distance":3902,"i_long":106.491338,"i_lat":-6.338021,"transit":false,"station_id":"DAR"},{"line":3,"is_transit":false,"transit":false,"station_id":"CJT","station_name":"Cilejit","time":6,"i_long":106.508482,"distance":2675,"i_lat":-6.354349},{"i_lat":-6.3441410000000005,"transit":false,"time":9,"station_name":"Parung Panjang","distance":7025,"i_long":106.568863,"is_transit":false,"line":6,"station_id":"PRP"},{"i_lat":-6.329547,"distance":5968,"line":3,"transit":false,"station_name":"Cicayur","is_transit":false,"time":8,"station_id":"CC","i_long":106.617853},{"transit":false,"station_name":"Cisauk","line":3,"station_id":"CSK","is_transit":false,"i_lat":-6.32484,"time":4,"distance":2519,"i_long":106.640411},{"i_lat":-6.319871,"i_long":106.66566,"station_name":"Serpong","line":6,"is_transit":false,"transit":false,"time":4,"distance":1784,"station_id":"SRP"},{"i_long":106.675475,"is_transit":false,"line":6,"time":4,"station_name":"Rawa Buntu","i_lat":-6.314823,"distance":2413,"transit":false,"station_id":"RU"},{"transit":false,"is_transit":false,"station_id":"SDM","distance":4566,"line":6,"i_long":106.712277,"time":6,"i_lat":-6.296963,"station_name":"Sudimara"},{"i_long":106.728916,"is_transit":false,"line":6,"transit":false,"distance":1994,"station_name":"Jurangmangu","i_lat":-6.288927,"time":4,"station_id":"JMU"},{"station_id":"PDJ","time":3,"distance":2179,"i_long":106.74273,"transit":false,"i_lat":-6.276362,"station_name":"Pondokranji","is_transit":false,"line":6},{"station_id":"KBY","time":8,"line":6,"transit":false,"i_long":106.780334,"station_name":"Kebayoran","i_lat":-6.237242,"is_transit":false,"distance":6218},{"station_id":"PLM","i_lat":-6.207404,"line":6,"transit":false,"i_long":106.79689,"distance":3737,"is_transit":false,"time":7,"station_name":"Palmerah"},{"i_long":106.811091,"station_id":"THB","station_name":"Tanah Abang","time":6,"line":1,"distance":3191,"is_transit":true,"i_lat":-6.185545,"transit":true},{"i_lat":-6.20132,"station_name":"Karet","is_transit":false,"transit":false,"i_long":106.816351,"time":5,"distance":2029,"station_id":"KAT","line":1},{"distance":471,"station_id":"SUDB","is_transit":false,"i_lat":-6.201433,"time":1,"i_long":106.819881,"station_name":"Sudirman Baru","transit":false,"line":1},{"i_lat":-6.202263,"station_name":"Sudirman","transit":false,"i_long":106.822649,"time":1,"station_id":"SUD","distance":280,"is_transit":false,"line":1},{"i_long":106.84912,"station_name":"Manggarai","transit":true,"line":2,"distance":3186,"i_lat":-6.209883,"time":4,"station_id":"MRI","is_transit":true},{"time":4,"transit":false,"i_lat":-6.198556,"station_id":"CKI","i_long":106.840169,"line":2,"station_name":"Cikini","distance":1590,"is_transit":false},{"is_transit":false,"i_long":106.832183,"line":2,"distance":1750,"station_id":"GDD","time":3,"transit":false,"i_lat":-6.186295,"station_name":"Gondangdia"},{"station_id":"JUA","distance":2015,"is_transit":false,"i_lat":-6.166716,"line":2,"time":4,"station_name":"Juanda","i_long":106.828284,"transit":false},{"is_transit":false,"station_id":"SW","distance":1149,"i_long":106.827103,"time":2,"i_lat":-6.160725,"station_name":"Sawah Besar","line":2,"transit":false},{"i_long":106.82482,"time":2,"line":2,"transit":false,"station_name":"Manggabesar","station_id":"MGB","distance":906,"i_lat":-6.149769,"is_transit":false},{"is_transit":false,"i_lat":-6.141205,"transit":false,"distance":1080,"line":2,"i_long":106.820901,"station_id":"JAY","station_name":"Jayakarta","time":2},{"station_id":"JAKK","transit":true,"is_transit":true,"time":4,"distance":1264,"i_long":106.812439,"i_lat":-6.137569,"line":2,"station_name":"Jakarta Kota"},{"time":3,"station_name":"Kampung Bandan","i_long":106.826365,"transit":true,"station_id":"KPB","is_transit":true,"distance":1364,"i_lat":-6.132549,"line":4},{"station_id":"AK","line":1,"transit":false,"station_name":"Angke","is_transit":false,"i_long":106.79867,"i_lat":-6.144674,"time":9,"distance":4102},{"transit":true,"station_name":"Duri","i_long":106.800832,"time":4,"line":1,"station_id":"DU","is_transit":true,"i_lat":-6.155215,"distance":1230},{"transit":false,"i_long":106.788277,"station_name":"Grogol","line":5,"is_transit":false,"time":3,"distance":1700,"station_id":"GGL","i_lat":-6.162021},{"i_lat":-6.161433,"line":5,"transit":false,"is_transit":false,"time":2,"distance":2036,"station_id":"PSG","station_name":"Pesing","i_long":106.771379},{"line":5,"time":2,"i_lat":-6.1587309999999995,"i_long":106.756522,"transit":false,"is_transit":false,"distance":1614,"station_id":"TKO","station_name":"Taman Kota"},{"distance":2334,"station_name":"Bojongindah","station_id":"BOI","is_transit":false,"time":2,"i_long":106.737035,"transit":false,"i_lat":-6.159876,"line":5},{"time":4,"distance":1152,"station_name":"Rawa Buaya","transit":false,"is_transit":false,"i_lat":-6.162758,"station_id":"RW","line":5,"i_long":106.723064},{"line":5,"transit":false,"station_name":"Kalideres","station_id":"KDS","is_transit":false,"distance":2504,"i_lat":-6.166068,"time":3,"i_long":106.701612},{"i_long":106.679458,"transit":false,"is_transit":false,"distance":2548,"line":5,"station_id":"PI","station_name":"Poris","time":3,"i_lat":-6.169933},{"distance":1834,"transit":false,"station_name":"Batuceper","time":3,"station_id":"BPR","i_lat":-6.171811,"line":5,"i_long":106.665036,"is_transit":false},{"station_name":"Tanah Tinggi","line":5,"time":3,"station_id":"TTI","i_lat":-6.17331,"i_long":106.64657,"is_transit":false,"transit":false,"distance":2028}],[{"station_name":"Citeras","station_id":"CTR","is_transit":false,"i_lat":-6.334892,"transit":false,"line":3,"time":0,"i_long":106.332092,"distance":0},{"line":6,"i_lat":-6.332307,"station_name":"Maja","transit":false,"station_id":"MJ","is_transit":false,"time":10,"distance":7293,"i_long":106.394373},{"station_id":"CKY","i_lat":-6.33561,"station_name":"Cikoya","time":4,"line":3,"i_long":106.411216,"transit":false,"is_transit":false,"distance":1853},{"is_transit":false,"line":6,"distance":2651,"time":3,"i_lat":-6.328533,"station_name":"Tigaraksa","i_long":106.425991,"transit":false,"station_id":"TGS"},{"i_long":106.460812,"transit":false,"distance":2974,"station_name":"Tenjo","station_id":"TEJ","is_transit":false,"line":6,"time":5,"i_lat":-6.327251},{"i_long":106.491338,"line":0,"time":5,"station_name":"Daru","distance":3902,"is_transit":false,"i_lat":-6.338021,"transit":false,"station_id":"DAR"},{"is_transit":false,"station_id":"CJT","i_lat":-6.354349,"transit":false,"line":3,"distance":2675,"i_long":106.508482,"time":6,"station_name":"Cilejit"},{"is_transit":false,"transit":false,"station_name":"Parung Panjang","station_id":"PRP","time":9,"i_lat":-6.3441410000000005,"i_long":106.568863,"line":6,"distance":7025},{"distance":5968,"station_id":"CC","i_lat":-6.329547,"station_name":"Cicayur","time":8,"line":3,"transit":false,"i_long":106.617853,"is_transit":false},{"station_name":"Cisauk","time":4,"transit":false,"station_id":"CSK","distance":2519,"i_lat":-6.32484,"i_long":106.640411,"line":3,"is_transit":false},{"line":6,"time":4,"station_id":"SRP","transit":false,"station_name":"Serpong","distance":1784,"i_lat":-6.319871,"is_transit":false,"i_long":106.66566},{"time":4,"station_name":"Rawa Buntu","station_id":"RU","is_transit":false,"distance":2413,"transit":false,"i_long":106.675475,"i_lat":-6.314823,"line":6},{"station_id":"SDM","i_lat":-6.296963,"distance":4566,"i_long":106.712277,"line":6,"station_name":"Sudimara","is_transit":false,"transit":false,"time":6},{"time":4,"is_transit":false,"distance":1994,"i_lat":-6.288927,"transit":false,"station_name":"Jurangmangu","station_id":"JMU","i_long":106.728916,"line":6},{"transit":false,"station_id":"PDJ","i_lat":-6.276362,"distance":2179,"station_name":"Pondokranji","is_transit":false,"time":3,"i_long":106.74273,"line":6},{"station_name":"Kebayoran","station_id":"KBY","is_transit":false,"time":8,"transit":false,"distance":6218,"i_lat":-6.237242,"i_long":106.780334,"line":6},{"station_name":"Palmerah","i_lat":-6.207404,"i_long":106.79689,"time":7,"station_id":"PLM","is_transit":false,"transit":false,"distance":3737,"line":6},{"line":1,"time":6,"station_name":"Tanah Abang","i_lat":-6.185545,"is_transit":true,"station_id":"THB","i_long":106.811091,"transit":true,"distance":3191},{"distance":2029,"i_long":106.816351,"station_id":"KAT","transit":false,"time":5,"station_name":"Karet","is_transit":false,"line":1,"i_lat":-6.20132},{"line":1,"station_id":"SUDB","i_long":106.819881,"is_transit":false,"distance":471,"station_name":"Sudirman Baru","time":1,"transit":false,"i_lat":-6.201433},{"line":1,"distance":280,"i_lat":-6.202263,"station_id":"SUD","i_long":106.822649,"station_name":"Sudirman","time":1,"is_transit":false,"transit":false},{"station_id":"MRI","i_long":106.84912,"distance":3186,"i_lat":-6.209883,"is_transit":false,"station_name":"Manggarai","transit":false,"time":4,"line":2},{"i_lat":-6.212485,"i_long":106.858896,"line":1,"station_name":"Matraman","station_id":"MTR","is_transit":false,"distance":1275,"transit":false,"time":2},{"transit":true,"is_transit":true,"distance":1377,"i_lat":-6.215091,"station_name":"Jatinegara","i_long":106.86807400000001,"line":1,"time":8,"station_id":"JNG"},{"distance":1236,"station_id":"POK","time":2,"i_long":106.861737,"i_lat":-6.209188,"station_name":"Pondok Jati","transit":false,"is_transit":false,"line":11},{"transit":false,"station_name":"Kramat","station_id":"KMT","distance":1829,"i_long":106.855437,"is_transit":false,"line":11,"time":2,"i_lat":-6.193792},{"distance":973,"line":11,"is_transit":false,"station_name":"Gang Sentiong","transit":false,"station_id":"GST","i_lat":-6.185975,"time":1,"i_long":106.850107},{"is_transit":false,"time":8,"station_id":"PSE","transit":false,"station_name":"Pasar Senen","i_long":106.84368,"i_lat":-6.174784,"distance":1567,"line":11},{"station_id":"KMO","is_transit":false,"transit":false,"time":4,"i_long":106.839204,"station_name":"Kemayoran","distance":1436,"i_lat":-6.161728,"line":11},{"transit":false,"i_lat":-6.14505,"station_id":"RJW","station_name":"Rajawali","is_transit":false,"i_long":106.836569,"time":5,"line":11,"distance":1901},{"i_long":106.826365,"transit":true,"station_id":"KPB","time":3,"station_name":"Kampung Bandan","i_lat":-6.132549,"line":4,"distance":1444,"is_transit":true},{"i_long":106.79867,"time":9,"distance":4102,"station_name":"Angke","is_transit":false,"station_id":"AK","i_lat":-6.144674,"line":1,"transit":false},{"i_lat":-6.155215,"distance":1230,"station_name":"Duri","transit":true,"line":1,"station_id":"DU","i_long":106.800832,"is_transit":true,"time":4},{"i_long":106.788277,"transit":false,"distance":1700,"station_id":"GGL","time":3,"station_name":"Grogol","is_transit":false,"i_lat":-6.162021,"line":5},{"transit":false,"distance":2036,"station_name":"Pesing","i_lat":-6.161433,"i_long":106.771379,"line":5,"station_id":"PSG","is_transit":false,"time":2},{"is_transit":false,"distance":1614,"i_long":106.756522,"line":5,"i_lat":-6.1587309999999995,"station_id":"TKO","station_name":"Taman Kota","time":2,"transit":false},{"line":5,"i_long":106.737035,"is_transit":false,"station_name":"Bojongindah","station_id":"BOI","transit":false,"time":2,"i_lat":-6.159876,"distance":2334},{"station_name":"Rawa Buaya","is_transit":false,"time":4,"line":5,"transit":false,"station_id":"RW","distance":1152,"i_lat":-6.162758,"i_long":106.723064},{"distance":2504,"i_lat":-6.166068,"is_transit":false,"line":5,"i_long":106.701612,"station_id":"KDS","time":3,"transit":false,"station_name":"Kalideres"},{"i_lat":-6.169933,"transit":false,"is_transit":false,"i_long":106.679458,"line":5,"station_name":"Poris","station_id":"PI","time":3,"distance":2548},{"is_transit":false,"station_id":"BPR","time":3,"i_lat":-6.171811,"i_long":106.665036,"transit":false,"station_name":"Batuceper","distance":1834,"line":5},{"distance":2028,"station_name":"Tanah Tinggi","station_id":"TTI","transit":false,"i_long":106.64657,"is_transit":false,"i_lat":-6.17331,"time":3,"line":5}]]}