{"data":[[{"distance":0,"i_lat":-6.334892,"is_transit":false,"station_name":"Citeras","line":3,"time":0,"i_long":106.332092,"transit":false,"station_id":"CTR"},{"i_long":106.394373,"transit":false,"station_name":"Maja","is_transit":false,"distance":7293,"line":6,"station_id":"MJ","time":10,"i_lat":-6.332307},{"station_name":"Cikoya","time":4,"i_long":106.411216,"line":3,"distance":1853,"station_id":"CKY","transit":false,"is_transit":false,"i_lat":-6.33561},{"station_id":"TGS","transit":false,"is_transit":false,"time":3,"line":6,"i_lat":-6.328533,"distance":2651,"station_name":"Tigaraksa","i_long":106.425991},{"i_lat":-6.327251,"distance":2974,"i_long":106.460812,"is_transit":false,"station_id":"TEJ","transit":false,"line":6,"time":5,"station_name":"Tenjo"},{"i_lat":-6.338021,"line":0,"station_name":"Daru","transit":false,"i_long":106.491338,"distance":3902,"station_id":"DAR","time":5,"is_transit":false},{"distance":2675,"i_lat":-6.354349,"is_transit":false,"time":6,"station_id":"CJT","station_name":"Cilejit","transit":false,"i_long":106.508482,"line":3},{"time":9,"line":6,"distance":7025,"station_id":"PRP","transit":false,"i_long":106.568863,"station_name":"Parung Panjang","is_transit":false,"i_lat":-6.3441410000000005},{"station_name":"Cicayur","distance":5968,"line":3,"transit":false,"station_id":"CC","is_transit":false,"i_lat":-6.329547,"time":8,"i_long":106.617853},{"station_name":"Cisauk","i_lat":-6.32484,"i_long":106.640411,"line":3,"is_transit":false,"time":4,"station_id":"CSK","distance":2519,"transit":false},{"station_id":"SRP","i_long":106.66566,"is_transit":false,"transit":false,"line":6,"distance":1784,"station_name":"Serpong","time":4,"i_lat":-6.319871},{"is_transit":false,"line":6,"distance":2413,"station_id":"RU","station_name":"Rawa Buntu","time":4,"transit":false,"i_lat":-6.314823,"i_long":106.675475},{"line":6,"i_lat":-6.296963,"distance":4566,"is_transit":false,"i_long":106.712277,"station_name":"Sudimara","time":6,"transit":false,"station_id":"SDM"},{"distance":1994,"time":4,"i_long":106.728916,"is_transit":false,"station_id":"JMU","i_lat":-6.288927,"station_name":"Jurangmangu","transit":false,"line":6},{"is_transit":false,"transit":false,"i_long":106.74273,"time":3,"i_lat":-6.276362,"station_name":"Pondokranji","station_id":"PDJ","line":6,"distance":2179},{"is_transit":false,"line":6,"time":8,"i_long":106.780334,"station_id":"KBY","distance":6218,"transit":false,"station_name":"Kebayoran","i_lat":-6.237242},{"station_name":"Palmerah","station_id":"PLM","is_transit":false,"transit":false,"i_long":106.79689,"i_lat":-6.207404,"time":7,"line":6,"distance":3737},{"time":6,"station_name":"Tanah Abang","station_id":"THB","is_transit":true,"i_long":106.811091,"line":1,"distance":3191,"i_lat":-6.185545,"transit":true},{"is_transit":false,"i_long":106.816351,"line":1,"time":5,"station_id":"KAT","station_name":"Karet","transit":false,"distance":2029,"i_lat":-6.20132},{"station_id":"SUDB","line":1,"i_long":106.819881,"time":1,"distance":471,"is_transit":false,"station_name":"Sudirman Baru","transit":false,"i_lat":-6.201433},{"time":1,"line":1,"transit":false,"is_transit":false,"station_name":"Sudirman","i_long":106.822649,"i_lat":-6.202263,"distance":280,"station_id":"SUD"},{"is_transit":true,"transit":true,"distance":3186,"station_id":"MRI","i_lat":-6.209883,"i_long":106.84912,"station_name":"Manggarai","time":4,"line":2},{"line":2,"time":4,"is_transit":false,"i_long":106.857948,"distance":2610,"station_name":"Tebet","transit":false,"station_id":"TEB","i_lat":-6.226659},{"distance":1230,"station_name":"Cawang","is_transit":false,"transit":false,"line":2,"station_id":"CW","i_lat":-6.242512,"i_long":106.856607,"time":2},{"i_long":106.85449,"station_name":"Duren Kalibata","distance":1546,"line":2,"station_id":"DRN","i_lat":-6.255332,"is_transit":false,"transit":false,"time":3},{"station_id":"PSMB","i_long":106.851577,"is_transit":false,"station_name":"Pasar Minggu Baru","line":2,"transit":false,"i_lat":-6.263214,"time":2,"distance":824},{"time":2,"distance":2380,"i_lat":-6.2842400000000005,"i_long":106.843999,"line":2,"is_transit":false,"station_name":"Pasar Minggu","station_id":"PSM","transit":false},{"distance":2820,"station_name":"Tanjung Barat","transit":false,"time":4,"is_transit":false,"station_id":"TNT","i_lat":-6.3080680000000005,"i_long":106.838896,"line":2},{"i_lat":-6.330363,"station_name":"Lenteng Agung","is_transit":false,"line":2,"station_id":"LNA","distance":2671,"transit":false,"time":3,"i_long":106.832616},{"station_name":"Univ. Pancasila","time":2,"station_id":"UP","is_transit":false,"distance":1029,"transit":false,"i_long":106.834175,"i_lat":-6.339291,"line":2},{"station_name":"Univ. Indonesia","is_transit":false,"i_long":106.831474,"time":3,"station_id":"UI","transit":false,"line":2,"distance":2264,"i_lat":-6.360749},{"i_lat":-6.369073,"station_id":"POC","transit":false,"i_long":106.831114,"distance":1109,"is_transit":false,"line":2,"station_name":"Pondok Cina","time":2}],[{"station_name":"Citeras","time":0,"distance":0,"i_lat":-6.334892,"station_id":"CTR","transit":false,"is_transit":false,"line":3,"i_long":106.332092},{"distance":7293,"i_lat":-6.332307,"i_long":106.394373,"time":10,"is_transit":false,"line":6,"station_id":"MJ","transit":false,"station_name":"Maja"},{"transit":false,"i_long":106.411216,"line":3,"station_name":"Cikoya","time":4,"station_id":"CKY","i_lat":-6.33561,"is_transit":false,"distance":1853},{"station_name":"Tigaraksa","time":3,"station_id":"TGS","distance":2651,"i_lat":-6.328533,"i_long":106.425991,"is_transit":false,"transit":false,"line":6},{"i_lat":-6.327251,"station_name":"Tenjo","transit":false,"time":5,"i_long":106.460812,"line":6,"distance":2974,"is_transit":false,"station_id":"TEJ"},{"is_transit":false,"line":0,"distance":3902,"transit":false,"time":5,"station_name":"Daru","station_id":"DAR","i_long":106.491338,"i_lat":-6.338021},{"i_lat":-6.354349,"is_transit":false,"station_name":"Cilejit","transit":false,"time":6,"distance":2675,"i_long":106.508482,"line":3,"station_id":"CJT"},{"transit":false,"i_lat":-6.3441410000000005,"time":9,"station_name":"Parung Panjang","station_id":"PRP","is_transit":false,"distance":7025,"line":6,"i_long":106.568863},{"station_id":"CC","is_transit":false,"transit":false,"station_name":"Cicayur","i_lat":-6.329547,"distance":5968,"line":3,"time":8,"i_long":106.617853},{"i_long":106.640411,"station_name":"Cisauk","transit":false,"station_id":"CSK","time":4,"is_transit":false,"distance":2519,"i_lat":-6.32484,"line":3},{"transit":false,"i_lat":-6.319871,"station_id":"SRP","is_transit":false,"i_long":106.66566,"distance":1784,"time":4,"station_name":"Serpong","line":6},{"station_id":"RU","station_name":"Rawa Buntu","line":6,"i_long":106.675475,"time":4,"i_lat":-6.314823,"is_transit":false,"transit":false,"distance":2413},{"i_long":106.712277,"time":6,"transit":false,"line":6,"distance":4566,"station_name":"Sudimara","station_id":"SDM","is_transit":false,"i_lat":-6.296963},{"station_id":"JMU","transit":false,"is_transit":false,"i_lat":-6.288927,"time":4,"line":6,"distance":1994,"i_long":106.728916,"station_name":"Jurangmangu"},{"line":6,"is_transit":false,"i_lat":-6.276362,"distance":2179,"time":3,"transit":false,"station_name":"Pondokranji","station_id":"PDJ","i_long":106.74273},{"line":6,"time":8,"station_id":"KBY","i_lat":-6.237242,"i_long":106.780334,"distance":6218,"is_transit":false,"station_name":"Kebayoran","transit":false},{"i_long":106.79689,"station_name":"Palmerah","is_transit":false,"line":6,"station_id":"PLM","time":7,"distance":3737,"transit":false,"i_lat":-6.207404},{"station_id":"THB","station_name":"Tanah Abang","time":6,"transit":true,"distance":3191,"i_lat":-6.185545,"i_long":106.811091,"is_transit":true,"line":1},{"i_lat":-6.155215,"is_transit":false,"station_name":"Duri","i_long":106.800832,"line":1,"time":8,"distance":3632,"station_id":"DU","transit":false},{"transit":false,"i_long":106.79867,"is_transit":false,"line":1,"station_name":"Angke","distance":1230,"station_id":"AK","i_lat":-6.144674,"time":4},{"transit":true,"i_lat":-6.132549,"station_name":"Kampung Bandan","time":9,"station_id":"KPB","i_long":106.826365,"line":4,"distance":4102,"is_transit":true},{"distance":1364,"time":3,"station_id":"JAKK","is_transit":true,"i_lat":-6.137569,"line":2,"transit":true,"i_long":106.812439,"station_name":"Jakarta Kota"},{"time":4,"station_name":"Jayakarta","station_id":"JAY","transit":false,"is_transit":false,"i_long":106.820901,"distance":1264,"i_lat":-6.141205,"line":2},{"station_id":"MGB","i_long":106.82482,"is_transit":false,"i_lat":-6.149769,"line":2,"transit":false,"station_name":"Manggabesar","time":2,"distance":1080},{"i_long":106.827103,"i_lat":-6.160725,"distance":906,"transit":false,"time":2,"line":2,"is_transit":false,"station_name":"Sawah Besar","station_id":"SW"},{"station_id":"JUA","i_lat":-6.166716,"is_transit":false,"station_name":"Juanda","time":2,"i_long":106.828284,"line":2,"transit":false,"distance":1149},{"station_id":"GDD","station_name":"Gondangdia","transit":false,"time":4,"distance":2015,"line":2,"i_long":106.832183,"i_lat":-6.186295,"is_transit":false},{"i_long":106.840169,"i_lat":-6.198556,"station_name":"Cikini","station_id":"CKI","is_transit":false,"transit":false,"time":3,"distance":1750,"line":2},{"transit":false,"station_name":"Manggarai","station_id":"MRI","i_lat":-6.209883,"time":4,"distance":1590,"i_long":106.84912,"line":2,"is_transit":false},{"distance":2610,"line":2,"station_id":"TEB","time":4,"is_transit":false,"station_name":"Tebet","i_lat":-6.226659,"i_long":106.857948,"transit":false},{"i_long":106.856607,"time":2,"is_transit":false,"station_id":"CW","line":2,"station_name":"Cawang","i_lat":-6.242512,"distance":1230,"transit":false},{"is_transit":false,"i_lat":-6.255332,"i_long":106.85449,"station_name":"Duren Kalibata","time":3,"station_id":"DRN","line":2,"transit":false,"distance":1546},{"station_name":"Pasar Minggu Baru","station_id":"PSMB","distance":824,"is_transit":false,"time":2,"transit":false,"i_lat":-6.263214,"i_long":106.851577,"line":2},{"line":2,"station_id":"PSM","distance":2380,"i_long":106.843999,"station_name":"Pasar Minggu","time":2,"i_lat":-6.2842400000000005,"transit":false,"is_transit":false},{"i_lat":-6.3080680000000005,"is_transit":false,"transit":false,"line":2,"station_id":"TNT","distance":2820,"station_name":"Tanjung Barat","time":4,"i_long":106.838896},{"station_name":"Lenteng Agung","distance":2671,"station_id":"LNA","transit":false,"line":2,"time":3,"is_transit":false,"i_lat":-6.330363,"i_long":106.832616},{"time":2,"station_id":"UP","i_lat":-6.339291,"station_name":"Univ. Pancasila","transit":false,"is_transit":false,"line":2,"i_long":106.834175,"distance":1029},{"time":3,"station_id":"UI","line":2,"i_long":106.831474,"transit":false,"station_name":"Univ. Indonesia","is_transit":false,"distance":2264,"i_lat":-6.360749},{"station_id":"POC","distance":1109,"i_long":106.831114,"time":2,"i_lat":-6.369073,"station_name":"Pondok Cina","transit":false,"is_transit":false,"line":2}],[{"i_long":106.332092,"time":0,"i_lat":-6.334892,"line":3,"is_transit":false,"station_name":"Citeras","distance":0,"station_id":"CTR","transit":false},{"distance":7293,"line":6,"is_transit":false,"transit":false,"station_id":"MJ","time":10,"i_lat":-6.332307,"station_name":"Maja","i_long":106.394373},{"station_id":"CKY","i_long":106.411216,"time":4,"line":3,"transit":false,"distance":1853,"station_name":"Cikoya","is_transit":false,"i_lat":-6.33561},{"i_lat":-6.328533,"time":3,"distance":2651,"i_long":106.425991,"line":6,"transit":false,"is_transit":false,"station_name":"Tigaraksa","station_id":"TGS"},{"is_transit":false,"transit":false,"station_id":"TEJ","i_lat":-6.327251,"i_long":106.460812,"line":6,"station_name":"Tenjo","time":5,"distance":2974},{"distance":3902,"station_name":"Daru","line":0,"time":5,"station_id":"DAR","is_transit":false,"i_lat":-6.338021,"i_long":106.491338,"transit":false},{"station_name":"Cilejit","distance":2675,"is_transit":false,"i_lat":-6.354349,"station_id":"CJT","transit":false,"i_long":106.508482,"line":3,"time":6},{"station_id":"PRP","i_lat":-6.3441410000000005,"time":9,"i_long":106.568863,"transit":false,"distance":7025,"is_transit":false,"line":6,"station_name":"Parung Panjang"},{"i_long":106.617853,"line":3,"i_lat":-6.329547,"transit":false,"distance":5968,"station_name":"Cicayur","is_transit":false,"time":8,"station_id":"CC"},{"is_transit":false,"distance":2519,"line":3,"time":4,"station_id":"CSK","transit":false,"i_lat":-6.32484,"station_name":"Cisauk","i_long":106.640411},{"i_long":106.66566,"transit":false,"i_lat":-6.319871,"station_id":"SRP","distance":1784,"is_transit":false,"line":6,"station_name":"Serpong","time":4},{"transit":false,"time":4,"station_id":"RU","distance":2413,"i_long":106.675475,"line":6,"station_name":"Rawa Buntu","is_transit":false,"i_lat":-6.314823},{"time":6,"i_long":106.712277,"station_id":"SDM","is_transit":false,"i_lat":-6.296963,"line":6,"station_name":"Sudimara","transit":false,"distance":4566},{"distance":1994,"station_id":"JMU","is_transit":false,"transit":false,"time":4,"station_name":"Jurangmangu","i_long":106.728916,"line":6,"i_lat":-6.288927},{"station_id":"PDJ","distance":2179,"station_name":"Pondokranji","transit":false,"line":6,"i_long":106.74273,"is_transit":false,"time":3,"i_lat":-6.276362},{"station_id":"KBY","line":6,"time":8,"is_transit":false,"station_name":"Kebayoran","i_long":106.780334,"transit":false,"i_lat":-6.237242,"distance":6218},{"line":6,"distance":3737,"station_name":"Palmerah","transit":false,"i_lat":-6.207404,"i_long":106.79689,"time":7,"station_id":"PLM","is_transit":false},{"station_id":"THB","time":6,"is_transit":true,"i_long":106.811091,"line":1,"transit":true,"station_name":"Tanah Abang","i_lat":-6.185545,"distance":3191},{"time":8,"i_lat":-6.155215,"transit":false,"station_name":"Duri","distance":3632,"station_id":"DU","line":1,"is_transit":false,"i_long":106.800832},{"line":1,"station_id":"AK","transit":false,"station_name":"Angke","is_transit":false,"time":4,"i_long":106.79867,"distance":1230,"i_lat":-6.144674},{"transit":true,"i_lat":-6.132549,"station_name":"Kampung Bandan","time":9,"station_id":"KPB","line":4,"distance":4102,"is_transit":true,"i_long":106.826365},{"time":3,"distance":1444,"is_transit":false,"transit":false,"i_long":106.836569,"station_name":"Rajawali","i_lat":-6.14505,"line":11,"station_id":"RJW"},{"time":5,"line":11,"is_transit":false,"station_id":"KMO","i_long":106.839204,"distance":1901,"transit":false,"station_name":"Kemayoran","i_lat":-6.161728},{"time":4,"transit":false,"distance":1436,"i_long":106.84368,"station_name":"Pasar Senen","is_transit":false,"i_lat":-6.174784,"station_id":"PSE","line":11},{"i_long":106.850107,"line":11,"station_name":"Gang Sentiong","i_lat":-6.185975,"transit":false,"time":8,"station_id":"GST","distance":1567,"is_transit":false},{"is_transit":false,"i_lat":-6.193792,"i_long":106.855437,"distance":973,"transit":false,"line":11,"time":1,"station_name":"Kramat","station_id":"KMT"},{"i_lat":-6.209188,"i_long":106.861737,"is_transit":false,"station_id":"POK","line":11,"transit":false,"station_name":"Pondok Jati","time":2,"distance":1829},{"transit":true,"time":9,"i_lat":-6.215091,"station_name":"Jatinegara","distance":1236,"i_long":106.86807400000001,"line":1,"station_id":"JNG","is_transit":true},{"transit":false,"distance":1377,"station_name":"Matraman","station_id":"MTR","i_lat":-6.212485,"line":1,"i_long":106.858896,"is_transit":false,"time":2},{"is_transit":true,"i_lat":-6.209883,"station_id":"MRI","time":2,"transit":true,"station_name":"Manggarai","distance":1275,"i_long":106.84912,"line":2},{"line":2,"distance":2610,"i_lat":-6.226659,"i_long":106.857948,"is_transit":false,"time":4,"station_name":"Tebet","transit":false,"station_id":"TEB"},{"time":2,"line":2,"i_long":106.856607,"is_transit":false,"station_name":"Cawang","transit":false,"i_lat":-6.242512,"distance":1230,"station_id":"CW"},{"is_transit":false,"distance":1546,"time":3,"i_lat":-6.255332,"station_name":"Duren Kalibata","transit":false,"i_long":106.85449,"line":2,"station_id":"DRN"},{"time":2,"i_lat":-6.263214,"station_name":"Pasar Minggu Baru","i_long":106.851577,"station_id":"PSMB","transit":false,"distance":824,"line":2,"is_transit":false},{"is_transit":false,"i_long":106.843999,"time":2,"transit":false,"distance":2380,"station_name":"Pasar Minggu","i_lat":-6.2842400000000005,"line":2,"station_id":"PSM"},{"line":2,"transit":false,"station_name":"Tanjung Barat","i_lat":-6.3080680000000005,"distance":2820,"i_long":106.838896,"is_transit":false,"time":4,"station_id":"TNT"},{"i_lat":-6.330363,"station_id":"LNA","station_name":"Lenteng Agung","line":2,"is_transit":false,"time":3,"distance":2671,"transit":false,"i_long":106.832616},{"transit":false,"i_lat":-6.339291,"distance":1029,"station_name":"Univ. Pancasila","is_transit":false,"line":2,"time":2,"i_long":106.834175,"station_id":"UP"},{"station_name":"Univ. Indonesia","time":3,"line":2,"transit":false,"station_id":"UI","i_lat":-6.360749,"distance":2264,"i_long":106.831474,"is_transit":false},{"line":2,"i_lat":-6.369073,"station_name":"Pondok Cina","station_id":"POC","is_transit":false,"time":2,"distance":1109,"i_long":106.831114,"transit":false}]]}