{"data":[[{"station_name":"Citeras","distance":0,"transit":false,"station_id":"CTR","is_transit":false,"i_lat":-6.334892,"i_long":106.332092,"time":0,"line":0},{"i_long":106.394373,"i_lat":-6.332307,"line":6,"station_name":"Maja","station_id":"MJ","distance":7293,"transit":false,"is_transit":false,"time":10},{"is_transit":false,"distance":1853,"line":0,"i_long":106.411216,"time":4,"station_id":"CKY","i_lat":-6.33561,"station_name":"Cikoya","transit":false},{"station_id":"TGS","station_name":"Tigaraksa","i_long":106.425991,"transit":false,"line":6,"i_lat":-6.328533,"distance":2651,"time":3,"is_transit":false},{"i_long":106.460812,"is_transit":false,"station_id":"TEJ","i_lat":-6.327251,"line":6,"station_name":"Tenjo","distance":2974,"transit":false,"time":5},{"distance":3902,"transit":false,"is_transit":false,"i_lat":-6.338021,"i_long":106.491338,"line":0,"station_name":"Daru","time":5,"station_id":"DAR"},{"i_lat":-6.354349,"station_id":"CJT","transit":false,"is_transit":false,"station_name":"Cilejit","i_long":106.508482,"distance":2675,"line":0,"time":6},{"is_transit":false,"i_lat":-6.3441410000000005,"station_name":"Parung Panjang","line":6,"i_long":106.568863,"distance":7025,"station_id":"PRP","transit":false,"time":9},{"station_id":"CC","distance":5968,"transit":false,"time":8,"i_lat":-6.329547,"i_long":106.617853,"is_transit":false,"station_name":"Cicayur","line":0},{"station_name":"Cisauk","station_id":"CSK","is_transit":false,"time":4,"i_long":106.640411,"line":0,"transit":false,"i_lat":-6.32484,"distance":2519}]]}