{"data":[[{"is_transit":false,"station_id":"CTR","line":3,"i_lat":-6.334892,"time":0,"distance":0,"transit":false,"i_long":106.332092,"station_name":"Citeras"},{"station_name":"Maja","station_id":"MJ","is_transit":false,"transit":false,"i_lat":-6.332307,"i_long":106.394373,"time":10,"distance":7293,"line":6},{"station_id":"CKY","is_transit":false,"time":4,"i_long":106.411216,"line":3,"distance":1853,"transit":false,"i_lat":-6.33561,"station_name":"Cikoya"},{"station_name":"Tigaraksa","transit":false,"distance":2651,"station_id":"TGS","i_long":106.425991,"is_transit":false,"i_lat":-6.328533,"time":3,"line":6},{"i_lat":-6.327251,"is_transit":false,"i_long":106.460812,"time":5,"transit":false,"line":6,"distance":2974,"station_name":"Tenjo","station_id":"TEJ"},{"i_lat":-6.338021,"i_long":106.491338,"transit":false,"distance":3902,"time":5,"is_transit":false,"station_name":"Daru","line":0,"station_id":"DAR"},{"station_id":"CJT","station_name":"Cilejit","i_lat":-6.354349,"i_long":106.508482,"is_transit":false,"transit":false,"line":3,"distance":2675,"time":6},{"i_long":106.568863,"station_name":"Parung Panjang","distance":7025,"is_transit":false,"transit":false,"line":6,"time":9,"station_id":"PRP","i_lat":-6.3441410000000005},{"time":8,"station_name":"Cicayur","transit":false,"is_transit":false,"line":3,"i_long":106.617853,"distance":5968,"i_lat":-6.329547,"station_id":"CC"},{"station_name":"Cisauk","station_id":"CSK","time":4,"i_lat":-6.32484,"distance":2519,"is_transit":false,"line":3,"i_long":106.640411,"transit":false},{"distance":1784,"station_id":"SRP","transit":false,"i_long":106.66566,"line":6,"i_lat":-6.319871,"is_transit":false,"station_name":"Serpong","time":4},{"i_lat":-6.314823,"distance":2413,"is_transit":false,"station_id":"RU","transit":false,"time":4,"i_long":106.675475,"line":6,"station_name":"Rawa Buntu"},{"station_id":"SDM","distance":4566,"is_transit":false,"station_name":"Sudimara","transit":false,"time":6,"i_lat":-6.296963,"i_long":106.712277,"line":6},{"line":6,"station_id":"JMU","is_transit":false,"time":4,"station_name":"Jurangmangu","i_lat":-6.288927,"i_long":106.728916,"distance":1994,"transit":false},{"station_id":"PDJ","is_transit":false,"distance":2179,"line":6,"time":3,"station_name":"Pondokranji","i_lat":-6.276362,"transit":false,"i_long":106.74273},{"time":8,"i_lat":-6.237242,"transit":false,"station_id":"KBY","station_name":"Kebayoran","is_transit":false,"line":6,"distance":6218,"i_long":106.780334},{"is_transit":false,"distance":3737,"i_lat":-6.207404,"i_long":106.79689,"time":7,"station_id":"PLM","station_name":"Palmerah","line":6,"transit":false}]]}