{"data":[[{"distance":0,"transit":false,"station_name":"Citeras","is_transit":false,"station_id":"CTR","i_long":106.332092,"line":3,"time":0,"i_lat":-6.334892},{"line":6,"transit":false,"distance":7293,"is_transit":false,"station_id":"MJ","i_long":106.394373,"station_name":"Maja","i_lat":-6.332307,"time":10},{"is_transit":false,"time":4,"i_lat":-6.33561,"transit":false,"i_long":106.411216,"station_name":"Cikoya","distance":1853,"station_id":"CKY","line":3},{"time":3,"station_id":"TGS","i_long":106.425991,"i_lat":-6.328533,"is_transit":false,"distance":2651,"transit":false,"line":6,"station_name":"Tigaraksa"},{"time":5,"i_lat":-6.327251,"is_transit":false,"line":6,"station_name":"Tenjo","distance":2974,"i_long":106.460812,"transit":false,"station_id":"TEJ"},{"time":5,"i_long":106.491338,"line":0,"transit":false,"i_lat":-6.338021,"station_name":"Daru","is_transit":false,"station_id":"DAR","distance":3902},{"distance":2675,"transit":false,"station_id":"CJT","time":6,"i_lat":-6.354349,"station_name":"Cilejit","is_transit":false,"line":3,"i_long":106.508482},{"is_transit":false,"i_lat":-6.3441410000000005,"i_long":106.568863,"station_name":"Parung Panjang","transit":false,"time":9,"line":6,"station_id":"PRP","distance":7025},{"time":8,"station_id":"CC","is_transit":false,"station_name":"Cicayur","i_long":106.617853,"i_lat":-6.329547,"transit":false,"line":3,"distance":5968},{"transit":false,"station_name":"Cisauk","station_id":"CSK","line":3,"i_long":106.640411,"is_transit":false,"time":4,"distance":2519,"i_lat":-6.32484},{"station_id":"SRP","transit":false,"i_lat":-6.319871,"is_transit":false,"distance":1784,"i_long":106.66566,"time":4,"station_name":"Serpong","line":6},{"station_id":"RU","time":4,"i_long":106.675475,"station_name":"Rawa Buntu","distance":2413,"line":6,"transit":false,"i_lat":-6.314823,"is_transit":false},{"distance":4566,"station_name":"Sudimara","i_lat":-6.296963,"time":6,"line":6,"transit":false,"station_id":"SDM","is_transit":false,"i_long":106.712277},{"is_transit":false,"time":4,"distance":1994,"transit":false,"line":6,"i_lat":-6.288927,"i_long":106.728916,"station_id":"JMU","station_name":"Jurangmangu"},{"distance":2179,"station_name":"Pondokranji","i_long":106.74273,"line":6,"is_transit":false,"time":3,"i_lat":-6.276362,"transit":false,"station_id":"PDJ"},{"i_long":106.780334,"station_id":"KBY","distance":6218,"station_name":"Kebayoran","i_lat":-6.237242,"time":8,"is_transit":false,"transit":false,"line":6},{"transit":false,"distance":3737,"time":7,"station_name":"Palmerah","is_transit":false,"i_lat":-6.207404,"i_long":106.79689,"line":6,"station_id":"PLM"},{"is_transit":true,"station_name":"Tanah Abang","distance":3191,"line":1,"station_id":"THB","i_lat":-6.185545,"transit":true,"time":6,"i_long":106.811091},{"time":5,"line":1,"i_long":106.816351,"station_id":"KAT","i_lat":-6.20132,"station_name":"Karet","is_transit":false,"transit":false,"distance":2029},{"distance":471,"time":1,"line":1,"station_name":"Sudirman Baru","transit":false,"station_id":"SUDB","i_lat":-6.201433,"i_long":106.819881,"is_transit":false},{"time":1,"distance":280,"is_transit":false,"i_lat":-6.202263,"i_long":106.822649,"transit":false,"station_name":"Sudirman","line":1,"station_id":"SUD"},{"station_id":"MRI","is_transit":true,"distance":3186,"i_lat":-6.209883,"line":2,"transit":true,"station_name":"Manggarai","time":4,"i_long":106.84912},{"transit":false,"is_transit":false,"i_lat":-6.226659,"i_long":106.857948,"distance":2610,"line":2,"station_name":"Tebet","time":4,"station_id":"TEB"},{"transit":false,"time":2,"station_id":"CW","i_long":106.856607,"station_name":"Cawang","i_lat":-6.242512,"is_transit":false,"distance":1230,"line":2},{"station_name":"Duren Kalibata","i_long":106.85449,"line":2,"distance":1546,"station_id":"DRN","time":3,"transit":false,"is_transit":false,"i_lat":-6.255332},{"distance":824,"line":2,"station_id":"PSMB","time":2,"station_name":"Pasar Minggu Baru","i_lat":-6.263214,"i_long":106.851577,"is_transit":false,"transit":false},{"distance":2380,"line":2,"time":2,"transit":false,"is_transit":false,"i_lat":-6.2842400000000005,"station_id":"PSM","station_name":"Pasar Minggu","i_long":106.843999},{"station_id":"TNT","is_transit":false,"transit":false,"line":2,"station_name":"Tanjung Barat","time":4,"distance":2820,"i_lat":-6.3080680000000005,"i_long":106.838896},{"is_transit":false,"time":3,"i_long":106.832616,"station_id":"LNA","i_lat":-6.330363,"station_name":"Lenteng Agung","transit":false,"distance":2671,"line":2},{"transit":false,"is_transit":false,"i_lat":-6.339291,"time":2,"i_long":106.834175,"line":2,"station_name":"Univ. Pancasila","station_id":"UP","distance":1029},{"time":3,"i_long":106.831474,"i_lat":-6.360749,"transit":false,"line":2,"is_transit":false,"station_id":"UI","distance":2264,"station_name":"Univ. Indonesia"},{"line":2,"is_transit":false,"time":2,"distance":1109,"i_lat":-6.369073,"station_name":"Pondok Cina","transit":false,"station_id":"POC","i_long":106.831114},{"is_transit":false,"transit":false,"station_id":"DPB","time":4,"i_long":106.819451,"distance":2727,"station_name":"Depokbaru","i_lat":-6.391065,"line":2},{"i_lat":-6.405256,"is_transit":false,"i_long":106.816926,"station_name":"Depok","line":2,"time":3,"transit":false,"station_id":"DP","distance":1584}],[{"station_name":"Citeras","i_lat":-6.334892,"time":0,"line":3,"is_transit":false,"transit":false,"distance":0,"i_long":106.332092,"station_id":"CTR"},{"transit":false,"time":10,"is_transit":false,"station_name":"Maja","i_long":106.394373,"line":6,"distance":7293,"i_lat":-6.332307,"station_id":"MJ"},{"transit":false,"i_long":106.411216,"station_name":"Cikoya","time":4,"line":3,"station_id":"CKY","distance":1853,"i_lat":-6.33561,"is_transit":false},{"transit":false,"distance":2651,"i_long":106.425991,"station_id":"TGS","line":6,"i_lat":-6.328533,"is_transit":false,"time":3,"station_name":"Tigaraksa"},{"is_transit":false,"station_name":"Tenjo","time":5,"i_lat":-6.327251,"line":6,"station_id":"TEJ","i_long":106.460812,"distance":2974,"transit":false},{"is_transit":false,"distance":3902,"station_id":"DAR","station_name":"Daru","line":0,"i_lat":-6.338021,"time":5,"transit":false,"i_long":106.491338},{"is_transit":false,"i_lat":-6.354349,"i_long":106.508482,"distance":2675,"transit":false,"time":6,"line":3,"station_id":"CJT","station_name":"Cilejit"},{"station_name":"Parung Panjang","i_lat":-6.3441410000000005,"station_id":"PRP","is_transit":false,"time":9,"line":6,"transit":false,"distance":7025,"i_long":106.568863},{"i_lat":-6.329547,"line":3,"distance":5968,"station_id":"CC","transit":false,"is_transit":false,"i_long":106.617853,"time":8,"station_name":"Cicayur"},{"line":3,"transit":false,"is_transit":false,"station_name":"Cisauk","i_lat":-6.32484,"station_id":"CSK","distance":2519,"i_long":106.640411,"time":4},{"distance":1784,"station_id":"SRP","time":4,"line":6,"station_name":"Serpong","transit":false,"i_lat":-6.319871,"i_long":106.66566,"is_transit":false},{"station_id":"RU","distance":2413,"i_long":106.675475,"i_lat":-6.314823,"line":6,"time":4,"is_transit":false,"transit":false,"station_name":"Rawa Buntu"},{"transit":false,"time":6,"is_transit":false,"i_lat":-6.296963,"line":6,"station_id":"SDM","distance":4566,"i_long":106.712277,"station_name":"Sudimara"},{"i_lat":-6.288927,"i_long":106.728916,"is_transit":false,"station_id":"JMU","distance":1994,"station_name":"Jurangmangu","transit":false,"time":4,"line":6},{"i_long":106.74273,"transit":false,"time":3,"is_transit":false,"i_lat":-6.276362,"station_id":"PDJ","distance":2179,"line":6,"station_name":"Pondokranji"},{"line":6,"is_transit":false,"station_id":"KBY","time":8,"station_name":"Kebayoran","i_lat":-6.237242,"distance":6218,"i_long":106.780334,"transit":false},{"distance":3737,"is_transit":false,"i_lat":-6.207404,"time":7,"transit":false,"station_id":"PLM","station_name":"Palmerah","i_long":106.79689,"line":6},{"station_name":"Tanah Abang","line":1,"station_id":"THB","i_lat":-6.185545,"i_long":106.811091,"distance":3191,"time":6,"is_transit":true,"transit":true},{"i_lat":-6.155215,"distance":3632,"transit":false,"station_name":"Duri","i_long":106.800832,"line":1,"is_transit":false,"station_id":"DU","time":8},{"i_long":106.79867,"station_id":"AK","transit":false,"distance":1230,"station_name":"Angke","is_transit":false,"i_lat":-6.144674,"time":4,"line":1},{"line":4,"distance":4102,"transit":true,"is_transit":true,"time":9,"i_long":106.826365,"station_id":"KPB","station_name":"Kampung Bandan","i_lat":-6.132549},{"transit":true,"is_transit":true,"station_id":"JAKK","i_long":106.812439,"time":3,"station_name":"Jakarta Kota","line":2,"distance":1364,"i_lat":-6.137569},{"transit":false,"is_transit":false,"time":4,"i_lat":-6.141205,"i_long":106.820901,"station_name":"Jayakarta","line":2,"distance":1264,"station_id":"JAY"},{"station_name":"Manggabesar","i_long":106.82482,"time":2,"transit":false,"distance":1080,"line":2,"is_transit":false,"station_id":"MGB","i_lat":-6.149769},{"station_id":"SW","line":2,"is_transit":false,"transit":false,"i_long":106.827103,"distance":906,"station_name":"Sawah Besar","time":2,"i_lat":-6.160725},{"station_id":"JUA","is_transit":false,"time":2,"i_long":106.828284,"transit":false,"distance":1149,"station_name":"Juanda","i_lat":-6.166716,"line":2},{"is_transit":false,"i_lat":-6.186295,"transit":false,"station_id":"GDD","time":4,"line":2,"distance":2015,"station_name":"Gondangdia","i_long":106.832183},{"station_id":"CKI","transit":false,"distance":1750,"time":3,"i_lat":-6.198556,"station_name":"Cikini","is_transit":false,"line":2,"i_long":106.840169},{"i_lat":-6.209883,"i_long":106.84912,"line":2,"transit":false,"distance":1590,"station_name":"Manggarai","time":4,"station_id":"MRI","is_transit":false},{"transit":false,"station_name":"Tebet","distance":2610,"is_transit":false,"station_id":"TEB","i_lat":-6.226659,"i_long":106.857948,"time":4,"line":2},{"station_name":"Cawang","distance":1230,"i_lat":-6.242512,"station_id":"CW","i_long":106.856607,"transit":false,"is_transit":false,"line":2,"time":2},{"i_long":106.85449,"is_transit":false,"station_id":"DRN","station_name":"Duren Kalibata","i_lat":-6.255332,"distance":1546,"line":2,"time":3,"transit":false},{"is_transit":false,"line":2,"i_long":106.851577,"i_lat":-6.263214,"distance":824,"station_id":"PSMB","time":2,"station_name":"Pasar Minggu Baru","transit":false},{"distance":2380,"i_lat":-6.2842400000000005,"i_long":106.843999,"is_transit":false,"transit":false,"time":2,"station_id":"PSM","station_name":"Pasar Minggu","line":2},{"is_transit":false,"time":4,"station_name":"Tanjung Barat","line":2,"station_id":"TNT","distance":2820,"i_long":106.838896,"i_lat":-6.3080680000000005,"transit":false},{"station_id":"LNA","station_name":"Lenteng Agung","i_long":106.832616,"i_lat":-6.330363,"transit":false,"distance":2671,"is_transit":false,"line":2,"time":3},{"time":2,"distance":1029,"transit":false,"i_lat":-6.339291,"is_transit":false,"line":2,"station_id":"UP","station_name":"Univ. Pancasila","i_long":106.834175},{"i_long":106.831474,"station_id":"UI","is_transit":false,"line":2,"station_name":"Univ. Indonesia","distance":2264,"time":3,"i_lat":-6.360749,"transit":false},{"transit":false,"is_transit":false,"distance":1109,"station_name":"Pondok Cina","time":2,"i_lat":-6.369073,"i_long":106.831114,"line":2,"station_id":"POC"},{"line":2,"transit":false,"is_transit":false,"time":4,"station_id":"DPB","distance":2727,"station_name":"Depokbaru","i_long":106.819451,"i_lat":-6.391065},{"transit":false,"line":2,"station_id":"DP","i_lat":-6.405256,"station_name":"Depok","distance":1584,"is_transit":false,"time":3,"i_long":106.816926}],[{"line":3,"i_long":106.332092,"station_id":"CTR","distance":0,"time":0,"transit":false,"i_lat":-6.334892,"is_transit":false,"station_name":"Citeras"},{"line":6,"time":10,"i_long":106.394373,"station_id":"MJ","i_lat":-6.332307,"distance":7293,"station_name":"Maja","transit":false,"is_transit":false},{"station_name":"Cikoya","distance":1853,"line":3,"transit":false,"is_transit":false,"i_lat":-6.33561,"station_id":"CKY","i_long":106.411216,"time":4},{"time":3,"line":6,"station_id":"TGS","transit":false,"is_transit":false,"distance":2651,"station_name":"Tigaraksa","i_lat":-6.328533,"i_long":106.425991},{"is_transit":false,"i_lat":-6.327251,"i_long":106.460812,"time":5,"station_name":"Tenjo","line":6,"transit":false,"station_id":"TEJ","distance":2974},{"time":5,"line":0,"distance":3902,"transit":false,"station_id":"DAR","is_transit":false,"station_name":"Daru","i_lat":-6.338021,"i_long":106.491338},{"station_id":"CJT","station_name":"Cilejit","is_transit":false,"distance":2675,"transit":false,"i_lat":-6.354349,"i_long":106.508482,"line":3,"time":6},{"station_id":"PRP","line":6,"distance":7025,"transit":false,"time":9,"station_name":"Parung Panjang","i_lat":-6.3441410000000005,"i_long":106.568863,"is_transit":false},{"station_name":"Cicayur","transit":false,"i_lat":-6.329547,"station_id":"CC","is_transit":false,"distance":5968,"i_long":106.617853,"line":3,"time":8},{"transit":false,"time":4,"i_long":106.640411,"distance":2519,"station_name":"Cisauk","station_id":"CSK","i_lat":-6.32484,"line":3,"is_transit":false},{"transit":false,"is_transit":false,"time":4,"station_id":"SRP","station_name":"Serpong","distance":1784,"i_long":106.66566,"i_lat":-6.319871,"line":6},{"distance":2413,"station_name":"Rawa Buntu","line":6,"station_id":"RU","is_transit":false,"time":4,"i_lat":-6.314823,"transit":false,"i_long":106.675475},{"time":6,"i_long":106.712277,"station_id":"SDM","station_name":"Sudimara","i_lat":-6.296963,"line":6,"transit":false,"is_transit":false,"distance":4566},{"station_id":"JMU","time":4,"station_name":"Jurangmangu","transit":false,"i_long":106.728916,"is_transit":false,"distance":1994,"line":6,"i_lat":-6.288927},{"station_id":"PDJ","transit":false,"is_transit":false,"time":3,"station_name":"Pondokranji","i_long":106.74273,"line":6,"distance":2179,"i_lat":-6.276362},{"i_long":106.780334,"transit":false,"distance":6218,"station_name":"Kebayoran","is_transit":false,"station_id":"KBY","line":6,"i_lat":-6.237242,"time":8},{"is_transit":false,"station_id":"PLM","line":6,"i_long":106.79689,"time":7,"station_name":"Palmerah","i_lat":-6.207404,"transit":false,"distance":3737},{"is_transit":true,"distance":3191,"transit":true,"station_id":"THB","time":6,"i_long":106.811091,"station_name":"Tanah Abang","i_lat":-6.185545,"line":1},{"line":1,"time":8,"station_name":"Duri","transit":false,"distance":3632,"station_id":"DU","is_transit":false,"i_lat":-6.155215,"i_long":106.800832},{"transit":false,"distance":1230,"line":1,"station_id":"AK","time":4,"station_name":"Angke","i_long":106.79867,"i_lat":-6.144674,"is_transit":false},{"is_transit":true,"distance":4102,"i_long":106.826365,"station_id":"KPB","line":4,"station_name":"Kampung Bandan","transit":true,"i_lat":-6.132549,"time":9},{"time":3,"transit":false,"station_id":"RJW","distance":1444,"station_name":"Rajawali","i_long":106.836569,"line":11,"i_lat":-6.14505,"is_transit":false},{"time":5,"station_name":"Kemayoran","distance":1901,"is_transit":false,"transit":false,"i_long":106.839204,"station_id":"KMO","i_lat":-6.161728,"line":11},{"transit":false,"distance":1436,"station_name":"Pasar Senen","station_id":"PSE","i_long":106.84368,"i_lat":-6.174784,"line":11,"is_transit":false,"time":4},{"time":8,"distance":1567,"station_id":"GST","transit":false,"line":11,"i_long":106.850107,"station_name":"Gang Sentiong","is_transit":false,"i_lat":-6.185975},{"time":1,"line":11,"i_long":106.855437,"i_lat":-6.193792,"station_id":"KMT","station_name":"Kramat","is_transit":false,"transit":false,"distance":973},{"distance":1829,"i_lat":-6.209188,"station_id":"POK","is_transit":false,"time":2,"transit":false,"station_name":"Pondok Jati","i_long":106.861737,"line":11},{"line":1,"station_name":"Jatinegara","transit":true,"time":9,"station_id":"JNG","is_transit":true,"distance":1236,"i_long":106.86807400000001,"i_lat":-6.215091},{"station_id":"MTR","time":2,"is_transit":false,"distance":1377,"i_lat":-6.212485,"i_long":106.858896,"transit":false,"line":1,"station_name":"Matraman"},{"station_name":"Manggarai","station_id":"MRI","i_long":106.84912,"line":2,"time":2,"is_transit":true,"transit":true,"distance":1275,"i_lat":-6.209883},{"distance":2610,"transit":false,"time":4,"is_transit":false,"station_id":"TEB","station_name":"Tebet","i_lat":-6.226659,"i_long":106.857948,"line":2},{"distance":1230,"time":2,"station_name":"Cawang","i_long":106.856607,"station_id":"CW","transit":false,"i_lat":-6.242512,"line":2,"is_transit":false},{"station_id":"DRN","time":3,"distance":1546,"station_name":"Duren Kalibata","transit":false,"line":2,"i_lat":-6.255332,"is_transit":false,"i_long":106.85449},{"distance":824,"i_long":106.851577,"time":2,"is_transit":false,"i_lat":-6.263214,"station_name":"Pasar Minggu Baru","line":2,"transit":false,"station_id":"PSMB"},{"i_lat":-6.2842400000000005,"time":2,"line":2,"is_transit":false,"station_id":"PSM","i_long":106.843999,"transit":false,"distance":2380,"station_name":"Pasar Minggu"},{"is_transit":false,"station_id":"TNT","station_name":"Tanjung Barat","i_lat":-6.3080680000000005,"line":2,"i_long":106.838896,"distance":2820,"transit":false,"time":4},{"distance":2671,"transit":false,"station_id":"LNA","line":2,"station_name":"Lenteng Agung","is_transit":false,"i_lat":-6.330363,"i_long":106.832616,"time":3},{"is_transit":false,"i_long":106.834175,"i_lat":-6.339291,"station_id":"UP","line":2,"distance":1029,"station_name":"Univ. Pancasila","time":2,"transit":false},{"time":3,"distance":2264,"i_long":106.831474,"is_transit":false,"station_name":"Univ. Indonesia","i_lat":-6.360749,"station_id":"UI","line":2,"transit":false},{"transit":false,"i_long":106.831114,"station_name":"Pondok Cina","line":2,"station_id":"POC","is_transit":false,"i_lat":-6.369073,"time":2,"distance":1109},{"distance":2727,"is_transit":false,"station_name":"Depokbaru","line":2,"transit":false,"station_id":"DPB","i_lat":-6.391065,"i_long":106.819451,"time":4},{"i_lat":-6.405256,"i_long":106.816926,"time":3,"line":2,"station_name":"Depok","is_transit":false,"station_id":"DP","distance":1584,"transit":false}]]}