{"data":[[{"i_long":106.332092,"transit":false,"is_transit":false,"station_name":"Citeras","i_lat":-6.334892,"line":3,"station_id":"CTR","time":0,"distance":0},{"station_name":"Maja","is_transit":false,"distance":7293,"i_long":106.394373,"line":6,"i_lat":-6.332307,"transit":false,"time":10,"station_id":"MJ"},{"i_long":106.411216,"station_name":"Cikoya","time":4,"transit":false,"line":3,"distance":1853,"is_transit":false,"station_id":"CKY","i_lat":-6.33561},{"station_id":"TGS","distance":2651,"i_lat":-6.328533,"is_transit":false,"i_long":106.425991,"time":3,"transit":false,"station_name":"Tigaraksa","line":6},{"station_name":"Tenjo","is_transit":false,"distance":2974,"station_id":"TEJ","line":6,"transit":false,"i_lat":-6.327251,"i_long":106.460812,"time":5},{"time":5,"is_transit":false,"station_name":"Daru","distance":3902,"station_id":"DAR","line":0,"transit":false,"i_lat":-6.338021,"i_long":106.491338},{"distance":2675,"station_id":"CJT","line":3,"station_name":"Cilejit","i_long":106.508482,"transit":false,"is_transit":false,"time":6,"i_lat":-6.354349},{"station_name":"Parung Panjang","line":6,"i_lat":-6.3441410000000005,"is_transit":false,"distance":7025,"transit":false,"station_id":"PRP","time":9,"i_long":106.568863},{"is_transit":false,"distance":5968,"station_id":"CC","station_name":"Cicayur","transit":false,"i_lat":-6.329547,"i_long":106.617853,"line":3,"time":8}]]}