{"data":[[{"time":0,"station_name":"Citeras","station_id":"CTR","i_lat":-6.334892,"distance":0,"line":3,"i_long":106.332092,"transit":false,"is_transit":false},{"time":10,"station_name":"Maja","i_long":106.394373,"distance":7293,"i_lat":-6.332307,"is_transit":false,"transit":false,"line":6,"station_id":"MJ"},{"line":3,"time":4,"i_long":106.411216,"transit":false,"distance":1853,"i_lat":-6.33561,"station_name":"Cikoya","station_id":"CKY","is_transit":false},{"distance":2651,"time":3,"station_id":"TGS","i_lat":-6.328533,"station_name":"Tigaraksa","i_long":106.425991,"line":6,"transit":false,"is_transit":false},{"station_id":"TEJ","station_name":"Tenjo","i_long":106.460812,"i_lat":-6.327251,"time":5,"distance":2974,"line":6,"is_transit":false,"transit":false},{"time":5,"station_id":"DAR","station_name":"Daru","line":0,"distance":3902,"is_transit":false,"transit":false,"i_lat":-6.338021,"i_long":106.491338},{"transit":false,"is_transit":false,"i_long":106.508482,"distance":2675,"station_id":"CJT","i_lat":-6.354349,"time":6,"line":3,"station_name":"Cilejit"},{"line":6,"is_transit":false,"i_long":106.568863,"i_lat":-6.3441410000000005,"transit":false,"time":9,"distance":7025,"station_name":"Parung Panjang","station_id":"PRP"},{"distance":5968,"line":3,"i_lat":-6.329547,"is_transit":false,"station_id":"CC","time":8,"transit":false,"i_long":106.617853,"station_name":"Cicayur"},{"transit":false,"line":3,"distance":2519,"i_lat":-6.32484,"station_name":"Cisauk","station_id":"CSK","time":4,"i_long":106.640411,"is_transit":false},{"is_transit":false,"station_name":"Serpong","i_long":106.66566,"distance":1784,"line":6,"transit":false,"station_id":"SRP","i_lat":-6.319871,"time":4},{"distance":2413,"i_long":106.675475,"transit":false,"is_transit":false,"station_name":"Rawa Buntu","time":4,"i_lat":-6.314823,"station_id":"RU","line":6},{"transit":false,"is_transit":false,"distance":4566,"station_name":"Sudimara","time":6,"line":6,"i_lat":-6.296963,"i_long":106.712277,"station_id":"SDM"},{"is_transit":false,"station_name":"Jurangmangu","i_lat":-6.288927,"transit":false,"distance":1994,"i_long":106.728916,"time":4,"line":6,"station_id":"JMU"},{"is_transit":false,"station_name":"Pondokranji","distance":2179,"transit":false,"i_lat":-6.276362,"i_long":106.74273,"line":6,"station_id":"PDJ","time":3},{"is_transit":false,"i_lat":-6.237242,"distance":6218,"i_long":106.780334,"station_id":"KBY","time":8,"transit":false,"station_name":"Kebayoran","line":6},{"is_transit":false,"time":7,"i_long":106.79689,"station_name":"Palmerah","station_id":"PLM","transit":false,"i_lat":-6.207404,"line":6,"distance":3737},{"transit":true,"station_name":"Tanah Abang","is_transit":true,"line":1,"i_lat":-6.185545,"station_id":"THB","time":6,"distance":3191,"i_long":106.811091},{"distance":2029,"line":1,"i_lat":-6.20132,"station_id":"KAT","transit":false,"i_long":106.816351,"station_name":"Karet","time":5,"is_transit":false},{"line":1,"is_transit":false,"time":1,"i_long":106.819881,"station_name":"Sudirman Baru","station_id":"SUDB","transit":false,"distance":471,"i_lat":-6.201433},{"station_name":"Sudirman","line":1,"time":1,"transit":false,"distance":280,"i_lat":-6.202263,"station_id":"SUD","is_transit":false,"i_long":106.822649},{"station_name":"Manggarai","station_id":"MRI","is_transit":true,"transit":true,"i_long":106.84912,"time":4,"line":2,"distance":3186,"i_lat":-6.209883},{"i_lat":-6.226659,"i_long":106.857948,"station_name":"Tebet","is_transit":false,"time":4,"transit":false,"distance":2610,"line":2,"station_id":"TEB"},{"station_name":"Cawang","distance":1230,"station_id":"CW","i_lat":-6.242512,"time":2,"is_transit":false,"i_long":106.856607,"line":2,"transit":false},{"i_lat":-6.255332,"i_long":106.85449,"line":2,"distance":1546,"transit":false,"station_name":"Duren Kalibata","is_transit":false,"station_id":"DRN","time":3},{"station_name":"Pasar Minggu Baru","line":2,"i_long":106.851577,"transit":false,"is_transit":false,"station_id":"PSMB","time":2,"i_lat":-6.263214,"distance":824},{"line":2,"i_lat":-6.2842400000000005,"transit":false,"i_long":106.843999,"station_id":"PSM","distance":2380,"station_name":"Pasar Minggu","time":2,"is_transit":false},{"i_lat":-6.3080680000000005,"distance":2820,"station_name":"Tanjung Barat","i_long":106.838896,"line":2,"is_transit":false,"time":4,"station_id":"TNT","transit":false},{"station_id":"LNA","station_name":"Lenteng Agung","time":3,"distance":2671,"is_transit":false,"i_lat":-6.330363,"i_long":106.832616,"line":2,"transit":false},{"station_name":"Univ. Pancasila","distance":1029,"station_id":"UP","transit":false,"i_lat":-6.339291,"is_transit":false,"i_long":106.834175,"line":2,"time":2},{"i_long":106.831474,"transit":false,"is_transit":false,"station_name":"Univ. Indonesia","line":2,"distance":2264,"time":3,"i_lat":-6.360749,"station_id":"UI"},{"station_id":"POC","i_long":106.831114,"line":2,"is_transit":false,"i_lat":-6.369073,"transit":false,"time":2,"distance":1109,"station_name":"Pondok Cina"}],[{"station_name":"Citeras","i_lat":-6.334892,"distance":0,"line":3,"i_long":106.332092,"transit":false,"is_transit":false,"station_id":"CTR","time":0},{"transit":false,"time":10,"i_lat":-6.332307,"i_long":106.394373,"station_id":"MJ","distance":7293,"station_name":"Maja","is_transit":false,"line":6},{"is_transit":false,"time":4,"i_long":106.411216,"distance":1853,"i_lat":-6.33561,"station_name":"Cikoya","station_id":"CKY","transit":false,"line":3},{"line":6,"station_id":"TGS","transit":false,"i_long":106.425991,"is_transit":false,"station_name":"Tigaraksa","distance":2651,"i_lat":-6.328533,"time":3},{"line":6,"is_transit":false,"i_lat":-6.327251,"station_name":"Tenjo","transit":false,"time":5,"i_long":106.460812,"distance":2974,"station_id":"TEJ"},{"time":5,"line":0,"distance":3902,"i_lat":-6.338021,"i_long":106.491338,"station_name":"Daru","station_id":"DAR","transit":false,"is_transit":false},{"i_long":106.508482,"is_transit":false,"station_name":"Cilejit","transit":false,"line":3,"i_lat":-6.354349,"distance":2675,"station_id":"CJT","time":6},{"i_long":106.568863,"distance":7025,"transit":false,"is_transit":false,"station_name":"Parung Panjang","time":9,"line":6,"station_id":"PRP","i_lat":-6.3441410000000005},{"time":8,"line":3,"transit":false,"is_transit":false,"i_lat":-6.329547,"station_id":"CC","distance":5968,"station_name":"Cicayur","i_long":106.617853},{"i_lat":-6.32484,"station_name":"Cisauk","station_id":"CSK","time":4,"i_long":106.640411,"distance":2519,"transit":false,"is_transit":false,"line":3},{"i_lat":-6.319871,"is_transit":false,"transit":false,"line":6,"i_long":106.66566,"time":4,"station_id":"SRP","station_name":"Serpong","distance":1784},{"station_id":"RU","station_name":"Rawa Buntu","i_lat":-6.314823,"line":6,"transit":false,"is_transit":false,"time":4,"distance":2413,"i_long":106.675475},{"distance":4566,"time":6,"line":6,"is_transit":false,"i_long":106.712277,"i_lat":-6.296963,"station_name":"Sudimara","transit":false,"station_id":"SDM"},{"line":6,"is_transit":false,"transit":false,"i_lat":-6.288927,"time":4,"station_id":"JMU","distance":1994,"station_name":"Jurangmangu","i_long":106.728916},{"line":6,"station_name":"Pondokranji","transit":false,"distance":2179,"i_long":106.74273,"station_id":"PDJ","time":3,"is_transit":false,"i_lat":-6.276362},{"transit":false,"i_long":106.780334,"station_id":"KBY","time":8,"is_transit":false,"distance":6218,"line":6,"station_name":"Kebayoran","i_lat":-6.237242},{"station_id":"PLM","line":6,"time":7,"i_lat":-6.207404,"i_long":106.79689,"station_name":"Palmerah","distance":3737,"is_transit":false,"transit":false},{"i_lat":-6.185545,"is_transit":true,"transit":true,"line":1,"i_long":106.811091,"station_name":"Tanah Abang","station_id":"THB","time":6,"distance":3191},{"station_name":"Duri","is_transit":false,"i_long":106.800832,"line":1,"distance":3632,"time":8,"station_id":"DU","i_lat":-6.155215,"transit":false},{"is_transit":false,"line":1,"station_id":"AK","transit":false,"i_long":106.79867,"distance":1230,"i_lat":-6.144674,"station_name":"Angke","time":4},{"i_lat":-6.132549,"station_name":"Kampung Bandan","distance":4102,"station_id":"KPB","i_long":106.826365,"line":4,"transit":true,"time":9,"is_transit":true},{"transit":true,"station_id":"JAKK","distance":1364,"i_lat":-6.137569,"line":2,"time":3,"station_name":"Jakarta Kota","is_transit":true,"i_long":106.812439},{"transit":false,"time":4,"station_name":"Jayakarta","station_id":"JAY","distance":1264,"is_transit":false,"i_long":106.820901,"line":2,"i_lat":-6.141205},{"line":2,"time":2,"transit":false,"i_long":106.82482,"is_transit":false,"station_name":"Manggabesar","station_id":"MGB","distance":1080,"i_lat":-6.149769},{"station_id":"SW","line":2,"distance":906,"station_name":"Sawah Besar","is_transit":false,"i_lat":-6.160725,"i_long":106.827103,"time":2,"transit":false},{"distance":1149,"line":2,"is_transit":false,"i_lat":-6.166716,"transit":false,"i_long":106.828284,"station_name":"Juanda","time":2,"station_id":"JUA"},{"is_transit":false,"time":4,"i_long":106.832183,"transit":false,"station_id":"GDD","distance":2015,"i_lat":-6.186295,"station_name":"Gondangdia","line":2},{"i_lat":-6.198556,"distance":1750,"line":2,"time":3,"transit":false,"station_id":"CKI","i_long":106.840169,"is_transit":false,"station_name":"Cikini"},{"is_transit":false,"i_lat":-6.209883,"line":2,"i_long":106.84912,"time":4,"transit":false,"station_id":"MRI","distance":1590,"station_name":"Manggarai"},{"i_lat":-6.226659,"transit":false,"station_name":"Tebet","station_id":"TEB","is_transit":false,"time":4,"distance":2610,"i_long":106.857948,"line":2},{"i_long":106.856607,"station_name":"Cawang","is_transit":false,"time":2,"distance":1230,"i_lat":-6.242512,"transit":false,"line":2,"station_id":"CW"},{"is_transit":false,"distance":1546,"i_lat":-6.255332,"station_name":"Duren Kalibata","station_id":"DRN","transit":false,"i_long":106.85449,"line":2,"time":3},{"station_name":"Pasar Minggu Baru","i_long":106.851577,"time":2,"is_transit":false,"transit":false,"distance":824,"station_id":"PSMB","line":2,"i_lat":-6.263214},{"distance":2380,"transit":false,"line":2,"is_transit":false,"station_id":"PSM","time":2,"i_lat":-6.2842400000000005,"i_long":106.843999,"station_name":"Pasar Minggu"},{"station_name":"Tanjung Barat","is_transit":false,"distance":2820,"i_lat":-6.3080680000000005,"i_long":106.838896,"line":2,"station_id":"TNT","time":4,"transit":false},{"i_long":106.832616,"station_id":"LNA","station_name":"Lenteng Agung","time":3,"distance":2671,"transit":false,"line":2,"i_lat":-6.330363,"is_transit":false},{"station_name":"Univ. Pancasila","is_transit":false,"station_id":"UP","transit":false,"distance":1029,"i_lat":-6.339291,"i_long":106.834175,"line":2,"time":2},{"time":3,"transit":false,"distance":2264,"station_name":"Univ. Indonesia","station_id":"UI","is_transit":false,"i_lat":-6.360749,"i_long":106.831474,"line":2},{"time":2,"line":2,"distance":1109,"station_name":"Pondok Cina","is_transit":false,"i_lat":-6.369073,"i_long":106.831114,"station_id":"POC","transit":false}],[{"time":0,"distance":0,"line":3,"transit":false,"station_id":"CTR","i_lat":-6.334892,"i_long":106.332092,"station_name":"Citeras","is_transit":false},{"line":6,"i_long":106.394373,"time":10,"station_name":"Maja","transit":false,"is_transit":false,"station_id":"MJ","i_lat":-6.332307,"distance":7293},{"line":3,"station_name":"Cikoya","transit":false,"distance":1853,"i_lat":-6.33561,"i_long":106.411216,"station_id":"CKY","time":4,"is_transit":false},{"is_transit":false,"transit":false,"station_name":"Tigaraksa","distance":2651,"line":6,"station_id":"TGS","time":3,"i_long":106.425991,"i_lat":-6.328533},{"distance":2974,"station_name":"Tenjo","is_transit":false,"time":5,"i_long":106.460812,"line":6,"transit":false,"i_lat":-6.327251,"station_id":"TEJ"},{"i_long":106.491338,"is_transit":false,"i_lat":-6.338021,"line":0,"time":5,"station_name":"Daru","distance":3902,"transit":false,"station_id":"DAR"},{"time":6,"i_lat":-6.354349,"is_transit":false,"station_name":"Cilejit","i_long":106.508482,"station_id":"CJT","transit":false,"distance":2675,"line":3},{"transit":false,"distance":7025,"time":9,"station_name":"Parung Panjang","i_lat":-6.3441410000000005,"station_id":"PRP","is_transit":false,"line":6,"i_long":106.568863},{"time":8,"distance":5968,"i_lat":-6.329547,"station_name":"Cicayur","i_long":106.617853,"line":3,"station_id":"CC","transit":false,"is_transit":false},{"i_lat":-6.32484,"station_name":"Cisauk","is_transit":false,"i_long":106.640411,"line":3,"distance":2519,"station_id":"CSK","transit":false,"time":4},{"i_long":106.66566,"station_name":"Serpong","distance":1784,"is_transit":false,"i_lat":-6.319871,"line":6,"transit":false,"station_id":"SRP","time":4},{"time":4,"i_long":106.675475,"transit":false,"station_id":"RU","station_name":"Rawa Buntu","i_lat":-6.314823,"distance":2413,"is_transit":false,"line":6},{"is_transit":false,"time":6,"transit":false,"distance":4566,"station_name":"Sudimara","line":6,"i_lat":-6.296963,"i_long":106.712277,"station_id":"SDM"},{"station_id":"JMU","station_name":"Jurangmangu","i_lat":-6.288927,"is_transit":false,"time":4,"line":6,"transit":false,"distance":1994,"i_long":106.728916},{"station_name":"Pondokranji","station_id":"PDJ","distance":2179,"is_transit":false,"i_long":106.74273,"line":6,"transit":false,"i_lat":-6.276362,"time":3},{"station_id":"KBY","i_lat":-6.237242,"line":6,"transit":false,"i_long":106.780334,"distance":6218,"station_name":"Kebayoran","time":8,"is_transit":false},{"line":6,"distance":3737,"is_transit":false,"station_name":"Palmerah","i_lat":-6.207404,"transit":false,"i_long":106.79689,"time":7,"station_id":"PLM"},{"time":6,"i_long":106.811091,"transit":true,"station_name":"Tanah Abang","station_id":"THB","i_lat":-6.185545,"is_transit":true,"line":1,"distance":3191},{"station_name":"Duri","station_id":"DU","is_transit":false,"time":8,"i_lat":-6.155215,"line":1,"i_long":106.800832,"transit":false,"distance":3632},{"is_transit":false,"line":1,"transit":false,"station_name":"Angke","station_id":"AK","distance":1230,"time":4,"i_long":106.79867,"i_lat":-6.144674},{"distance":4102,"i_lat":-6.132549,"station_name":"Kampung Bandan","i_long":106.826365,"transit":true,"line":4,"station_id":"KPB","is_transit":true,"time":9},{"station_id":"RJW","time":3,"station_name":"Rajawali","distance":1444,"is_transit":false,"line":11,"i_lat":-6.14505,"i_long":106.836569,"transit":false},{"station_name":"Kemayoran","time":5,"transit":false,"line":11,"station_id":"KMO","distance":1901,"i_lat":-6.161728,"is_transit":false,"i_long":106.839204},{"i_lat":-6.174784,"station_name":"Pasar Senen","station_id":"PSE","distance":1436,"is_transit":false,"time":4,"line":11,"i_long":106.84368,"transit":false},{"i_lat":-6.185975,"station_id":"GST","time":8,"transit":false,"i_long":106.850107,"distance":1567,"line":11,"is_transit":false,"station_name":"Gang Sentiong"},{"line":11,"time":1,"distance":973,"i_lat":-6.193792,"station_name":"Kramat","transit":false,"station_id":"KMT","is_transit":false,"i_long":106.855437},{"is_transit":false,"distance":1829,"station_name":"Pondok Jati","time":2,"line":11,"i_long":106.861737,"transit":false,"station_id":"POK","i_lat":-6.209188},{"station_id":"JNG","i_lat":-6.215091,"station_name":"Jatinegara","transit":true,"is_transit":true,"i_long":106.86807400000001,"line":1,"time":9,"distance":1236},{"i_lat":-6.212485,"is_transit":false,"line":1,"station_name":"Matraman","station_id":"MTR","time":2,"i_long":106.858896,"transit":false,"distance":1377},{"station_name":"Manggarai","station_id":"MRI","i_long":106.84912,"line":2,"time":2,"distance":1275,"i_lat":-6.209883,"is_transit":true,"transit":true},{"is_transit":false,"i_long":106.857948,"i_lat":-6.226659,"station_id":"TEB","line":2,"time":4,"transit":false,"station_name":"Tebet","distance":2610},{"station_name":"Cawang","transit":false,"i_long":106.856607,"time":2,"i_lat":-6.242512,"station_id":"CW","line":2,"distance":1230,"is_transit":false},{"distance":1546,"time":3,"station_name":"Duren Kalibata","is_transit":false,"i_lat":-6.255332,"line":2,"i_long":106.85449,"transit":false,"station_id":"DRN"},{"is_transit":false,"i_lat":-6.263214,"transit":false,"distance":824,"i_long":106.851577,"time":2,"station_id":"PSMB","line":2,"station_name":"Pasar Minggu Baru"},{"i_long":106.843999,"i_lat":-6.2842400000000005,"line":2,"transit":false,"station_id":"PSM","station_name":"Pasar Minggu","distance":2380,"is_transit":false,"time":2},{"station_id":"TNT","distance":2820,"i_long":106.838896,"i_lat":-6.3080680000000005,"line":2,"transit":false,"is_transit":false,"time":4,"station_name":"Tanjung Barat"},{"line":2,"time":3,"distance":2671,"station_id":"LNA","is_transit":false,"station_name":"Lenteng Agung","i_long":106.832616,"i_lat":-6.330363,"transit":false},{"i_long":106.834175,"line":2,"transit":false,"distance":1029,"i_lat":-6.339291,"time":2,"station_id":"UP","is_transit":false,"station_name":"Univ. Pancasila"},{"station_name":"Univ. Indonesia","transit":false,"distance":2264,"i_lat":-6.360749,"time":3,"i_long":106.831474,"line":2,"station_id":"UI","is_transit":false},{"transit":false,"i_long":106.831114,"is_transit":false,"line":2,"i_lat":-6.369073,"distance":1109,"station_name":"Pondok Cina","station_id":"POC","time":2}]]}