{"data":[[{"i_lat":-6.334892,"i_long":106.332092,"is_transit":false,"time":0,"transit":false,"line":3,"station_name":"Citeras","station_id":"CTR","distance":0},{"transit":false,"station_id":"MJ","distance":7293,"time":10,"i_lat":-6.332307,"line":6,"station_name":"Maja","is_transit":false,"i_long":106.394373},{"distance":1853,"line":3,"station_name":"Cikoya","station_id":"CKY","is_transit":false,"i_lat":-6.33561,"transit":false,"time":4,"i_long":106.411216},{"time":3,"i_lat":-6.328533,"transit":false,"line":6,"is_transit":false,"station_id":"TGS","i_long":106.425991,"distance":2651,"station_name":"Tigaraksa"},{"station_name":"Tenjo","line":6,"transit":false,"is_transit":false,"station_id":"TEJ","time":5,"distance":2974,"i_lat":-6.327251,"i_long":106.460812},{"line":0,"station_name":"Daru","time":5,"transit":false,"i_lat":-6.338021,"station_id":"DAR","i_long":106.491338,"is_transit":false,"distance":3902},{"distance":2675,"line":3,"is_transit":false,"time":6,"transit":false,"i_long":106.508482,"i_lat":-6.354349,"station_name":"Cilejit","station_id":"CJT"},{"transit":false,"line":6,"distance":7025,"i_lat":-6.3441410000000005,"station_name":"Parung Panjang","is_transit":false,"time":9,"i_long":106.568863,"station_id":"PRP"},{"distance":5968,"i_lat":-6.329547,"i_long":106.617853,"is_transit":false,"transit":false,"station_id":"CC","line":3,"time":8,"station_name":"Cicayur"},{"i_long":106.640411,"distance":2519,"is_transit":false,"time":4,"i_lat":-6.32484,"transit":false,"line":3,"station_name":"Cisauk","station_id":"CSK"},{"is_transit":false,"line":6,"transit":false,"distance":1784,"station_name":"Serpong","i_lat":-6.319871,"time":4,"station_id":"SRP","i_long":106.66566},{"line":6,"transit":false,"is_transit":false,"station_id":"RU","time":4,"i_lat":-6.314823,"distance":2413,"station_name":"Rawa Buntu","i_long":106.675475},{"i_lat":-6.296963,"station_id":"SDM","line":6,"distance":4566,"i_long":106.712277,"is_transit":false,"transit":false,"station_name":"Sudimara","time":6},{"is_transit":false,"i_long":106.728916,"i_lat":-6.288927,"station_id":"JMU","station_name":"Jurangmangu","distance":1994,"line":6,"transit":false,"time":4},{"is_transit":false,"transit":false,"i_long":106.74273,"station_id":"PDJ","distance":2179,"line":6,"station_name":"Pondokranji","time":3,"i_lat":-6.276362},{"station_name":"Kebayoran","i_lat":-6.237242,"i_long":106.780334,"line":6,"transit":false,"distance":6218,"is_transit":false,"time":8,"station_id":"KBY"},{"transit":false,"i_lat":-6.207404,"station_id":"PLM","is_transit":false,"time":7,"distance":3737,"i_long":106.79689,"station_name":"Palmerah","line":6},{"transit":true,"is_transit":true,"i_lat":-6.185545,"station_id":"THB","time":6,"line":1,"distance":3191,"station_name":"Tanah Abang","i_long":106.811091},{"distance":2029,"transit":false,"station_name":"Karet","is_transit":false,"station_id":"KAT","i_long":106.816351,"line":1,"time":5,"i_lat":-6.20132},{"line":1,"transit":false,"distance":471,"is_transit":false,"station_id":"SUDB","i_long":106.819881,"station_name":"Sudirman Baru","i_lat":-6.201433,"time":1},{"is_transit":false,"time":1,"i_lat":-6.202263,"transit":false,"i_long":106.822649,"station_name":"Sudirman","distance":280,"station_id":"SUD","line":1},{"time":4,"station_id":"MRI","i_long":106.84912,"i_lat":-6.209883,"is_transit":false,"distance":3186,"transit":false,"line":2,"station_name":"Manggarai"},{"time":2,"i_lat":-6.212485,"is_transit":false,"line":1,"station_name":"Matraman","distance":1275,"i_long":106.858896,"transit":false,"station_id":"MTR"},{"time":8,"i_long":106.86807400000001,"line":1,"transit":false,"i_lat":-6.215091,"station_name":"Jatinegara","is_transit":false,"station_id":"JNG","distance":1377},{"distance":3395,"transit":false,"station_id":"KLD","time":3,"i_lat":-6.2135,"station_name":"Klender","is_transit":false,"line":1,"i_long":106.899548},{"is_transit":false,"i_lat":-6.215568,"i_long":106.922662,"station_name":"Buaran","transit":false,"time":2,"line":1,"station_id":"BUA","distance":3100},{"time":1,"station_id":"KLDB","is_transit":false,"station_name":"Klenderbaru","i_long":106.939679,"i_lat":-6.217455,"transit":false,"line":1,"distance":1305},{"transit":false,"station_name":"Cakung","station_id":"CUK","line":1,"i_long":106.951283,"is_transit":false,"time":8,"distance":1385,"i_lat":-6.219053},{"station_id":"KRI","transit":false,"i_lat":-6.224515,"is_transit":false,"distance":3097,"i_long":106.977657,"time":3,"station_name":"Kranji","line":1},{"station_id":"BKS","time":4,"i_long":106.997013,"station_name":"Bekasi","distance":2520,"line":1,"transit":false,"i_lat":-6.236616,"is_transit":false},{"distance":2368,"station_name":"Bekasi Timur","i_lat":-6.248029,"time":2,"line":1,"transit":false,"station_id":"BKST","is_transit":false,"i_long":107.016735}],[{"is_transit":false,"time":0,"distance":0,"transit":false,"line":3,"i_lat":-6.334892,"i_long":106.332092,"station_id":"CTR","station_name":"Citeras"},{"distance":7293,"station_name":"Maja","i_long":106.394373,"line":6,"is_transit":false,"time":10,"i_lat":-6.332307,"transit":false,"station_id":"MJ"},{"i_long":106.411216,"station_id":"CKY","distance":1853,"station_name":"Cikoya","i_lat":-6.33561,"time":4,"is_transit":false,"transit":false,"line":3},{"transit":false,"distance":2651,"time":3,"station_name":"Tigaraksa","is_transit":false,"i_lat":-6.328533,"i_long":106.425991,"line":6,"station_id":"TGS"},{"station_name":"Tenjo","is_transit":false,"transit":false,"time":5,"distance":2974,"i_lat":-6.327251,"line":6,"station_id":"TEJ","i_long":106.460812},{"distance":3902,"transit":false,"station_id":"DAR","line":0,"i_lat":-6.338021,"i_long":106.491338,"is_transit":false,"time":5,"station_name":"Daru"},{"station_name":"Cilejit","distance":2675,"line":3,"station_id":"CJT","transit":false,"time":6,"i_long":106.508482,"is_transit":false,"i_lat":-6.354349},{"station_name":"Parung Panjang","time":9,"transit":false,"is_transit":false,"i_lat":-6.3441410000000005,"line":6,"station_id":"PRP","distance":7025,"i_long":106.568863},{"distance":5968,"i_lat":-6.329547,"i_long":106.617853,"line":3,"station_name":"Cicayur","station_id":"CC","is_transit":false,"transit":false,"time":8},{"transit":false,"is_transit":false,"distance":2519,"station_name":"Cisauk","time":4,"line":3,"station_id":"CSK","i_long":106.640411,"i_lat":-6.32484},{"station_name":"Serpong","i_long":106.66566,"is_transit":false,"station_id":"SRP","i_lat":-6.319871,"distance":1784,"transit":false,"time":4,"line":6},{"transit":false,"station_name":"Rawa Buntu","is_transit":false,"i_lat":-6.314823,"station_id":"RU","time":4,"i_long":106.675475,"distance":2413,"line":6},{"line":6,"is_transit":false,"distance":4566,"time":6,"transit":false,"station_name":"Sudimara","station_id":"SDM","i_lat":-6.296963,"i_long":106.712277},{"time":4,"i_lat":-6.288927,"distance":1994,"is_transit":false,"i_long":106.728916,"station_name":"Jurangmangu","station_id":"JMU","transit":false,"line":6},{"station_name":"Pondokranji","transit":false,"is_transit":false,"time":3,"distance":2179,"station_id":"PDJ","i_lat":-6.276362,"i_long":106.74273,"line":6},{"station_id":"KBY","transit":false,"line":6,"i_lat":-6.237242,"distance":6218,"is_transit":false,"time":8,"station_name":"Kebayoran","i_long":106.780334},{"transit":false,"station_name":"Palmerah","station_id":"PLM","is_transit":false,"i_long":106.79689,"i_lat":-6.207404,"time":7,"line":6,"distance":3737},{"time":6,"i_long":106.811091,"i_lat":-6.185545,"transit":true,"line":1,"is_transit":true,"station_id":"THB","distance":3191,"station_name":"Tanah Abang"},{"line":1,"is_transit":false,"time":8,"distance":3632,"i_lat":-6.155215,"station_name":"Duri","transit":false,"station_id":"DU","i_long":106.800832},{"is_transit":false,"transit":false,"station_id":"AK","time":4,"i_long":106.79867,"distance":1230,"station_name":"Angke","i_lat":-6.144674,"line":1},{"transit":true,"is_transit":true,"station_name":"Kampung Bandan","distance":4102,"time":9,"i_long":106.826365,"line":4,"i_lat":-6.132549,"station_id":"KPB"},{"station_id":"RJW","station_name":"Rajawali","is_transit":false,"i_lat":-6.14505,"line":11,"time":3,"transit":false,"distance":1444,"i_long":106.836569},{"time":5,"i_lat":-6.161728,"station_name":"Kemayoran","is_transit":false,"distance":1901,"line":11,"i_long":106.839204,"station_id":"KMO","transit":false},{"line":11,"station_id":"PSE","transit":false,"i_lat":-6.174784,"is_transit":false,"i_long":106.84368,"distance":1436,"station_name":"Pasar Senen","time":4},{"station_id":"GST","station_name":"Gang Sentiong","distance":1567,"is_transit":false,"transit":false,"i_lat":-6.185975,"time":8,"line":11,"i_long":106.850107},{"time":1,"is_transit":false,"distance":973,"transit":false,"i_long":106.855437,"station_name":"Kramat","line":11,"station_id":"KMT","i_lat":-6.193792},{"station_id":"POK","station_name":"Pondok Jati","is_transit":false,"time":2,"line":11,"transit":false,"i_long":106.861737,"i_lat":-6.209188,"distance":1829},{"time":9,"distance":1236,"station_name":"Jatinegara","transit":true,"station_id":"JNG","i_lat":-6.215091,"is_transit":true,"i_long":106.86807400000001,"line":1},{"station_name":"Klender","line":1,"transit":false,"is_transit":false,"distance":3395,"station_id":"KLD","time":3,"i_lat":-6.2135,"i_long":106.899548},{"station_name":"Buaran","time":2,"transit":false,"i_lat":-6.215568,"station_id":"BUA","i_long":106.922662,"distance":3100,"line":1,"is_transit":false},{"station_name":"Klenderbaru","distance":1305,"transit":false,"is_transit":false,"station_id":"KLDB","time":1,"i_lat":-6.217455,"i_long":106.939679,"line":1},{"i_long":106.951283,"time":8,"distance":1385,"station_name":"Cakung","i_lat":-6.219053,"line":1,"transit":false,"is_transit":false,"station_id":"CUK"},{"i_lat":-6.224515,"station_name":"Kranji","is_transit":false,"i_long":106.977657,"time":3,"distance":3097,"line":1,"transit":false,"station_id":"KRI"},{"transit":false,"station_name":"Bekasi","station_id":"BKS","time":4,"line":1,"i_lat":-6.236616,"distance":2520,"i_long":106.997013,"is_transit":false},{"distance":2368,"i_long":107.016735,"is_transit":false,"line":1,"transit":false,"time":2,"i_lat":-6.248029,"station_name":"Bekasi Timur","station_id":"BKST"}],[{"is_transit":false,"time":0,"i_long":106.332092,"station_id":"CTR","line":3,"distance":0,"i_lat":-6.334892,"transit":false,"station_name":"Citeras"},{"i_long":106.394373,"time":10,"i_lat":-6.332307,"is_transit":false,"distance":7293,"station_id":"MJ","station_name":"Maja","transit":false,"line":6},{"is_transit":false,"station_id":"CKY","i_lat":-6.33561,"i_long":106.411216,"transit":false,"line":3,"distance":1853,"time":4,"station_name":"Cikoya"},{"time":3,"station_name":"Tigaraksa","i_lat":-6.328533,"is_transit":false,"station_id":"TGS","i_long":106.425991,"line":6,"distance":2651,"transit":false},{"time":5,"station_name":"Tenjo","line":6,"i_lat":-6.327251,"transit":false,"i_long":106.460812,"station_id":"TEJ","distance":2974,"is_transit":false},{"line":0,"station_name":"Daru","distance":3902,"station_id":"DAR","transit":false,"i_lat":-6.338021,"is_transit":false,"i_long":106.491338,"time":5},{"transit":false,"station_name":"Cilejit","i_lat":-6.354349,"distance":2675,"time":6,"station_id":"CJT","is_transit":false,"i_long":106.508482,"line":3},{"is_transit":false,"time":9,"station_id":"PRP","i_long":106.568863,"distance":7025,"i_lat":-6.3441410000000005,"line":6,"station_name":"Parung Panjang","transit":false},{"distance":5968,"is_transit":false,"line":3,"i_lat":-6.329547,"transit":false,"time":8,"station_name":"Cicayur","station_id":"CC","i_long":106.617853},{"i_long":106.640411,"station_name":"Cisauk","station_id":"CSK","time":4,"transit":false,"line":3,"i_lat":-6.32484,"distance":2519,"is_transit":false},{"time":4,"i_long":106.66566,"line":6,"station_id":"SRP","i_lat":-6.319871,"station_name":"Serpong","distance":1784,"transit":false,"is_transit":false},{"station_id":"RU","time":4,"line":6,"i_lat":-6.314823,"distance":2413,"i_long":106.675475,"is_transit":false,"transit":false,"station_name":"Rawa Buntu"},{"line":6,"station_name":"Sudimara","time":6,"transit":false,"is_transit":false,"i_lat":-6.296963,"distance":4566,"i_long":106.712277,"station_id":"SDM"},{"line":6,"i_lat":-6.288927,"station_id":"JMU","time":4,"transit":false,"distance":1994,"i_long":106.728916,"station_name":"Jurangmangu","is_transit":false},{"i_lat":-6.276362,"i_long":106.74273,"line":6,"distance":2179,"time":3,"transit":false,"station_name":"Pondokranji","is_transit":false,"station_id":"PDJ"},{"is_transit":false,"i_long":106.780334,"station_name":"Kebayoran","station_id":"KBY","transit":false,"distance":6218,"line":6,"time":8,"i_lat":-6.237242},{"distance":3737,"transit":false,"is_transit":false,"i_lat":-6.207404,"station_name":"Palmerah","line":6,"station_id":"PLM","time":7,"i_long":106.79689},{"distance":3191,"i_lat":-6.185545,"time":6,"line":1,"station_name":"Tanah Abang","transit":true,"station_id":"THB","is_transit":true,"i_long":106.811091},{"station_name":"Duri","transit":false,"distance":3632,"station_id":"DU","time":8,"i_long":106.800832,"line":1,"i_lat":-6.155215,"is_transit":false},{"station_name":"Angke","station_id":"AK","i_lat":-6.144674,"line":1,"time":4,"i_long":106.79867,"is_transit":false,"distance":1230,"transit":false},{"i_long":106.826365,"line":4,"station_name":"Kampung Bandan","is_transit":true,"station_id":"KPB","transit":true,"time":9,"i_lat":-6.132549,"distance":4102},{"is_transit":true,"i_lat":-6.137569,"distance":1364,"station_name":"Jakarta Kota","transit":true,"i_long":106.812439,"time":3,"line":2,"station_id":"JAKK"},{"i_lat":-6.141205,"line":2,"station_name":"Jayakarta","is_transit":false,"i_long":106.820901,"station_id":"JAY","distance":1264,"time":4,"transit":false},{"station_id":"MGB","i_long":106.82482,"line":2,"station_name":"Manggabesar","is_transit":false,"time":2,"distance":1080,"i_lat":-6.149769,"transit":false},{"station_name":"Sawah Besar","line":2,"is_transit":false,"time":2,"distance":906,"i_long":106.827103,"i_lat":-6.160725,"transit":false,"station_id":"SW"},{"is_transit":false,"distance":1149,"line":2,"station_name":"Juanda","transit":false,"station_id":"JUA","i_lat":-6.166716,"time":2,"i_long":106.828284},{"i_lat":-6.186295,"time":4,"line":2,"i_long":106.832183,"distance":2015,"station_name":"Gondangdia","is_transit":false,"station_id":"GDD","transit":false},{"distance":1750,"transit":false,"i_lat":-6.198556,"is_transit":false,"station_id":"CKI","station_name":"Cikini","time":3,"i_long":106.840169,"line":2},{"station_name":"Manggarai","transit":true,"time":4,"distance":1590,"i_long":106.84912,"line":2,"station_id":"MRI","i_lat":-6.209883,"is_transit":true},{"station_id":"MTR","distance":1275,"i_lat":-6.212485,"i_long":106.858896,"station_name":"Matraman","line":1,"time":2,"transit":false,"is_transit":false},{"line":1,"transit":false,"station_id":"JNG","i_long":106.86807400000001,"time":8,"station_name":"Jatinegara","distance":1377,"i_lat":-6.215091,"is_transit":false},{"transit":false,"station_name":"Klender","line":1,"station_id":"KLD","distance":3395,"i_lat":-6.2135,"time":3,"is_transit":false,"i_long":106.899548},{"station_id":"BUA","line":1,"time":2,"i_lat":-6.215568,"is_transit":false,"transit":false,"i_long":106.922662,"station_name":"Buaran","distance":3100},{"station_name":"Klenderbaru","i_lat":-6.217455,"transit":false,"distance":1305,"station_id":"KLDB","time":1,"line":1,"is_transit":false,"i_long":106.939679},{"station_name":"Cakung","line":1,"i_long":106.951283,"distance":1385,"time":8,"is_transit":false,"transit":false,"station_id":"CUK","i_lat":-6.219053},{"time":3,"station_id":"KRI","distance":3097,"i_long":106.977657,"i_lat":-6.224515,"line":1,"station_name":"Kranji","is_transit":false,"transit":false},{"time":4,"is_transit":false,"station_id":"BKS","transit":false,"distance":2520,"line":1,"i_lat":-6.236616,"station_name":"Bekasi","i_long":106.997013},{"i_lat":-6.248029,"is_transit":false,"station_name":"Bekasi Timur","transit":false,"station_id":"BKST","time":2,"i_long":107.016735,"line":1,"distance":2368}],[{"station_name":"Citeras","transit":false,"i_long":106.332092,"i_lat":-6.334892,"time":0,"is_transit":false,"station_id":"CTR","line":3,"distance":0},{"transit":false,"is_transit":false,"station_name":"Maja","station_id":"MJ","time":10,"distance":7293,"i_long":106.394373,"line":6,"i_lat":-6.332307},{"is_transit":false,"distance":1853,"i_lat":-6.33561,"i_long":106.411216,"line":3,"station_name":"Cikoya","transit":false,"time":4,"station_id":"CKY"},{"distance":2651,"is_transit":false,"transit":false,"station_name":"Tigaraksa","station_id":"TGS","i_long":106.425991,"line":6,"i_lat":-6.328533,"time":3},{"i_long":106.460812,"line":6,"distance":2974,"time":5,"transit":false,"is_transit":false,"station_id":"TEJ","station_name":"Tenjo","i_lat":-6.327251},{"is_transit":false,"time":5,"i_long":106.491338,"station_name":"Daru","transit":false,"i_lat":-6.338021,"line":0,"distance":3902,"station_id":"DAR"},{"station_id":"CJT","transit":false,"is_transit":false,"line":3,"station_name":"Cilejit","i_lat":-6.354349,"i_long":106.508482,"time":6,"distance":2675},{"i_lat":-6.3441410000000005,"station_name":"Parung Panjang","distance":7025,"transit":false,"station_id":"PRP","is_transit":false,"i_long":106.568863,"time":9,"line":6},{"distance":5968,"line":3,"time":8,"station_name":"Cicayur","station_id":"CC","i_long":106.617853,"i_lat":-6.329547,"transit":false,"is_transit":false},{"station_id":"CSK","transit":false,"time":4,"station_name":"Cisauk","i_long":106.640411,"distance":2519,"is_transit":false,"i_lat":-6.32484,"line":3},{"distance":1784,"is_transit":false,"i_long":106.66566,"time":4,"transit":false,"station_id":"SRP","i_lat":-6.319871,"station_name":"Serpong","line":6},{"line":6,"i_lat":-6.314823,"time":4,"transit":false,"station_name":"Rawa Buntu","is_transit":false,"station_id":"RU","distance":2413,"i_long":106.675475},{"station_id":"SDM","time":6,"is_transit":false,"transit":false,"station_name":"Sudimara","line":6,"i_long":106.712277,"i_lat":-6.296963,"distance":4566},{"time":4,"line":6,"station_id":"JMU","is_transit":false,"i_long":106.728916,"transit":false,"i_lat":-6.288927,"distance":1994,"station_name":"Jurangmangu"},{"i_lat":-6.276362,"line":6,"is_transit":false,"time":3,"i_long":106.74273,"station_id":"PDJ","distance":2179,"station_name":"Pondokranji","transit":false},{"line":6,"time":8,"distance":6218,"i_lat":-6.237242,"i_long":106.780334,"station_name":"Kebayoran","transit":false,"station_id":"KBY","is_transit":false},{"is_transit":false,"station_id":"PLM","line":6,"i_long":106.79689,"i_lat":-6.207404,"distance":3737,"time":7,"transit":false,"station_name":"Palmerah"},{"is_transit":true,"transit":true,"i_lat":-6.185545,"line":1,"station_name":"Tanah Abang","station_id":"THB","time":6,"distance":3191,"i_long":106.811091},{"station_name":"Karet","line":1,"distance":2029,"is_transit":false,"i_lat":-6.20132,"i_long":106.816351,"transit":false,"time":5,"station_id":"KAT"},{"time":1,"transit":false,"station_name":"Sudirman Baru","distance":471,"i_long":106.819881,"station_id":"SUDB","line":1,"i_lat":-6.201433,"is_transit":false},{"distance":280,"station_id":"SUD","station_name":"Sudirman","is_transit":false,"transit":false,"i_lat":-6.202263,"time":1,"i_long":106.822649,"line":1},{"time":4,"i_lat":-6.209883,"i_long":106.84912,"transit":true,"is_transit":true,"distance":3186,"line":2,"station_id":"MRI","station_name":"Manggarai"},{"transit":false,"station_id":"CKI","time":4,"i_lat":-6.198556,"i_long":106.840169,"line":2,"is_transit":false,"distance":1590,"station_name":"Cikini"},{"station_id":"GDD","transit":false,"time":3,"distance":1750,"station_name":"Gondangdia","line":2,"i_long":106.832183,"is_transit":false,"i_lat":-6.186295},{"is_transit":false,"transit":false,"time":4,"i_long":106.828284,"distance":2015,"i_lat":-6.166716,"station_id":"JUA","station_name":"Juanda","line":2},{"i_long":106.827103,"line":2,"i_lat":-6.160725,"station_id":"SW","is_transit":false,"time":2,"station_name":"Sawah Besar","distance":1149,"transit":false},{"line":2,"station_name":"Manggabesar","i_long":106.82482,"i_lat":-6.149769,"station_id":"MGB","transit":false,"time":2,"is_transit":false,"distance":906},{"station_name":"Jayakarta","station_id":"JAY","i_lat":-6.141205,"i_long":106.820901,"time":2,"distance":1080,"line":2,"transit":false,"is_transit":false},{"station_name":"Jakarta Kota","line":2,"transit":true,"distance":1264,"station_id":"JAKK","i_long":106.812439,"i_lat":-6.137569,"is_transit":true,"time":4},{"transit":true,"i_long":106.826365,"station_name":"Kampung Bandan","line":4,"distance":1364,"is_transit":true,"time":3,"station_id":"KPB","i_lat":-6.132549},{"station_id":"RJW","time":3,"i_lat":-6.14505,"i_long":106.836569,"transit":false,"station_name":"Rajawali","line":11,"is_transit":false,"distance":1444},{"time":5,"i_lat":-6.161728,"station_id":"KMO","is_transit":false,"line":11,"i_long":106.839204,"distance":1901,"transit":false,"station_name":"Kemayoran"},{"station_id":"PSE","is_transit":false,"station_name":"Pasar Senen","i_lat":-6.174784,"time":4,"distance":1436,"i_long":106.84368,"line":11,"transit":false},{"is_transit":false,"station_name":"Gang Sentiong","time":8,"i_lat":-6.185975,"line":11,"distance":1567,"i_long":106.850107,"transit":false,"station_id":"GST"},{"i_long":106.855437,"transit":false,"station_name":"Kramat","station_id":"KMT","distance":973,"time":1,"is_transit":false,"i_lat":-6.193792,"line":11},{"station_name":"Pondok Jati","station_id":"POK","time":2,"i_long":106.861737,"transit":false,"distance":1829,"line":11,"i_lat":-6.209188,"is_transit":false},{"is_transit":true,"transit":true,"station_id":"JNG","i_lat":-6.215091,"line":1,"station_name":"Jatinegara","time":9,"distance":1236,"i_long":106.86807400000001},{"i_lat":-6.2135,"is_transit":false,"station_id":"KLD","distance":3395,"line":1,"station_name":"Klender","i_long":106.899548,"transit":false,"time":3},{"is_transit":false,"distance":3100,"line":1,"station_id":"BUA","i_long":106.922662,"time":2,"station_name":"Buaran","i_lat":-6.215568,"transit":false},{"time":1,"distance":1305,"station_id":"KLDB","is_transit":false,"station_name":"Klenderbaru","i_lat":-6.217455,"i_long":106.939679,"transit":false,"line":1},{"time":8,"transit":false,"station_id":"CUK","i_lat":-6.219053,"i_long":106.951283,"is_transit":false,"distance":1385,"line":1,"station_name":"Cakung"},{"time":3,"transit":false,"station_name":"Kranji","line":1,"i_lat":-6.224515,"station_id":"KRI","i_long":106.977657,"is_transit":false,"distance":3097},{"time":4,"station_name":"Bekasi","is_transit":false,"i_long":106.997013,"station_id":"BKS","distance":2520,"line":1,"i_lat":-6.236616,"transit":false},{"i_long":107.016735,"line":1,"time":2,"distance":2368,"station_name":"Bekasi Timur","i_lat":-6.248029,"transit":false,"station_id":"BKST","is_transit":false}]]}