{"data":[[{"is_transit":false,"transit":false,"station_name":"Citeras","time":0,"line":3,"distance":0,"i_lat":-6.334892,"i_long":106.332092,"station_id":"CTR"},{"station_name":"Maja","line":6,"station_id":"MJ","transit":false,"i_long":106.394373,"is_transit":false,"time":10,"i_lat":-6.332307,"distance":7293},{"is_transit":false,"time":4,"i_long":106.411216,"transit":false,"station_name":"Cikoya","distance":1853,"i_lat":-6.33561,"station_id":"CKY","line":3},{"time":3,"i_lat":-6.328533,"station_id":"TGS","line":6,"is_transit":false,"i_long":106.425991,"distance":2651,"transit":false,"station_name":"Tigaraksa"},{"line":6,"distance":2974,"i_lat":-6.327251,"station_name":"Tenjo","i_long":106.460812,"transit":false,"is_transit":false,"station_id":"TEJ","time":5},{"time":5,"station_name":"Daru","line":0,"is_transit":false,"i_long":106.491338,"station_id":"DAR","distance":3902,"i_lat":-6.338021,"transit":false},{"station_id":"CJT","station_name":"Cilejit","i_lat":-6.354349,"time":6,"distance":2675,"transit":false,"is_transit":false,"i_long":106.508482,"line":3},{"station_id":"PRP","is_transit":false,"i_lat":-6.3441410000000005,"i_long":106.568863,"line":6,"transit":false,"station_name":"Parung Panjang","distance":7025,"time":9},{"transit":false,"station_id":"CC","distance":5968,"i_long":106.617853,"line":3,"station_name":"Cicayur","is_transit":false,"i_lat":-6.329547,"time":8},{"i_long":106.640411,"station_id":"CSK","distance":2519,"line":3,"transit":false,"i_lat":-6.32484,"station_name":"Cisauk","is_transit":false,"time":4},{"is_transit":false,"distance":1784,"station_id":"SRP","time":4,"transit":false,"i_lat":-6.319871,"i_long":106.66566,"station_name":"Serpong","line":6},{"i_long":106.675475,"time":4,"i_lat":-6.314823,"line":6,"station_name":"Rawa Buntu","station_id":"RU","distance":2413,"transit":false,"is_transit":false},{"station_id":"SDM","line":6,"i_lat":-6.296963,"transit":false,"station_name":"Sudimara","is_transit":false,"distance":4566,"i_long":106.712277,"time":6},{"station_name":"Jurangmangu","i_lat":-6.288927,"transit":false,"distance":1994,"i_long":106.728916,"is_transit":false,"time":4,"station_id":"JMU","line":6},{"i_long":106.74273,"station_name":"Pondokranji","station_id":"PDJ","is_transit":false,"time":3,"i_lat":-6.276362,"line":6,"transit":false,"distance":2179},{"distance":6218,"station_id":"KBY","i_lat":-6.237242,"time":8,"line":6,"is_transit":false,"i_long":106.780334,"transit":false,"station_name":"Kebayoran"},{"i_long":106.79689,"i_lat":-6.207404,"station_id":"PLM","station_name":"Palmerah","time":7,"line":6,"transit":false,"is_transit":false,"distance":3737}]]}