{"data":[[{"is_transit":false,"i_lat":-6.334892,"distance":0,"station_id":"CTR","i_long":106.332092,"time":0,"station_name":"Citeras","line":0,"transit":false},{"transit":false,"distance":7293,"station_id":"MJ","i_lat":-6.332307,"i_long":106.394373,"line":6,"is_transit":false,"station_name":"Maja","time":10},{"station_id":"CKY","i_lat":-6.33561,"i_long":106.411216,"is_transit":false,"line":0,"time":4,"station_name":"Cikoya","transit":false,"distance":1853},{"time":3,"line":6,"station_name":"Tigaraksa","is_transit":false,"transit":false,"i_long":106.425991,"i_lat":-6.328533,"station_id":"TGS","distance":2651},{"transit":false,"i_lat":-6.327251,"is_transit":false,"i_long":106.460812,"line":6,"distance":2974,"time":5,"station_name":"Tenjo","station_id":"TEJ"},{"time":5,"transit":false,"line":0,"i_long":106.491338,"i_lat":-6.338021,"is_transit":false,"station_id":"DAR","distance":3902,"station_name":"Daru"},{"transit":false,"i_long":106.508482,"station_name":"Cilejit","distance":2675,"time":6,"line":0,"is_transit":false,"i_lat":-6.354349,"station_id":"CJT"},{"station_id":"PRP","transit":false,"is_transit":false,"station_name":"Parung Panjang","time":9,"distance":7025,"i_lat":-6.3441410000000005,"line":6,"i_long":106.568863},{"distance":5968,"transit":false,"line":0,"is_transit":false,"i_lat":-6.329547,"i_long":106.617853,"time":8,"station_id":"CC","station_name":"Cicayur"},{"station_id":"CSK","is_transit":false,"time":4,"distance":2519,"transit":false,"i_lat":-6.32484,"i_long":106.640411,"station_name":"Cisauk","line":0},{"is_transit":false,"station_id":"SRP","distance":1784,"time":4,"transit":false,"station_name":"Serpong","i_long":106.66566,"line":6,"i_lat":-6.319871},{"station_name":"Rawa Buntu","transit":false,"line":6,"distance":2413,"is_transit":false,"i_lat":-6.314823,"time":4,"station_id":"RU","i_long":106.675475},{"i_long":106.712277,"line":6,"station_name":"Sudimara","is_transit":false,"time":6,"transit":false,"station_id":"SDM","distance":4566,"i_lat":-6.296963},{"is_transit":false,"time":4,"i_lat":-6.288927,"i_long":106.728916,"transit":false,"distance":1994,"line":6,"station_id":"JMU","station_name":"Jurangmangu"},{"station_name":"Pondokranji","transit":false,"i_long":106.74273,"i_lat":-6.276362,"line":6,"distance":2179,"is_transit":false,"station_id":"PDJ","time":3},{"time":8,"station_id":"KBY","line":6,"distance":6218,"i_lat":-6.237242,"station_name":"Kebayoran","transit":false,"i_long":106.780334,"is_transit":false},{"distance":3737,"is_transit":false,"time":7,"i_long":106.79689,"transit":false,"i_lat":-6.207404,"line":6,"station_name":"Palmerah","station_id":"PLM"},{"i_lat":-6.185545,"is_transit":true,"line":1,"i_long":106.811091,"station_id":"THB","station_name":"Tanah Abang","time":6,"distance":3191,"transit":true},{"station_id":"KAT","distance":2029,"time":5,"i_lat":-6.20132,"i_long":106.816351,"line":1,"is_transit":false,"transit":false,"station_name":"Karet"},{"station_id":"SUDB","is_transit":false,"distance":471,"time":1,"transit":false,"line":1,"station_name":"Sudirman Baru","i_long":106.819881,"i_lat":-6.201433},{"line":1,"station_name":"Sudirman","time":1,"station_id":"SUD","i_lat":-6.202263,"i_long":106.822649,"is_transit":false,"distance":280,"transit":false},{"time":4,"line":0,"i_long":106.84912,"i_lat":-6.209883,"station_name":"Manggarai","distance":3186,"station_id":"MRI","is_transit":true,"transit":true},{"transit":false,"i_long":106.857948,"distance":2610,"station_id":"TEB","station_name":"Tebet","is_transit":false,"time":4,"line":2,"i_lat":-6.226659},{"i_long":106.856607,"station_id":"CW","line":0,"station_name":"Cawang","transit":false,"distance":1230,"time":2,"i_lat":-6.242512,"is_transit":false},{"station_name":"Duren Kalibata","transit":false,"time":3,"i_long":106.85449,"is_transit":false,"line":0,"station_id":"DRN","i_lat":-6.255332,"distance":1546},{"distance":824,"transit":false,"is_transit":false,"station_name":"Pasar Minggu Baru","i_lat":-6.263214,"i_long":106.851577,"station_id":"PSMB","line":2,"time":2},{"i_long":106.843999,"line":2,"station_id":"PSM","time":2,"distance":2380,"station_name":"Pasar Minggu","is_transit":false,"i_lat":-6.2842400000000005,"transit":false},{"line":2,"is_transit":false,"i_long":106.838896,"transit":false,"station_id":"TNT","time":4,"i_lat":-6.3080680000000005,"distance":2820,"station_name":"Tanjung Barat"},{"transit":false,"distance":2671,"i_long":106.832616,"line":2,"is_transit":false,"time":3,"station_id":"LNA","station_name":"Lenteng Agung","i_lat":-6.330363},{"time":2,"station_name":"Univ. Pancasila","distance":1029,"transit":false,"line":2,"is_transit":false,"i_lat":-6.339291,"station_id":"UP","i_long":106.834175},{"transit":false,"station_name":"Univ. Indonesia","time":3,"distance":2264,"i_lat":-6.360749,"line":2,"i_long":106.831474,"station_id":"UI","is_transit":false},{"station_name":"Pondok Cina","distance":1109,"is_transit":false,"i_long":106.831114,"station_id":"POC","time":2,"transit":false,"i_lat":-6.369073,"line":2}],[{"line":0,"station_name":"Citeras","transit":false,"i_long":106.332092,"station_id":"CTR","is_transit":false,"time":0,"distance":0,"i_lat":-6.334892},{"time":10,"i_long":106.394373,"distance":7293,"station_id":"MJ","transit":false,"station_name":"Maja","i_lat":-6.332307,"is_transit":false,"line":6},{"station_id":"CKY","line":0,"distance":1853,"i_lat":-6.33561,"i_long":106.411216,"is_transit":false,"time":4,"station_name":"Cikoya","transit":false},{"line":6,"i_long":106.425991,"distance":2651,"station_id":"TGS","i_lat":-6.328533,"is_transit":false,"time":3,"transit":false,"station_name":"Tigaraksa"},{"is_transit":false,"station_id":"TEJ","station_name":"Tenjo","i_long":106.460812,"distance":2974,"i_lat":-6.327251,"line":6,"time":5,"transit":false},{"time":5,"is_transit":false,"line":0,"station_id":"DAR","distance":3902,"i_long":106.491338,"i_lat":-6.338021,"station_name":"Daru","transit":false},{"station_name":"Cilejit","time":6,"line":0,"distance":2675,"i_lat":-6.354349,"is_transit":false,"transit":false,"station_id":"CJT","i_long":106.508482},{"distance":7025,"time":9,"station_name":"Parung Panjang","i_long":106.568863,"i_lat":-6.3441410000000005,"station_id":"PRP","is_transit":false,"line":6,"transit":false},{"i_long":106.617853,"line":0,"transit":false,"i_lat":-6.329547,"time":8,"station_name":"Cicayur","is_transit":false,"distance":5968,"station_id":"CC"},{"transit":false,"i_long":106.640411,"time":4,"i_lat":-6.32484,"is_transit":false,"station_id":"CSK","distance":2519,"line":0,"station_name":"Cisauk"},{"is_transit":false,"line":6,"transit":false,"station_id":"SRP","distance":1784,"i_lat":-6.319871,"station_name":"Serpong","i_long":106.66566,"time":4},{"time":4,"i_long":106.675475,"i_lat":-6.314823,"is_transit":false,"station_name":"Rawa Buntu","station_id":"RU","distance":2413,"transit":false,"line":6},{"is_transit":false,"distance":4566,"time":6,"station_id":"SDM","line":6,"transit":false,"i_lat":-6.296963,"station_name":"Sudimara","i_long":106.712277},{"is_transit":false,"i_long":106.728916,"distance":1994,"time":4,"i_lat":-6.288927,"station_id":"JMU","station_name":"Jurangmangu","line":6,"transit":false},{"distance":2179,"transit":false,"i_long":106.74273,"line":6,"is_transit":false,"i_lat":-6.276362,"station_id":"PDJ","station_name":"Pondokranji","time":3},{"station_name":"Kebayoran","i_long":106.780334,"line":6,"transit":false,"is_transit":false,"i_lat":-6.237242,"time":8,"station_id":"KBY","distance":6218},{"i_lat":-6.207404,"transit":false,"time":7,"i_long":106.79689,"station_id":"PLM","is_transit":false,"line":6,"distance":3737,"station_name":"Palmerah"},{"i_long":106.811091,"station_name":"Tanah Abang","distance":3191,"is_transit":true,"i_lat":-6.185545,"transit":true,"station_id":"THB","line":1,"time":6},{"is_transit":true,"distance":3632,"time":8,"line":1,"station_id":"DU","i_lat":-6.155215,"transit":true,"station_name":"Duri","i_long":106.800832},{"distance":1230,"transit":false,"line":0,"time":4,"station_name":"Angke","i_lat":-6.144674,"station_id":"AK","i_long":106.79867,"is_transit":false},{"is_transit":true,"station_name":"Kampung Bandan","i_long":106.826365,"time":9,"distance":4102,"station_id":"KPB","line":0,"transit":false,"i_lat":-6.132549},{"i_lat":-6.137569,"time":3,"distance":1364,"is_transit":true,"station_id":"JAKK","transit":true,"i_long":106.812439,"station_name":"Jakarta Kota","line":0},{"i_long":106.820901,"distance":1264,"time":4,"i_lat":-6.141205,"is_transit":false,"station_name":"Jayakarta","station_id":"JAY","transit":false,"line":7},{"distance":1080,"i_lat":-6.149769,"station_id":"MGB","station_name":"Manggabesar","is_transit":false,"line":2,"transit":false,"i_long":106.82482,"time":2},{"station_id":"SW","time":2,"station_name":"Sawah Besar","distance":906,"i_lat":-6.160725,"is_transit":false,"i_long":106.827103,"transit":false,"line":2},{"station_id":"JUA","is_transit":false,"transit":false,"i_long":106.828284,"line":2,"distance":1149,"i_lat":-6.166716,"station_name":"Juanda","time":2},{"transit":false,"time":4,"is_transit":false,"distance":2015,"station_id":"GDD","station_name":"Gondangdia","line":2,"i_long":106.832183,"i_lat":-6.186295},{"station_id":"CKI","time":3,"is_transit":false,"i_long":106.840169,"transit":false,"i_lat":-6.198556,"station_name":"Cikini","distance":1750,"line":0},{"i_lat":-6.209883,"i_long":106.84912,"line":0,"time":4,"is_transit":true,"station_name":"Manggarai","station_id":"MRI","distance":1590,"transit":true},{"transit":false,"distance":2610,"station_id":"TEB","i_lat":-6.226659,"time":4,"i_long":106.857948,"line":2,"station_name":"Tebet","is_transit":false},{"station_id":"CW","is_transit":false,"time":2,"station_name":"Cawang","transit":false,"i_long":106.856607,"distance":1230,"line":0,"i_lat":-6.242512},{"time":3,"station_name":"Duren Kalibata","distance":1546,"transit":false,"i_lat":-6.255332,"station_id":"DRN","is_transit":false,"i_long":106.85449,"line":0},{"station_id":"PSMB","transit":false,"i_long":106.851577,"station_name":"Pasar Minggu Baru","i_lat":-6.263214,"time":2,"distance":824,"is_transit":false,"line":2},{"is_transit":false,"time":2,"station_name":"Pasar Minggu","distance":2380,"transit":false,"i_long":106.843999,"line":2,"i_lat":-6.2842400000000005,"station_id":"PSM"},{"i_long":106.838896,"time":4,"line":2,"transit":false,"station_name":"Tanjung Barat","is_transit":false,"station_id":"TNT","distance":2820,"i_lat":-6.3080680000000005},{"station_name":"Lenteng Agung","is_transit":false,"i_lat":-6.330363,"station_id":"LNA","i_long":106.832616,"line":2,"transit":false,"distance":2671,"time":3},{"i_lat":-6.339291,"time":2,"is_transit":false,"distance":1029,"line":2,"station_name":"Univ. Pancasila","station_id":"UP","i_long":106.834175,"transit":false},{"i_lat":-6.360749,"line":2,"i_long":106.831474,"station_name":"Univ. Indonesia","station_id":"UI","time":3,"distance":2264,"is_transit":false,"transit":false},{"distance":1109,"i_long":106.831114,"line":2,"station_id":"POC","station_name":"Pondok Cina","is_transit":false,"time":2,"i_lat":-6.369073,"transit":false}],[{"i_lat":-6.334892,"station_name":"Citeras","time":0,"i_long":106.332092,"is_transit":false,"distance":0,"transit":false,"line":0,"station_id":"CTR"},{"distance":7293,"time":10,"line":6,"station_name":"Maja","station_id":"MJ","is_transit":false,"i_lat":-6.332307,"transit":false,"i_long":106.394373},{"station_name":"Cikoya","time":4,"distance":1853,"line":0,"is_transit":false,"i_lat":-6.33561,"transit":false,"station_id":"CKY","i_long":106.411216},{"station_name":"Tigaraksa","is_transit":false,"time":3,"transit":false,"line":6,"i_long":106.425991,"i_lat":-6.328533,"station_id":"TGS","distance":2651},{"line":6,"transit":false,"station_name":"Tenjo","time":5,"distance":2974,"is_transit":false,"station_id":"TEJ","i_lat":-6.327251,"i_long":106.460812},{"station_name":"Daru","i_long":106.491338,"transit":false,"station_id":"DAR","is_transit":false,"i_lat":-6.338021,"distance":3902,"line":0,"time":5},{"i_long":106.508482,"time":6,"transit":false,"i_lat":-6.354349,"is_transit":false,"distance":2675,"station_id":"CJT","station_name":"Cilejit","line":0},{"time":9,"transit":false,"is_transit":false,"line":6,"station_name":"Parung Panjang","i_lat":-6.3441410000000005,"distance":7025,"station_id":"PRP","i_long":106.568863},{"station_name":"Cicayur","station_id":"CC","is_transit":false,"distance":5968,"i_lat":-6.329547,"i_long":106.617853,"transit":false,"time":8,"line":0},{"distance":2519,"i_long":106.640411,"line":0,"station_name":"Cisauk","is_transit":false,"i_lat":-6.32484,"station_id":"CSK","time":4,"transit":false},{"transit":false,"i_lat":-6.319871,"station_name":"Serpong","is_transit":false,"i_long":106.66566,"line":6,"time":4,"distance":1784,"station_id":"SRP"},{"i_long":106.675475,"line":6,"distance":2413,"transit":false,"is_transit":false,"i_lat":-6.314823,"station_id":"RU","station_name":"Rawa Buntu","time":4},{"line":6,"i_long":106.712277,"distance":4566,"time":6,"i_lat":-6.296963,"transit":false,"station_id":"SDM","station_name":"Sudimara","is_transit":false},{"distance":1994,"line":6,"station_name":"Jurangmangu","i_lat":-6.288927,"transit":false,"station_id":"JMU","i_long":106.728916,"is_transit":false,"time":4},{"distance":2179,"station_name":"Pondokranji","is_transit":false,"i_long":106.74273,"station_id":"PDJ","time":3,"transit":false,"line":6,"i_lat":-6.276362},{"station_id":"KBY","is_transit":false,"station_name":"Kebayoran","distance":6218,"line":6,"transit":false,"i_lat":-6.237242,"i_long":106.780334,"time":8},{"i_lat":-6.207404,"distance":3737,"station_name":"Palmerah","i_long":106.79689,"is_transit":false,"line":6,"time":7,"transit":false,"station_id":"PLM"},{"time":6,"transit":true,"i_lat":-6.185545,"distance":3191,"i_long":106.811091,"line":1,"station_id":"THB","is_transit":true,"station_name":"Tanah Abang"},{"transit":true,"i_lat":-6.155215,"time":8,"station_id":"DU","station_name":"Duri","is_transit":true,"distance":3632,"i_long":106.800832,"line":1},{"is_transit":false,"time":4,"distance":1230,"i_lat":-6.144674,"i_long":106.79867,"transit":false,"station_id":"AK","station_name":"Angke","line":0},{"time":9,"is_transit":true,"station_id":"KPB","station_name":"Kampung Bandan","transit":true,"i_long":106.826365,"line":0,"i_lat":-6.132549,"distance":4102},{"i_lat":-6.14505,"transit":false,"line":11,"is_transit":false,"station_name":"Rajawali","distance":1444,"i_long":106.836569,"station_id":"RJW","time":3},{"station_name":"Kemayoran","is_transit":false,"transit":false,"line":11,"station_id":"KMO","i_lat":-6.161728,"i_long":106.839204,"time":5,"distance":1901},{"i_long":106.84368,"station_name":"Pasar Senen","is_transit":false,"time":4,"distance":1436,"transit":false,"i_lat":-6.174784,"line":11,"station_id":"PSE"},{"is_transit":false,"time":8,"transit":false,"i_lat":-6.185975,"station_id":"GST","distance":1567,"station_name":"Gang Sentiong","i_long":106.850107,"line":11},{"station_name":"Kramat","time":1,"i_lat":-6.193792,"i_long":106.855437,"transit":false,"is_transit":false,"line":11,"station_id":"KMT","distance":973},{"is_transit":false,"time":2,"i_long":106.861737,"line":11,"station_name":"Pondok Jati","transit":false,"distance":1829,"station_id":"POK","i_lat":-6.209188},{"station_id":"JNG","i_lat":-6.215091,"i_long":106.86807400000001,"distance":1236,"transit":true,"station_name":"Jatinegara","is_transit":true,"time":9,"line":0},{"i_lat":-6.212485,"is_transit":false,"time":2,"i_long":106.858896,"distance":1377,"line":1,"transit":false,"station_name":"Matraman","station_id":"MTR"},{"i_lat":-6.209883,"line":0,"station_id":"MRI","distance":1275,"station_name":"Manggarai","time":2,"is_transit":true,"transit":true,"i_long":106.84912},{"line":2,"distance":2610,"station_id":"TEB","is_transit":false,"station_name":"Tebet","i_lat":-6.226659,"time":4,"i_long":106.857948,"transit":false},{"transit":false,"i_lat":-6.242512,"station_name":"Cawang","line":0,"is_transit":false,"time":2,"station_id":"CW","distance":1230,"i_long":106.856607},{"station_name":"Duren Kalibata","i_long":106.85449,"time":3,"station_id":"DRN","transit":false,"line":0,"distance":1546,"i_lat":-6.255332,"is_transit":false},{"is_transit":false,"transit":false,"distance":824,"line":2,"station_id":"PSMB","station_name":"Pasar Minggu Baru","i_lat":-6.263214,"i_long":106.851577,"time":2},{"station_name":"Pasar Minggu","is_transit":false,"time":2,"i_lat":-6.2842400000000005,"line":2,"transit":false,"distance":2380,"i_long":106.843999,"station_id":"PSM"},{"i_lat":-6.3080680000000005,"station_id":"TNT","i_long":106.838896,"line":2,"station_name":"Tanjung Barat","time":4,"is_transit":false,"distance":2820,"transit":false},{"line":2,"station_id":"LNA","distance":2671,"transit":false,"i_lat":-6.330363,"i_long":106.832616,"station_name":"Lenteng Agung","is_transit":false,"time":3},{"station_name":"Univ. Pancasila","time":2,"transit":false,"i_lat":-6.339291,"i_long":106.834175,"is_transit":false,"station_id":"UP","line":2,"distance":1029},{"station_id":"UI","is_transit":false,"time":3,"transit":false,"i_lat":-6.360749,"line":2,"distance":2264,"station_name":"Univ. Indonesia","i_long":106.831474},{"i_lat":-6.369073,"station_name":"Pondok Cina","is_transit":false,"distance":1109,"time":2,"i_long":106.831114,"transit":false,"line":2,"station_id":"POC"}]]}