{"data":[[{"is_transit":false,"i_long":106.332092,"station_id":"CTR","transit":false,"distance":0,"line":3,"time":0,"station_name":"Citeras","i_lat":-6.334892},{"transit":false,"i_lat":-6.332307,"i_long":106.394373,"is_transit":false,"time":10,"station_name":"Maja","distance":7293,"line":6,"station_id":"MJ"},{"distance":1853,"is_transit":false,"transit":false,"station_name":"Cikoya","time":4,"i_long":106.411216,"station_id":"CKY","i_lat":-6.33561,"line":3},{"distance":2651,"i_lat":-6.328533,"line":6,"i_long":106.425991,"time":3,"transit":false,"is_transit":false,"station_id":"TGS","station_name":"Tigaraksa"},{"i_long":106.460812,"station_id":"TEJ","line":6,"distance":2974,"station_name":"Tenjo","is_transit":false,"transit":false,"time":5,"i_lat":-6.327251},{"line":0,"distance":3902,"transit":false,"station_name":"Daru","i_long":106.491338,"is_transit":false,"station_id":"DAR","time":5,"i_lat":-6.338021},{"distance":2675,"station_id":"CJT","line":3,"transit":false,"station_name":"Cilejit","is_transit":false,"i_lat":-6.354349,"i_long":106.508482,"time":6},{"transit":false,"line":6,"is_transit":false,"station_name":"Parung Panjang","distance":7025,"station_id":"PRP","time":9,"i_lat":-6.3441410000000005,"i_long":106.568863},{"is_transit":false,"i_lat":-6.329547,"station_name":"Cicayur","time":8,"i_long":106.617853,"line":3,"distance":5968,"station_id":"CC","transit":false},{"transit":false,"time":4,"is_transit":false,"i_lat":-6.32484,"distance":2519,"line":3,"i_long":106.640411,"station_name":"Cisauk","station_id":"CSK"},{"station_id":"SRP","i_lat":-6.319871,"i_long":106.66566,"distance":1784,"station_name":"Serpong","is_transit":false,"transit":false,"line":6,"time":4},{"time":4,"i_long":106.675475,"line":6,"i_lat":-6.314823,"is_transit":false,"transit":false,"station_name":"Rawa Buntu","distance":2413,"station_id":"RU"},{"station_id":"SDM","time":6,"is_transit":false,"distance":4566,"i_long":106.712277,"i_lat":-6.296963,"line":6,"station_name":"Sudimara","transit":false},{"distance":1994,"station_name":"Jurangmangu","transit":false,"i_lat":-6.288927,"line":6,"time":4,"i_long":106.728916,"station_id":"JMU","is_transit":false},{"time":3,"distance":2179,"i_long":106.74273,"i_lat":-6.276362,"station_id":"PDJ","transit":false,"is_transit":false,"line":6,"station_name":"Pondokranji"},{"is_transit":false,"station_name":"Kebayoran","time":8,"station_id":"KBY","distance":6218,"i_long":106.780334,"line":6,"transit":false,"i_lat":-6.237242},{"line":6,"station_name":"Palmerah","i_lat":-6.207404,"is_transit":false,"transit":false,"distance":3737,"station_id":"PLM","time":7,"i_long":106.79689},{"station_name":"Tanah Abang","i_lat":-6.185545,"i_long":106.811091,"distance":3191,"transit":true,"time":6,"line":1,"is_transit":true,"station_id":"THB"},{"station_id":"KAT","station_name":"Karet","is_transit":false,"transit":false,"i_long":106.816351,"line":1,"time":5,"i_lat":-6.20132,"distance":2029},{"i_long":106.819881,"is_transit":false,"distance":471,"time":1,"i_lat":-6.201433,"station_name":"Sudirman Baru","transit":false,"station_id":"SUDB","line":1},{"i_lat":-6.202263,"line":1,"is_transit":false,"station_name":"Sudirman","i_long":106.822649,"distance":280,"time":1,"transit":false,"station_id":"SUD"},{"time":4,"i_long":106.84912,"line":2,"i_lat":-6.209883,"is_transit":false,"station_id":"MRI","transit":false,"station_name":"Manggarai","distance":3186},{"i_long":106.858896,"line":1,"time":2,"is_transit":false,"station_id":"MTR","transit":false,"station_name":"Matraman","distance":1275,"i_lat":-6.212485}],[{"i_lat":-6.334892,"transit":false,"distance":0,"station_id":"CTR","line":3,"i_long":106.332092,"time":0,"is_transit":false,"station_name":"Citeras"},{"is_transit":false,"transit":false,"distance":7293,"time":10,"station_id":"MJ","i_lat":-6.332307,"station_name":"Maja","i_long":106.394373,"line":6},{"time":4,"distance":1853,"i_lat":-6.33561,"i_long":106.411216,"is_transit":false,"station_id":"CKY","line":3,"transit":false,"station_name":"Cikoya"},{"station_id":"TGS","transit":false,"time":3,"distance":2651,"i_lat":-6.328533,"i_long":106.425991,"station_name":"Tigaraksa","is_transit":false,"line":6},{"i_lat":-6.327251,"transit":false,"station_id":"TEJ","time":5,"is_transit":false,"station_name":"Tenjo","i_long":106.460812,"distance":2974,"line":6},{"is_transit":false,"line":0,"station_id":"DAR","transit":false,"time":5,"i_long":106.491338,"i_lat":-6.338021,"station_name":"Daru","distance":3902},{"distance":2675,"station_id":"CJT","i_lat":-6.354349,"line":3,"transit":false,"station_name":"Cilejit","time":6,"is_transit":false,"i_long":106.508482},{"transit":false,"is_transit":false,"station_name":"Parung Panjang","time":9,"i_lat":-6.3441410000000005,"station_id":"PRP","distance":7025,"i_long":106.568863,"line":6},{"time":8,"distance":5968,"station_id":"CC","is_transit":false,"transit":false,"i_long":106.617853,"station_name":"Cicayur","i_lat":-6.329547,"line":3},{"is_transit":false,"transit":false,"station_name":"Cisauk","line":3,"i_long":106.640411,"time":4,"i_lat":-6.32484,"station_id":"CSK","distance":2519},{"is_transit":false,"time":4,"line":6,"transit":false,"station_id":"SRP","station_name":"Serpong","i_long":106.66566,"i_lat":-6.319871,"distance":1784},{"distance":2413,"line":6,"i_long":106.675475,"station_name":"Rawa Buntu","station_id":"RU","transit":false,"is_transit":false,"i_lat":-6.314823,"time":4},{"i_lat":-6.296963,"station_id":"SDM","time":6,"i_long":106.712277,"line":6,"is_transit":false,"station_name":"Sudimara","transit":false,"distance":4566},{"station_name":"Jurangmangu","transit":false,"time":4,"distance":1994,"line":6,"station_id":"JMU","i_lat":-6.288927,"i_long":106.728916,"is_transit":false},{"line":6,"distance":2179,"station_id":"PDJ","is_transit":false,"station_name":"Pondokranji","time":3,"transit":false,"i_long":106.74273,"i_lat":-6.276362},{"station_name":"Kebayoran","station_id":"KBY","i_lat":-6.237242,"line":6,"time":8,"is_transit":false,"i_long":106.780334,"transit":false,"distance":6218},{"station_id":"PLM","transit":false,"station_name":"Palmerah","time":7,"line":6,"is_transit":false,"distance":3737,"i_long":106.79689,"i_lat":-6.207404},{"is_transit":true,"station_name":"Tanah Abang","station_id":"THB","i_lat":-6.185545,"transit":true,"time":6,"distance":3191,"i_long":106.811091,"line":1},{"station_name":"Duri","distance":3632,"i_long":106.800832,"i_lat":-6.155215,"transit":false,"line":1,"station_id":"DU","time":8,"is_transit":false},{"station_name":"Angke","distance":1230,"station_id":"AK","transit":false,"line":1,"is_transit":false,"time":4,"i_lat":-6.144674,"i_long":106.79867},{"station_name":"Kampung Bandan","transit":true,"distance":4102,"station_id":"KPB","line":4,"is_transit":true,"time":9,"i_long":106.826365,"i_lat":-6.132549},{"station_id":"RJW","i_long":106.836569,"i_lat":-6.14505,"is_transit":false,"distance":1444,"time":3,"transit":false,"station_name":"Rajawali","line":11},{"i_long":106.839204,"transit":false,"line":11,"distance":1901,"is_transit":false,"station_name":"Kemayoran","time":5,"i_lat":-6.161728,"station_id":"KMO"},{"i_long":106.84368,"station_id":"PSE","time":4,"distance":1436,"i_lat":-6.174784,"is_transit":false,"transit":false,"line":11,"station_name":"Pasar Senen"},{"station_name":"Gang Sentiong","transit":false,"is_transit":false,"time":8,"distance":1567,"line":11,"i_long":106.850107,"station_id":"GST","i_lat":-6.185975},{"transit":false,"time":1,"distance":973,"is_transit":false,"i_lat":-6.193792,"line":11,"station_name":"Kramat","i_long":106.855437,"station_id":"KMT"},{"transit":false,"distance":1829,"i_lat":-6.209188,"station_id":"POK","i_long":106.861737,"line":11,"time":2,"is_transit":false,"station_name":"Pondok Jati"},{"station_name":"Jatinegara","i_long":106.86807400000001,"time":9,"distance":1236,"is_transit":true,"i_lat":-6.215091,"transit":true,"station_id":"JNG","line":1},{"station_id":"MTR","station_name":"Matraman","i_lat":-6.212485,"i_long":106.858896,"distance":1377,"line":1,"is_transit":false,"time":2,"transit":false}],[{"station_id":"CTR","i_long":106.332092,"line":3,"station_name":"Citeras","is_transit":false,"time":0,"distance":0,"i_lat":-6.334892,"transit":false},{"station_id":"MJ","line":6,"i_long":106.394373,"station_name":"Maja","is_transit":false,"i_lat":-6.332307,"transit":false,"distance":7293,"time":10},{"transit":false,"station_name":"Cikoya","distance":1853,"time":4,"i_long":106.411216,"i_lat":-6.33561,"line":3,"is_transit":false,"station_id":"CKY"},{"transit":false,"time":3,"station_name":"Tigaraksa","is_transit":false,"station_id":"TGS","i_lat":-6.328533,"line":6,"distance":2651,"i_long":106.425991},{"is_transit":false,"distance":2974,"transit":false,"time":5,"i_lat":-6.327251,"station_name":"Tenjo","line":6,"i_long":106.460812,"station_id":"TEJ"},{"i_long":106.491338,"line":0,"station_id":"DAR","station_name":"Daru","transit":false,"distance":3902,"is_transit":false,"time":5,"i_lat":-6.338021},{"line":3,"station_name":"Cilejit","station_id":"CJT","time":6,"transit":false,"distance":2675,"i_lat":-6.354349,"is_transit":false,"i_long":106.508482},{"i_long":106.568863,"line":6,"is_transit":false,"station_id":"PRP","station_name":"Parung Panjang","distance":7025,"transit":false,"i_lat":-6.3441410000000005,"time":9},{"distance":5968,"time":8,"station_id":"CC","i_lat":-6.329547,"i_long":106.617853,"line":3,"transit":false,"is_transit":false,"station_name":"Cicayur"},{"is_transit":false,"i_long":106.640411,"line":3,"distance":2519,"station_id":"CSK","station_name":"Cisauk","time":4,"transit":false,"i_lat":-6.32484},{"i_long":106.66566,"line":6,"transit":false,"distance":1784,"is_transit":false,"time":4,"station_id":"SRP","station_name":"Serpong","i_lat":-6.319871},{"is_transit":false,"station_name":"Rawa Buntu","time":4,"transit":false,"i_long":106.675475,"station_id":"RU","distance":2413,"line":6,"i_lat":-6.314823},{"is_transit":false,"i_long":106.712277,"line":6,"station_id":"SDM","station_name":"Sudimara","distance":4566,"transit":false,"time":6,"i_lat":-6.296963},{"station_id":"JMU","station_name":"Jurangmangu","i_long":106.728916,"transit":false,"is_transit":false,"time":4,"distance":1994,"i_lat":-6.288927,"line":6},{"distance":2179,"station_name":"Pondokranji","transit":false,"i_long":106.74273,"i_lat":-6.276362,"time":3,"line":6,"station_id":"PDJ","is_transit":false},{"station_id":"KBY","transit":false,"time":8,"i_lat":-6.237242,"i_long":106.780334,"line":6,"station_name":"Kebayoran","is_transit":false,"distance":6218},{"is_transit":false,"station_id":"PLM","distance":3737,"transit":false,"station_name":"Palmerah","line":6,"time":7,"i_lat":-6.207404,"i_long":106.79689},{"transit":true,"time":6,"i_lat":-6.185545,"line":1,"is_transit":true,"i_long":106.811091,"station_name":"Tanah Abang","distance":3191,"station_id":"THB"},{"station_id":"DU","station_name":"Duri","distance":3632,"transit":false,"i_lat":-6.155215,"line":1,"time":8,"i_long":106.800832,"is_transit":false},{"distance":1230,"line":1,"i_lat":-6.144674,"station_id":"AK","transit":false,"is_transit":false,"time":4,"i_long":106.79867,"station_name":"Angke"},{"station_id":"KPB","is_transit":true,"transit":true,"station_name":"Kampung Bandan","i_lat":-6.132549,"i_long":106.826365,"time":9,"distance":4102,"line":4},{"is_transit":true,"transit":true,"i_lat":-6.137569,"station_id":"JAKK","line":2,"time":3,"station_name":"Jakarta Kota","i_long":106.812439,"distance":1364},{"i_lat":-6.141205,"is_transit":false,"time":4,"line":2,"i_long":106.820901,"station_name":"Jayakarta","distance":1264,"station_id":"JAY","transit":false},{"transit":false,"is_transit":false,"time":2,"station_id":"MGB","i_long":106.82482,"distance":1080,"station_name":"Manggabesar","line":2,"i_lat":-6.149769},{"station_id":"SW","i_long":106.827103,"is_transit":false,"station_name":"Sawah Besar","i_lat":-6.160725,"transit":false,"line":2,"distance":906,"time":2},{"distance":1149,"station_name":"Juanda","time":2,"station_id":"JUA","i_long":106.828284,"line":2,"is_transit":false,"transit":false,"i_lat":-6.166716},{"line":2,"time":4,"station_name":"Gondangdia","is_transit":false,"i_lat":-6.186295,"station_id":"GDD","i_long":106.832183,"transit":false,"distance":2015},{"station_id":"CKI","i_long":106.840169,"station_name":"Cikini","line":2,"transit":false,"distance":1750,"is_transit":false,"i_lat":-6.198556,"time":3},{"line":2,"transit":true,"station_name":"Manggarai","is_transit":true,"station_id":"MRI","time":4,"i_long":106.84912,"i_lat":-6.209883,"distance":1590},{"station_name":"Matraman","is_transit":false,"i_long":106.858896,"transit":false,"time":2,"station_id":"MTR","i_lat":-6.212485,"distance":1275,"line":1}],[{"time":0,"i_lat":-6.334892,"distance":0,"station_name":"Citeras","i_long":106.332092,"station_id":"CTR","line":3,"is_transit":false,"transit":false},{"line":6,"is_transit":false,"distance":7293,"time":10,"station_id":"MJ","transit":false,"station_name":"Maja","i_lat":-6.332307,"i_long":106.394373},{"i_long":106.411216,"line":3,"is_transit":false,"i_lat":-6.33561,"station_name":"Cikoya","station_id":"CKY","transit":false,"distance":1853,"time":4},{"i_lat":-6.328533,"transit":false,"i_long":106.425991,"is_transit":false,"station_name":"Tigaraksa","line":6,"time":3,"station_id":"TGS","distance":2651},{"station_id":"TEJ","time":5,"i_lat":-6.327251,"station_name":"Tenjo","is_transit":false,"i_long":106.460812,"distance":2974,"line":6,"transit":false},{"distance":3902,"station_id":"DAR","line":0,"i_lat":-6.338021,"i_long":106.491338,"transit":false,"is_transit":false,"time":5,"station_name":"Daru"},{"station_id":"CJT","station_name":"Cilejit","i_long":106.508482,"time":6,"distance":2675,"i_lat":-6.354349,"line":3,"is_transit":false,"transit":false},{"station_name":"Parung Panjang","station_id":"PRP","is_transit":false,"distance":7025,"i_lat":-6.3441410000000005,"line":6,"transit":false,"i_long":106.568863,"time":9},{"station_name":"Cicayur","time":8,"i_long":106.617853,"is_transit":false,"station_id":"CC","line":3,"transit":false,"distance":5968,"i_lat":-6.329547},{"i_lat":-6.32484,"i_long":106.640411,"station_id":"CSK","distance":2519,"line":3,"time":4,"is_transit":false,"transit":false,"station_name":"Cisauk"},{"transit":false,"time":4,"i_long":106.66566,"station_name":"Serpong","i_lat":-6.319871,"line":6,"station_id":"SRP","is_transit":false,"distance":1784},{"i_lat":-6.314823,"is_transit":false,"transit":false,"station_id":"RU","station_name":"Rawa Buntu","distance":2413,"i_long":106.675475,"time":4,"line":6},{"station_id":"SDM","transit":false,"station_name":"Sudimara","i_lat":-6.296963,"time":6,"is_transit":false,"distance":4566,"i_long":106.712277,"line":6},{"line":6,"is_transit":false,"station_id":"JMU","distance":1994,"station_name":"Jurangmangu","time":4,"i_long":106.728916,"transit":false,"i_lat":-6.288927},{"is_transit":false,"line":6,"station_id":"PDJ","i_long":106.74273,"transit":false,"time":3,"i_lat":-6.276362,"station_name":"Pondokranji","distance":2179},{"is_transit":false,"station_name":"Kebayoran","line":6,"distance":6218,"station_id":"KBY","i_lat":-6.237242,"i_long":106.780334,"transit":false,"time":8},{"station_id":"PLM","transit":false,"is_transit":false,"i_lat":-6.207404,"line":6,"i_long":106.79689,"time":7,"station_name":"Palmerah","distance":3737},{"station_name":"Tanah Abang","distance":3191,"line":1,"time":6,"i_lat":-6.185545,"i_long":106.811091,"is_transit":true,"station_id":"THB","transit":true},{"time":5,"i_lat":-6.20132,"i_long":106.816351,"is_transit":false,"station_id":"KAT","distance":2029,"line":1,"transit":false,"station_name":"Karet"},{"transit":false,"station_id":"SUDB","distance":471,"time":1,"i_long":106.819881,"line":1,"is_transit":false,"station_name":"Sudirman Baru","i_lat":-6.201433},{"station_name":"Sudirman","i_long":106.822649,"distance":280,"line":1,"i_lat":-6.202263,"station_id":"SUD","is_transit":false,"transit":false,"time":1},{"i_long":106.84912,"i_lat":-6.209883,"station_name":"Manggarai","line":2,"transit":true,"time":4,"distance":3186,"station_id":"MRI","is_transit":true},{"transit":false,"distance":1590,"station_id":"CKI","i_long":106.840169,"line":2,"station_name":"Cikini","time":4,"i_lat":-6.198556,"is_transit":false},{"i_long":106.832183,"line":2,"is_transit":false,"distance":1750,"station_id":"GDD","i_lat":-6.186295,"station_name":"Gondangdia","time":3,"transit":false},{"line":2,"time":4,"distance":2015,"i_lat":-6.166716,"is_transit":false,"transit":false,"i_long":106.828284,"station_id":"JUA","station_name":"Juanda"},{"station_name":"Sawah Besar","is_transit":false,"distance":1149,"line":2,"i_long":106.827103,"station_id":"SW","time":2,"i_lat":-6.160725,"transit":false},{"distance":906,"i_long":106.82482,"station_name":"Manggabesar","is_transit":false,"station_id":"MGB","transit":false,"time":2,"i_lat":-6.149769,"line":2},{"i_long":106.820901,"station_id":"JAY","distance":1080,"station_name":"Jayakarta","transit":false,"time":2,"is_transit":false,"i_lat":-6.141205,"line":2},{"station_name":"Jakarta Kota","i_lat":-6.137569,"line":2,"distance":1264,"i_long":106.812439,"is_transit":true,"time":4,"station_id":"JAKK","transit":true},{"i_long":106.826365,"time":3,"i_lat":-6.132549,"transit":true,"station_name":"Kampung Bandan","station_id":"KPB","distance":1364,"is_transit":true,"line":4},{"distance":1444,"i_long":106.836569,"transit":false,"is_transit":false,"station_name":"Rajawali","line":11,"time":3,"station_id":"RJW","i_lat":-6.14505},{"is_transit":false,"transit":false,"i_lat":-6.161728,"station_id":"KMO","time":5,"station_name":"Kemayoran","distance":1901,"i_long":106.839204,"line":11},{"transit":false,"station_name":"Pasar Senen","line":11,"station_id":"PSE","i_long":106.84368,"time":4,"i_lat":-6.174784,"is_transit":false,"distance":1436},{"time":8,"transit":false,"i_long":106.850107,"station_name":"Gang Sentiong","is_transit":false,"distance":1567,"i_lat":-6.185975,"station_id":"GST","line":11},{"transit":false,"i_long":106.855437,"is_transit":false,"i_lat":-6.193792,"station_id":"KMT","time":1,"distance":973,"line":11,"station_name":"Kramat"},{"time":2,"distance":1829,"station_name":"Pondok Jati","i_long":106.861737,"is_transit":false,"station_id":"POK","transit":false,"i_lat":-6.209188,"line":11},{"transit":true,"station_id":"JNG","time":9,"station_name":"Jatinegara","distance":1236,"i_lat":-6.215091,"is_transit":true,"i_long":106.86807400000001,"line":1},{"line":1,"i_long":106.858896,"transit":false,"time":2,"station_name":"Matraman","i_lat":-6.212485,"is_transit":false,"distance":1377,"station_id":"MTR"}]]}