{"data":[[{"time":0,"station_name":"Citeras","distance":0,"i_lat":-6.334892,"i_long":106.332092,"transit":false,"line":0,"is_transit":false,"station_id":"CTR"},{"line":6,"time":10,"i_lat":-6.332307,"i_long":106.394373,"distance":7293,"station_name":"Maja","is_transit":false,"transit":false,"station_id":"MJ"},{"is_transit":false,"distance":1853,"station_id":"CKY","i_long":106.411216,"station_name":"Cikoya","transit":false,"time":4,"i_lat":-6.33561,"line":0},{"line":6,"station_name":"Tigaraksa","i_long":106.425991,"time":3,"i_lat":-6.328533,"transit":false,"station_id":"TGS","distance":2651,"is_transit":false},{"station_id":"TEJ","distance":2974,"station_name":"Tenjo","transit":false,"time":5,"i_lat":-6.327251,"is_transit":false,"i_long":106.460812,"line":6},{"station_name":"Daru","station_id":"DAR","distance":3902,"line":0,"time":5,"i_lat":-6.338021,"is_transit":false,"transit":false,"i_long":106.491338},{"station_name":"Cilejit","i_lat":-6.354349,"is_transit":false,"distance":2675,"transit":false,"line":0,"i_long":106.508482,"time":6,"station_id":"CJT"},{"is_transit":false,"transit":false,"line":6,"distance":7025,"station_name":"Parung Panjang","time":9,"station_id":"PRP","i_lat":-6.3441410000000005,"i_long":106.568863},{"station_name":"Cicayur","i_long":106.617853,"transit":false,"station_id":"CC","is_transit":false,"i_lat":-6.329547,"distance":5968,"line":0,"time":8},{"time":4,"is_transit":false,"line":0,"station_name":"Cisauk","station_id":"CSK","distance":2519,"i_lat":-6.32484,"i_long":106.640411,"transit":false},{"station_name":"Serpong","distance":1784,"station_id":"SRP","i_lat":-6.319871,"is_transit":false,"i_long":106.66566,"transit":false,"line":6,"time":4},{"distance":2413,"transit":false,"is_transit":false,"station_name":"Rawa Buntu","i_long":106.675475,"time":4,"station_id":"RU","i_lat":-6.314823,"line":6},{"i_long":106.712277,"i_lat":-6.296963,"time":6,"distance":4566,"transit":false,"is_transit":false,"line":6,"station_name":"Sudimara","station_id":"SDM"},{"distance":1994,"i_long":106.728916,"is_transit":false,"line":6,"i_lat":-6.288927,"station_id":"JMU","transit":false,"station_name":"Jurangmangu","time":4},{"is_transit":false,"station_id":"PDJ","time":3,"i_lat":-6.276362,"line":6,"station_name":"Pondokranji","distance":2179,"i_long":106.74273,"transit":false},{"station_name":"Kebayoran","distance":6218,"time":8,"i_lat":-6.237242,"is_transit":false,"transit":false,"i_long":106.780334,"line":6,"station_id":"KBY"},{"time":7,"station_id":"PLM","line":6,"is_transit":false,"distance":3737,"station_name":"Palmerah","i_lat":-6.207404,"i_long":106.79689,"transit":false},{"is_transit":true,"i_long":106.811091,"line":1,"station_name":"Tanah Abang","distance":3191,"transit":true,"station_id":"THB","i_lat":-6.185545,"time":6},{"line":1,"time":5,"transit":false,"station_name":"Karet","i_long":106.816351,"distance":2029,"i_lat":-6.20132,"station_id":"KAT","is_transit":false},{"distance":471,"is_transit":false,"line":1,"transit":false,"station_id":"SUDB","i_lat":-6.201433,"i_long":106.819881,"station_name":"Sudirman Baru","time":1},{"line":1,"station_id":"SUD","time":1,"distance":280,"transit":false,"is_transit":false,"i_long":106.822649,"i_lat":-6.202263,"station_name":"Sudirman"},{"is_transit":true,"distance":3186,"i_long":106.84912,"line":0,"station_name":"Manggarai","time":4,"transit":false,"station_id":"MRI","i_lat":-6.209883},{"station_id":"MTR","distance":1275,"i_lat":-6.212485,"transit":false,"i_long":106.858896,"line":1,"time":2,"station_name":"Matraman","is_transit":false},{"time":8,"station_name":"Jatinegara","distance":1377,"transit":false,"is_transit":true,"station_id":"JNG","i_long":106.86807400000001,"i_lat":-6.215091,"line":0},{"line":1,"is_transit":false,"station_name":"Klender","transit":false,"distance":3395,"station_id":"KLD","time":3,"i_lat":-6.2135,"i_long":106.899548},{"transit":false,"station_name":"Buaran","i_long":106.922662,"time":2,"is_transit":false,"distance":3100,"station_id":"BUA","i_lat":-6.215568,"line":0},{"i_lat":-6.217455,"station_name":"Klenderbaru","line":1,"station_id":"KLDB","distance":1305,"transit":false,"time":1,"is_transit":false,"i_long":106.939679},{"transit":false,"time":8,"i_lat":-6.219053,"is_transit":false,"i_long":106.951283,"line":0,"station_id":"CUK","distance":1385,"station_name":"Cakung"},{"i_long":106.977657,"is_transit":false,"time":3,"distance":3097,"station_id":"KRI","i_lat":-6.224515,"transit":false,"line":1,"station_name":"Kranji"},{"i_long":106.997013,"is_transit":false,"i_lat":-6.236616,"station_name":"Bekasi","line":0,"time":4,"station_id":"BKS","distance":2520,"transit":false},{"i_lat":-6.248029,"is_transit":false,"i_long":107.016735,"transit":false,"station_id":"BKST","station_name":"Bekasi Timur","distance":2368,"time":2,"line":0},{"is_transit":false,"station_id":"TB","time":7,"i_long":107.055722,"line":1,"station_name":"Tambun","i_lat":-6.258864,"distance":4460,"transit":false},{"station_name":"Cibitung","is_transit":false,"time":3,"distance":3420,"transit":false,"line":0,"station_id":"CIT","i_lat":-6.261877,"i_long":107.083084}],[{"transit":false,"station_id":"CTR","i_lat":-6.334892,"time":0,"distance":0,"i_long":106.332092,"line":0,"station_name":"Citeras","is_transit":false},{"i_lat":-6.332307,"is_transit":false,"i_long":106.394373,"line":6,"station_name":"Maja","transit":false,"time":10,"station_id":"MJ","distance":7293},{"time":4,"line":0,"i_lat":-6.33561,"station_name":"Cikoya","station_id":"CKY","is_transit":false,"i_long":106.411216,"transit":false,"distance":1853},{"station_id":"TGS","i_lat":-6.328533,"i_long":106.425991,"time":3,"station_name":"Tigaraksa","line":6,"is_transit":false,"distance":2651,"transit":false},{"i_lat":-6.327251,"transit":false,"i_long":106.460812,"line":6,"time":5,"station_name":"Tenjo","station_id":"TEJ","is_transit":false,"distance":2974},{"i_lat":-6.338021,"transit":false,"line":0,"i_long":106.491338,"station_id":"DAR","time":5,"station_name":"Daru","is_transit":false,"distance":3902},{"station_id":"CJT","i_lat":-6.354349,"station_name":"Cilejit","transit":false,"i_long":106.508482,"distance":2675,"line":0,"time":6,"is_transit":false},{"i_lat":-6.3441410000000005,"line":6,"transit":false,"station_name":"Parung Panjang","i_long":106.568863,"distance":7025,"time":9,"station_id":"PRP","is_transit":false},{"is_transit":false,"station_name":"Cicayur","transit":false,"time":8,"distance":5968,"i_lat":-6.329547,"i_long":106.617853,"station_id":"CC","line":0},{"i_long":106.640411,"distance":2519,"transit":false,"i_lat":-6.32484,"line":0,"station_name":"Cisauk","is_transit":false,"time":4,"station_id":"CSK"},{"distance":1784,"i_long":106.66566,"transit":false,"station_name":"Serpong","is_transit":false,"time":4,"line":6,"station_id":"SRP","i_lat":-6.319871},{"i_long":106.675475,"station_name":"Rawa Buntu","transit":false,"is_transit":false,"time":4,"distance":2413,"station_id":"RU","i_lat":-6.314823,"line":6},{"time":6,"station_name":"Sudimara","station_id":"SDM","transit":false,"i_lat":-6.296963,"i_long":106.712277,"line":6,"is_transit":false,"distance":4566},{"time":4,"line":6,"transit":false,"station_name":"Jurangmangu","i_lat":-6.288927,"station_id":"JMU","is_transit":false,"i_long":106.728916,"distance":1994},{"i_lat":-6.276362,"distance":2179,"transit":false,"is_transit":false,"time":3,"station_name":"Pondokranji","station_id":"PDJ","i_long":106.74273,"line":6},{"transit":false,"i_lat":-6.237242,"station_id":"KBY","distance":6218,"i_long":106.780334,"line":6,"station_name":"Kebayoran","is_transit":false,"time":8},{"station_id":"PLM","station_name":"Palmerah","time":7,"i_long":106.79689,"distance":3737,"transit":false,"is_transit":false,"i_lat":-6.207404,"line":6},{"i_long":106.811091,"distance":3191,"time":6,"station_id":"THB","is_transit":true,"transit":true,"i_lat":-6.185545,"station_name":"Tanah Abang","line":1},{"distance":3632,"i_long":106.800832,"time":8,"line":1,"transit":true,"i_lat":-6.155215,"is_transit":true,"station_name":"Duri","station_id":"DU"},{"line":0,"time":4,"is_transit":false,"station_id":"AK","transit":false,"distance":1230,"station_name":"Angke","i_long":106.79867,"i_lat":-6.144674},{"i_long":106.826365,"time":9,"distance":4102,"line":0,"is_transit":true,"i_lat":-6.132549,"transit":true,"station_id":"KPB","station_name":"Kampung Bandan"},{"transit":false,"distance":1444,"i_lat":-6.14505,"station_name":"Rajawali","line":11,"i_long":106.836569,"time":3,"station_id":"RJW","is_transit":false},{"distance":1901,"i_lat":-6.161728,"line":11,"is_transit":false,"station_name":"Kemayoran","i_long":106.839204,"transit":false,"time":5,"station_id":"KMO"},{"transit":false,"station_id":"PSE","line":11,"station_name":"Pasar Senen","i_long":106.84368,"time":4,"i_lat":-6.174784,"distance":1436,"is_transit":false},{"is_transit":false,"line":11,"transit":false,"station_id":"GST","distance":1567,"time":8,"i_lat":-6.185975,"station_name":"Gang Sentiong","i_long":106.850107},{"distance":973,"i_long":106.855437,"line":11,"time":1,"station_name":"Kramat","is_transit":false,"station_id":"KMT","transit":false,"i_lat":-6.193792},{"is_transit":false,"line":11,"station_id":"POK","time":2,"station_name":"Pondok Jati","distance":1829,"i_lat":-6.209188,"transit":false,"i_long":106.861737},{"i_long":106.86807400000001,"station_id":"JNG","time":9,"line":0,"station_name":"Jatinegara","is_transit":true,"transit":true,"distance":1236,"i_lat":-6.215091},{"station_id":"KLD","distance":3395,"i_long":106.899548,"i_lat":-6.2135,"line":1,"transit":false,"time":3,"station_name":"Klender","is_transit":false},{"station_id":"BUA","distance":3100,"time":2,"transit":false,"is_transit":false,"line":0,"station_name":"Buaran","i_long":106.922662,"i_lat":-6.215568},{"is_transit":false,"distance":1305,"station_name":"Klenderbaru","i_long":106.939679,"time":1,"line":1,"transit":false,"station_id":"KLDB","i_lat":-6.217455},{"line":0,"transit":false,"distance":1385,"station_id":"CUK","is_transit":false,"i_long":106.951283,"station_name":"Cakung","time":8,"i_lat":-6.219053},{"time":3,"station_id":"KRI","distance":3097,"i_lat":-6.224515,"i_long":106.977657,"line":1,"transit":false,"station_name":"Kranji","is_transit":false},{"station_id":"BKS","is_transit":false,"line":0,"transit":false,"distance":2520,"i_lat":-6.236616,"i_long":106.997013,"time":4,"station_name":"Bekasi"},{"station_id":"BKST","is_transit":false,"station_name":"Bekasi Timur","i_lat":-6.248029,"i_long":107.016735,"line":0,"time":2,"transit":false,"distance":2368},{"transit":false,"station_id":"TB","distance":4460,"i_lat":-6.258864,"is_transit":false,"i_long":107.055722,"line":1,"station_name":"Tambun","time":7},{"station_id":"CIT","is_transit":false,"transit":false,"station_name":"Cibitung","distance":3420,"i_long":107.083084,"time":3,"line":0,"i_lat":-6.261877}],[{"station_id":"CTR","is_transit":false,"distance":0,"line":0,"i_lat":-6.334892,"time":0,"transit":false,"i_long":106.332092,"station_name":"Citeras"},{"station_name":"Maja","time":10,"station_id":"MJ","is_transit":false,"line":6,"distance":7293,"transit":false,"i_long":106.394373,"i_lat":-6.332307},{"distance":1853,"is_transit":false,"i_long":106.411216,"station_name":"Cikoya","station_id":"CKY","line":0,"i_lat":-6.33561,"transit":false,"time":4},{"distance":2651,"station_name":"Tigaraksa","time":3,"is_transit":false,"i_long":106.425991,"i_lat":-6.328533,"transit":false,"line":6,"station_id":"TGS"},{"i_lat":-6.327251,"i_long":106.460812,"transit":false,"line":6,"is_transit":false,"station_id":"TEJ","time":5,"distance":2974,"station_name":"Tenjo"},{"distance":3902,"is_transit":false,"i_long":106.491338,"line":0,"i_lat":-6.338021,"time":5,"station_name":"Daru","transit":false,"station_id":"DAR"},{"distance":2675,"transit":false,"time":6,"i_lat":-6.354349,"station_id":"CJT","is_transit":false,"station_name":"Cilejit","line":0,"i_long":106.508482},{"station_id":"PRP","time":9,"station_name":"Parung Panjang","is_transit":false,"transit":false,"distance":7025,"i_lat":-6.3441410000000005,"line":6,"i_long":106.568863},{"station_name":"Cicayur","distance":5968,"transit":false,"time":8,"is_transit":false,"line":0,"station_id":"CC","i_long":106.617853,"i_lat":-6.329547},{"station_name":"Cisauk","distance":2519,"is_transit":false,"i_lat":-6.32484,"transit":false,"line":0,"i_long":106.640411,"time":4,"station_id":"CSK"},{"distance":1784,"i_long":106.66566,"station_name":"Serpong","time":4,"line":6,"station_id":"SRP","transit":false,"is_transit":false,"i_lat":-6.319871},{"station_id":"RU","line":6,"transit":false,"station_name":"Rawa Buntu","distance":2413,"i_lat":-6.314823,"i_long":106.675475,"time":4,"is_transit":false},{"distance":4566,"transit":false,"station_id":"SDM","is_transit":false,"i_long":106.712277,"i_lat":-6.296963,"station_name":"Sudimara","line":6,"time":6},{"i_lat":-6.288927,"i_long":106.728916,"transit":false,"line":6,"station_name":"Jurangmangu","distance":1994,"station_id":"JMU","time":4,"is_transit":false},{"time":3,"station_name":"Pondokranji","line":6,"i_lat":-6.276362,"transit":false,"i_long":106.74273,"distance":2179,"station_id":"PDJ","is_transit":false},{"distance":6218,"station_id":"KBY","is_transit":false,"transit":false,"station_name":"Kebayoran","i_long":106.780334,"i_lat":-6.237242,"line":6,"time":8},{"line":6,"station_id":"PLM","transit":false,"station_name":"Palmerah","is_transit":false,"i_lat":-6.207404,"time":7,"distance":3737,"i_long":106.79689},{"station_name":"Tanah Abang","distance":3191,"i_lat":-6.185545,"line":1,"is_transit":true,"i_long":106.811091,"station_id":"THB","transit":true,"time":6},{"station_id":"DU","is_transit":true,"transit":true,"station_name":"Duri","i_long":106.800832,"distance":3632,"i_lat":-6.155215,"line":1,"time":8},{"transit":false,"station_id":"AK","time":4,"i_lat":-6.144674,"station_name":"Angke","line":0,"distance":1230,"is_transit":false,"i_long":106.79867},{"station_id":"KPB","is_transit":true,"i_lat":-6.132549,"i_long":106.826365,"distance":4102,"line":0,"time":9,"transit":false,"station_name":"Kampung Bandan"},{"distance":1364,"station_id":"JAKK","i_long":106.812439,"station_name":"Jakarta Kota","is_transit":true,"line":0,"time":3,"i_lat":-6.137569,"transit":true},{"line":7,"time":4,"station_name":"Jayakarta","is_transit":false,"station_id":"JAY","transit":false,"distance":1264,"i_lat":-6.141205,"i_long":106.820901},{"distance":1080,"is_transit":false,"i_lat":-6.149769,"line":2,"time":2,"i_long":106.82482,"station_name":"Manggabesar","transit":false,"station_id":"MGB"},{"transit":false,"is_transit":false,"distance":906,"station_name":"Sawah Besar","line":2,"i_lat":-6.160725,"time":2,"i_long":106.827103,"station_id":"SW"},{"station_name":"Juanda","station_id":"JUA","i_long":106.828284,"i_lat":-6.166716,"line":2,"is_transit":false,"transit":false,"distance":1149,"time":2},{"station_id":"GDD","transit":false,"i_long":106.832183,"distance":2015,"is_transit":false,"line":2,"time":4,"station_name":"Gondangdia","i_lat":-6.186295},{"line":0,"transit":false,"station_id":"CKI","is_transit":false,"i_lat":-6.198556,"distance":1750,"station_name":"Cikini","i_long":106.840169,"time":3},{"is_transit":true,"distance":1590,"time":4,"transit":true,"station_id":"MRI","station_name":"Manggarai","i_lat":-6.209883,"i_long":106.84912,"line":0},{"station_name":"Matraman","i_lat":-6.212485,"i_long":106.858896,"line":1,"transit":false,"time":2,"station_id":"MTR","is_transit":false,"distance":1275},{"time":8,"i_lat":-6.215091,"station_id":"JNG","distance":1377,"station_name":"Jatinegara","is_transit":true,"i_long":106.86807400000001,"transit":false,"line":0},{"transit":false,"i_long":106.899548,"time":3,"station_name":"Klender","line":1,"is_transit":false,"distance":3395,"station_id":"KLD","i_lat":-6.2135},{"transit":false,"is_transit":false,"i_long":106.922662,"station_name":"Buaran","distance":3100,"station_id":"BUA","i_lat":-6.215568,"time":2,"line":0},{"i_long":106.939679,"transit":false,"i_lat":-6.217455,"time":1,"station_name":"Klenderbaru","distance":1305,"is_transit":false,"line":1,"station_id":"KLDB"},{"transit":false,"distance":1385,"line":0,"i_long":106.951283,"station_id":"CUK","station_name":"Cakung","time":8,"i_lat":-6.219053,"is_transit":false},{"station_name":"Kranji","i_lat":-6.224515,"station_id":"KRI","line":1,"distance":3097,"i_long":106.977657,"transit":false,"is_transit":false,"time":3},{"station_name":"Bekasi","i_long":106.997013,"time":4,"is_transit":false,"line":0,"distance":2520,"i_lat":-6.236616,"station_id":"BKS","transit":false},{"i_lat":-6.248029,"time":2,"i_long":107.016735,"line":0,"is_transit":false,"distance":2368,"transit":false,"station_name":"Bekasi Timur","station_id":"BKST"},{"time":7,"line":1,"transit":false,"is_transit":false,"i_lat":-6.258864,"station_name":"Tambun","i_long":107.055722,"distance":4460,"station_id":"TB"},{"line":0,"i_lat":-6.261877,"station_id":"CIT","transit":false,"distance":3420,"time":3,"is_transit":false,"station_name":"Cibitung","i_long":107.083084}],[{"station_name":"Citeras","i_long":106.332092,"station_id":"CTR","time":0,"is_transit":false,"distance":0,"i_lat":-6.334892,"transit":false,"line":0},{"i_lat":-6.332307,"i_long":106.394373,"line":6,"transit":false,"station_name":"Maja","station_id":"MJ","time":10,"is_transit":false,"distance":7293},{"transit":false,"station_name":"Cikoya","time":4,"distance":1853,"station_id":"CKY","i_lat":-6.33561,"i_long":106.411216,"line":0,"is_transit":false},{"transit":false,"time":3,"station_name":"Tigaraksa","distance":2651,"i_lat":-6.328533,"is_transit":false,"station_id":"TGS","i_long":106.425991,"line":6},{"i_lat":-6.327251,"station_id":"TEJ","i_long":106.460812,"time":5,"line":6,"transit":false,"distance":2974,"is_transit":false,"station_name":"Tenjo"},{"transit":false,"time":5,"station_name":"Daru","is_transit":false,"distance":3902,"line":0,"station_id":"DAR","i_lat":-6.338021,"i_long":106.491338},{"transit":false,"i_long":106.508482,"station_id":"CJT","station_name":"Cilejit","time":6,"is_transit":false,"distance":2675,"line":0,"i_lat":-6.354349},{"i_lat":-6.3441410000000005,"is_transit":false,"line":6,"time":9,"transit":false,"station_name":"Parung Panjang","i_long":106.568863,"station_id":"PRP","distance":7025},{"station_id":"CC","station_name":"Cicayur","is_transit":false,"distance":5968,"time":8,"line":0,"i_lat":-6.329547,"transit":false,"i_long":106.617853},{"transit":false,"i_lat":-6.32484,"time":4,"station_id":"CSK","line":0,"i_long":106.640411,"distance":2519,"station_name":"Cisauk","is_transit":false},{"is_transit":false,"time":4,"distance":1784,"line":6,"station_id":"SRP","i_lat":-6.319871,"transit":false,"station_name":"Serpong","i_long":106.66566},{"transit":false,"is_transit":false,"station_name":"Rawa Buntu","station_id":"RU","time":4,"i_lat":-6.314823,"i_long":106.675475,"distance":2413,"line":6},{"station_name":"Sudimara","is_transit":false,"distance":4566,"station_id":"SDM","i_lat":-6.296963,"i_long":106.712277,"time":6,"transit":false,"line":6},{"station_id":"JMU","i_long":106.728916,"i_lat":-6.288927,"station_name":"Jurangmangu","distance":1994,"is_transit":false,"line":6,"transit":false,"time":4},{"i_long":106.74273,"transit":false,"station_id":"PDJ","is_transit":false,"distance":2179,"i_lat":-6.276362,"line":6,"time":3,"station_name":"Pondokranji"},{"station_name":"Kebayoran","i_lat":-6.237242,"transit":false,"i_long":106.780334,"station_id":"KBY","line":6,"time":8,"is_transit":false,"distance":6218},{"is_transit":false,"distance":3737,"station_id":"PLM","i_long":106.79689,"station_name":"Palmerah","line":6,"time":7,"transit":false,"i_lat":-6.207404},{"i_long":106.811091,"i_lat":-6.185545,"station_name":"Tanah Abang","line":1,"transit":true,"distance":3191,"time":6,"station_id":"THB","is_transit":true},{"i_lat":-6.20132,"distance":2029,"is_transit":false,"time":5,"station_id":"KAT","i_long":106.816351,"transit":false,"station_name":"Karet","line":1},{"station_id":"SUDB","distance":471,"time":1,"transit":false,"i_long":106.819881,"line":1,"station_name":"Sudirman Baru","i_lat":-6.201433,"is_transit":false},{"time":1,"line":1,"i_lat":-6.202263,"i_long":106.822649,"is_transit":false,"station_id":"SUD","station_name":"Sudirman","transit":false,"distance":280},{"line":0,"time":4,"station_id":"MRI","i_lat":-6.209883,"transit":true,"station_name":"Manggarai","distance":3186,"is_transit":true,"i_long":106.84912},{"i_lat":-6.198556,"time":4,"station_id":"CKI","i_long":106.840169,"line":0,"transit":false,"station_name":"Cikini","is_transit":false,"distance":1590},{"transit":false,"station_id":"GDD","distance":1750,"i_lat":-6.186295,"is_transit":false,"i_long":106.832183,"line":2,"station_name":"Gondangdia","time":3},{"transit":false,"distance":2015,"i_lat":-6.166716,"time":4,"i_long":106.828284,"is_transit":false,"station_name":"Juanda","line":2,"station_id":"JUA"},{"station_name":"Sawah Besar","station_id":"SW","time":2,"line":2,"transit":false,"is_transit":false,"i_lat":-6.160725,"i_long":106.827103,"distance":1149},{"time":2,"i_lat":-6.149769,"i_long":106.82482,"station_name":"Manggabesar","station_id":"MGB","line":2,"is_transit":false,"distance":906,"transit":false},{"time":2,"i_long":106.820901,"line":7,"transit":false,"station_name":"Jayakarta","station_id":"JAY","i_lat":-6.141205,"is_transit":false,"distance":1080},{"transit":true,"line":0,"station_name":"Jakarta Kota","i_long":106.812439,"station_id":"JAKK","distance":1264,"i_lat":-6.137569,"time":4,"is_transit":true},{"is_transit":true,"line":0,"transit":true,"i_long":106.826365,"time":3,"station_name":"Kampung Bandan","station_id":"KPB","i_lat":-6.132549,"distance":1364},{"time":3,"station_name":"Rajawali","i_long":106.836569,"is_transit":false,"transit":false,"distance":1444,"line":11,"station_id":"RJW","i_lat":-6.14505},{"i_lat":-6.161728,"line":11,"i_long":106.839204,"station_name":"Kemayoran","station_id":"KMO","is_transit":false,"transit":false,"distance":1901,"time":5},{"line":11,"i_lat":-6.174784,"time":4,"station_id":"PSE","distance":1436,"transit":false,"station_name":"Pasar Senen","i_long":106.84368,"is_transit":false},{"line":11,"distance":1567,"i_lat":-6.185975,"i_long":106.850107,"is_transit":false,"time":8,"station_id":"GST","transit":false,"station_name":"Gang Sentiong"},{"i_long":106.855437,"line":11,"distance":973,"i_lat":-6.193792,"time":1,"is_transit":false,"transit":false,"station_name":"Kramat","station_id":"KMT"},{"time":2,"station_name":"Pondok Jati","is_transit":false,"distance":1829,"i_lat":-6.209188,"line":11,"station_id":"POK","transit":false,"i_long":106.861737},{"station_name":"Jatinegara","is_transit":true,"distance":1236,"i_long":106.86807400000001,"station_id":"JNG","time":9,"transit":true,"i_lat":-6.215091,"line":0},{"time":3,"distance":3395,"i_lat":-6.2135,"i_long":106.899548,"line":1,"station_id":"KLD","transit":false,"is_transit":false,"station_name":"Klender"},{"i_lat":-6.215568,"station_id":"BUA","is_transit":false,"i_long":106.922662,"time":2,"line":0,"station_name":"Buaran","transit":false,"distance":3100},{"distance":1305,"time":1,"i_long":106.939679,"transit":false,"station_name":"Klenderbaru","line":1,"station_id":"KLDB","i_lat":-6.217455,"is_transit":false},{"line":0,"transit":false,"distance":1385,"station_id":"CUK","i_lat":-6.219053,"is_transit":false,"i_long":106.951283,"station_name":"Cakung","time":8},{"station_name":"Kranji","time":3,"i_lat":-6.224515,"transit":false,"i_long":106.977657,"station_id":"KRI","is_transit":false,"distance":3097,"line":1},{"line":0,"distance":2520,"station_name":"Bekasi","time":4,"i_lat":-6.236616,"station_id":"BKS","is_transit":false,"transit":false,"i_long":106.997013},{"distance":2368,"transit":false,"station_name":"Bekasi Timur","i_long":107.016735,"time":2,"i_lat":-6.248029,"line":0,"is_transit":false,"station_id":"BKST"},{"station_name":"Tambun","transit":false,"station_id":"TB","time":7,"distance":4460,"i_lat":-6.258864,"line":1,"i_long":107.055722,"is_transit":false},{"station_id":"CIT","distance":3420,"station_name":"Cibitung","line":0,"is_transit":false,"time":3,"i_long":107.083084,"i_lat":-6.261877,"transit":false}]]}