{"data":[[{"is_transit":false,"i_lat":-6.334892,"i_long":106.332092,"distance":0,"station_name":"Citeras","time":0,"station_id":"CTR","line":3,"transit":false},{"is_transit":false,"station_id":"MJ","transit":false,"i_lat":-6.332307,"i_long":106.394373,"time":10,"line":6,"distance":7293,"station_name":"Maja"},{"line":3,"is_transit":false,"time":4,"station_name":"Cikoya","i_lat":-6.33561,"i_long":106.411216,"transit":false,"distance":1853,"station_id":"CKY"},{"distance":2651,"is_transit":false,"i_lat":-6.328533,"line":6,"station_name":"Tigaraksa","transit":false,"station_id":"TGS","i_long":106.425991,"time":3},{"is_transit":false,"i_lat":-6.327251,"distance":2974,"transit":false,"line":6,"i_long":106.460812,"station_id":"TEJ","time":5,"station_name":"Tenjo"},{"is_transit":false,"station_id":"DAR","line":0,"station_name":"Daru","time":5,"distance":3902,"i_lat":-6.338021,"i_long":106.491338,"transit":false},{"is_transit":false,"station_name":"Cilejit","distance":2675,"line":3,"transit":false,"i_lat":-6.354349,"i_long":106.508482,"station_id":"CJT","time":6},{"station_id":"PRP","i_lat":-6.3441410000000005,"transit":false,"distance":7025,"line":6,"is_transit":false,"time":9,"station_name":"Parung Panjang","i_long":106.568863},{"line":3,"i_lat":-6.329547,"i_long":106.617853,"distance":5968,"transit":false,"station_name":"Cicayur","station_id":"CC","is_transit":false,"time":8},{"station_id":"CSK","transit":false,"is_transit":false,"i_lat":-6.32484,"time":4,"i_long":106.640411,"line":3,"distance":2519,"station_name":"Cisauk"},{"i_lat":-6.319871,"station_name":"Serpong","is_transit":false,"time":4,"distance":1784,"line":6,"station_id":"SRP","i_long":106.66566,"transit":false},{"line":6,"transit":false,"i_lat":-6.314823,"time":4,"i_long":106.675475,"distance":2413,"station_name":"Rawa Buntu","station_id":"RU","is_transit":false},{"station_name":"Sudimara","line":6,"transit":false,"i_long":106.712277,"station_id":"SDM","distance":4566,"time":6,"i_lat":-6.296963,"is_transit":false},{"i_lat":-6.288927,"is_transit":false,"line":6,"distance":1994,"station_name":"Jurangmangu","transit":false,"station_id":"JMU","time":4,"i_long":106.728916},{"station_id":"PDJ","i_long":106.74273,"transit":false,"is_transit":false,"i_lat":-6.276362,"line":6,"station_name":"Pondokranji","distance":2179,"time":3},{"time":8,"distance":6218,"i_lat":-6.237242,"station_name":"Kebayoran","line":6,"station_id":"KBY","transit":false,"is_transit":false,"i_long":106.780334},{"distance":3737,"transit":false,"station_id":"PLM","station_name":"Palmerah","i_lat":-6.207404,"i_long":106.79689,"is_transit":false,"time":7,"line":6},{"station_name":"Tanah Abang","station_id":"THB","distance":3191,"i_long":106.811091,"time":6,"transit":true,"i_lat":-6.185545,"is_transit":true,"line":1},{"time":5,"i_lat":-6.20132,"station_name":"Karet","station_id":"KAT","line":1,"transit":false,"i_long":106.816351,"distance":2029,"is_transit":false},{"station_name":"Sudirman Baru","is_transit":false,"distance":471,"i_lat":-6.201433,"i_long":106.819881,"time":1,"transit":false,"station_id":"SUDB","line":1},{"i_lat":-6.202263,"station_name":"Sudirman","is_transit":false,"i_long":106.822649,"station_id":"SUD","line":1,"transit":false,"time":1,"distance":280},{"transit":false,"i_lat":-6.209883,"i_long":106.84912,"line":2,"station_id":"MRI","distance":3186,"is_transit":false,"station_name":"Manggarai","time":4},{"transit":false,"station_name":"Matraman","is_transit":false,"i_lat":-6.212485,"time":2,"line":1,"station_id":"MTR","i_long":106.858896,"distance":1275}],[{"station_name":"Citeras","time":0,"i_long":106.332092,"transit":false,"distance":0,"i_lat":-6.334892,"line":3,"is_transit":false,"station_id":"CTR"},{"time":10,"is_transit":false,"station_name":"Maja","station_id":"MJ","i_long":106.394373,"line":6,"transit":false,"i_lat":-6.332307,"distance":7293},{"distance":1853,"transit":false,"time":4,"station_id":"CKY","i_lat":-6.33561,"i_long":106.411216,"is_transit":false,"line":3,"station_name":"Cikoya"},{"transit":false,"i_long":106.425991,"line":6,"station_name":"Tigaraksa","distance":2651,"time":3,"is_transit":false,"i_lat":-6.328533,"station_id":"TGS"},{"time":5,"station_name":"Tenjo","is_transit":false,"line":6,"transit":false,"station_id":"TEJ","distance":2974,"i_lat":-6.327251,"i_long":106.460812},{"i_long":106.491338,"line":0,"station_name":"Daru","is_transit":false,"transit":false,"distance":3902,"station_id":"DAR","time":5,"i_lat":-6.338021},{"line":3,"station_id":"CJT","distance":2675,"i_lat":-6.354349,"transit":false,"station_name":"Cilejit","i_long":106.508482,"is_transit":false,"time":6},{"station_id":"PRP","line":6,"i_lat":-6.3441410000000005,"is_transit":false,"time":9,"distance":7025,"transit":false,"station_name":"Parung Panjang","i_long":106.568863},{"time":8,"i_long":106.617853,"line":3,"i_lat":-6.329547,"station_id":"CC","is_transit":false,"station_name":"Cicayur","distance":5968,"transit":false},{"station_name":"Cisauk","i_long":106.640411,"is_transit":false,"station_id":"CSK","transit":false,"i_lat":-6.32484,"line":3,"distance":2519,"time":4},{"i_lat":-6.319871,"distance":1784,"is_transit":false,"station_name":"Serpong","transit":false,"station_id":"SRP","time":4,"i_long":106.66566,"line":6},{"station_name":"Rawa Buntu","is_transit":false,"station_id":"RU","distance":2413,"transit":false,"i_lat":-6.314823,"i_long":106.675475,"time":4,"line":6},{"station_id":"SDM","transit":false,"station_name":"Sudimara","distance":4566,"time":6,"i_long":106.712277,"line":6,"is_transit":false,"i_lat":-6.296963},{"i_long":106.728916,"transit":false,"station_name":"Jurangmangu","time":4,"distance":1994,"i_lat":-6.288927,"station_id":"JMU","line":6,"is_transit":false},{"station_id":"PDJ","is_transit":false,"line":6,"time":3,"distance":2179,"i_long":106.74273,"transit":false,"station_name":"Pondokranji","i_lat":-6.276362},{"station_name":"Kebayoran","station_id":"KBY","distance":6218,"i_lat":-6.237242,"line":6,"transit":false,"is_transit":false,"i_long":106.780334,"time":8},{"i_long":106.79689,"transit":false,"i_lat":-6.207404,"station_name":"Palmerah","is_transit":false,"distance":3737,"station_id":"PLM","time":7,"line":6},{"line":1,"station_id":"THB","is_transit":true,"distance":3191,"time":6,"transit":true,"i_lat":-6.185545,"station_name":"Tanah Abang","i_long":106.811091},{"transit":false,"i_lat":-6.155215,"i_long":106.800832,"distance":3632,"line":1,"station_name":"Duri","is_transit":false,"time":8,"station_id":"DU"},{"i_long":106.79867,"station_name":"Angke","transit":false,"time":4,"distance":1230,"i_lat":-6.144674,"line":1,"station_id":"AK","is_transit":false},{"time":9,"i_long":106.826365,"is_transit":true,"line":4,"i_lat":-6.132549,"station_id":"KPB","distance":4102,"station_name":"Kampung Bandan","transit":true},{"line":11,"station_name":"Rajawali","i_lat":-6.14505,"i_long":106.836569,"time":3,"transit":false,"station_id":"RJW","is_transit":false,"distance":1444},{"time":5,"distance":1901,"station_id":"KMO","line":11,"transit":false,"station_name":"Kemayoran","i_long":106.839204,"is_transit":false,"i_lat":-6.161728},{"station_id":"PSE","is_transit":false,"transit":false,"station_name":"Pasar Senen","time":4,"i_long":106.84368,"distance":1436,"line":11,"i_lat":-6.174784},{"time":8,"i_long":106.850107,"station_name":"Gang Sentiong","transit":false,"is_transit":false,"station_id":"GST","distance":1567,"i_lat":-6.185975,"line":11},{"distance":973,"transit":false,"station_id":"KMT","station_name":"Kramat","is_transit":false,"i_lat":-6.193792,"time":1,"i_long":106.855437,"line":11},{"distance":1829,"line":11,"is_transit":false,"i_lat":-6.209188,"time":2,"i_long":106.861737,"transit":false,"station_id":"POK","station_name":"Pondok Jati"},{"is_transit":true,"line":1,"transit":true,"station_name":"Jatinegara","station_id":"JNG","distance":1236,"i_long":106.86807400000001,"i_lat":-6.215091,"time":9},{"station_id":"MTR","i_lat":-6.212485,"station_name":"Matraman","transit":false,"is_transit":false,"line":1,"distance":1377,"time":2,"i_long":106.858896}],[{"time":0,"distance":0,"i_lat":-6.334892,"i_long":106.332092,"line":3,"is_transit":false,"station_id":"CTR","station_name":"Citeras","transit":false},{"station_id":"MJ","line":6,"station_name":"Maja","transit":false,"distance":7293,"i_long":106.394373,"i_lat":-6.332307,"time":10,"is_transit":false},{"station_id":"CKY","i_lat":-6.33561,"is_transit":false,"distance":1853,"station_name":"Cikoya","line":3,"i_long":106.411216,"transit":false,"time":4},{"transit":false,"line":6,"time":3,"station_id":"TGS","i_long":106.425991,"station_name":"Tigaraksa","i_lat":-6.328533,"distance":2651,"is_transit":false},{"station_name":"Tenjo","line":6,"time":5,"transit":false,"i_lat":-6.327251,"i_long":106.460812,"distance":2974,"station_id":"TEJ","is_transit":false},{"line":0,"station_name":"Daru","transit":false,"is_transit":false,"station_id":"DAR","time":5,"distance":3902,"i_long":106.491338,"i_lat":-6.338021},{"i_lat":-6.354349,"station_id":"CJT","transit":false,"station_name":"Cilejit","i_long":106.508482,"line":3,"is_transit":false,"distance":2675,"time":6},{"station_name":"Parung Panjang","distance":7025,"transit":false,"is_transit":false,"time":9,"i_long":106.568863,"station_id":"PRP","i_lat":-6.3441410000000005,"line":6},{"is_transit":false,"time":8,"distance":5968,"i_lat":-6.329547,"i_long":106.617853,"line":3,"transit":false,"station_name":"Cicayur","station_id":"CC"},{"i_long":106.640411,"line":3,"time":4,"distance":2519,"is_transit":false,"station_name":"Cisauk","transit":false,"station_id":"CSK","i_lat":-6.32484},{"station_name":"Serpong","i_long":106.66566,"i_lat":-6.319871,"time":4,"distance":1784,"is_transit":false,"transit":false,"station_id":"SRP","line":6},{"time":4,"transit":false,"is_transit":false,"line":6,"i_lat":-6.314823,"station_name":"Rawa Buntu","i_long":106.675475,"station_id":"RU","distance":2413},{"line":6,"is_transit":false,"i_long":106.712277,"transit":false,"station_name":"Sudimara","time":6,"distance":4566,"i_lat":-6.296963,"station_id":"SDM"},{"transit":false,"distance":1994,"i_lat":-6.288927,"station_id":"JMU","line":6,"station_name":"Jurangmangu","is_transit":false,"time":4,"i_long":106.728916},{"distance":2179,"line":6,"station_id":"PDJ","transit":false,"is_transit":false,"time":3,"i_lat":-6.276362,"i_long":106.74273,"station_name":"Pondokranji"},{"i_long":106.780334,"station_id":"KBY","is_transit":false,"line":6,"distance":6218,"transit":false,"i_lat":-6.237242,"station_name":"Kebayoran","time":8},{"distance":3737,"station_name":"Palmerah","station_id":"PLM","i_lat":-6.207404,"i_long":106.79689,"line":6,"transit":false,"time":7,"is_transit":false},{"station_id":"THB","is_transit":true,"time":6,"i_lat":-6.185545,"i_long":106.811091,"distance":3191,"line":1,"transit":true,"station_name":"Tanah Abang"},{"time":8,"is_transit":false,"station_id":"DU","distance":3632,"i_lat":-6.155215,"i_long":106.800832,"line":1,"transit":false,"station_name":"Duri"},{"time":4,"i_lat":-6.144674,"transit":false,"station_name":"Angke","station_id":"AK","is_transit":false,"distance":1230,"i_long":106.79867,"line":1},{"station_name":"Kampung Bandan","station_id":"KPB","i_long":106.826365,"time":9,"transit":true,"is_transit":true,"distance":4102,"i_lat":-6.132549,"line":4},{"line":2,"is_transit":true,"i_long":106.812439,"station_name":"Jakarta Kota","distance":1364,"station_id":"JAKK","transit":true,"time":3,"i_lat":-6.137569},{"station_id":"JAY","i_long":106.820901,"transit":false,"i_lat":-6.141205,"distance":1264,"time":4,"station_name":"Jayakarta","is_transit":false,"line":2},{"station_name":"Manggabesar","station_id":"MGB","line":2,"time":2,"distance":1080,"is_transit":false,"transit":false,"i_lat":-6.149769,"i_long":106.82482},{"is_transit":false,"transit":false,"station_name":"Sawah Besar","station_id":"SW","time":2,"i_long":106.827103,"line":2,"distance":906,"i_lat":-6.160725},{"transit":false,"time":2,"distance":1149,"line":2,"i_long":106.828284,"station_id":"JUA","station_name":"Juanda","is_transit":false,"i_lat":-6.166716},{"station_name":"Gondangdia","is_transit":false,"line":2,"station_id":"GDD","transit":false,"distance":2015,"i_lat":-6.186295,"time":4,"i_long":106.832183},{"station_id":"CKI","transit":false,"distance":1750,"i_long":106.840169,"line":2,"time":3,"i_lat":-6.198556,"is_transit":false,"station_name":"Cikini"},{"i_lat":-6.209883,"line":2,"station_id":"MRI","is_transit":true,"transit":true,"time":4,"station_name":"Manggarai","i_long":106.84912,"distance":1590},{"distance":1275,"time":2,"i_lat":-6.212485,"station_name":"Matraman","is_transit":false,"i_long":106.858896,"station_id":"MTR","line":1,"transit":false}],[{"time":0,"station_name":"Citeras","is_transit":false,"transit":false,"i_lat":-6.334892,"i_long":106.332092,"distance":0,"line":3,"station_id":"CTR"},{"i_long":106.394373,"station_id":"MJ","i_lat":-6.332307,"line":6,"transit":false,"station_name":"Maja","distance":7293,"is_transit":false,"time":10},{"transit":false,"station_name":"Cikoya","i_lat":-6.33561,"i_long":106.411216,"distance":1853,"line":3,"is_transit":false,"station_id":"CKY","time":4},{"time":3,"i_long":106.425991,"is_transit":false,"distance":2651,"i_lat":-6.328533,"line":6,"transit":false,"station_name":"Tigaraksa","station_id":"TGS"},{"station_id":"TEJ","time":5,"transit":false,"station_name":"Tenjo","line":6,"is_transit":false,"distance":2974,"i_lat":-6.327251,"i_long":106.460812},{"is_transit":false,"transit":false,"time":5,"station_name":"Daru","line":0,"station_id":"DAR","i_long":106.491338,"i_lat":-6.338021,"distance":3902},{"time":6,"distance":2675,"station_name":"Cilejit","station_id":"CJT","i_long":106.508482,"line":3,"is_transit":false,"transit":false,"i_lat":-6.354349},{"i_lat":-6.3441410000000005,"station_name":"Parung Panjang","is_transit":false,"distance":7025,"time":9,"station_id":"PRP","i_long":106.568863,"line":6,"transit":false},{"time":8,"distance":5968,"i_long":106.617853,"transit":false,"line":3,"station_id":"CC","is_transit":false,"i_lat":-6.329547,"station_name":"Cicayur"},{"transit":false,"station_id":"CSK","time":4,"is_transit":false,"line":3,"distance":2519,"i_lat":-6.32484,"i_long":106.640411,"station_name":"Cisauk"},{"distance":1784,"station_name":"Serpong","station_id":"SRP","transit":false,"time":4,"i_lat":-6.319871,"i_long":106.66566,"line":6,"is_transit":false},{"station_id":"RU","line":6,"transit":false,"is_transit":false,"station_name":"Rawa Buntu","time":4,"distance":2413,"i_lat":-6.314823,"i_long":106.675475},{"is_transit":false,"i_long":106.712277,"distance":4566,"time":6,"i_lat":-6.296963,"station_id":"SDM","transit":false,"line":6,"station_name":"Sudimara"},{"transit":false,"is_transit":false,"distance":1994,"line":6,"i_lat":-6.288927,"station_id":"JMU","time":4,"station_name":"Jurangmangu","i_long":106.728916},{"is_transit":false,"i_lat":-6.276362,"i_long":106.74273,"station_name":"Pondokranji","line":6,"transit":false,"station_id":"PDJ","time":3,"distance":2179},{"transit":false,"station_id":"KBY","is_transit":false,"i_lat":-6.237242,"time":8,"station_name":"Kebayoran","i_long":106.780334,"line":6,"distance":6218},{"station_id":"PLM","is_transit":false,"time":7,"i_lat":-6.207404,"line":6,"i_long":106.79689,"transit":false,"distance":3737,"station_name":"Palmerah"},{"station_id":"THB","i_long":106.811091,"station_name":"Tanah Abang","line":1,"is_transit":true,"transit":true,"i_lat":-6.185545,"distance":3191,"time":6},{"transit":false,"time":5,"i_lat":-6.20132,"i_long":106.816351,"station_name":"Karet","station_id":"KAT","distance":2029,"line":1,"is_transit":false},{"station_name":"Sudirman Baru","transit":false,"is_transit":false,"time":1,"i_long":106.819881,"i_lat":-6.201433,"line":1,"distance":471,"station_id":"SUDB"},{"time":1,"is_transit":false,"i_lat":-6.202263,"line":1,"distance":280,"station_name":"Sudirman","transit":false,"station_id":"SUD","i_long":106.822649},{"time":4,"distance":3186,"i_long":106.84912,"line":2,"station_id":"MRI","is_transit":true,"station_name":"Manggarai","i_lat":-6.209883,"transit":true},{"distance":1590,"station_id":"CKI","transit":false,"is_transit":false,"time":4,"i_lat":-6.198556,"i_long":106.840169,"line":2,"station_name":"Cikini"},{"transit":false,"is_transit":false,"time":3,"distance":1750,"station_name":"Gondangdia","i_lat":-6.186295,"i_long":106.832183,"station_id":"GDD","line":2},{"i_long":106.828284,"station_name":"Juanda","i_lat":-6.166716,"transit":false,"time":4,"is_transit":false,"line":2,"distance":2015,"station_id":"JUA"},{"i_lat":-6.160725,"distance":1149,"i_long":106.827103,"line":2,"time":2,"station_name":"Sawah Besar","is_transit":false,"station_id":"SW","transit":false},{"line":2,"distance":906,"station_name":"Manggabesar","transit":false,"station_id":"MGB","is_transit":false,"time":2,"i_lat":-6.149769,"i_long":106.82482},{"transit":false,"station_id":"JAY","line":2,"i_lat":-6.141205,"time":2,"distance":1080,"station_name":"Jayakarta","is_transit":false,"i_long":106.820901},{"station_id":"JAKK","line":2,"distance":1264,"station_name":"Jakarta Kota","i_long":106.812439,"is_transit":true,"time":4,"i_lat":-6.137569,"transit":true},{"transit":true,"i_long":106.826365,"distance":1364,"station_id":"KPB","line":4,"is_transit":true,"station_name":"Kampung Bandan","i_lat":-6.132549,"time":3},{"line":11,"is_transit":false,"distance":1444,"i_lat":-6.14505,"transit":false,"station_name":"Rajawali","time":3,"station_id":"RJW","i_long":106.836569},{"i_lat":-6.161728,"line":11,"station_name":"Kemayoran","time":5,"transit":false,"is_transit":false,"distance":1901,"station_id":"KMO","i_long":106.839204},{"station_name":"Pasar Senen","distance":1436,"station_id":"PSE","i_lat":-6.174784,"line":11,"is_transit":false,"i_long":106.84368,"transit":false,"time":4},{"station_name":"Gang Sentiong","is_transit":false,"line":11,"i_lat":-6.185975,"transit":false,"station_id":"GST","time":8,"i_long":106.850107,"distance":1567},{"station_id":"KMT","distance":973,"i_long":106.855437,"time":1,"transit":false,"station_name":"Kramat","i_lat":-6.193792,"line":11,"is_transit":false},{"station_name":"Pondok Jati","is_transit":false,"transit":false,"i_long":106.861737,"i_lat":-6.209188,"distance":1829,"line":11,"time":2,"station_id":"POK"},{"i_lat":-6.215091,"i_long":106.86807400000001,"transit":true,"station_id":"JNG","distance":1236,"line":1,"time":9,"station_name":"Jatinegara","is_transit":true},{"distance":1377,"transit":false,"line":1,"station_name":"Matraman","station_id":"MTR","time":2,"is_transit":false,"i_long":106.858896,"i_lat":-6.212485}]]}