{"data":[[{"i_lat":-6.334892,"time":0,"station_id":"CTR","station_name":"Citeras","is_transit":false,"i_long":106.332092,"transit":false,"distance":0,"line":0},{"transit":false,"station_name":"Maja","i_long":106.394373,"i_lat":-6.332307,"is_transit":false,"distance":7293,"time":10,"station_id":"MJ","line":6},{"distance":1853,"i_long":106.411216,"station_id":"CKY","is_transit":false,"time":4,"transit":false,"i_lat":-6.33561,"line":0,"station_name":"Cikoya"},{"station_id":"TGS","i_long":106.425991,"line":6,"station_name":"Tigaraksa","time":3,"distance":2651,"i_lat":-6.328533,"is_transit":false,"transit":false},{"i_lat":-6.327251,"transit":false,"station_id":"TEJ","line":6,"time":5,"distance":2974,"station_name":"Tenjo","i_long":106.460812,"is_transit":false},{"station_name":"Daru","line":0,"station_id":"DAR","is_transit":false,"i_lat":-6.338021,"distance":3902,"transit":false,"i_long":106.491338,"time":5},{"station_id":"CJT","line":0,"distance":2675,"i_long":106.508482,"is_transit":false,"transit":false,"i_lat":-6.354349,"time":6,"station_name":"Cilejit"},{"station_name":"Parung Panjang","station_id":"PRP","is_transit":false,"distance":7025,"transit":false,"i_long":106.568863,"line":6,"time":9,"i_lat":-6.3441410000000005},{"station_name":"Cicayur","i_lat":-6.329547,"line":0,"station_id":"CC","i_long":106.617853,"distance":5968,"is_transit":false,"time":8,"transit":false},{"is_transit":false,"time":4,"transit":false,"line":0,"distance":2519,"i_lat":-6.32484,"station_id":"CSK","station_name":"Cisauk","i_long":106.640411},{"i_long":106.66566,"time":4,"station_id":"SRP","transit":false,"line":6,"station_name":"Serpong","is_transit":false,"i_lat":-6.319871,"distance":1784},{"time":4,"station_id":"RU","station_name":"Rawa Buntu","is_transit":false,"i_long":106.675475,"transit":false,"i_lat":-6.314823,"distance":2413,"line":6},{"is_transit":false,"i_lat":-6.296963,"time":6,"station_name":"Sudimara","distance":4566,"line":6,"transit":false,"i_long":106.712277,"station_id":"SDM"},{"time":4,"distance":1994,"transit":false,"station_name":"Jurangmangu","is_transit":false,"i_long":106.728916,"i_lat":-6.288927,"station_id":"JMU","line":6},{"line":6,"time":3,"distance":2179,"i_lat":-6.276362,"is_transit":false,"station_id":"PDJ","station_name":"Pondokranji","i_long":106.74273,"transit":false},{"time":8,"line":6,"is_transit":false,"distance":6218,"station_name":"Kebayoran","transit":false,"i_lat":-6.237242,"station_id":"KBY","i_long":106.780334},{"time":7,"i_lat":-6.207404,"station_name":"Palmerah","distance":3737,"i_long":106.79689,"is_transit":false,"transit":false,"station_id":"PLM","line":6},{"station_id":"THB","station_name":"Tanah Abang","is_transit":true,"distance":3191,"time":6,"i_long":106.811091,"transit":true,"i_lat":-6.185545,"line":1},{"station_id":"DU","is_transit":true,"line":1,"i_lat":-6.155215,"station_name":"Duri","transit":true,"time":8,"distance":3632,"i_long":106.800832},{"transit":false,"station_name":"Angke","station_id":"AK","time":4,"is_transit":false,"i_lat":-6.144674,"i_long":106.79867,"distance":1230,"line":0},{"time":9,"station_id":"KPB","station_name":"Kampung Bandan","is_transit":true,"transit":false,"i_long":106.826365,"distance":4102,"line":0,"i_lat":-6.132549},{"is_transit":false,"time":4,"i_long":106.84464,"transit":false,"distance":2185,"line":0,"station_id":"AC","i_lat":-6.128023,"station_name":"Ancol"},{"i_long":106.880089,"time":9,"station_name":"Tanjung Priuk","is_transit":false,"i_lat":-6.1109480000000005,"line":4,"station_id":"TPK","distance":4566,"transit":false}],[{"i_lat":-6.334892,"i_long":106.332092,"transit":false,"station_id":"CTR","distance":0,"time":0,"line":0,"station_name":"Citeras","is_transit":false},{"time":10,"station_name":"Maja","is_transit":false,"i_lat":-6.332307,"distance":7293,"line":6,"i_long":106.394373,"station_id":"MJ","transit":false},{"is_transit":false,"time":4,"station_id":"CKY","station_name":"Cikoya","distance":1853,"transit":false,"i_lat":-6.33561,"i_long":106.411216,"line":0},{"is_transit":false,"line":6,"transit":false,"station_id":"TGS","i_long":106.425991,"time":3,"distance":2651,"i_lat":-6.328533,"station_name":"Tigaraksa"},{"station_id":"TEJ","i_long":106.460812,"transit":false,"time":5,"i_lat":-6.327251,"is_transit":false,"line":6,"station_name":"Tenjo","distance":2974},{"station_id":"DAR","distance":3902,"transit":false,"i_long":106.491338,"station_name":"Daru","time":5,"i_lat":-6.338021,"line":0,"is_transit":false},{"time":6,"i_lat":-6.354349,"transit":false,"station_id":"CJT","line":0,"distance":2675,"i_long":106.508482,"station_name":"Cilejit","is_transit":false},{"station_id":"PRP","transit":false,"i_long":106.568863,"line":6,"station_name":"Parung Panjang","distance":7025,"i_lat":-6.3441410000000005,"is_transit":false,"time":9},{"time":8,"is_transit":false,"transit":false,"i_lat":-6.329547,"line":0,"station_id":"CC","distance":5968,"station_name":"Cicayur","i_long":106.617853},{"is_transit":false,"station_name":"Cisauk","transit":false,"time":4,"i_long":106.640411,"station_id":"CSK","i_lat":-6.32484,"line":0,"distance":2519},{"transit":false,"is_transit":false,"station_name":"Serpong","line":6,"i_lat":-6.319871,"time":4,"i_long":106.66566,"distance":1784,"station_id":"SRP"},{"station_name":"Rawa Buntu","distance":2413,"line":6,"i_lat":-6.314823,"station_id":"RU","time":4,"i_long":106.675475,"is_transit":false,"transit":false},{"time":6,"is_transit":false,"station_id":"SDM","transit":false,"i_long":106.712277,"station_name":"Sudimara","line":6,"distance":4566,"i_lat":-6.296963},{"transit":false,"station_name":"Jurangmangu","line":6,"i_lat":-6.288927,"distance":1994,"is_transit":false,"i_long":106.728916,"station_id":"JMU","time":4},{"station_id":"PDJ","distance":2179,"i_long":106.74273,"line":6,"is_transit":false,"transit":false,"time":3,"station_name":"Pondokranji","i_lat":-6.276362},{"station_id":"KBY","i_long":106.780334,"transit":false,"distance":6218,"line":6,"station_name":"Kebayoran","is_transit":false,"time":8,"i_lat":-6.237242},{"i_long":106.79689,"station_id":"PLM","station_name":"Palmerah","i_lat":-6.207404,"line":6,"is_transit":false,"time":7,"transit":false,"distance":3737},{"line":1,"is_transit":true,"i_lat":-6.185545,"distance":3191,"station_id":"THB","station_name":"Tanah Abang","time":6,"transit":true,"i_long":106.811091},{"is_transit":false,"transit":false,"i_long":106.816351,"line":1,"time":5,"station_id":"KAT","station_name":"Karet","i_lat":-6.20132,"distance":2029},{"time":1,"distance":471,"transit":false,"i_lat":-6.201433,"line":1,"is_transit":false,"station_id":"SUDB","station_name":"Sudirman Baru","i_long":106.819881},{"distance":280,"transit":false,"i_lat":-6.202263,"is_transit":false,"time":1,"i_long":106.822649,"station_id":"SUD","station_name":"Sudirman","line":1},{"transit":true,"time":4,"distance":3186,"station_id":"MRI","i_lat":-6.209883,"i_long":106.84912,"line":0,"station_name":"Manggarai","is_transit":true},{"i_long":106.840169,"station_name":"Cikini","station_id":"CKI","time":4,"distance":1590,"transit":false,"i_lat":-6.198556,"line":0,"is_transit":false},{"distance":1750,"line":2,"time":3,"i_lat":-6.186295,"station_name":"Gondangdia","is_transit":false,"station_id":"GDD","transit":false,"i_long":106.832183},{"is_transit":false,"transit":false,"line":2,"i_long":106.828284,"station_name":"Juanda","time":4,"distance":2015,"i_lat":-6.166716,"station_id":"JUA"},{"transit":false,"station_id":"SW","distance":1149,"is_transit":false,"i_lat":-6.160725,"station_name":"Sawah Besar","time":2,"line":2,"i_long":106.827103},{"distance":906,"station_id":"MGB","station_name":"Manggabesar","is_transit":false,"line":2,"transit":false,"i_long":106.82482,"i_lat":-6.149769,"time":2},{"station_name":"Jayakarta","station_id":"JAY","is_transit":false,"transit":false,"distance":1080,"i_lat":-6.141205,"line":7,"time":2,"i_long":106.820901},{"distance":1264,"i_long":106.812439,"station_name":"Jakarta Kota","i_lat":-6.137569,"station_id":"JAKK","time":4,"line":0,"transit":true,"is_transit":true},{"time":3,"is_transit":true,"distance":1364,"station_name":"Kampung Bandan","station_id":"KPB","transit":false,"i_long":106.826365,"line":0,"i_lat":-6.132549},{"time":4,"is_transit":false,"station_id":"AC","transit":false,"i_lat":-6.128023,"line":0,"distance":2185,"station_name":"Ancol","i_long":106.84464},{"i_long":106.880089,"transit":false,"station_id":"TPK","is_transit":false,"line":4,"i_lat":-6.1109480000000005,"time":9,"station_name":"Tanjung Priuk","distance":4566}],[{"i_lat":-6.334892,"station_name":"Citeras","i_long":106.332092,"station_id":"CTR","transit":false,"line":0,"distance":0,"is_transit":false,"time":0},{"line":6,"i_lat":-6.332307,"is_transit":false,"station_name":"Maja","station_id":"MJ","time":10,"transit":false,"distance":7293,"i_long":106.394373},{"transit":false,"line":0,"station_id":"CKY","time":4,"distance":1853,"station_name":"Cikoya","i_lat":-6.33561,"i_long":106.411216,"is_transit":false},{"time":3,"is_transit":false,"station_name":"Tigaraksa","station_id":"TGS","distance":2651,"transit":false,"line":6,"i_lat":-6.328533,"i_long":106.425991},{"line":6,"station_id":"TEJ","is_transit":false,"time":5,"i_lat":-6.327251,"station_name":"Tenjo","i_long":106.460812,"distance":2974,"transit":false},{"i_lat":-6.338021,"i_long":106.491338,"is_transit":false,"station_name":"Daru","time":5,"distance":3902,"transit":false,"line":0,"station_id":"DAR"},{"is_transit":false,"station_id":"CJT","i_long":106.508482,"transit":false,"i_lat":-6.354349,"station_name":"Cilejit","time":6,"line":0,"distance":2675},{"transit":false,"line":6,"station_name":"Parung Panjang","distance":7025,"i_lat":-6.3441410000000005,"i_long":106.568863,"station_id":"PRP","is_transit":false,"time":9},{"is_transit":false,"station_name":"Cicayur","time":8,"transit":false,"station_id":"CC","i_long":106.617853,"i_lat":-6.329547,"line":0,"distance":5968},{"i_lat":-6.32484,"transit":false,"station_id":"CSK","is_transit":false,"i_long":106.640411,"time":4,"distance":2519,"station_name":"Cisauk","line":0},{"station_name":"Serpong","distance":1784,"transit":false,"i_lat":-6.319871,"station_id":"SRP","line":6,"i_long":106.66566,"is_transit":false,"time":4},{"i_lat":-6.314823,"station_name":"Rawa Buntu","line":6,"station_id":"RU","time":4,"is_transit":false,"i_long":106.675475,"distance":2413,"transit":false},{"transit":false,"distance":4566,"station_name":"Sudimara","i_lat":-6.296963,"station_id":"SDM","is_transit":false,"i_long":106.712277,"time":6,"line":6},{"i_lat":-6.288927,"line":6,"distance":1994,"is_transit":false,"transit":false,"i_long":106.728916,"station_id":"JMU","station_name":"Jurangmangu","time":4},{"i_long":106.74273,"station_name":"Pondokranji","distance":2179,"i_lat":-6.276362,"is_transit":false,"time":3,"line":6,"transit":false,"station_id":"PDJ"},{"station_id":"KBY","station_name":"Kebayoran","time":8,"i_long":106.780334,"is_transit":false,"i_lat":-6.237242,"distance":6218,"line":6,"transit":false},{"station_name":"Palmerah","station_id":"PLM","i_long":106.79689,"is_transit":false,"time":7,"transit":false,"distance":3737,"i_lat":-6.207404,"line":6},{"station_id":"THB","time":6,"i_lat":-6.185545,"line":1,"transit":true,"distance":3191,"is_transit":true,"i_long":106.811091,"station_name":"Tanah Abang"},{"i_long":106.816351,"line":1,"station_id":"KAT","i_lat":-6.20132,"station_name":"Karet","transit":false,"time":5,"is_transit":false,"distance":2029},{"is_transit":false,"distance":471,"station_id":"SUDB","i_long":106.819881,"i_lat":-6.201433,"station_name":"Sudirman Baru","transit":false,"line":1,"time":1},{"transit":false,"time":1,"station_id":"SUD","station_name":"Sudirman","distance":280,"line":1,"i_lat":-6.202263,"i_long":106.822649,"is_transit":false},{"transit":false,"line":0,"is_transit":true,"i_long":106.84912,"station_name":"Manggarai","i_lat":-6.209883,"distance":3186,"station_id":"MRI","time":4},{"i_long":106.858896,"is_transit":false,"distance":1275,"time":2,"station_name":"Matraman","line":1,"transit":false,"station_id":"MTR","i_lat":-6.212485},{"station_name":"Jatinegara","i_long":106.86807400000001,"line":0,"distance":1377,"station_id":"JNG","i_lat":-6.215091,"is_transit":true,"time":8,"transit":true},{"station_name":"Pondok Jati","is_transit":false,"station_id":"POK","time":2,"line":11,"transit":false,"i_lat":-6.209188,"i_long":106.861737,"distance":1236},{"i_lat":-6.193792,"line":11,"is_transit":false,"distance":1829,"time":2,"i_long":106.855437,"transit":false,"station_id":"KMT","station_name":"Kramat"},{"line":11,"transit":false,"i_long":106.850107,"station_id":"GST","time":1,"distance":973,"i_lat":-6.185975,"is_transit":false,"station_name":"Gang Sentiong"},{"transit":false,"is_transit":false,"i_long":106.84368,"distance":1567,"line":11,"station_name":"Pasar Senen","time":8,"station_id":"PSE","i_lat":-6.174784},{"station_id":"KMO","distance":1436,"time":4,"station_name":"Kemayoran","i_lat":-6.161728,"i_long":106.839204,"is_transit":false,"line":11,"transit":false},{"distance":1901,"line":11,"station_name":"Rajawali","i_lat":-6.14505,"i_long":106.836569,"transit":false,"time":5,"is_transit":false,"station_id":"RJW"},{"station_name":"Kampung Bandan","is_transit":true,"i_lat":-6.132549,"line":0,"time":3,"i_long":106.826365,"distance":1444,"transit":true,"station_id":"KPB"},{"i_long":106.84464,"i_lat":-6.128023,"time":4,"station_id":"AC","line":0,"station_name":"Ancol","is_transit":false,"transit":false,"distance":2185},{"line":4,"i_long":106.880089,"is_transit":false,"station_id":"TPK","station_name":"Tanjung Priuk","i_lat":-6.1109480000000005,"time":9,"distance":4566,"transit":false}]]}