{"data":[[{"is_transit":false,"station_id":"CTR","station_name":"Citeras","i_long":106.332092,"distance":0,"i_lat":-6.334892,"line":3,"transit":false,"time":0},{"distance":7293,"time":10,"i_lat":-6.332307,"transit":false,"is_transit":false,"station_name":"Maja","line":6,"i_long":106.394373,"station_id":"MJ"},{"line":3,"transit":false,"station_id":"CKY","i_lat":-6.33561,"station_name":"Cikoya","is_transit":false,"distance":1853,"time":4,"i_long":106.411216},{"station_id":"TGS","station_name":"Tigaraksa","distance":2651,"line":6,"time":3,"i_lat":-6.328533,"is_transit":false,"i_long":106.425991,"transit":false},{"station_id":"TEJ","is_transit":false,"station_name":"Tenjo","line":6,"i_lat":-6.327251,"time":5,"transit":false,"distance":2974,"i_long":106.460812},{"i_long":106.491338,"line":0,"station_id":"DAR","i_lat":-6.338021,"transit":false,"time":5,"distance":3902,"station_name":"Daru","is_transit":false},{"is_transit":false,"transit":false,"station_id":"CJT","station_name":"Cilejit","distance":2675,"time":6,"i_lat":-6.354349,"line":3,"i_long":106.508482},{"time":9,"line":6,"is_transit":false,"i_long":106.568863,"station_name":"Parung Panjang","distance":7025,"i_lat":-6.3441410000000005,"transit":false,"station_id":"PRP"},{"station_id":"CC","transit":false,"i_lat":-6.329547,"line":3,"i_long":106.617853,"distance":5968,"station_name":"Cicayur","is_transit":false,"time":8},{"transit":false,"distance":2519,"line":3,"i_lat":-6.32484,"is_transit":false,"station_name":"Cisauk","station_id":"CSK","i_long":106.640411,"time":4},{"line":6,"i_long":106.66566,"station_id":"SRP","is_transit":false,"time":4,"transit":false,"station_name":"Serpong","distance":1784,"i_lat":-6.319871},{"i_long":106.675475,"time":4,"station_name":"Rawa Buntu","transit":false,"i_lat":-6.314823,"is_transit":false,"station_id":"RU","distance":2413,"line":6},{"line":6,"station_id":"SDM","is_transit":false,"i_lat":-6.296963,"transit":false,"time":6,"station_name":"Sudimara","i_long":106.712277,"distance":4566},{"i_long":106.728916,"is_transit":false,"transit":false,"time":4,"station_id":"JMU","i_lat":-6.288927,"distance":1994,"line":6,"station_name":"Jurangmangu"},{"is_transit":false,"distance":2179,"i_lat":-6.276362,"line":6,"station_id":"PDJ","i_long":106.74273,"time":3,"station_name":"Pondokranji","transit":false},{"station_name":"Kebayoran","is_transit":false,"station_id":"KBY","distance":6218,"time":8,"i_long":106.780334,"i_lat":-6.237242,"transit":false,"line":6},{"transit":false,"is_transit":false,"i_lat":-6.207404,"i_long":106.79689,"station_name":"Palmerah","distance":3737,"station_id":"PLM","time":7,"line":6},{"transit":true,"station_name":"Tanah Abang","line":1,"is_transit":true,"distance":3191,"i_lat":-6.185545,"i_long":106.811091,"station_id":"THB","time":6},{"i_lat":-6.155215,"is_transit":false,"distance":3632,"station_id":"DU","line":1,"transit":false,"station_name":"Duri","time":8,"i_long":106.800832},{"station_name":"Angke","i_long":106.79867,"is_transit":false,"distance":1230,"line":1,"i_lat":-6.144674,"transit":false,"station_id":"AK","time":4},{"line":4,"distance":4102,"time":9,"station_id":"KPB","is_transit":true,"station_name":"Kampung Bandan","i_lat":-6.132549,"i_long":106.826365,"transit":true},{"is_transit":false,"transit":false,"time":3,"i_lat":-6.14505,"station_id":"RJW","distance":1444,"station_name":"Rajawali","i_long":106.836569,"line":11},{"transit":false,"i_long":106.839204,"i_lat":-6.161728,"station_id":"KMO","line":11,"is_transit":false,"station_name":"Kemayoran","distance":1901,"time":5},{"i_long":106.84368,"station_name":"Pasar Senen","i_lat":-6.174784,"is_transit":false,"transit":false,"line":11,"station_id":"PSE","distance":1436,"time":4},{"i_long":106.850107,"line":11,"is_transit":false,"transit":false,"i_lat":-6.185975,"station_id":"GST","time":8,"distance":1567,"station_name":"Gang Sentiong"},{"i_lat":-6.193792,"i_long":106.855437,"is_transit":false,"distance":973,"station_id":"KMT","station_name":"Kramat","line":11,"transit":false,"time":1}],[{"i_lat":-6.334892,"i_long":106.332092,"station_name":"Citeras","time":0,"distance":0,"line":3,"transit":false,"station_id":"CTR","is_transit":false},{"line":6,"is_transit":false,"i_lat":-6.332307,"time":10,"station_name":"Maja","i_long":106.394373,"transit":false,"station_id":"MJ","distance":7293},{"station_name":"Cikoya","i_long":106.411216,"transit":false,"line":3,"distance":1853,"is_transit":false,"station_id":"CKY","i_lat":-6.33561,"time":4},{"time":3,"transit":false,"is_transit":false,"station_id":"TGS","i_lat":-6.328533,"i_long":106.425991,"line":6,"station_name":"Tigaraksa","distance":2651},{"is_transit":false,"distance":2974,"station_name":"Tenjo","station_id":"TEJ","i_long":106.460812,"i_lat":-6.327251,"transit":false,"time":5,"line":6},{"distance":3902,"time":5,"i_lat":-6.338021,"is_transit":false,"station_id":"DAR","transit":false,"station_name":"Daru","i_long":106.491338,"line":0},{"transit":false,"i_lat":-6.354349,"line":3,"time":6,"station_name":"Cilejit","distance":2675,"station_id":"CJT","i_long":106.508482,"is_transit":false},{"distance":7025,"station_name":"Parung Panjang","i_lat":-6.3441410000000005,"transit":false,"line":6,"station_id":"PRP","is_transit":false,"i_long":106.568863,"time":9},{"transit":false,"station_id":"CC","distance":5968,"line":3,"time":8,"i_lat":-6.329547,"is_transit":false,"i_long":106.617853,"station_name":"Cicayur"},{"time":4,"i_lat":-6.32484,"transit":false,"station_name":"Cisauk","distance":2519,"line":3,"station_id":"CSK","is_transit":false,"i_long":106.640411},{"station_id":"SRP","distance":1784,"time":4,"is_transit":false,"line":6,"i_lat":-6.319871,"station_name":"Serpong","transit":false,"i_long":106.66566},{"transit":false,"time":4,"station_name":"Rawa Buntu","i_lat":-6.314823,"distance":2413,"is_transit":false,"i_long":106.675475,"station_id":"RU","line":6},{"i_long":106.712277,"station_id":"SDM","time":6,"transit":false,"is_transit":false,"station_name":"Sudimara","distance":4566,"line":6,"i_lat":-6.296963},{"line":6,"station_name":"Jurangmangu","i_long":106.728916,"is_transit":false,"distance":1994,"station_id":"JMU","time":4,"transit":false,"i_lat":-6.288927},{"line":6,"i_lat":-6.276362,"is_transit":false,"station_name":"Pondokranji","time":3,"distance":2179,"i_long":106.74273,"station_id":"PDJ","transit":false},{"transit":false,"is_transit":false,"time":8,"i_lat":-6.237242,"station_name":"Kebayoran","i_long":106.780334,"station_id":"KBY","line":6,"distance":6218},{"i_long":106.79689,"line":6,"distance":3737,"station_id":"PLM","is_transit":false,"station_name":"Palmerah","transit":false,"time":7,"i_lat":-6.207404},{"transit":true,"station_id":"THB","i_lat":-6.185545,"i_long":106.811091,"is_transit":true,"station_name":"Tanah Abang","time":6,"distance":3191,"line":1},{"station_id":"KAT","station_name":"Karet","distance":2029,"time":5,"i_long":106.816351,"i_lat":-6.20132,"transit":false,"is_transit":false,"line":1},{"station_name":"Sudirman Baru","distance":471,"i_long":106.819881,"line":1,"transit":false,"station_id":"SUDB","is_transit":false,"time":1,"i_lat":-6.201433},{"station_id":"SUD","transit":false,"line":1,"station_name":"Sudirman","time":1,"distance":280,"i_long":106.822649,"i_lat":-6.202263,"is_transit":false},{"station_id":"MRI","i_lat":-6.209883,"transit":false,"i_long":106.84912,"line":2,"distance":3186,"is_transit":false,"station_name":"Manggarai","time":4},{"station_name":"Matraman","i_lat":-6.212485,"station_id":"MTR","transit":false,"is_transit":false,"i_long":106.858896,"line":1,"time":2,"distance":1275},{"i_long":106.86807400000001,"station_name":"Jatinegara","time":8,"station_id":"JNG","i_lat":-6.215091,"transit":true,"line":1,"is_transit":true,"distance":1377},{"is_transit":false,"transit":false,"station_id":"POK","i_lat":-6.209188,"i_long":106.861737,"station_name":"Pondok Jati","time":2,"line":11,"distance":1236},{"station_id":"KMT","time":2,"station_name":"Kramat","is_transit":false,"distance":1829,"line":11,"i_lat":-6.193792,"transit":false,"i_long":106.855437}],[{"station_id":"CTR","i_long":106.332092,"is_transit":false,"line":3,"distance":0,"transit":false,"time":0,"i_lat":-6.334892,"station_name":"Citeras"},{"i_lat":-6.332307,"is_transit":false,"line":6,"i_long":106.394373,"transit":false,"distance":7293,"station_name":"Maja","time":10,"station_id":"MJ"},{"time":4,"transit":false,"i_long":106.411216,"line":3,"station_name":"Cikoya","station_id":"CKY","distance":1853,"is_transit":false,"i_lat":-6.33561},{"i_long":106.425991,"line":6,"transit":false,"distance":2651,"station_id":"TGS","is_transit":false,"station_name":"Tigaraksa","time":3,"i_lat":-6.328533},{"i_lat":-6.327251,"station_id":"TEJ","i_long":106.460812,"transit":false,"is_transit":false,"station_name":"Tenjo","distance":2974,"time":5,"line":6},{"station_id":"DAR","transit":false,"i_long":106.491338,"is_transit":false,"line":0,"distance":3902,"time":5,"i_lat":-6.338021,"station_name":"Daru"},{"time":6,"is_transit":false,"station_id":"CJT","distance":2675,"i_lat":-6.354349,"i_long":106.508482,"line":3,"transit":false,"station_name":"Cilejit"},{"transit":false,"station_name":"Parung Panjang","time":9,"line":6,"is_transit":false,"i_long":106.568863,"station_id":"PRP","distance":7025,"i_lat":-6.3441410000000005},{"i_lat":-6.329547,"transit":false,"station_id":"CC","is_transit":false,"time":8,"line":3,"distance":5968,"i_long":106.617853,"station_name":"Cicayur"},{"station_id":"CSK","distance":2519,"time":4,"station_name":"Cisauk","i_long":106.640411,"i_lat":-6.32484,"transit":false,"is_transit":false,"line":3},{"is_transit":false,"transit":false,"station_name":"Serpong","line":6,"station_id":"SRP","time":4,"i_lat":-6.319871,"i_long":106.66566,"distance":1784},{"distance":2413,"line":6,"station_name":"Rawa Buntu","i_lat":-6.314823,"i_long":106.675475,"transit":false,"time":4,"station_id":"RU","is_transit":false},{"distance":4566,"i_long":106.712277,"time":6,"transit":false,"station_id":"SDM","station_name":"Sudimara","is_transit":false,"i_lat":-6.296963,"line":6},{"transit":false,"station_id":"JMU","is_transit":false,"distance":1994,"i_lat":-6.288927,"i_long":106.728916,"station_name":"Jurangmangu","line":6,"time":4},{"time":3,"i_lat":-6.276362,"station_id":"PDJ","line":6,"transit":false,"is_transit":false,"station_name":"Pondokranji","distance":2179,"i_long":106.74273},{"i_lat":-6.237242,"line":6,"transit":false,"station_name":"Kebayoran","station_id":"KBY","distance":6218,"time":8,"i_long":106.780334,"is_transit":false},{"time":7,"is_transit":false,"transit":false,"i_lat":-6.207404,"station_name":"Palmerah","i_long":106.79689,"line":6,"station_id":"PLM","distance":3737},{"station_id":"THB","station_name":"Tanah Abang","time":6,"is_transit":true,"i_lat":-6.185545,"distance":3191,"line":1,"i_long":106.811091,"transit":true},{"transit":false,"i_lat":-6.155215,"is_transit":false,"time":8,"station_id":"DU","distance":3632,"i_long":106.800832,"line":1,"station_name":"Duri"},{"time":4,"station_name":"Angke","line":1,"i_long":106.79867,"station_id":"AK","i_lat":-6.144674,"is_transit":false,"distance":1230,"transit":false},{"distance":4102,"time":9,"station_name":"Kampung Bandan","i_long":106.826365,"is_transit":true,"line":4,"transit":true,"station_id":"KPB","i_lat":-6.132549},{"is_transit":true,"distance":1364,"station_name":"Jakarta Kota","transit":true,"station_id":"JAKK","time":3,"line":2,"i_lat":-6.137569,"i_long":106.812439},{"is_transit":false,"distance":1264,"station_name":"Jayakarta","i_lat":-6.141205,"i_long":106.820901,"time":4,"transit":false,"station_id":"JAY","line":2},{"transit":false,"station_id":"MGB","is_transit":false,"time":2,"station_name":"Manggabesar","distance":1080,"i_long":106.82482,"line":2,"i_lat":-6.149769},{"transit":false,"station_id":"SW","distance":906,"i_lat":-6.160725,"line":2,"station_name":"Sawah Besar","is_transit":false,"time":2,"i_long":106.827103},{"station_name":"Juanda","i_lat":-6.166716,"i_long":106.828284,"line":2,"transit":false,"is_transit":false,"distance":1149,"station_id":"JUA","time":2},{"station_name":"Gondangdia","i_lat":-6.186295,"station_id":"GDD","distance":2015,"i_long":106.832183,"is_transit":false,"transit":false,"time":4,"line":2},{"time":3,"station_name":"Cikini","i_lat":-6.198556,"station_id":"CKI","line":2,"i_long":106.840169,"is_transit":false,"transit":false,"distance":1750},{"distance":1590,"time":4,"station_name":"Manggarai","is_transit":true,"line":2,"i_lat":-6.209883,"transit":true,"i_long":106.84912,"station_id":"MRI"},{"transit":false,"is_transit":false,"i_lat":-6.212485,"time":2,"station_id":"MTR","station_name":"Matraman","i_long":106.858896,"distance":1275,"line":1},{"is_transit":true,"station_id":"JNG","station_name":"Jatinegara","time":8,"distance":1377,"transit":true,"line":1,"i_long":106.86807400000001,"i_lat":-6.215091},{"i_lat":-6.209188,"is_transit":false,"i_long":106.861737,"station_id":"POK","transit":false,"distance":1236,"time":2,"line":11,"station_name":"Pondok Jati"},{"i_lat":-6.193792,"is_transit":false,"station_id":"KMT","time":2,"transit":false,"distance":1829,"i_long":106.855437,"line":11,"station_name":"Kramat"}],[{"distance":0,"station_name":"Citeras","station_id":"CTR","time":0,"line":3,"transit":false,"i_lat":-6.334892,"is_transit":false,"i_long":106.332092},{"station_id":"MJ","station_name":"Maja","i_long":106.394373,"i_lat":-6.332307,"transit":false,"time":10,"line":6,"is_transit":false,"distance":7293},{"station_id":"CKY","distance":1853,"i_long":106.411216,"i_lat":-6.33561,"transit":false,"station_name":"Cikoya","time":4,"line":3,"is_transit":false},{"station_id":"TGS","station_name":"Tigaraksa","is_transit":false,"transit":false,"time":3,"i_lat":-6.328533,"line":6,"distance":2651,"i_long":106.425991},{"is_transit":false,"station_id":"TEJ","time":5,"i_lat":-6.327251,"station_name":"Tenjo","i_long":106.460812,"distance":2974,"transit":false,"line":6},{"i_lat":-6.338021,"i_long":106.491338,"line":0,"is_transit":false,"time":5,"station_id":"DAR","station_name":"Daru","transit":false,"distance":3902},{"station_id":"CJT","is_transit":false,"line":3,"station_name":"Cilejit","distance":2675,"transit":false,"time":6,"i_lat":-6.354349,"i_long":106.508482},{"is_transit":false,"time":9,"i_lat":-6.3441410000000005,"transit":false,"station_name":"Parung Panjang","line":6,"distance":7025,"i_long":106.568863,"station_id":"PRP"},{"line":3,"station_id":"CC","station_name":"Cicayur","transit":false,"distance":5968,"is_transit":false,"time":8,"i_lat":-6.329547,"i_long":106.617853},{"time":4,"i_lat":-6.32484,"station_name":"Cisauk","i_long":106.640411,"is_transit":false,"distance":2519,"station_id":"CSK","transit":false,"line":3},{"i_lat":-6.319871,"line":6,"i_long":106.66566,"transit":false,"station_id":"SRP","is_transit":false,"station_name":"Serpong","distance":1784,"time":4},{"station_id":"RU","i_lat":-6.314823,"i_long":106.675475,"distance":2413,"transit":false,"is_transit":false,"time":4,"line":6,"station_name":"Rawa Buntu"},{"transit":false,"distance":4566,"time":6,"i_lat":-6.296963,"is_transit":false,"line":6,"i_long":106.712277,"station_name":"Sudimara","station_id":"SDM"},{"station_id":"JMU","time":4,"i_lat":-6.288927,"transit":false,"is_transit":false,"station_name":"Jurangmangu","line":6,"i_long":106.728916,"distance":1994},{"line":6,"transit":false,"i_long":106.74273,"is_transit":false,"i_lat":-6.276362,"time":3,"distance":2179,"station_name":"Pondokranji","station_id":"PDJ"},{"is_transit":false,"time":8,"i_long":106.780334,"station_name":"Kebayoran","distance":6218,"line":6,"i_lat":-6.237242,"transit":false,"station_id":"KBY"},{"transit":false,"distance":3737,"time":7,"line":6,"station_name":"Palmerah","i_lat":-6.207404,"i_long":106.79689,"is_transit":false,"station_id":"PLM"},{"i_lat":-6.185545,"transit":true,"station_id":"THB","station_name":"Tanah Abang","is_transit":true,"i_long":106.811091,"time":6,"line":1,"distance":3191},{"time":5,"station_id":"KAT","line":1,"distance":2029,"is_transit":false,"station_name":"Karet","transit":false,"i_long":106.816351,"i_lat":-6.20132},{"transit":false,"is_transit":false,"station_name":"Sudirman Baru","line":1,"time":1,"station_id":"SUDB","distance":471,"i_lat":-6.201433,"i_long":106.819881},{"i_long":106.822649,"station_id":"SUD","i_lat":-6.202263,"transit":false,"is_transit":false,"distance":280,"line":1,"time":1,"station_name":"Sudirman"},{"i_long":106.84912,"line":2,"time":4,"station_name":"Manggarai","transit":true,"is_transit":true,"distance":3186,"i_lat":-6.209883,"station_id":"MRI"},{"is_transit":false,"i_lat":-6.198556,"distance":1590,"line":2,"transit":false,"i_long":106.840169,"station_id":"CKI","station_name":"Cikini","time":4},{"line":2,"station_name":"Gondangdia","station_id":"GDD","distance":1750,"i_lat":-6.186295,"i_long":106.832183,"is_transit":false,"transit":false,"time":3},{"time":4,"i_lat":-6.166716,"transit":false,"station_id":"JUA","distance":2015,"is_transit":false,"station_name":"Juanda","line":2,"i_long":106.828284},{"station_id":"SW","line":2,"is_transit":false,"station_name":"Sawah Besar","distance":1149,"i_long":106.827103,"i_lat":-6.160725,"transit":false,"time":2},{"time":2,"line":2,"station_name":"Manggabesar","distance":906,"is_transit":false,"transit":false,"station_id":"MGB","i_lat":-6.149769,"i_long":106.82482},{"i_long":106.820901,"i_lat":-6.141205,"station_id":"JAY","is_transit":false,"station_name":"Jayakarta","distance":1080,"time":2,"line":2,"transit":false},{"line":2,"distance":1264,"i_long":106.812439,"station_name":"Jakarta Kota","station_id":"JAKK","i_lat":-6.137569,"time":4,"transit":true,"is_transit":true},{"time":3,"i_lat":-6.132549,"line":4,"distance":1364,"station_name":"Kampung Bandan","is_transit":true,"i_long":106.826365,"transit":true,"station_id":"KPB"},{"distance":1444,"time":3,"line":11,"station_name":"Rajawali","is_transit":false,"i_long":106.836569,"station_id":"RJW","transit":false,"i_lat":-6.14505},{"i_lat":-6.161728,"distance":1901,"line":11,"station_id":"KMO","time":5,"i_long":106.839204,"station_name":"Kemayoran","transit":false,"is_transit":false},{"transit":false,"time":4,"distance":1436,"is_transit":false,"station_name":"Pasar Senen","i_long":106.84368,"line":11,"station_id":"PSE","i_lat":-6.174784},{"i_long":106.850107,"station_name":"Gang Sentiong","distance":1567,"line":11,"transit":false,"is_transit":false,"i_lat":-6.185975,"station_id":"GST","time":8},{"time":1,"transit":false,"is_transit":false,"distance":973,"i_long":106.855437,"station_id":"KMT","station_name":"Kramat","line":11,"i_lat":-6.193792}]]}