{"data":[[{"station_name":"Citeras","station_id":"CTR","i_long":106.332092,"distance":0,"is_transit":false,"i_lat":-6.334892,"time":0,"transit":false,"line":3},{"station_id":"MJ","i_lat":-6.332307,"i_long":106.394373,"is_transit":false,"line":6,"time":10,"transit":false,"distance":7293,"station_name":"Maja"},{"time":4,"station_id":"CKY","line":3,"distance":1853,"transit":false,"i_lat":-6.33561,"station_name":"Cikoya","is_transit":false,"i_long":106.411216},{"time":3,"i_lat":-6.328533,"station_name":"Tigaraksa","is_transit":false,"station_id":"TGS","line":6,"distance":2651,"transit":false,"i_long":106.425991},{"transit":false,"i_lat":-6.327251,"station_name":"Tenjo","station_id":"TEJ","distance":2974,"is_transit":false,"i_long":106.460812,"line":6,"time":5},{"is_transit":false,"i_long":106.491338,"station_name":"Daru","time":5,"station_id":"DAR","distance":3902,"transit":false,"i_lat":-6.338021,"line":0},{"line":3,"distance":2675,"time":6,"is_transit":false,"station_id":"CJT","transit":false,"i_long":106.508482,"station_name":"Cilejit","i_lat":-6.354349},{"station_id":"PRP","i_lat":-6.3441410000000005,"transit":false,"i_long":106.568863,"station_name":"Parung Panjang","distance":7025,"time":9,"line":6,"is_transit":false},{"station_name":"Cicayur","station_id":"CC","line":3,"distance":5968,"i_lat":-6.329547,"is_transit":false,"time":8,"transit":false,"i_long":106.617853},{"distance":2519,"time":4,"station_id":"CSK","is_transit":false,"i_long":106.640411,"i_lat":-6.32484,"station_name":"Cisauk","line":3,"transit":false},{"i_long":106.66566,"station_name":"Serpong","distance":1784,"station_id":"SRP","transit":false,"is_transit":false,"i_lat":-6.319871,"line":6,"time":4},{"is_transit":false,"distance":2413,"line":6,"i_long":106.675475,"station_id":"RU","time":4,"station_name":"Rawa Buntu","transit":false,"i_lat":-6.314823},{"i_lat":-6.296963,"i_long":106.712277,"transit":false,"is_transit":false,"line":6,"distance":4566,"time":6,"station_name":"Sudimara","station_id":"SDM"},{"is_transit":false,"time":4,"station_id":"JMU","i_lat":-6.288927,"i_long":106.728916,"station_name":"Jurangmangu","distance":1994,"line":6,"transit":false},{"station_name":"Pondokranji","transit":false,"time":3,"line":6,"distance":2179,"is_transit":false,"i_long":106.74273,"station_id":"PDJ","i_lat":-6.276362},{"station_name":"Kebayoran","station_id":"KBY","transit":false,"is_transit":false,"i_lat":-6.237242,"i_long":106.780334,"line":6,"distance":6218,"time":8},{"i_long":106.79689,"station_name":"Palmerah","distance":3737,"station_id":"PLM","transit":false,"line":6,"time":7,"is_transit":false,"i_lat":-6.207404},{"station_id":"THB","transit":true,"station_name":"Tanah Abang","time":6,"line":1,"i_lat":-6.185545,"is_transit":true,"distance":3191,"i_long":106.811091},{"is_transit":false,"line":1,"station_name":"Karet","time":5,"i_lat":-6.20132,"i_long":106.816351,"distance":2029,"station_id":"KAT","transit":false},{"distance":471,"is_transit":false,"station_id":"SUDB","time":1,"station_name":"Sudirman Baru","i_lat":-6.201433,"i_long":106.819881,"transit":false,"line":1},{"is_transit":false,"i_long":106.822649,"line":1,"station_name":"Sudirman","i_lat":-6.202263,"distance":280,"transit":false,"time":1,"station_id":"SUD"},{"station_id":"MRI","distance":3186,"line":2,"is_transit":true,"i_long":106.84912,"time":4,"i_lat":-6.209883,"transit":true,"station_name":"Manggarai"},{"time":4,"line":2,"i_lat":-6.226659,"station_name":"Tebet","is_transit":false,"station_id":"TEB","i_long":106.857948,"distance":2610,"transit":false},{"i_long":106.856607,"time":2,"line":2,"station_name":"Cawang","i_lat":-6.242512,"is_transit":false,"station_id":"CW","distance":1230,"transit":false},{"station_name":"Duren Kalibata","distance":1546,"is_transit":false,"transit":false,"i_lat":-6.255332,"i_long":106.85449,"line":2,"station_id":"DRN","time":3},{"distance":824,"transit":false,"is_transit":false,"time":2,"i_lat":-6.263214,"station_id":"PSMB","line":2,"station_name":"Pasar Minggu Baru","i_long":106.851577},{"i_lat":-6.2842400000000005,"time":2,"i_long":106.843999,"is_transit":false,"distance":2380,"station_name":"Pasar Minggu","station_id":"PSM","transit":false,"line":2},{"i_long":106.838896,"time":4,"line":2,"distance":2820,"i_lat":-6.3080680000000005,"station_name":"Tanjung Barat","station_id":"TNT","is_transit":false,"transit":false},{"station_id":"LNA","i_long":106.832616,"is_transit":false,"line":2,"time":3,"distance":2671,"station_name":"Lenteng Agung","transit":false,"i_lat":-6.330363},{"station_id":"UP","station_name":"Univ. Pancasila","i_long":106.834175,"i_lat":-6.339291,"distance":1029,"line":2,"transit":false,"time":2,"is_transit":false},{"distance":2264,"line":2,"i_lat":-6.360749,"time":3,"station_id":"UI","is_transit":false,"transit":false,"i_long":106.831474,"station_name":"Univ. Indonesia"},{"i_long":106.831114,"distance":1109,"line":2,"station_name":"Pondok Cina","i_lat":-6.369073,"is_transit":false,"time":2,"station_id":"POC","transit":false},{"transit":false,"line":2,"i_long":106.819451,"is_transit":false,"station_name":"Depokbaru","distance":2727,"i_lat":-6.391065,"time":4,"station_id":"DPB"},{"transit":false,"i_long":106.816926,"distance":1584,"station_id":"DP","station_name":"Depok","i_lat":-6.405256,"line":2,"time":3,"is_transit":false}],[{"station_id":"CTR","i_lat":-6.334892,"line":3,"time":0,"station_name":"Citeras","distance":0,"is_transit":false,"transit":false,"i_long":106.332092},{"station_id":"MJ","i_long":106.394373,"is_transit":false,"distance":7293,"transit":false,"time":10,"i_lat":-6.332307,"station_name":"Maja","line":6},{"time":4,"station_name":"Cikoya","i_long":106.411216,"i_lat":-6.33561,"is_transit":false,"distance":1853,"station_id":"CKY","line":3,"transit":false},{"i_long":106.425991,"station_id":"TGS","time":3,"i_lat":-6.328533,"distance":2651,"line":6,"is_transit":false,"station_name":"Tigaraksa","transit":false},{"station_name":"Tenjo","time":5,"i_long":106.460812,"station_id":"TEJ","line":6,"transit":false,"distance":2974,"i_lat":-6.327251,"is_transit":false},{"is_transit":false,"distance":3902,"i_long":106.491338,"station_name":"Daru","i_lat":-6.338021,"line":0,"transit":false,"station_id":"DAR","time":5},{"station_name":"Cilejit","transit":false,"i_long":106.508482,"line":3,"is_transit":false,"station_id":"CJT","distance":2675,"i_lat":-6.354349,"time":6},{"is_transit":false,"station_name":"Parung Panjang","i_lat":-6.3441410000000005,"i_long":106.568863,"station_id":"PRP","time":9,"distance":7025,"line":6,"transit":false},{"distance":5968,"station_id":"CC","transit":false,"station_name":"Cicayur","time":8,"is_transit":false,"i_lat":-6.329547,"i_long":106.617853,"line":3},{"line":3,"station_id":"CSK","station_name":"Cisauk","transit":false,"distance":2519,"i_long":106.640411,"time":4,"i_lat":-6.32484,"is_transit":false},{"is_transit":false,"line":6,"station_name":"Serpong","time":4,"i_long":106.66566,"i_lat":-6.319871,"transit":false,"distance":1784,"station_id":"SRP"},{"time":4,"station_name":"Rawa Buntu","transit":false,"line":6,"i_long":106.675475,"station_id":"RU","distance":2413,"i_lat":-6.314823,"is_transit":false},{"transit":false,"time":6,"station_name":"Sudimara","line":6,"station_id":"SDM","i_long":106.712277,"i_lat":-6.296963,"is_transit":false,"distance":4566},{"i_lat":-6.288927,"transit":false,"i_long":106.728916,"station_id":"JMU","is_transit":false,"line":6,"station_name":"Jurangmangu","distance":1994,"time":4},{"line":6,"transit":false,"time":3,"station_name":"Pondokranji","station_id":"PDJ","i_long":106.74273,"i_lat":-6.276362,"is_transit":false,"distance":2179},{"i_lat":-6.237242,"i_long":106.780334,"time":8,"station_name":"Kebayoran","is_transit":false,"line":6,"distance":6218,"station_id":"KBY","transit":false},{"is_transit":false,"station_id":"PLM","station_name":"Palmerah","i_lat":-6.207404,"distance":3737,"i_long":106.79689,"time":7,"transit":false,"line":6},{"line":1,"is_transit":true,"time":6,"station_name":"Tanah Abang","i_lat":-6.185545,"i_long":106.811091,"station_id":"THB","distance":3191,"transit":true},{"station_name":"Duri","line":1,"i_long":106.800832,"time":8,"is_transit":false,"i_lat":-6.155215,"distance":3632,"station_id":"DU","transit":false},{"distance":1230,"time":4,"line":1,"transit":false,"i_lat":-6.144674,"station_id":"AK","is_transit":false,"i_long":106.79867,"station_name":"Angke"},{"time":9,"line":4,"i_lat":-6.132549,"i_long":106.826365,"is_transit":true,"transit":true,"station_id":"KPB","station_name":"Kampung Bandan","distance":4102},{"station_name":"Jakarta Kota","line":2,"transit":true,"station_id":"JAKK","time":3,"is_transit":true,"i_long":106.812439,"i_lat":-6.137569,"distance":1364},{"line":2,"station_id":"JAY","i_long":106.820901,"distance":1264,"time":4,"is_transit":false,"transit":false,"station_name":"Jayakarta","i_lat":-6.141205},{"station_id":"MGB","transit":false,"line":2,"i_long":106.82482,"station_name":"Manggabesar","time":2,"i_lat":-6.149769,"is_transit":false,"distance":1080},{"station_id":"SW","is_transit":false,"distance":906,"time":2,"station_name":"Sawah Besar","transit":false,"line":2,"i_lat":-6.160725,"i_long":106.827103},{"transit":false,"i_lat":-6.166716,"is_transit":false,"station_name":"Juanda","distance":1149,"station_id":"JUA","line":2,"i_long":106.828284,"time":2},{"time":4,"is_transit":false,"station_name":"Gondangdia","distance":2015,"transit":false,"i_lat":-6.186295,"i_long":106.832183,"station_id":"GDD","line":2},{"transit":false,"is_transit":false,"station_id":"CKI","station_name":"Cikini","distance":1750,"time":3,"i_lat":-6.198556,"i_long":106.840169,"line":2},{"transit":false,"i_lat":-6.209883,"line":2,"station_name":"Manggarai","i_long":106.84912,"distance":1590,"station_id":"MRI","time":4,"is_transit":false},{"station_name":"Tebet","distance":2610,"transit":false,"i_lat":-6.226659,"is_transit":false,"time":4,"i_long":106.857948,"line":2,"station_id":"TEB"},{"transit":false,"time":2,"i_long":106.856607,"line":2,"station_id":"CW","i_lat":-6.242512,"distance":1230,"is_transit":false,"station_name":"Cawang"},{"time":3,"line":2,"distance":1546,"transit":false,"i_lat":-6.255332,"i_long":106.85449,"station_id":"DRN","station_name":"Duren Kalibata","is_transit":false},{"station_name":"Pasar Minggu Baru","transit":false,"time":2,"i_lat":-6.263214,"is_transit":false,"i_long":106.851577,"station_id":"PSMB","distance":824,"line":2},{"line":2,"transit":false,"is_transit":false,"distance":2380,"station_name":"Pasar Minggu","station_id":"PSM","time":2,"i_long":106.843999,"i_lat":-6.2842400000000005},{"transit":false,"station_id":"TNT","time":4,"i_lat":-6.3080680000000005,"i_long":106.838896,"line":2,"station_name":"Tanjung Barat","is_transit":false,"distance":2820},{"station_name":"Lenteng Agung","line":2,"is_transit":false,"station_id":"LNA","distance":2671,"transit":false,"i_lat":-6.330363,"i_long":106.832616,"time":3},{"station_name":"Univ. Pancasila","i_long":106.834175,"is_transit":false,"time":2,"distance":1029,"line":2,"transit":false,"i_lat":-6.339291,"station_id":"UP"},{"station_id":"UI","transit":false,"i_long":106.831474,"time":3,"line":2,"station_name":"Univ. Indonesia","distance":2264,"is_transit":false,"i_lat":-6.360749},{"i_lat":-6.369073,"i_long":106.831114,"distance":1109,"transit":false,"line":2,"station_id":"POC","is_transit":false,"time":2,"station_name":"Pondok Cina"},{"time":4,"station_id":"DPB","i_long":106.819451,"station_name":"Depokbaru","transit":false,"line":2,"distance":2727,"i_lat":-6.391065,"is_transit":false},{"line":2,"transit":false,"time":3,"distance":1584,"i_long":106.816926,"station_name":"Depok","station_id":"DP","is_transit":false,"i_lat":-6.405256}],[{"time":0,"station_name":"Citeras","distance":0,"station_id":"CTR","is_transit":false,"transit":false,"i_lat":-6.334892,"i_long":106.332092,"line":3},{"station_id":"MJ","is_transit":false,"transit":false,"i_long":106.394373,"time":10,"i_lat":-6.332307,"distance":7293,"line":6,"station_name":"Maja"},{"i_lat":-6.33561,"transit":false,"time":4,"i_long":106.411216,"distance":1853,"line":3,"station_id":"CKY","station_name":"Cikoya","is_transit":false},{"station_name":"Tigaraksa","i_long":106.425991,"station_id":"TGS","i_lat":-6.328533,"transit":false,"is_transit":false,"time":3,"line":6,"distance":2651},{"distance":2974,"transit":false,"i_long":106.460812,"line":6,"station_id":"TEJ","time":5,"is_transit":false,"i_lat":-6.327251,"station_name":"Tenjo"},{"station_name":"Daru","distance":3902,"transit":false,"is_transit":false,"i_lat":-6.338021,"line":0,"station_id":"DAR","i_long":106.491338,"time":5},{"transit":false,"i_lat":-6.354349,"line":3,"distance":2675,"station_name":"Cilejit","is_transit":false,"i_long":106.508482,"station_id":"CJT","time":6},{"distance":7025,"transit":false,"i_lat":-6.3441410000000005,"line":6,"time":9,"i_long":106.568863,"station_name":"Parung Panjang","station_id":"PRP","is_transit":false},{"station_id":"CC","station_name":"Cicayur","transit":false,"is_transit":false,"distance":5968,"i_lat":-6.329547,"time":8,"i_long":106.617853,"line":3},{"is_transit":false,"transit":false,"station_id":"CSK","i_long":106.640411,"line":3,"time":4,"distance":2519,"i_lat":-6.32484,"station_name":"Cisauk"},{"station_name":"Serpong","i_long":106.66566,"is_transit":false,"transit":false,"i_lat":-6.319871,"line":6,"station_id":"SRP","distance":1784,"time":4},{"station_id":"RU","is_transit":false,"distance":2413,"station_name":"Rawa Buntu","time":4,"line":6,"i_lat":-6.314823,"i_long":106.675475,"transit":false},{"time":6,"transit":false,"is_transit":false,"station_id":"SDM","station_name":"Sudimara","i_lat":-6.296963,"distance":4566,"line":6,"i_long":106.712277},{"line":6,"station_name":"Jurangmangu","distance":1994,"time":4,"i_lat":-6.288927,"is_transit":false,"i_long":106.728916,"transit":false,"station_id":"JMU"},{"i_lat":-6.276362,"is_transit":false,"distance":2179,"i_long":106.74273,"line":6,"transit":false,"station_id":"PDJ","time":3,"station_name":"Pondokranji"},{"transit":false,"i_long":106.780334,"station_id":"KBY","station_name":"Kebayoran","is_transit":false,"time":8,"distance":6218,"line":6,"i_lat":-6.237242},{"i_long":106.79689,"station_id":"PLM","transit":false,"is_transit":false,"distance":3737,"i_lat":-6.207404,"line":6,"station_name":"Palmerah","time":7},{"i_long":106.811091,"transit":true,"time":6,"line":1,"distance":3191,"is_transit":true,"station_id":"THB","station_name":"Tanah Abang","i_lat":-6.185545},{"is_transit":false,"i_lat":-6.155215,"transit":false,"time":8,"line":1,"station_id":"DU","station_name":"Duri","distance":3632,"i_long":106.800832},{"i_long":106.79867,"i_lat":-6.144674,"station_name":"Angke","line":1,"time":4,"station_id":"AK","distance":1230,"is_transit":false,"transit":false},{"station_name":"Kampung Bandan","transit":true,"i_long":106.826365,"i_lat":-6.132549,"station_id":"KPB","is_transit":true,"line":4,"time":9,"distance":4102},{"is_transit":false,"time":3,"transit":false,"i_long":106.836569,"station_name":"Rajawali","station_id":"RJW","distance":1444,"line":11,"i_lat":-6.14505},{"time":5,"transit":false,"i_long":106.839204,"station_id":"KMO","distance":1901,"line":11,"station_name":"Kemayoran","i_lat":-6.161728,"is_transit":false},{"station_name":"Pasar Senen","i_long":106.84368,"i_lat":-6.174784,"distance":1436,"time":4,"transit":false,"line":11,"is_transit":false,"station_id":"PSE"},{"is_transit":false,"transit":false,"station_name":"Gang Sentiong","i_lat":-6.185975,"line":11,"time":8,"distance":1567,"i_long":106.850107,"station_id":"GST"},{"is_transit":false,"distance":973,"i_long":106.855437,"transit":false,"station_id":"KMT","station_name":"Kramat","i_lat":-6.193792,"time":1,"line":11},{"i_lat":-6.209188,"station_name":"Pondok Jati","transit":false,"time":2,"i_long":106.861737,"distance":1829,"station_id":"POK","is_transit":false,"line":11},{"line":1,"distance":1236,"station_id":"JNG","is_transit":true,"transit":true,"time":9,"i_long":106.86807400000001,"i_lat":-6.215091,"station_name":"Jatinegara"},{"i_long":106.858896,"station_name":"Matraman","is_transit":false,"station_id":"MTR","distance":1377,"transit":false,"time":2,"line":1,"i_lat":-6.212485},{"line":2,"station_id":"MRI","station_name":"Manggarai","i_lat":-6.209883,"i_long":106.84912,"time":2,"transit":true,"is_transit":true,"distance":1275},{"station_id":"TEB","distance":2610,"i_long":106.857948,"time":4,"transit":false,"station_name":"Tebet","i_lat":-6.226659,"line":2,"is_transit":false},{"transit":false,"i_long":106.856607,"is_transit":false,"distance":1230,"time":2,"station_id":"CW","i_lat":-6.242512,"station_name":"Cawang","line":2},{"is_transit":false,"i_long":106.85449,"line":2,"distance":1546,"time":3,"station_id":"DRN","station_name":"Duren Kalibata","transit":false,"i_lat":-6.255332},{"transit":false,"i_lat":-6.263214,"line":2,"station_name":"Pasar Minggu Baru","distance":824,"is_transit":false,"time":2,"station_id":"PSMB","i_long":106.851577},{"transit":false,"station_id":"PSM","station_name":"Pasar Minggu","is_transit":false,"time":2,"i_long":106.843999,"distance":2380,"i_lat":-6.2842400000000005,"line":2},{"station_id":"TNT","line":2,"time":4,"is_transit":false,"distance":2820,"i_long":106.838896,"transit":false,"i_lat":-6.3080680000000005,"station_name":"Tanjung Barat"},{"station_id":"LNA","is_transit":false,"line":2,"i_lat":-6.330363,"time":3,"i_long":106.832616,"transit":false,"distance":2671,"station_name":"Lenteng Agung"},{"transit":false,"is_transit":false,"line":2,"station_name":"Univ. Pancasila","i_lat":-6.339291,"station_id":"UP","distance":1029,"i_long":106.834175,"time":2},{"i_long":106.831474,"i_lat":-6.360749,"station_id":"UI","distance":2264,"is_transit":false,"time":3,"transit":false,"station_name":"Univ. Indonesia","line":2},{"is_transit":false,"station_id":"POC","distance":1109,"transit":false,"i_lat":-6.369073,"time":2,"i_long":106.831114,"station_name":"Pondok Cina","line":2},{"i_lat":-6.391065,"line":2,"station_id":"DPB","is_transit":false,"distance":2727,"time":4,"i_long":106.819451,"transit":false,"station_name":"Depokbaru"},{"is_transit":false,"time":3,"transit":false,"i_long":106.816926,"station_name":"Depok","station_id":"DP","i_lat":-6.405256,"distance":1584,"line":2}]]}