{"data":[[{"i_long":106.332092,"line":0,"transit":false,"i_lat":-6.334892,"is_transit":false,"station_id":"CTR","time":0,"distance":0,"station_name":"Citeras"},{"transit":false,"is_transit":false,"i_long":106.394373,"i_lat":-6.332307,"distance":7293,"station_name":"Maja","line":6,"time":10,"station_id":"MJ"},{"transit":false,"line":0,"station_id":"CKY","is_transit":false,"time":4,"distance":1853,"i_lat":-6.33561,"station_name":"Cikoya","i_long":106.411216},{"distance":2651,"line":6,"is_transit":false,"time":3,"transit":false,"station_id":"TGS","i_lat":-6.328533,"station_name":"Tigaraksa","i_long":106.425991},{"i_long":106.460812,"station_id":"TEJ","line":6,"distance":2974,"station_name":"Tenjo","transit":false,"time":5,"i_lat":-6.327251,"is_transit":false},{"station_name":"Daru","i_long":106.491338,"is_transit":false,"line":0,"station_id":"DAR","time":5,"distance":3902,"i_lat":-6.338021,"transit":false},{"line":0,"time":6,"i_long":106.508482,"is_transit":false,"i_lat":-6.354349,"transit":false,"station_id":"CJT","distance":2675,"station_name":"Cilejit"},{"station_name":"Parung Panjang","i_lat":-6.3441410000000005,"is_transit":false,"transit":false,"i_long":106.568863,"time":9,"station_id":"PRP","distance":7025,"line":6},{"i_long":106.617853,"station_name":"Cicayur","i_lat":-6.329547,"line":0,"time":8,"station_id":"CC","transit":false,"is_transit":false,"distance":5968},{"station_name":"Cisauk","station_id":"CSK","line":0,"transit":false,"time":4,"i_lat":-6.32484,"is_transit":false,"i_long":106.640411,"distance":2519},{"line":6,"time":4,"i_lat":-6.319871,"is_transit":false,"station_name":"Serpong","distance":1784,"i_long":106.66566,"station_id":"SRP","transit":false},{"station_name":"Rawa Buntu","i_lat":-6.314823,"distance":2413,"is_transit":false,"time":4,"station_id":"RU","i_long":106.675475,"line":6,"transit":false},{"i_long":106.712277,"distance":4566,"is_transit":false,"time":6,"line":6,"station_name":"Sudimara","transit":false,"station_id":"SDM","i_lat":-6.296963},{"transit":false,"is_transit":false,"station_id":"JMU","distance":1994,"station_name":"Jurangmangu","time":4,"line":6,"i_long":106.728916,"i_lat":-6.288927},{"is_transit":false,"station_id":"PDJ","station_name":"Pondokranji","i_long":106.74273,"transit":false,"line":6,"time":3,"i_lat":-6.276362,"distance":2179}]]}