{"data":[[{"station_id":"CTR","station_name":"Citeras","is_transit":false,"distance":0,"i_long":106.332092,"line":3,"transit":false,"time":0,"i_lat":-6.334892},{"station_id":"MJ","line":6,"i_long":106.394373,"transit":false,"distance":7293,"is_transit":false,"station_name":"Maja","time":10,"i_lat":-6.332307},{"line":3,"is_transit":false,"distance":1853,"station_id":"CKY","transit":false,"i_lat":-6.33561,"station_name":"Cikoya","i_long":106.411216,"time":4},{"station_name":"Tigaraksa","i_long":106.425991,"i_lat":-6.328533,"line":6,"time":3,"distance":2651,"transit":false,"station_id":"TGS","is_transit":false},{"time":5,"station_name":"Tenjo","i_lat":-6.327251,"transit":false,"station_id":"TEJ","is_transit":false,"i_long":106.460812,"line":6,"distance":2974},{"line":0,"distance":3902,"is_transit":false,"station_id":"DAR","i_long":106.491338,"station_name":"Daru","i_lat":-6.338021,"time":5,"transit":false},{"i_long":106.508482,"i_lat":-6.354349,"station_id":"CJT","station_name":"Cilejit","is_transit":false,"distance":2675,"line":3,"time":6,"transit":false},{"i_long":106.568863,"i_lat":-6.3441410000000005,"line":6,"time":9,"is_transit":false,"station_name":"Parung Panjang","transit":false,"station_id":"PRP","distance":7025},{"transit":false,"is_transit":false,"station_name":"Cicayur","time":8,"distance":5968,"line":3,"station_id":"CC","i_lat":-6.329547,"i_long":106.617853}]]}