{"data":[[{"station_name":"Citeras","i_lat":-6.334892,"distance":0,"time":0,"is_transit":false,"transit":false,"i_long":106.332092,"line":3,"station_id":"CTR"},{"is_transit":false,"i_lat":-6.332307,"i_long":106.394373,"distance":7293,"transit":false,"time":10,"station_id":"MJ","station_name":"Maja","line":6},{"time":4,"i_lat":-6.33561,"station_name":"Cikoya","transit":false,"distance":1853,"station_id":"CKY","i_long":106.411216,"line":3,"is_transit":false},{"i_long":106.425991,"is_transit":false,"transit":false,"station_name":"Tigaraksa","i_lat":-6.328533,"distance":2651,"line":6,"station_id":"TGS","time":3},{"is_transit":false,"station_id":"TEJ","transit":false,"i_long":106.460812,"distance":2974,"i_lat":-6.327251,"line":6,"station_name":"Tenjo","time":5},{"i_long":106.491338,"distance":3902,"station_name":"Daru","line":0,"is_transit":false,"station_id":"DAR","i_lat":-6.338021,"transit":false,"time":5},{"i_lat":-6.354349,"transit":false,"line":3,"i_long":106.508482,"station_name":"Cilejit","is_transit":false,"station_id":"CJT","time":6,"distance":2675},{"time":9,"distance":7025,"i_long":106.568863,"line":6,"transit":false,"station_id":"PRP","is_transit":false,"i_lat":-6.3441410000000005,"station_name":"Parung Panjang"},{"time":8,"transit":false,"station_name":"Cicayur","i_lat":-6.329547,"i_long":106.617853,"is_transit":false,"station_id":"CC","line":3,"distance":5968},{"i_long":106.640411,"distance":2519,"i_lat":-6.32484,"line":3,"station_name":"Cisauk","station_id":"CSK","is_transit":false,"transit":false,"time":4}]]}