{"data":[[{"i_lat":-6.334892,"i_long":106.332092,"line":3,"distance":0,"transit":false,"station_name":"Citeras","station_id":"CTR","is_transit":false,"time":0},{"line":6,"i_long":106.394373,"is_transit":false,"time":10,"station_id":"MJ","transit":false,"i_lat":-6.332307,"distance":7293,"station_name":"Maja"},{"distance":1853,"time":4,"transit":false,"i_long":106.411216,"line":3,"station_name":"Cikoya","is_transit":false,"station_id":"CKY","i_lat":-6.33561},{"transit":false,"i_lat":-6.328533,"i_long":106.425991,"distance":2651,"time":3,"station_id":"TGS","station_name":"Tigaraksa","is_transit":false,"line":6},{"is_transit":false,"station_id":"TEJ","station_name":"Tenjo","i_lat":-6.327251,"i_long":106.460812,"distance":2974,"time":5,"transit":false,"line":6},{"line":0,"is_transit":false,"i_lat":-6.338021,"transit":false,"station_name":"Daru","time":5,"distance":3902,"i_long":106.491338,"station_id":"DAR"}]]}