{"data":[[{"i_lat":-6.334892,"line":3,"distance":0,"is_transit":false,"time":0,"i_long":106.332092,"station_id":"CTR","station_name":"Citeras","transit":false},{"station_name":"Maja","i_lat":-6.332307,"i_long":106.394373,"transit":false,"distance":7293,"is_transit":false,"line":6,"time":10,"station_id":"MJ"},{"distance":1853,"station_id":"CKY","i_long":106.411216,"transit":false,"station_name":"Cikoya","time":4,"is_transit":false,"line":3,"i_lat":-6.33561},{"i_long":106.425991,"station_id":"TGS","time":3,"is_transit":false,"line":6,"distance":2651,"station_name":"Tigaraksa","transit":false,"i_lat":-6.328533},{"transit":false,"distance":2974,"station_name":"Tenjo","is_transit":false,"line":6,"time":5,"station_id":"TEJ","i_lat":-6.327251,"i_long":106.460812},{"i_lat":-6.338021,"distance":3902,"line":0,"station_id":"DAR","station_name":"Daru","transit":false,"time":5,"is_transit":false,"i_long":106.491338},{"station_name":"Cilejit","station_id":"CJT","time":6,"is_transit":false,"i_lat":-6.354349,"line":3,"transit":false,"distance":2675,"i_long":106.508482},{"transit":false,"i_long":106.568863,"time":9,"station_name":"Parung Panjang","line":6,"station_id":"PRP","distance":7025,"is_transit":false,"i_lat":-6.3441410000000005},{"distance":5968,"i_long":106.617853,"transit":false,"i_lat":-6.329547,"line":3,"is_transit":false,"station_id":"CC","station_name":"Cicayur","time":8},{"i_lat":-6.32484,"is_transit":false,"station_id":"CSK","station_name":"Cisauk","i_long":106.640411,"line":3,"distance":2519,"time":4,"transit":false},{"time":4,"station_name":"Serpong","station_id":"SRP","is_transit":false,"line":6,"distance":1784,"i_long":106.66566,"i_lat":-6.319871,"transit":false},{"is_transit":false,"i_lat":-6.314823,"station_id":"RU","i_long":106.675475,"line":6,"station_name":"Rawa Buntu","time":4,"transit":false,"distance":2413},{"line":6,"distance":4566,"i_lat":-6.296963,"transit":false,"i_long":106.712277,"station_id":"SDM","time":6,"station_name":"Sudimara","is_transit":false},{"transit":false,"i_lat":-6.288927,"i_long":106.728916,"line":6,"station_id":"JMU","station_name":"Jurangmangu","is_transit":false,"time":4,"distance":1994},{"i_long":106.74273,"i_lat":-6.276362,"station_id":"PDJ","distance":2179,"is_transit":false,"time":3,"transit":false,"station_name":"Pondokranji","line":6},{"station_id":"KBY","transit":false,"i_long":106.780334,"line":6,"i_lat":-6.237242,"distance":6218,"station_name":"Kebayoran","time":8,"is_transit":false},{"transit":false,"line":6,"is_transit":false,"i_long":106.79689,"time":7,"station_id":"PLM","station_name":"Palmerah","i_lat":-6.207404,"distance":3737},{"line":1,"transit":true,"time":6,"i_lat":-6.185545,"is_transit":true,"i_long":106.811091,"distance":3191,"station_id":"THB","station_name":"Tanah Abang"},{"is_transit":true,"station_name":"Duri","i_lat":-6.155215,"station_id":"DU","distance":3632,"line":1,"transit":true,"i_long":106.800832,"time":8},{"distance":1700,"i_lat":-6.162021,"line":5,"i_long":106.788277,"station_id":"GRG","transit":false,"time":3,"station_name":"Grogol","is_transit":false},{"is_transit":false,"distance":2036,"time":2,"transit":false,"i_lat":-6.161433,"line":5,"station_id":"PSG","i_long":106.771379,"station_name":"Pesing"},{"time":2,"i_lat":-6.1587309999999995,"station_id":"TKO","line":5,"transit":false,"station_name":"Taman Kota","is_transit":false,"distance":1614,"i_long":106.756522},{"station_id":"BOI","station_name":"Bojongindah","is_transit":false,"distance":2334,"i_long":106.737035,"line":5,"time":2,"transit":false,"i_lat":-6.159876},{"station_name":"Rawa Buaya","is_transit":false,"i_long":106.723064,"line":5,"i_lat":-6.162758,"distance":1152,"station_id":"RW","transit":false,"time":4},{"distance":2504,"station_name":"Kalideres","station_id":"KDS","i_lat":-6.166068,"transit":false,"time":3,"is_transit":false,"i_long":106.701612,"line":5},{"station_id":"PI","transit":false,"i_lat":-6.169933,"time":3,"is_transit":false,"station_name":"Poris","line":5,"distance":2548,"i_long":106.679458},{"station_id":"BPR","is_transit":false,"i_long":106.665036,"distance":1834,"time":3,"i_lat":-6.171811,"transit":false,"station_name":"Batuceper","line":5},{"transit":false,"i_lat":-6.17331,"line":5,"station_name":"Tanah Tinggi","station_id":"TTI","is_transit":false,"distance":2028,"i_long":106.64657,"time":3}],[{"distance":0,"is_transit":false,"i_long":106.332092,"line":3,"i_lat":-6.334892,"transit":false,"station_name":"Citeras","time":0,"station_id":"CTR"},{"i_long":106.394373,"line":6,"transit":false,"time":10,"i_lat":-6.332307,"is_transit":false,"station_name":"Maja","distance":7293,"station_id":"MJ"},{"is_transit":false,"i_lat":-6.33561,"line":3,"time":4,"station_id":"CKY","i_long":106.411216,"transit":false,"distance":1853,"station_name":"Cikoya"},{"is_transit":false,"i_lat":-6.328533,"transit":false,"station_name":"Tigaraksa","station_id":"TGS","i_long":106.425991,"line":6,"distance":2651,"time":3},{"line":6,"station_id":"TEJ","transit":false,"time":5,"station_name":"Tenjo","i_lat":-6.327251,"i_long":106.460812,"distance":2974,"is_transit":false},{"i_lat":-6.338021,"i_long":106.491338,"station_id":"DAR","is_transit":false,"station_name":"Daru","line":0,"transit":false,"time":5,"distance":3902},{"station_name":"Cilejit","i_lat":-6.354349,"line":3,"i_long":106.508482,"station_id":"CJT","distance":2675,"transit":false,"is_transit":false,"time":6},{"station_name":"Parung Panjang","distance":7025,"station_id":"PRP","i_long":106.568863,"line":6,"is_transit":false,"i_lat":-6.3441410000000005,"time":9,"transit":false},{"line":3,"is_transit":false,"distance":5968,"i_long":106.617853,"transit":false,"station_id":"CC","station_name":"Cicayur","time":8,"i_lat":-6.329547},{"is_transit":false,"i_lat":-6.32484,"line":3,"distance":2519,"time":4,"i_long":106.640411,"station_name":"Cisauk","station_id":"CSK","transit":false},{"transit":false,"station_id":"SRP","station_name":"Serpong","i_lat":-6.319871,"is_transit":false,"i_long":106.66566,"distance":1784,"line":6,"time":4},{"line":6,"transit":false,"time":4,"station_name":"Rawa Buntu","i_lat":-6.314823,"station_id":"RU","is_transit":false,"distance":2413,"i_long":106.675475},{"time":6,"line":6,"i_long":106.712277,"distance":4566,"transit":false,"i_lat":-6.296963,"is_transit":false,"station_id":"SDM","station_name":"Sudimara"},{"i_lat":-6.288927,"time":4,"transit":false,"station_name":"Jurangmangu","station_id":"JMU","is_transit":false,"i_long":106.728916,"line":6,"distance":1994},{"station_name":"Pondokranji","is_transit":false,"transit":false,"i_lat":-6.276362,"distance":2179,"line":6,"i_long":106.74273,"station_id":"PDJ","time":3},{"transit":false,"time":8,"station_id":"KBY","i_lat":-6.237242,"line":6,"is_transit":false,"station_name":"Kebayoran","distance":6218,"i_long":106.780334},{"time":7,"i_long":106.79689,"transit":false,"station_name":"Palmerah","is_transit":false,"line":6,"station_id":"PLM","i_lat":-6.207404,"distance":3737},{"transit":true,"station_name":"Tanah Abang","time":6,"line":1,"station_id":"THB","distance":3191,"i_long":106.811091,"i_lat":-6.185545,"is_transit":true},{"distance":2029,"i_long":106.816351,"station_id":"KAT","i_lat":-6.20132,"transit":false,"time":5,"is_transit":false,"line":1,"station_name":"Karet"},{"i_lat":-6.201433,"time":1,"distance":471,"i_long":106.819881,"line":1,"station_name":"Sudirman Baru","is_transit":false,"station_id":"SUDB","transit":false},{"line":1,"time":1,"station_id":"SUD","station_name":"Sudirman","transit":false,"i_lat":-6.202263,"is_transit":false,"distance":280,"i_long":106.822649},{"distance":3186,"i_long":106.84912,"i_lat":-6.209883,"station_name":"Manggarai","line":2,"is_transit":true,"transit":true,"time":4,"station_id":"MRI"},{"station_name":"Cikini","station_id":"CKI","transit":false,"is_transit":false,"distance":1590,"i_lat":-6.198556,"line":2,"time":4,"i_long":106.840169},{"is_transit":false,"transit":false,"station_id":"GDD","distance":1750,"i_long":106.832183,"line":2,"i_lat":-6.186295,"time":3,"station_name":"Gondangdia"},{"line":2,"time":4,"transit":false,"i_long":106.828284,"station_name":"Juanda","station_id":"JUA","distance":2015,"i_lat":-6.166716,"is_transit":false},{"line":2,"station_id":"SW","station_name":"Sawah Besar","transit":false,"time":2,"is_transit":false,"distance":1149,"i_lat":-6.160725,"i_long":106.827103},{"distance":906,"i_long":106.82482,"transit":false,"i_lat":-6.149769,"time":2,"is_transit":false,"station_id":"MGB","station_name":"Manggabesar","line":2},{"is_transit":false,"time":2,"station_id":"JAY","station_name":"Jayakarta","i_lat":-6.141205,"i_long":106.820901,"distance":1080,"line":2,"transit":false},{"station_name":"Jakarta Kota","time":4,"station_id":"JAKK","distance":1264,"transit":true,"is_transit":true,"i_long":106.812439,"i_lat":-6.137569,"line":2},{"station_id":"KPB","station_name":"Kampung Bandan","distance":1364,"is_transit":true,"i_lat":-6.132549,"i_long":106.826365,"line":4,"time":3,"transit":true},{"line":1,"is_transit":false,"station_id":"AK","distance":4102,"station_name":"Angke","transit":false,"i_lat":-6.144674,"time":9,"i_long":106.79867},{"time":4,"station_name":"Duri","distance":1230,"i_lat":-6.155215,"station_id":"DU","line":1,"transit":true,"i_long":106.800832,"is_transit":true},{"station_name":"Grogol","distance":1700,"i_long":106.788277,"time":3,"is_transit":false,"i_lat":-6.162021,"line":5,"station_id":"GRG","transit":false},{"distance":2036,"i_lat":-6.161433,"i_long":106.771379,"line":5,"time":2,"is_transit":false,"transit":false,"station_id":"PSG","station_name":"Pesing"},{"transit":false,"time":2,"is_transit":false,"distance":1614,"i_long":106.756522,"i_lat":-6.1587309999999995,"station_id":"TKO","station_name":"Taman Kota","line":5},{"station_name":"Bojongindah","station_id":"BOI","distance":2334,"i_lat":-6.159876,"time":2,"transit":false,"line":5,"i_long":106.737035,"is_transit":false},{"station_id":"RW","distance":1152,"time":4,"transit":false,"i_lat":-6.162758,"is_transit":false,"i_long":106.723064,"line":5,"station_name":"Rawa Buaya"},{"i_long":106.701612,"distance":2504,"transit":false,"station_name":"Kalideres","line":5,"time":3,"is_transit":false,"i_lat":-6.166068,"station_id":"KDS"},{"is_transit":false,"time":3,"i_lat":-6.169933,"line":5,"station_id":"PI","station_name":"Poris","i_long":106.679458,"transit":false,"distance":2548},{"i_long":106.665036,"station_id":"BPR","distance":1834,"line":5,"station_name":"Batuceper","i_lat":-6.171811,"time":3,"is_transit":false,"transit":false},{"station_id":"TTI","transit":false,"station_name":"Tanah Tinggi","is_transit":false,"time":3,"distance":2028,"line":5,"i_long":106.64657,"i_lat":-6.17331}],[{"is_transit":false,"i_long":106.332092,"i_lat":-6.334892,"line":3,"time":0,"station_name":"Citeras","transit":false,"distance":0,"station_id":"CTR"},{"distance":7293,"station_name":"Maja","i_long":106.394373,"transit":false,"is_transit":false,"i_lat":-6.332307,"station_id":"MJ","line":6,"time":10},{"is_transit":false,"i_lat":-6.33561,"time":4,"i_long":106.411216,"station_id":"CKY","distance":1853,"transit":false,"station_name":"Cikoya","line":3},{"transit":false,"i_lat":-6.328533,"line":6,"station_id":"TGS","station_name":"Tigaraksa","distance":2651,"i_long":106.425991,"is_transit":false,"time":3},{"distance":2974,"transit":false,"is_transit":false,"time":5,"i_lat":-6.327251,"station_id":"TEJ","i_long":106.460812,"line":6,"station_name":"Tenjo"},{"station_id":"DAR","station_name":"Daru","time":5,"distance":3902,"line":0,"i_long":106.491338,"i_lat":-6.338021,"is_transit":false,"transit":false},{"is_transit":false,"time":6,"station_id":"CJT","i_long":106.508482,"distance":2675,"transit":false,"station_name":"Cilejit","i_lat":-6.354349,"line":3},{"transit":false,"i_long":106.568863,"time":9,"line":6,"distance":7025,"station_id":"PRP","station_name":"Parung Panjang","is_transit":false,"i_lat":-6.3441410000000005},{"line":3,"station_name":"Cicayur","i_long":106.617853,"distance":5968,"time":8,"station_id":"CC","transit":false,"i_lat":-6.329547,"is_transit":false},{"time":4,"transit":false,"distance":2519,"line":3,"station_name":"Cisauk","is_transit":false,"station_id":"CSK","i_long":106.640411,"i_lat":-6.32484},{"time":4,"transit":false,"station_name":"Serpong","is_transit":false,"distance":1784,"station_id":"SRP","i_lat":-6.319871,"line":6,"i_long":106.66566},{"time":4,"line":6,"distance":2413,"station_id":"RU","is_transit":false,"i_lat":-6.314823,"transit":false,"i_long":106.675475,"station_name":"Rawa Buntu"},{"station_id":"SDM","i_long":106.712277,"i_lat":-6.296963,"line":6,"distance":4566,"time":6,"transit":false,"station_name":"Sudimara","is_transit":false},{"i_lat":-6.288927,"line":6,"station_id":"JMU","time":4,"i_long":106.728916,"transit":false,"station_name":"Jurangmangu","is_transit":false,"distance":1994},{"transit":false,"station_name":"Pondokranji","is_transit":false,"time":3,"distance":2179,"i_lat":-6.276362,"i_long":106.74273,"line":6,"station_id":"PDJ"},{"transit":false,"is_transit":false,"line":6,"time":8,"station_id":"KBY","station_name":"Kebayoran","distance":6218,"i_lat":-6.237242,"i_long":106.780334},{"line":6,"time":7,"is_transit":false,"transit":false,"station_name":"Palmerah","i_long":106.79689,"distance":3737,"station_id":"PLM","i_lat":-6.207404},{"i_long":106.811091,"line":1,"station_id":"THB","transit":true,"station_name":"Tanah Abang","is_transit":true,"time":6,"distance":3191,"i_lat":-6.185545},{"i_long":106.816351,"station_id":"KAT","time":5,"is_transit":false,"distance":2029,"transit":false,"i_lat":-6.20132,"station_name":"Karet","line":1},{"i_lat":-6.201433,"station_name":"Sudirman Baru","is_transit":false,"transit":false,"line":1,"i_long":106.819881,"time":1,"distance":471,"station_id":"SUDB"},{"i_lat":-6.202263,"station_id":"SUD","is_transit":false,"i_long":106.822649,"line":1,"time":1,"transit":false,"distance":280,"station_name":"Sudirman"},{"transit":false,"station_name":"Manggarai","time":4,"line":2,"distance":3186,"i_lat":-6.209883,"is_transit":false,"i_long":106.84912,"station_id":"MRI"},{"station_id":"MTR","time":2,"i_lat":-6.212485,"line":1,"is_transit":false,"station_name":"Matraman","transit":false,"distance":1275,"i_long":106.858896},{"station_id":"JNG","time":8,"transit":true,"line":1,"distance":1377,"i_long":106.86807400000001,"is_transit":true,"station_name":"Jatinegara","i_lat":-6.215091},{"i_long":106.861737,"time":2,"station_id":"POK","transit":false,"distance":1236,"i_lat":-6.209188,"is_transit":false,"line":11,"station_name":"Pondok Jati"},{"line":11,"time":2,"distance":1829,"i_lat":-6.193792,"station_id":"KMT","is_transit":false,"transit":false,"station_name":"Kramat","i_long":106.855437},{"time":1,"station_name":"Gang Sentiong","line":11,"distance":973,"station_id":"GST","i_long":106.850107,"i_lat":-6.185975,"is_transit":false,"transit":false},{"station_id":"PSE","line":11,"i_long":106.84368,"time":8,"station_name":"Pasar Senen","is_transit":false,"distance":1567,"i_lat":-6.174784,"transit":false},{"station_name":"Kemayoran","distance":1436,"is_transit":false,"line":11,"station_id":"KMO","i_lat":-6.161728,"time":4,"transit":false,"i_long":106.839204},{"transit":false,"time":5,"distance":1901,"station_id":"RJW","is_transit":false,"line":11,"station_name":"Rajawali","i_lat":-6.14505,"i_long":106.836569},{"is_transit":true,"station_name":"Kampung Bandan","distance":1444,"transit":true,"line":4,"i_lat":-6.132549,"station_id":"KPB","time":3,"i_long":106.826365},{"i_lat":-6.144674,"is_transit":false,"time":9,"station_name":"Angke","distance":4102,"line":1,"station_id":"AK","i_long":106.79867,"transit":false},{"i_lat":-6.155215,"station_id":"DU","i_long":106.800832,"transit":true,"time":4,"station_name":"Duri","distance":1230,"is_transit":true,"line":1},{"station_id":"GRG","time":3,"line":5,"station_name":"Grogol","transit":false,"is_transit":false,"i_long":106.788277,"i_lat":-6.162021,"distance":1700},{"station_id":"PSG","transit":false,"station_name":"Pesing","is_transit":false,"i_lat":-6.161433,"distance":2036,"i_long":106.771379,"line":5,"time":2},{"is_transit":false,"line":5,"time":2,"station_id":"TKO","transit":false,"distance":1614,"i_lat":-6.1587309999999995,"i_long":106.756522,"station_name":"Taman Kota"},{"i_lat":-6.159876,"line":5,"time":2,"distance":2334,"transit":false,"is_transit":false,"i_long":106.737035,"station_name":"Bojongindah","station_id":"BOI"},{"station_id":"RW","station_name":"Rawa Buaya","transit":false,"is_transit":false,"time":4,"i_lat":-6.162758,"distance":1152,"i_long":106.723064,"line":5},{"line":5,"i_lat":-6.166068,"i_long":106.701612,"station_name":"Kalideres","time":3,"distance":2504,"is_transit":false,"station_id":"KDS","transit":false},{"station_id":"PI","i_lat":-6.169933,"line":5,"is_transit":false,"distance":2548,"time":3,"transit":false,"station_name":"Poris","i_long":106.679458},{"line":5,"distance":1834,"is_transit":false,"time":3,"station_id":"BPR","station_name":"Batuceper","transit":false,"i_long":106.665036,"i_lat":-6.171811},{"line":5,"station_id":"TTI","time":3,"station_name":"Tanah Tinggi","transit":false,"i_lat":-6.17331,"is_transit":false,"distance":2028,"i_long":106.64657}]]}