{"data":[[{"station_id":"CTR","time":0,"line":3,"i_long":106.332092,"transit":false,"distance":0,"is_transit":false,"i_lat":-6.334892,"station_name":"Citeras"},{"transit":false,"time":10,"i_long":106.394373,"i_lat":-6.332307,"station_id":"MJ","distance":7293,"is_transit":false,"station_name":"Maja","line":6},{"i_lat":-6.33561,"is_transit":false,"transit":false,"station_name":"Cikoya","line":3,"distance":1853,"station_id":"CKY","i_long":106.411216,"time":4},{"line":6,"station_name":"Tigaraksa","station_id":"TGS","transit":false,"i_lat":-6.328533,"distance":2651,"i_long":106.425991,"is_transit":false,"time":3},{"distance":2974,"time":5,"i_long":106.460812,"is_transit":false,"station_name":"Tenjo","line":6,"transit":false,"station_id":"TEJ","i_lat":-6.327251},{"i_lat":-6.338021,"station_name":"Daru","time":5,"i_long":106.491338,"transit":false,"is_transit":false,"line":0,"distance":3902,"station_id":"DAR"},{"distance":2675,"transit":false,"station_name":"Cilejit","station_id":"CJT","i_long":106.508482,"time":6,"line":3,"is_transit":false,"i_lat":-6.354349},{"transit":false,"station_name":"Parung Panjang","is_transit":false,"time":9,"line":6,"i_lat":-6.3441410000000005,"distance":7025,"i_long":106.568863,"station_id":"PRP"},{"i_long":106.617853,"transit":false,"time":8,"station_id":"CC","i_lat":-6.329547,"line":3,"distance":5968,"is_transit":false,"station_name":"Cicayur"},{"station_name":"Cisauk","transit":false,"is_transit":false,"i_long":106.640411,"time":4,"distance":2519,"i_lat":-6.32484,"line":3,"station_id":"CSK"},{"i_long":106.66566,"time":4,"distance":1784,"station_id":"SRP","station_name":"Serpong","i_lat":-6.319871,"line":6,"is_transit":false,"transit":false},{"distance":2413,"i_lat":-6.314823,"line":6,"i_long":106.675475,"transit":false,"station_name":"Rawa Buntu","time":4,"station_id":"RU","is_transit":false},{"i_lat":-6.296963,"time":6,"station_name":"Sudimara","is_transit":false,"station_id":"SDM","i_long":106.712277,"distance":4566,"line":6,"transit":false},{"i_lat":-6.288927,"i_long":106.728916,"transit":false,"time":4,"line":6,"station_id":"JMU","distance":1994,"station_name":"Jurangmangu","is_transit":false},{"time":3,"station_id":"PDJ","station_name":"Pondokranji","is_transit":false,"distance":2179,"i_lat":-6.276362,"i_long":106.74273,"line":6,"transit":false},{"line":6,"is_transit":false,"i_long":106.780334,"i_lat":-6.237242,"station_name":"Kebayoran","distance":6218,"transit":false,"station_id":"KBY","time":8},{"i_lat":-6.207404,"line":6,"distance":3737,"station_name":"Palmerah","is_transit":false,"transit":false,"time":7,"i_long":106.79689,"station_id":"PLM"},{"i_lat":-6.185545,"i_long":106.811091,"transit":true,"time":6,"station_name":"Tanah Abang","is_transit":true,"station_id":"THB","distance":3191,"line":1},{"is_transit":false,"line":1,"time":8,"transit":false,"station_id":"DU","distance":3632,"i_lat":-6.155215,"i_long":106.800832,"station_name":"Duri"},{"is_transit":false,"station_name":"Angke","time":4,"i_lat":-6.144674,"transit":false,"station_id":"AK","line":1,"distance":1230,"i_long":106.79867}],[{"station_id":"CTR","line":3,"distance":0,"transit":false,"i_lat":-6.334892,"time":0,"i_long":106.332092,"is_transit":false,"station_name":"Citeras"},{"transit":false,"is_transit":false,"i_lat":-6.332307,"distance":7293,"station_name":"Maja","time":10,"i_long":106.394373,"line":6,"station_id":"MJ"},{"time":4,"i_lat":-6.33561,"station_name":"Cikoya","transit":false,"is_transit":false,"station_id":"CKY","distance":1853,"i_long":106.411216,"line":3},{"station_id":"TGS","distance":2651,"station_name":"Tigaraksa","transit":false,"time":3,"is_transit":false,"line":6,"i_lat":-6.328533,"i_long":106.425991},{"station_name":"Tenjo","line":6,"is_transit":false,"transit":false,"station_id":"TEJ","time":5,"i_lat":-6.327251,"i_long":106.460812,"distance":2974},{"i_lat":-6.338021,"station_id":"DAR","distance":3902,"transit":false,"time":5,"i_long":106.491338,"line":0,"station_name":"Daru","is_transit":false},{"distance":2675,"station_name":"Cilejit","i_long":106.508482,"line":3,"i_lat":-6.354349,"is_transit":false,"transit":false,"station_id":"CJT","time":6},{"time":9,"station_id":"PRP","i_lat":-6.3441410000000005,"distance":7025,"i_long":106.568863,"line":6,"station_name":"Parung Panjang","transit":false,"is_transit":false},{"transit":false,"is_transit":false,"line":3,"station_id":"CC","time":8,"distance":5968,"i_long":106.617853,"i_lat":-6.329547,"station_name":"Cicayur"},{"station_name":"Cisauk","i_lat":-6.32484,"station_id":"CSK","time":4,"transit":false,"is_transit":false,"i_long":106.640411,"line":3,"distance":2519},{"distance":1784,"i_long":106.66566,"station_id":"SRP","transit":false,"station_name":"Serpong","is_transit":false,"time":4,"i_lat":-6.319871,"line":6},{"i_long":106.675475,"distance":2413,"is_transit":false,"station_name":"Rawa Buntu","i_lat":-6.314823,"station_id":"RU","line":6,"transit":false,"time":4},{"i_lat":-6.296963,"station_name":"Sudimara","distance":4566,"station_id":"SDM","is_transit":false,"i_long":106.712277,"time":6,"line":6,"transit":false},{"transit":false,"i_lat":-6.288927,"line":6,"station_id":"JMU","is_transit":false,"station_name":"Jurangmangu","distance":1994,"i_long":106.728916,"time":4},{"i_long":106.74273,"line":6,"station_name":"Pondokranji","station_id":"PDJ","time":3,"distance":2179,"i_lat":-6.276362,"is_transit":false,"transit":false},{"is_transit":false,"line":6,"station_id":"KBY","time":8,"transit":false,"station_name":"Kebayoran","i_lat":-6.237242,"distance":6218,"i_long":106.780334},{"is_transit":false,"station_name":"Palmerah","i_lat":-6.207404,"distance":3737,"line":6,"transit":false,"time":7,"station_id":"PLM","i_long":106.79689},{"i_long":106.811091,"line":1,"is_transit":true,"station_name":"Tanah Abang","time":6,"i_lat":-6.185545,"transit":true,"station_id":"THB","distance":3191},{"i_lat":-6.20132,"line":1,"station_name":"Karet","time":5,"transit":false,"i_long":106.816351,"station_id":"KAT","is_transit":false,"distance":2029},{"i_lat":-6.201433,"is_transit":false,"time":1,"station_id":"SUDB","distance":471,"station_name":"Sudirman Baru","i_long":106.819881,"transit":false,"line":1},{"is_transit":false,"distance":280,"i_lat":-6.202263,"transit":false,"line":1,"i_long":106.822649,"station_id":"SUD","station_name":"Sudirman","time":1},{"i_long":106.84912,"i_lat":-6.209883,"line":2,"is_transit":true,"station_id":"MRI","station_name":"Manggarai","transit":true,"distance":3186,"time":4},{"transit":false,"i_long":106.840169,"station_name":"Cikini","distance":1590,"station_id":"CKI","i_lat":-6.198556,"is_transit":false,"time":4,"line":2},{"is_transit":false,"time":3,"line":2,"station_name":"Gondangdia","distance":1750,"i_lat":-6.186295,"i_long":106.832183,"transit":false,"station_id":"GDD"},{"i_lat":-6.166716,"station_name":"Juanda","station_id":"JUA","distance":2015,"i_long":106.828284,"is_transit":false,"time":4,"line":2,"transit":false},{"transit":false,"i_lat":-6.160725,"is_transit":false,"station_name":"Sawah Besar","distance":1149,"i_long":106.827103,"line":2,"time":2,"station_id":"SW"},{"i_lat":-6.149769,"line":2,"transit":false,"distance":906,"station_id":"MGB","station_name":"Manggabesar","time":2,"is_transit":false,"i_long":106.82482},{"transit":false,"station_name":"Jayakarta","time":2,"i_lat":-6.141205,"line":2,"station_id":"JAY","is_transit":false,"distance":1080,"i_long":106.820901},{"is_transit":true,"station_id":"JAKK","station_name":"Jakarta Kota","i_lat":-6.137569,"time":4,"line":2,"distance":1264,"i_long":106.812439,"transit":true},{"i_long":106.826365,"transit":true,"station_id":"KPB","station_name":"Kampung Bandan","is_transit":true,"line":4,"distance":1364,"time":3,"i_lat":-6.132549},{"distance":4102,"i_lat":-6.144674,"i_long":106.79867,"line":1,"transit":false,"station_id":"AK","station_name":"Angke","is_transit":false,"time":9}],[{"transit":false,"i_lat":-6.334892,"i_long":106.332092,"distance":0,"station_name":"Citeras","station_id":"CTR","time":0,"is_transit":false,"line":3},{"distance":7293,"line":6,"station_id":"MJ","i_lat":-6.332307,"is_transit":false,"transit":false,"i_long":106.394373,"station_name":"Maja","time":10},{"is_transit":false,"line":3,"time":4,"transit":false,"distance":1853,"i_lat":-6.33561,"station_id":"CKY","i_long":106.411216,"station_name":"Cikoya"},{"distance":2651,"i_lat":-6.328533,"is_transit":false,"line":6,"station_id":"TGS","i_long":106.425991,"transit":false,"station_name":"Tigaraksa","time":3},{"i_lat":-6.327251,"station_id":"TEJ","time":5,"transit":false,"is_transit":false,"distance":2974,"i_long":106.460812,"station_name":"Tenjo","line":6},{"i_long":106.491338,"transit":false,"station_name":"Daru","i_lat":-6.338021,"station_id":"DAR","time":5,"distance":3902,"is_transit":false,"line":0},{"station_name":"Cilejit","i_lat":-6.354349,"distance":2675,"line":3,"time":6,"transit":false,"station_id":"CJT","i_long":106.508482,"is_transit":false},{"station_id":"PRP","i_long":106.568863,"is_transit":false,"station_name":"Parung Panjang","line":6,"distance":7025,"i_lat":-6.3441410000000005,"transit":false,"time":9},{"distance":5968,"transit":false,"i_lat":-6.329547,"i_long":106.617853,"station_id":"CC","line":3,"is_transit":false,"station_name":"Cicayur","time":8},{"distance":2519,"line":3,"station_name":"Cisauk","i_long":106.640411,"transit":false,"i_lat":-6.32484,"station_id":"CSK","is_transit":false,"time":4},{"i_long":106.66566,"station_id":"SRP","station_name":"Serpong","line":6,"time":4,"is_transit":false,"distance":1784,"i_lat":-6.319871,"transit":false},{"is_transit":false,"station_id":"RU","i_lat":-6.314823,"line":6,"distance":2413,"station_name":"Rawa Buntu","transit":false,"time":4,"i_long":106.675475},{"i_long":106.712277,"line":6,"transit":false,"station_id":"SDM","i_lat":-6.296963,"distance":4566,"is_transit":false,"time":6,"station_name":"Sudimara"},{"transit":false,"i_lat":-6.288927,"station_id":"JMU","distance":1994,"i_long":106.728916,"time":4,"is_transit":false,"line":6,"station_name":"Jurangmangu"},{"transit":false,"is_transit":false,"time":3,"i_long":106.74273,"station_name":"Pondokranji","line":6,"distance":2179,"station_id":"PDJ","i_lat":-6.276362},{"i_lat":-6.237242,"line":6,"time":8,"is_transit":false,"distance":6218,"transit":false,"station_id":"KBY","station_name":"Kebayoran","i_long":106.780334},{"i_lat":-6.207404,"is_transit":false,"i_long":106.79689,"line":6,"station_name":"Palmerah","station_id":"PLM","distance":3737,"transit":false,"time":7},{"is_transit":true,"station_name":"Tanah Abang","distance":3191,"transit":true,"i_lat":-6.185545,"i_long":106.811091,"line":1,"station_id":"THB","time":6},{"is_transit":false,"i_lat":-6.20132,"distance":2029,"i_long":106.816351,"station_id":"KAT","time":5,"transit":false,"station_name":"Karet","line":1},{"is_transit":false,"time":1,"i_long":106.819881,"station_name":"Sudirman Baru","station_id":"SUDB","transit":false,"i_lat":-6.201433,"line":1,"distance":471},{"station_name":"Sudirman","station_id":"SUD","distance":280,"i_lat":-6.202263,"time":1,"transit":false,"i_long":106.822649,"line":1,"is_transit":false},{"i_long":106.84912,"station_name":"Manggarai","time":4,"station_id":"MRI","line":2,"distance":3186,"transit":false,"i_lat":-6.209883,"is_transit":false},{"distance":1275,"line":1,"i_long":106.858896,"station_name":"Matraman","transit":false,"station_id":"MTR","is_transit":false,"time":2,"i_lat":-6.212485},{"station_name":"Jatinegara","distance":1377,"transit":true,"is_transit":true,"i_long":106.86807400000001,"station_id":"JNG","time":8,"line":1,"i_lat":-6.215091},{"i_long":106.861737,"i_lat":-6.209188,"distance":1236,"is_transit":false,"line":11,"station_name":"Pondok Jati","transit":false,"station_id":"POK","time":2},{"time":2,"line":11,"i_lat":-6.193792,"station_name":"Kramat","is_transit":false,"distance":1829,"station_id":"KMT","i_long":106.855437,"transit":false},{"time":1,"is_transit":false,"line":11,"i_lat":-6.185975,"station_name":"Gang Sentiong","i_long":106.850107,"station_id":"GST","distance":973,"transit":false},{"i_long":106.84368,"distance":1567,"transit":false,"i_lat":-6.174784,"station_id":"PSE","is_transit":false,"station_name":"Pasar Senen","line":11,"time":8},{"distance":1436,"i_lat":-6.161728,"is_transit":false,"time":4,"i_long":106.839204,"station_id":"KMO","line":11,"transit":false,"station_name":"Kemayoran"},{"is_transit":false,"line":11,"station_id":"RJW","time":5,"distance":1901,"i_lat":-6.14505,"i_long":106.836569,"transit":false,"station_name":"Rajawali"},{"is_transit":true,"time":3,"distance":1444,"line":4,"i_lat":-6.132549,"i_long":106.826365,"transit":true,"station_id":"KPB","station_name":"Kampung Bandan"},{"is_transit":false,"station_id":"AK","time":9,"transit":false,"i_long":106.79867,"i_lat":-6.144674,"line":1,"station_name":"Angke","distance":4102}]]}