{"data":[[{"transit":false,"station_id":"CTR","i_lat":-6.334892,"line":3,"is_transit":false,"time":0,"distance":0,"station_name":"Citeras","i_long":106.332092},{"is_transit":false,"transit":false,"distance":7293,"station_name":"Maja","station_id":"MJ","i_lat":-6.332307,"i_long":106.394373,"line":6,"time":10},{"i_long":106.411216,"transit":false,"station_id":"CKY","i_lat":-6.33561,"distance":1853,"time":4,"line":3,"is_transit":false,"station_name":"Cikoya"},{"time":3,"distance":2651,"transit":false,"is_transit":false,"station_id":"TGS","line":6,"station_name":"Tigaraksa","i_lat":-6.328533,"i_long":106.425991},{"time":5,"station_name":"Tenjo","i_long":106.460812,"i_lat":-6.327251,"is_transit":false,"transit":false,"line":6,"station_id":"TEJ","distance":2974},{"station_id":"DAR","distance":3902,"station_name":"Daru","i_lat":-6.338021,"is_transit":false,"i_long":106.491338,"transit":false,"line":0,"time":5},{"i_lat":-6.354349,"station_name":"Cilejit","station_id":"CJT","distance":2675,"line":3,"time":6,"is_transit":false,"i_long":106.508482,"transit":false},{"station_id":"PRP","is_transit":false,"transit":false,"line":6,"time":9,"station_name":"Parung Panjang","i_lat":-6.3441410000000005,"i_long":106.568863,"distance":7025},{"station_id":"CC","station_name":"Cicayur","is_transit":false,"time":8,"i_long":106.617853,"i_lat":-6.329547,"distance":5968,"line":3,"transit":false}]]}