{"data":[[{"time":0,"station_name":"Cakung","i_lat":-6.219053,"i_long":106.951283,"station_id":"CUK","is_transit":false,"distance":0,"line":1,"transit":false},{"i_lat":-6.217455,"i_long":106.939679,"station_name":"Klenderbaru","distance":1385,"station_id":"KLDB","is_transit":false,"line":1,"time":8,"transit":false},{"line":1,"is_transit":false,"i_lat":-6.215568,"station_id":"BUA","time":1,"distance":1305,"station_name":"Buaran","transit":false,"i_long":106.922662},{"line":1,"is_transit":false,"i_long":106.899548,"time":2,"i_lat":-6.2135,"distance":3100,"station_name":"Klender","station_id":"KLD","transit":false},{"station_id":"JNG","i_long":106.86807400000001,"distance":3395,"i_lat":-6.215091,"time":3,"is_transit":false,"station_name":"Jatinegara","transit":false,"line":1},{"distance":1377,"i_lat":-6.212485,"station_id":"MTR","line":1,"time":2,"station_name":"Matraman","is_transit":false,"transit":false,"i_long":106.858896},{"is_transit":false,"transit":false,"line":2,"distance":1275,"i_lat":-6.209883,"time":2,"i_long":106.84912,"station_name":"Manggarai","station_id":"MRI"},{"is_transit":false,"distance":3186,"station_name":"Sudirman","transit":false,"i_long":106.822649,"line":1,"time":4,"station_id":"SUD","i_lat":-6.202263},{"i_lat":-6.201433,"i_long":106.819881,"time":1,"station_id":"SUDB","distance":280,"station_name":"Sudirman Baru","is_transit":false,"transit":false,"line":1},{"is_transit":false,"distance":471,"i_lat":-6.20132,"station_name":"Karet","i_long":106.816351,"station_id":"KAT","transit":false,"line":1,"time":1},{"is_transit":true,"station_id":"THB","time":5,"distance":2029,"station_name":"Tanah Abang","i_lat":-6.185545,"i_long":106.811091,"transit":true,"line":1},{"station_id":"PLM","i_lat":-6.207404,"station_name":"Palmerah","i_long":106.79689,"time":6,"line":6,"is_transit":false,"transit":false,"distance":3191},{"station_id":"KBY","transit":false,"time":7,"station_name":"Kebayoran","i_long":106.780334,"line":6,"distance":3737,"i_lat":-6.237242,"is_transit":false},{"i_lat":-6.276362,"i_long":106.74273,"distance":6218,"time":8,"station_id":"PDJ","station_name":"Pondokranji","transit":false,"line":6,"is_transit":false},{"station_id":"JMU","is_transit":false,"station_name":"Jurangmangu","time":3,"transit":false,"i_lat":-6.288927,"i_long":106.728916,"line":6,"distance":2179},{"station_id":"SDM","station_name":"Sudimara","is_transit":false,"time":4,"distance":1994,"transit":false,"i_long":106.712277,"line":6,"i_lat":-6.296963},{"i_long":106.675475,"time":6,"distance":4566,"line":6,"station_name":"Rawa Buntu","is_transit":false,"i_lat":-6.314823,"station_id":"RU","transit":false},{"is_transit":false,"i_lat":-6.319871,"i_long":106.66566,"time":4,"transit":false,"line":6,"distance":2413,"station_id":"SRP","station_name":"Serpong"}],[{"station_name":"Cakung","is_transit":false,"transit":false,"time":0,"line":1,"i_lat":-6.219053,"station_id":"CUK","distance":0,"i_long":106.951283},{"distance":1385,"station_name":"Klenderbaru","is_transit":false,"i_lat":-6.217455,"i_long":106.939679,"time":8,"line":1,"transit":false,"station_id":"KLDB"},{"is_transit":false,"line":1,"station_name":"Buaran","distance":1305,"i_long":106.922662,"i_lat":-6.215568,"station_id":"BUA","transit":false,"time":1},{"station_id":"KLD","is_transit":false,"station_name":"Klender","time":2,"distance":3100,"line":1,"transit":false,"i_lat":-6.2135,"i_long":106.899548},{"transit":true,"station_id":"JNG","i_lat":-6.215091,"i_long":106.86807400000001,"time":3,"line":1,"station_name":"Jatinegara","is_transit":true,"distance":3395},{"station_name":"Pondok Jati","i_long":106.861737,"time":2,"i_lat":-6.209188,"is_transit":false,"distance":1236,"transit":false,"line":11,"station_id":"POK"},{"time":2,"i_lat":-6.193792,"station_name":"Kramat","station_id":"KMT","line":11,"distance":1829,"is_transit":false,"i_long":106.855437,"transit":false},{"line":11,"time":1,"station_name":"Gang Sentiong","is_transit":false,"station_id":"GST","i_lat":-6.185975,"i_long":106.850107,"distance":973,"transit":false},{"i_lat":-6.174784,"distance":1567,"transit":false,"is_transit":false,"i_long":106.84368,"line":11,"station_name":"Pasar Senen","station_id":"PSE","time":8},{"is_transit":false,"i_long":106.839204,"station_id":"KMO","i_lat":-6.161728,"line":11,"station_name":"Kemayoran","distance":1436,"transit":false,"time":4},{"station_id":"RJW","is_transit":false,"i_long":106.836569,"line":11,"i_lat":-6.14505,"time":5,"station_name":"Rajawali","distance":1901,"transit":false},{"is_transit":true,"distance":1444,"transit":true,"station_id":"KPB","i_long":106.826365,"time":3,"i_lat":-6.132549,"line":4,"station_name":"Kampung Bandan"},{"time":9,"distance":4102,"station_name":"Angke","line":1,"station_id":"AK","is_transit":false,"transit":false,"i_lat":-6.144674,"i_long":106.79867},{"is_transit":false,"station_id":"DU","line":1,"transit":false,"station_name":"Duri","distance":1230,"time":4,"i_lat":-6.155215,"i_long":106.800832},{"line":1,"transit":true,"is_transit":true,"time":8,"station_id":"THB","station_name":"Tanah Abang","i_lat":-6.185545,"distance":3632,"i_long":106.811091},{"distance":3191,"line":6,"i_lat":-6.207404,"is_transit":false,"station_name":"Palmerah","station_id":"PLM","time":6,"i_long":106.79689,"transit":false},{"station_id":"KBY","transit":false,"time":7,"i_long":106.780334,"line":6,"i_lat":-6.237242,"distance":3737,"station_name":"Kebayoran","is_transit":false},{"distance":6218,"time":8,"i_long":106.74273,"transit":false,"is_transit":false,"station_name":"Pondokranji","i_lat":-6.276362,"line":6,"station_id":"PDJ"},{"transit":false,"station_id":"JMU","distance":2179,"i_long":106.728916,"is_transit":false,"station_name":"Jurangmangu","i_lat":-6.288927,"line":6,"time":3},{"transit":false,"i_long":106.712277,"i_lat":-6.296963,"distance":1994,"line":6,"time":4,"station_id":"SDM","station_name":"Sudimara","is_transit":false},{"station_name":"Rawa Buntu","line":6,"i_lat":-6.314823,"i_long":106.675475,"station_id":"RU","transit":false,"time":6,"is_transit":false,"distance":4566},{"i_long":106.66566,"distance":2413,"time":4,"station_id":"SRP","line":6,"transit":false,"station_name":"Serpong","is_transit":false,"i_lat":-6.319871}],[{"is_transit":false,"line":1,"i_lat":-6.219053,"station_name":"Cakung","distance":0,"time":0,"station_id":"CUK","i_long":106.951283,"transit":false},{"station_name":"Klenderbaru","distance":1385,"station_id":"KLDB","line":1,"is_transit":false,"transit":false,"time":8,"i_lat":-6.217455,"i_long":106.939679},{"line":1,"i_long":106.922662,"i_lat":-6.215568,"transit":false,"station_name":"Buaran","station_id":"BUA","distance":1305,"is_transit":false,"time":1},{"transit":false,"line":1,"time":2,"is_transit":false,"station_name":"Klender","station_id":"KLD","i_long":106.899548,"i_lat":-6.2135,"distance":3100},{"transit":false,"line":1,"time":3,"distance":3395,"station_name":"Jatinegara","i_lat":-6.215091,"i_long":106.86807400000001,"station_id":"JNG","is_transit":false},{"station_name":"Matraman","line":1,"distance":1377,"i_lat":-6.212485,"time":2,"station_id":"MTR","i_long":106.858896,"transit":false,"is_transit":false},{"distance":1275,"station_name":"Manggarai","i_lat":-6.209883,"line":2,"time":2,"station_id":"MRI","is_transit":true,"i_long":106.84912,"transit":true},{"is_transit":false,"distance":1590,"transit":false,"time":4,"station_id":"CKI","station_name":"Cikini","i_lat":-6.198556,"i_long":106.840169,"line":2},{"station_id":"GDD","time":3,"is_transit":false,"i_lat":-6.186295,"station_name":"Gondangdia","i_long":106.832183,"line":2,"distance":1750,"transit":false},{"station_id":"JUA","is_transit":false,"i_long":106.828284,"station_name":"Juanda","line":2,"distance":2015,"transit":false,"time":4,"i_lat":-6.166716},{"time":2,"i_lat":-6.160725,"station_id":"SW","line":2,"transit":false,"is_transit":false,"i_long":106.827103,"station_name":"Sawah Besar","distance":1149},{"is_transit":false,"time":2,"station_name":"Manggabesar","station_id":"MGB","i_lat":-6.149769,"line":2,"i_long":106.82482,"transit":false,"distance":906},{"transit":false,"i_lat":-6.141205,"i_long":106.820901,"line":2,"time":2,"distance":1080,"station_name":"Jayakarta","station_id":"JAY","is_transit":false},{"i_long":106.812439,"is_transit":true,"transit":true,"station_name":"Jakarta Kota","time":4,"i_lat":-6.137569,"line":2,"distance":1264,"station_id":"JAKK"},{"line":4,"distance":1364,"is_transit":true,"station_name":"Kampung Bandan","i_lat":-6.132549,"station_id":"KPB","time":3,"transit":true,"i_long":106.826365},{"line":1,"time":9,"distance":4102,"i_long":106.79867,"station_name":"Angke","is_transit":false,"transit":false,"station_id":"AK","i_lat":-6.144674},{"line":1,"distance":1230,"i_long":106.800832,"transit":false,"i_lat":-6.155215,"time":4,"station_id":"DU","station_name":"Duri","is_transit":false},{"is_transit":true,"station_name":"Tanah Abang","time":8,"distance":3632,"i_long":106.811091,"station_id":"THB","line":1,"transit":true,"i_lat":-6.185545},{"is_transit":false,"i_lat":-6.207404,"time":6,"line":6,"i_long":106.79689,"transit":false,"station_name":"Palmerah","distance":3191,"station_id":"PLM"},{"transit":false,"distance":3737,"i_lat":-6.237242,"i_long":106.780334,"station_name":"Kebayoran","is_transit":false,"station_id":"KBY","line":6,"time":7},{"transit":false,"time":8,"i_long":106.74273,"is_transit":false,"line":6,"station_name":"Pondokranji","station_id":"PDJ","distance":6218,"i_lat":-6.276362},{"i_lat":-6.288927,"is_transit":false,"station_id":"JMU","transit":false,"time":3,"station_name":"Jurangmangu","distance":2179,"i_long":106.728916,"line":6},{"line":6,"is_transit":false,"distance":1994,"station_id":"SDM","station_name":"Sudimara","i_long":106.712277,"transit":false,"i_lat":-6.296963,"time":4},{"i_long":106.675475,"is_transit":false,"station_id":"RU","station_name":"Rawa Buntu","transit":false,"i_lat":-6.314823,"line":6,"distance":4566,"time":6},{"transit":false,"time":4,"line":6,"is_transit":false,"i_long":106.66566,"i_lat":-6.319871,"distance":2413,"station_name":"Serpong","station_id":"SRP"}],[{"is_transit":false,"line":1,"distance":0,"transit":false,"i_lat":-6.219053,"i_long":106.951283,"station_name":"Cakung","time":0,"station_id":"CUK"},{"station_name":"Klenderbaru","is_transit":false,"i_long":106.939679,"transit":false,"distance":1385,"station_id":"KLDB","time":8,"line":1,"i_lat":-6.217455},{"time":1,"i_lat":-6.215568,"i_long":106.922662,"line":1,"station_name":"Buaran","is_transit":false,"distance":1305,"transit":false,"station_id":"BUA"},{"i_long":106.899548,"transit":false,"time":2,"is_transit":false,"station_name":"Klender","line":1,"i_lat":-6.2135,"station_id":"KLD","distance":3100},{"distance":3395,"i_lat":-6.215091,"transit":true,"time":3,"station_name":"Jatinegara","i_long":106.86807400000001,"line":1,"station_id":"JNG","is_transit":true},{"time":2,"distance":1236,"station_id":"POK","station_name":"Pondok Jati","line":11,"transit":false,"i_long":106.861737,"i_lat":-6.209188,"is_transit":false},{"line":11,"station_id":"KMT","station_name":"Kramat","transit":false,"time":2,"i_lat":-6.193792,"i_long":106.855437,"distance":1829,"is_transit":false},{"transit":false,"station_id":"GST","line":11,"time":1,"i_lat":-6.185975,"distance":973,"station_name":"Gang Sentiong","i_long":106.850107,"is_transit":false},{"transit":false,"distance":1567,"station_id":"PSE","i_long":106.84368,"time":8,"i_lat":-6.174784,"station_name":"Pasar Senen","line":11,"is_transit":false},{"time":4,"transit":false,"station_id":"KMO","is_transit":false,"station_name":"Kemayoran","i_long":106.839204,"distance":1436,"line":11,"i_lat":-6.161728},{"station_name":"Rajawali","i_lat":-6.14505,"transit":false,"i_long":106.836569,"station_id":"RJW","is_transit":false,"time":5,"line":11,"distance":1901},{"distance":1444,"station_id":"KPB","time":3,"is_transit":true,"transit":true,"i_lat":-6.132549,"line":4,"station_name":"Kampung Bandan","i_long":106.826365},{"station_name":"Jakarta Kota","i_lat":-6.137569,"i_long":106.812439,"time":3,"line":2,"station_id":"JAKK","distance":1364,"transit":true,"is_transit":true},{"is_transit":false,"transit":false,"line":2,"i_long":106.820901,"i_lat":-6.141205,"distance":1264,"time":4,"station_name":"Jayakarta","station_id":"JAY"},{"distance":1080,"is_transit":false,"station_id":"MGB","transit":false,"time":2,"line":2,"i_long":106.82482,"i_lat":-6.149769,"station_name":"Manggabesar"},{"time":2,"line":2,"i_long":106.827103,"distance":906,"i_lat":-6.160725,"transit":false,"station_id":"SW","station_name":"Sawah Besar","is_transit":false},{"is_transit":false,"station_name":"Juanda","i_lat":-6.166716,"line":2,"distance":1149,"i_long":106.828284,"station_id":"JUA","time":2,"transit":false},{"i_lat":-6.186295,"is_transit":false,"line":2,"station_name":"Gondangdia","transit":false,"i_long":106.832183,"time":4,"station_id":"GDD","distance":2015},{"line":2,"distance":1750,"transit":false,"i_lat":-6.198556,"i_long":106.840169,"station_id":"CKI","is_transit":false,"time":3,"station_name":"Cikini"},{"i_long":106.84912,"transit":true,"station_name":"Manggarai","is_transit":true,"time":4,"distance":1590,"i_lat":-6.209883,"station_id":"MRI","line":2},{"time":4,"i_lat":-6.202263,"is_transit":false,"i_long":106.822649,"line":1,"transit":false,"distance":3186,"station_id":"SUD","station_name":"Sudirman"},{"is_transit":false,"transit":false,"time":1,"station_name":"Sudirman Baru","i_lat":-6.201433,"distance":280,"i_long":106.819881,"line":1,"station_id":"SUDB"},{"i_long":106.816351,"transit":false,"time":1,"station_name":"Karet","station_id":"KAT","distance":471,"line":1,"i_lat":-6.20132,"is_transit":false},{"time":5,"distance":2029,"i_lat":-6.185545,"line":1,"station_id":"THB","station_name":"Tanah Abang","is_transit":true,"i_long":106.811091,"transit":true},{"line":6,"transit":false,"station_id":"PLM","is_transit":false,"i_lat":-6.207404,"distance":3191,"time":6,"station_name":"Palmerah","i_long":106.79689},{"i_long":106.780334,"line":6,"is_transit":false,"time":7,"distance":3737,"transit":false,"station_id":"KBY","station_name":"Kebayoran","i_lat":-6.237242},{"i_long":106.74273,"i_lat":-6.276362,"is_transit":false,"station_name":"Pondokranji","distance":6218,"station_id":"PDJ","line":6,"time":8,"transit":false},{"transit":false,"distance":2179,"is_transit":false,"time":3,"i_long":106.728916,"station_id":"JMU","line":6,"i_lat":-6.288927,"station_name":"Jurangmangu"},{"transit":false,"i_long":106.712277,"station_name":"Sudimara","station_id":"SDM","time":4,"distance":1994,"i_lat":-6.296963,"line":6,"is_transit":false},{"i_long":106.675475,"distance":4566,"station_id":"RU","line":6,"transit":false,"time":6,"station_name":"Rawa Buntu","is_transit":false,"i_lat":-6.314823},{"distance":2413,"is_transit":false,"line":6,"station_name":"Serpong","transit":false,"i_lat":-6.319871,"station_id":"SRP","time":4,"i_long":106.66566}]]}