{"data":[[{"i_lat":-6.219053,"time":0,"transit":false,"station_id":"CUK","i_long":106.951283,"is_transit":false,"distance":0,"line":1,"station_name":"Cakung"},{"i_lat":-6.217455,"transit":false,"station_name":"Klenderbaru","time":8,"distance":1385,"i_long":106.939679,"station_id":"KLDB","is_transit":false,"line":1},{"is_transit":false,"time":1,"transit":false,"i_lat":-6.215568,"station_name":"Buaran","station_id":"BUA","distance":1305,"i_long":106.922662,"line":1},{"line":1,"station_id":"KLD","transit":false,"is_transit":false,"distance":3100,"time":2,"station_name":"Klender","i_lat":-6.2135,"i_long":106.899548},{"is_transit":false,"station_id":"JNG","i_long":106.86807400000001,"transit":false,"station_name":"Jatinegara","distance":3395,"i_lat":-6.215091,"line":1,"time":3},{"time":2,"line":1,"i_lat":-6.212485,"i_long":106.858896,"station_id":"MTR","station_name":"Matraman","distance":1377,"transit":false,"is_transit":false}],[{"time":0,"line":1,"distance":0,"transit":false,"i_lat":-6.219053,"station_name":"Cakung","station_id":"CUK","i_long":106.951283,"is_transit":false},{"station_name":"Klenderbaru","i_long":106.939679,"line":1,"station_id":"KLDB","transit":false,"is_transit":false,"i_lat":-6.217455,"time":8,"distance":1385},{"is_transit":false,"time":1,"distance":1305,"transit":false,"line":1,"i_long":106.922662,"station_name":"Buaran","station_id":"BUA","i_lat":-6.215568},{"station_name":"Klender","time":2,"station_id":"KLD","line":1,"transit":false,"i_lat":-6.2135,"i_long":106.899548,"is_transit":false,"distance":3100},{"line":1,"transit":true,"i_long":106.86807400000001,"is_transit":true,"distance":3395,"station_id":"JNG","station_name":"Jatinegara","time":3,"i_lat":-6.215091},{"i_lat":-6.209188,"is_transit":false,"station_name":"Pondok Jati","station_id":"POK","time":2,"transit":false,"distance":1236,"i_long":106.861737,"line":11},{"line":11,"transit":false,"time":2,"distance":1829,"i_lat":-6.193792,"is_transit":false,"station_name":"Kramat","station_id":"KMT","i_long":106.855437},{"time":1,"station_id":"GST","station_name":"Gang Sentiong","i_long":106.850107,"transit":false,"line":11,"is_transit":false,"distance":973,"i_lat":-6.185975},{"i_lat":-6.174784,"station_name":"Pasar Senen","line":11,"transit":false,"station_id":"PSE","is_transit":false,"time":8,"distance":1567,"i_long":106.84368},{"time":4,"i_lat":-6.161728,"is_transit":false,"distance":1436,"station_id":"KMO","i_long":106.839204,"line":11,"station_name":"Kemayoran","transit":false},{"station_id":"RJW","i_lat":-6.14505,"i_long":106.836569,"line":11,"station_name":"Rajawali","transit":false,"time":5,"is_transit":false,"distance":1901},{"time":3,"line":4,"distance":1444,"is_transit":true,"station_name":"Kampung Bandan","i_long":106.826365,"station_id":"KPB","i_lat":-6.132549,"transit":true},{"distance":4102,"station_name":"Angke","transit":false,"time":9,"line":1,"i_long":106.79867,"station_id":"AK","is_transit":false,"i_lat":-6.144674},{"is_transit":false,"station_name":"Duri","line":1,"station_id":"DU","distance":1230,"i_lat":-6.155215,"time":4,"transit":false,"i_long":106.800832},{"i_long":106.811091,"distance":3632,"station_id":"THB","line":1,"time":8,"transit":false,"i_lat":-6.185545,"is_transit":false,"station_name":"Tanah Abang"},{"is_transit":false,"station_name":"Karet","distance":2029,"i_lat":-6.20132,"i_long":106.816351,"line":1,"transit":false,"station_id":"KAT","time":5},{"is_transit":false,"i_long":106.819881,"i_lat":-6.201433,"transit":false,"line":1,"station_id":"SUDB","distance":471,"station_name":"Sudirman Baru","time":1},{"station_id":"SUD","time":1,"is_transit":false,"station_name":"Sudirman","transit":false,"distance":280,"i_lat":-6.202263,"i_long":106.822649,"line":1},{"i_long":106.84912,"station_id":"MRI","station_name":"Manggarai","is_transit":false,"time":4,"i_lat":-6.209883,"transit":false,"distance":3186,"line":2},{"is_transit":false,"distance":1275,"i_lat":-6.212485,"i_long":106.858896,"transit":false,"station_name":"Matraman","line":1,"time":2,"station_id":"MTR"}],[{"distance":0,"i_lat":-6.219053,"station_name":"Cakung","is_transit":false,"transit":false,"station_id":"CUK","time":0,"line":1,"i_long":106.951283},{"distance":1385,"i_lat":-6.217455,"is_transit":false,"time":8,"station_id":"KLDB","i_long":106.939679,"line":1,"transit":false,"station_name":"Klenderbaru"},{"i_long":106.922662,"station_id":"BUA","station_name":"Buaran","distance":1305,"i_lat":-6.215568,"transit":false,"line":1,"is_transit":false,"time":1},{"i_long":106.899548,"line":1,"time":2,"station_id":"KLD","transit":false,"i_lat":-6.2135,"distance":3100,"station_name":"Klender","is_transit":false},{"transit":true,"i_long":106.86807400000001,"station_name":"Jatinegara","station_id":"JNG","distance":3395,"line":1,"is_transit":true,"time":3,"i_lat":-6.215091},{"line":11,"i_lat":-6.209188,"station_id":"POK","is_transit":false,"station_name":"Pondok Jati","transit":false,"time":2,"distance":1236,"i_long":106.861737},{"i_long":106.855437,"i_lat":-6.193792,"is_transit":false,"station_id":"KMT","distance":1829,"station_name":"Kramat","line":11,"transit":false,"time":2},{"i_long":106.850107,"is_transit":false,"station_name":"Gang Sentiong","station_id":"GST","distance":973,"i_lat":-6.185975,"transit":false,"line":11,"time":1},{"time":8,"i_long":106.84368,"line":11,"is_transit":false,"station_name":"Pasar Senen","i_lat":-6.174784,"transit":false,"distance":1567,"station_id":"PSE"},{"i_long":106.839204,"station_name":"Kemayoran","is_transit":false,"distance":1436,"line":11,"station_id":"KMO","transit":false,"time":4,"i_lat":-6.161728},{"i_lat":-6.14505,"station_name":"Rajawali","is_transit":false,"i_long":106.836569,"time":5,"line":11,"transit":false,"station_id":"RJW","distance":1901},{"station_id":"KPB","transit":true,"i_lat":-6.132549,"line":4,"station_name":"Kampung Bandan","time":3,"is_transit":true,"distance":1444,"i_long":106.826365},{"station_id":"JAKK","distance":1364,"i_long":106.812439,"transit":true,"time":3,"i_lat":-6.137569,"line":2,"station_name":"Jakarta Kota","is_transit":true},{"station_name":"Jayakarta","i_long":106.820901,"transit":false,"i_lat":-6.141205,"time":4,"line":2,"distance":1264,"station_id":"JAY","is_transit":false},{"i_long":106.82482,"transit":false,"is_transit":false,"station_id":"MGB","i_lat":-6.149769,"station_name":"Manggabesar","distance":1080,"line":2,"time":2},{"distance":906,"station_name":"Sawah Besar","is_transit":false,"station_id":"SW","i_long":106.827103,"transit":false,"i_lat":-6.160725,"line":2,"time":2},{"transit":false,"station_id":"JUA","distance":1149,"i_lat":-6.166716,"line":2,"station_name":"Juanda","i_long":106.828284,"is_transit":false,"time":2},{"i_lat":-6.186295,"line":2,"distance":2015,"transit":false,"time":4,"i_long":106.832183,"station_id":"GDD","station_name":"Gondangdia","is_transit":false},{"station_name":"Cikini","time":3,"transit":false,"distance":1750,"is_transit":false,"line":2,"i_lat":-6.198556,"i_long":106.840169,"station_id":"CKI"},{"station_id":"MRI","station_name":"Manggarai","transit":true,"distance":1590,"i_lat":-6.209883,"is_transit":true,"time":4,"i_long":106.84912,"line":2},{"time":2,"i_long":106.858896,"station_name":"Matraman","is_transit":false,"line":1,"distance":1275,"i_lat":-6.212485,"station_id":"MTR","transit":false}]]}