{"data":[[{"is_transit":false,"i_lat":-6.219053,"line":1,"station_name":"Cakung","time":0,"distance":0,"transit":false,"i_long":106.951283,"station_id":"CUK"},{"line":1,"i_lat":-6.217455,"station_id":"KLDB","station_name":"Klenderbaru","is_transit":false,"time":8,"transit":false,"distance":1385,"i_long":106.939679},{"i_long":106.922662,"distance":1305,"station_id":"BUA","transit":false,"line":1,"is_transit":false,"time":1,"station_name":"Buaran","i_lat":-6.215568},{"station_id":"KLD","station_name":"Klender","transit":false,"time":2,"i_long":106.899548,"line":1,"is_transit":false,"distance":3100,"i_lat":-6.2135},{"transit":false,"i_lat":-6.215091,"is_transit":false,"time":3,"line":1,"station_name":"Jatinegara","distance":3395,"i_long":106.86807400000001,"station_id":"JNG"},{"line":1,"transit":false,"distance":1377,"i_long":106.858896,"is_transit":false,"station_name":"Matraman","i_lat":-6.212485,"station_id":"MTR","time":2},{"i_long":106.84912,"line":2,"i_lat":-6.209883,"is_transit":true,"station_name":"Manggarai","station_id":"MRI","time":2,"distance":1275,"transit":true},{"time":4,"distance":2610,"station_name":"Tebet","i_long":106.857948,"station_id":"TEB","line":2,"is_transit":false,"transit":false,"i_lat":-6.226659},{"i_long":106.856607,"station_name":"Cawang","is_transit":false,"transit":false,"i_lat":-6.242512,"station_id":"CW","line":2,"time":2,"distance":1230},{"is_transit":false,"distance":1546,"station_name":"Duren Kalibata","station_id":"DRN","i_lat":-6.255332,"time":3,"transit":false,"i_long":106.85449,"line":2},{"line":2,"station_id":"PSMB","transit":false,"station_name":"Pasar Minggu Baru","time":2,"distance":824,"is_transit":false,"i_lat":-6.263214,"i_long":106.851577},{"i_lat":-6.2842400000000005,"transit":false,"distance":2380,"line":2,"station_name":"Pasar Minggu","station_id":"PSM","is_transit":false,"time":2,"i_long":106.843999},{"station_name":"Tanjung Barat","transit":false,"station_id":"TNT","distance":2820,"time":4,"is_transit":false,"i_long":106.838896,"line":2,"i_lat":-6.3080680000000005},{"i_long":106.832616,"line":2,"is_transit":false,"station_id":"LNA","time":3,"station_name":"Lenteng Agung","distance":2671,"transit":false,"i_lat":-6.330363},{"i_lat":-6.339291,"i_long":106.834175,"is_transit":false,"station_id":"UP","station_name":"Univ. Pancasila","line":2,"transit":false,"time":2,"distance":1029}],[{"time":0,"i_lat":-6.219053,"i_long":106.951283,"distance":0,"station_name":"Cakung","line":1,"transit":false,"is_transit":false,"station_id":"CUK"},{"line":1,"i_long":106.939679,"station_id":"KLDB","is_transit":false,"time":8,"i_lat":-6.217455,"transit":false,"station_name":"Klenderbaru","distance":1385},{"i_long":106.922662,"time":1,"station_name":"Buaran","is_transit":false,"distance":1305,"transit":false,"line":1,"station_id":"BUA","i_lat":-6.215568},{"i_long":106.899548,"i_lat":-6.2135,"time":2,"distance":3100,"line":1,"is_transit":false,"station_id":"KLD","transit":false,"station_name":"Klender"},{"transit":true,"distance":3395,"station_id":"JNG","is_transit":true,"station_name":"Jatinegara","i_long":106.86807400000001,"time":3,"i_lat":-6.215091,"line":1},{"is_transit":false,"distance":1236,"station_id":"POK","i_long":106.861737,"transit":false,"time":2,"line":11,"i_lat":-6.209188,"station_name":"Pondok Jati"},{"time":2,"distance":1829,"station_name":"Kramat","line":11,"station_id":"KMT","i_lat":-6.193792,"is_transit":false,"i_long":106.855437,"transit":false},{"time":1,"line":11,"transit":false,"station_name":"Gang Sentiong","i_long":106.850107,"distance":973,"i_lat":-6.185975,"is_transit":false,"station_id":"GST"},{"is_transit":false,"transit":false,"time":8,"i_lat":-6.174784,"station_id":"PSE","distance":1567,"station_name":"Pasar Senen","i_long":106.84368,"line":11},{"i_long":106.839204,"station_id":"KMO","i_lat":-6.161728,"station_name":"Kemayoran","transit":false,"is_transit":false,"time":4,"line":11,"distance":1436},{"transit":false,"station_id":"RJW","i_long":106.836569,"line":11,"time":5,"distance":1901,"i_lat":-6.14505,"station_name":"Rajawali","is_transit":false},{"line":4,"station_id":"KPB","i_long":106.826365,"station_name":"Kampung Bandan","time":3,"i_lat":-6.132549,"transit":true,"is_transit":true,"distance":1444},{"station_name":"Angke","time":9,"i_lat":-6.144674,"station_id":"AK","line":1,"distance":4102,"is_transit":false,"transit":false,"i_long":106.79867},{"time":4,"i_lat":-6.155215,"is_transit":false,"station_name":"Duri","transit":false,"distance":1230,"i_long":106.800832,"station_id":"DU","line":1},{"transit":false,"line":1,"distance":3632,"station_id":"THB","i_lat":-6.185545,"station_name":"Tanah Abang","is_transit":false,"i_long":106.811091,"time":8},{"transit":false,"time":5,"is_transit":false,"distance":2029,"i_long":106.816351,"line":1,"station_id":"KAT","i_lat":-6.20132,"station_name":"Karet"},{"i_long":106.819881,"station_id":"SUDB","distance":471,"line":1,"time":1,"transit":false,"is_transit":false,"station_name":"Sudirman Baru","i_lat":-6.201433},{"transit":false,"is_transit":false,"distance":280,"i_lat":-6.202263,"i_long":106.822649,"station_id":"SUD","time":1,"line":1,"station_name":"Sudirman"},{"i_long":106.84912,"transit":true,"station_id":"MRI","is_transit":true,"time":4,"station_name":"Manggarai","i_lat":-6.209883,"line":2,"distance":3186},{"time":4,"station_name":"Tebet","is_transit":false,"i_long":106.857948,"line":2,"transit":false,"distance":2610,"station_id":"TEB","i_lat":-6.226659},{"i_long":106.856607,"time":2,"line":2,"i_lat":-6.242512,"station_name":"Cawang","transit":false,"is_transit":false,"distance":1230,"station_id":"CW"},{"station_name":"Duren Kalibata","distance":1546,"line":2,"is_transit":false,"i_lat":-6.255332,"transit":false,"station_id":"DRN","time":3,"i_long":106.85449},{"time":2,"is_transit":false,"station_name":"Pasar Minggu Baru","line":2,"distance":824,"i_lat":-6.263214,"i_long":106.851577,"transit":false,"station_id":"PSMB"},{"line":2,"transit":false,"station_name":"Pasar Minggu","i_lat":-6.2842400000000005,"distance":2380,"is_transit":false,"time":2,"station_id":"PSM","i_long":106.843999},{"station_id":"TNT","distance":2820,"transit":false,"station_name":"Tanjung Barat","is_transit":false,"time":4,"i_lat":-6.3080680000000005,"i_long":106.838896,"line":2},{"station_id":"LNA","is_transit":false,"time":3,"line":2,"transit":false,"station_name":"Lenteng Agung","distance":2671,"i_lat":-6.330363,"i_long":106.832616},{"is_transit":false,"i_lat":-6.339291,"station_name":"Univ. Pancasila","distance":1029,"station_id":"UP","time":2,"transit":false,"line":2,"i_long":106.834175}],[{"transit":false,"station_id":"CUK","distance":0,"line":1,"is_transit":false,"time":0,"i_lat":-6.219053,"i_long":106.951283,"station_name":"Cakung"},{"time":8,"i_long":106.939679,"line":1,"distance":1385,"station_id":"KLDB","i_lat":-6.217455,"is_transit":false,"transit":false,"station_name":"Klenderbaru"},{"distance":1305,"line":1,"station_name":"Buaran","time":1,"station_id":"BUA","i_lat":-6.215568,"transit":false,"i_long":106.922662,"is_transit":false},{"station_id":"KLD","transit":false,"time":2,"i_long":106.899548,"station_name":"Klender","is_transit":false,"distance":3100,"line":1,"i_lat":-6.2135},{"distance":3395,"i_lat":-6.215091,"station_id":"JNG","is_transit":true,"transit":true,"station_name":"Jatinegara","line":1,"time":3,"i_long":106.86807400000001},{"is_transit":false,"time":2,"station_id":"POK","distance":1236,"station_name":"Pondok Jati","transit":false,"i_lat":-6.209188,"line":11,"i_long":106.861737},{"i_lat":-6.193792,"is_transit":false,"distance":1829,"i_long":106.855437,"transit":false,"line":11,"station_name":"Kramat","station_id":"KMT","time":2},{"line":11,"time":1,"i_lat":-6.185975,"distance":973,"i_long":106.850107,"station_id":"GST","is_transit":false,"transit":false,"station_name":"Gang Sentiong"},{"is_transit":false,"station_id":"PSE","station_name":"Pasar Senen","transit":false,"i_long":106.84368,"line":11,"distance":1567,"i_lat":-6.174784,"time":8},{"transit":false,"station_name":"Kemayoran","station_id":"KMO","i_lat":-6.161728,"is_transit":false,"time":4,"distance":1436,"i_long":106.839204,"line":11},{"station_name":"Rajawali","i_lat":-6.14505,"transit":false,"is_transit":false,"station_id":"RJW","distance":1901,"line":11,"time":5,"i_long":106.836569},{"time":3,"distance":1444,"station_id":"KPB","is_transit":true,"transit":true,"line":4,"station_name":"Kampung Bandan","i_long":106.826365,"i_lat":-6.132549},{"i_long":106.812439,"station_name":"Jakarta Kota","is_transit":true,"station_id":"JAKK","i_lat":-6.137569,"transit":true,"line":2,"distance":1364,"time":3},{"station_id":"JAY","line":2,"station_name":"Jayakarta","transit":false,"is_transit":false,"distance":1264,"time":4,"i_long":106.820901,"i_lat":-6.141205},{"time":2,"station_id":"MGB","i_long":106.82482,"i_lat":-6.149769,"station_name":"Manggabesar","transit":false,"is_transit":false,"distance":1080,"line":2},{"i_long":106.827103,"station_name":"Sawah Besar","distance":906,"is_transit":false,"line":2,"transit":false,"time":2,"i_lat":-6.160725,"station_id":"SW"},{"station_name":"Juanda","time":2,"distance":1149,"i_lat":-6.166716,"line":2,"transit":false,"i_long":106.828284,"station_id":"JUA","is_transit":false},{"station_id":"GDD","station_name":"Gondangdia","i_lat":-6.186295,"line":2,"distance":2015,"i_long":106.832183,"is_transit":false,"transit":false,"time":4},{"line":2,"station_name":"Cikini","distance":1750,"is_transit":false,"i_lat":-6.198556,"transit":false,"i_long":106.840169,"station_id":"CKI","time":3},{"is_transit":false,"i_lat":-6.209883,"time":4,"station_name":"Manggarai","i_long":106.84912,"distance":1590,"transit":false,"line":2,"station_id":"MRI"},{"station_id":"TEB","is_transit":false,"i_lat":-6.226659,"station_name":"Tebet","distance":2610,"transit":false,"time":4,"i_long":106.857948,"line":2},{"is_transit":false,"i_lat":-6.242512,"time":2,"i_long":106.856607,"line":2,"transit":false,"station_name":"Cawang","station_id":"CW","distance":1230},{"i_lat":-6.255332,"is_transit":false,"time":3,"station_name":"Duren Kalibata","line":2,"distance":1546,"transit":false,"i_long":106.85449,"station_id":"DRN"},{"is_transit":false,"time":2,"i_lat":-6.263214,"i_long":106.851577,"distance":824,"line":2,"station_name":"Pasar Minggu Baru","station_id":"PSMB","transit":false},{"transit":false,"i_long":106.843999,"station_name":"Pasar Minggu","station_id":"PSM","distance":2380,"line":2,"is_transit":false,"i_lat":-6.2842400000000005,"time":2},{"line":2,"time":4,"distance":2820,"i_lat":-6.3080680000000005,"i_long":106.838896,"transit":false,"station_id":"TNT","is_transit":false,"station_name":"Tanjung Barat"},{"i_lat":-6.330363,"is_transit":false,"line":2,"distance":2671,"transit":false,"station_name":"Lenteng Agung","i_long":106.832616,"station_id":"LNA","time":3},{"i_lat":-6.339291,"distance":1029,"time":2,"station_name":"Univ. Pancasila","station_id":"UP","i_long":106.834175,"line":2,"is_transit":false,"transit":false}]]}