{"data":[[{"is_transit":false,"station_id":"CUK","distance":0,"transit":false,"i_lat":-6.219053,"line":0,"time":0,"i_long":106.951283,"station_name":"Cakung"},{"station_id":"KLDB","distance":1385,"is_transit":false,"time":8,"station_name":"Klenderbaru","transit":false,"i_lat":-6.217455,"i_long":106.939679,"line":1},{"station_name":"Buaran","i_lat":-6.215568,"i_long":106.922662,"station_id":"BUA","is_transit":false,"time":1,"transit":false,"line":0,"distance":1305},{"station_id":"KLD","time":2,"transit":false,"i_lat":-6.2135,"line":1,"station_name":"Klender","distance":3100,"i_long":106.899548,"is_transit":false},{"station_id":"JNG","time":3,"i_lat":-6.215091,"station_name":"Jatinegara","line":0,"is_transit":true,"distance":3395,"transit":true,"i_long":106.86807400000001},{"transit":false,"station_name":"Pondok Jati","distance":1236,"i_lat":-6.209188,"i_long":106.861737,"is_transit":false,"time":2,"line":11,"station_id":"POK"},{"distance":1829,"is_transit":false,"station_name":"Kramat","i_lat":-6.193792,"station_id":"KMT","time":2,"transit":false,"line":11,"i_long":106.855437},{"distance":973,"i_lat":-6.185975,"time":1,"i_long":106.850107,"station_name":"Gang Sentiong","line":11,"is_transit":false,"station_id":"GST","transit":false},{"time":8,"distance":1567,"station_id":"PSE","is_transit":false,"i_lat":-6.174784,"station_name":"Pasar Senen","i_long":106.84368,"transit":false,"line":11}],[{"time":0,"station_id":"CUK","is_transit":false,"transit":false,"station_name":"Cakung","i_lat":-6.219053,"line":0,"distance":0,"i_long":106.951283},{"time":8,"transit":false,"station_name":"Klenderbaru","station_id":"KLDB","i_lat":-6.217455,"line":1,"i_long":106.939679,"distance":1385,"is_transit":false},{"i_long":106.922662,"is_transit":false,"station_id":"BUA","time":1,"station_name":"Buaran","distance":1305,"line":0,"i_lat":-6.215568,"transit":false},{"distance":3100,"transit":false,"i_lat":-6.2135,"station_id":"KLD","i_long":106.899548,"is_transit":false,"time":2,"station_name":"Klender","line":1},{"time":3,"transit":false,"i_lat":-6.215091,"distance":3395,"line":0,"station_name":"Jatinegara","i_long":106.86807400000001,"is_transit":true,"station_id":"JNG"},{"time":2,"station_id":"MTR","i_long":106.858896,"transit":false,"station_name":"Matraman","i_lat":-6.212485,"line":1,"distance":1377,"is_transit":false},{"transit":false,"i_lat":-6.209883,"i_long":106.84912,"station_name":"Manggarai","distance":1275,"station_id":"MRI","line":0,"is_transit":true,"time":2},{"time":4,"station_id":"SUD","station_name":"Sudirman","is_transit":false,"i_lat":-6.202263,"i_long":106.822649,"transit":false,"distance":3186,"line":1},{"time":1,"station_name":"Sudirman Baru","station_id":"SUDB","line":1,"i_lat":-6.201433,"is_transit":false,"transit":false,"i_long":106.819881,"distance":280},{"station_id":"KAT","transit":false,"station_name":"Karet","i_lat":-6.20132,"is_transit":false,"time":1,"i_long":106.816351,"distance":471,"line":1},{"transit":false,"line":1,"station_id":"THB","i_long":106.811091,"i_lat":-6.185545,"time":5,"is_transit":true,"station_name":"Tanah Abang","distance":2029},{"i_lat":-6.155215,"station_id":"DU","distance":3632,"station_name":"Duri","line":1,"transit":true,"i_long":106.800832,"is_transit":true,"time":8},{"i_lat":-6.144674,"i_long":106.79867,"time":4,"station_name":"Angke","line":0,"transit":false,"is_transit":false,"distance":1230,"station_id":"AK"},{"station_id":"KPB","line":0,"transit":true,"i_lat":-6.132549,"time":9,"distance":4102,"is_transit":true,"i_long":106.826365,"station_name":"Kampung Bandan"},{"station_id":"RJW","i_long":106.836569,"time":3,"i_lat":-6.14505,"station_name":"Rajawali","distance":1444,"transit":false,"line":11,"is_transit":false},{"station_id":"KMO","time":5,"distance":1901,"transit":false,"is_transit":false,"line":11,"station_name":"Kemayoran","i_long":106.839204,"i_lat":-6.161728},{"distance":1436,"is_transit":false,"time":4,"i_long":106.84368,"line":11,"station_id":"PSE","i_lat":-6.174784,"transit":false,"station_name":"Pasar Senen"}],[{"distance":0,"station_name":"Cakung","is_transit":false,"i_lat":-6.219053,"i_long":106.951283,"line":0,"time":0,"station_id":"CUK","transit":false},{"station_id":"KLDB","i_lat":-6.217455,"station_name":"Klenderbaru","i_long":106.939679,"time":8,"distance":1385,"transit":false,"is_transit":false,"line":1},{"station_name":"Buaran","distance":1305,"i_long":106.922662,"station_id":"BUA","is_transit":false,"transit":false,"time":1,"i_lat":-6.215568,"line":0},{"station_name":"Klender","station_id":"KLD","distance":3100,"i_lat":-6.2135,"time":2,"line":1,"is_transit":false,"transit":false,"i_long":106.899548},{"line":0,"distance":3395,"i_long":106.86807400000001,"is_transit":true,"station_id":"JNG","time":3,"transit":false,"station_name":"Jatinegara","i_lat":-6.215091},{"time":2,"distance":1377,"i_long":106.858896,"i_lat":-6.212485,"line":1,"station_id":"MTR","transit":false,"is_transit":false,"station_name":"Matraman"},{"is_transit":true,"transit":true,"i_lat":-6.209883,"i_long":106.84912,"station_name":"Manggarai","station_id":"MRI","time":2,"distance":1275,"line":0},{"time":4,"transit":false,"i_long":106.840169,"station_id":"CKI","distance":1590,"station_name":"Cikini","is_transit":false,"i_lat":-6.198556,"line":0},{"station_id":"GDD","i_long":106.832183,"distance":1750,"time":3,"line":2,"is_transit":false,"transit":false,"station_name":"Gondangdia","i_lat":-6.186295},{"i_lat":-6.166716,"line":2,"station_name":"Juanda","is_transit":false,"time":4,"i_long":106.828284,"distance":2015,"transit":false,"station_id":"JUA"},{"i_lat":-6.160725,"time":2,"i_long":106.827103,"station_id":"SW","distance":1149,"line":2,"station_name":"Sawah Besar","transit":false,"is_transit":false},{"distance":906,"time":2,"station_name":"Manggabesar","i_long":106.82482,"line":2,"i_lat":-6.149769,"station_id":"MGB","is_transit":false,"transit":false},{"is_transit":false,"station_id":"JAY","i_long":106.820901,"line":7,"station_name":"Jayakarta","time":2,"distance":1080,"i_lat":-6.141205,"transit":false},{"is_transit":true,"i_lat":-6.137569,"time":4,"line":0,"i_long":106.812439,"station_id":"JAKK","station_name":"Jakarta Kota","distance":1264,"transit":true},{"is_transit":true,"distance":1364,"transit":true,"station_id":"KPB","line":0,"station_name":"Kampung Bandan","i_long":106.826365,"time":3,"i_lat":-6.132549},{"line":11,"i_lat":-6.14505,"distance":1444,"i_long":106.836569,"transit":false,"station_id":"RJW","time":3,"station_name":"Rajawali","is_transit":false},{"station_name":"Kemayoran","time":5,"i_long":106.839204,"line":11,"transit":false,"is_transit":false,"station_id":"KMO","distance":1901,"i_lat":-6.161728},{"station_id":"PSE","i_lat":-6.174784,"time":4,"i_long":106.84368,"transit":false,"station_name":"Pasar Senen","is_transit":false,"line":11,"distance":1436}]]}