{"data":[[{"time":0,"i_lat":-6.219053,"station_name":"Cakung","i_long":106.951283,"station_id":"CUK","transit":false,"distance":0,"line":1,"is_transit":false},{"is_transit":false,"i_long":106.939679,"transit":false,"time":8,"distance":1385,"station_name":"Klenderbaru","i_lat":-6.217455,"line":1,"station_id":"KLDB"},{"line":1,"transit":false,"station_name":"Buaran","i_lat":-6.215568,"distance":1305,"i_long":106.922662,"is_transit":false,"time":1,"station_id":"BUA"},{"i_lat":-6.2135,"station_id":"KLD","station_name":"Klender","line":1,"is_transit":false,"time":2,"transit":false,"distance":3100,"i_long":106.899548},{"station_id":"JNG","i_lat":-6.215091,"distance":3395,"is_transit":false,"station_name":"Jatinegara","line":1,"time":3,"i_long":106.86807400000001,"transit":false},{"station_name":"Matraman","time":2,"line":1,"transit":false,"station_id":"MTR","i_lat":-6.212485,"distance":1377,"i_long":106.858896,"is_transit":false},{"line":2,"i_lat":-6.209883,"is_transit":false,"station_name":"Manggarai","station_id":"MRI","time":2,"distance":1275,"i_long":106.84912,"transit":false},{"is_transit":false,"station_id":"SUD","i_long":106.822649,"line":1,"time":4,"i_lat":-6.202263,"transit":false,"station_name":"Sudirman","distance":3186},{"i_long":106.819881,"time":1,"station_name":"Sudirman Baru","line":1,"is_transit":false,"transit":false,"distance":280,"i_lat":-6.201433,"station_id":"SUDB"},{"i_lat":-6.20132,"transit":false,"i_long":106.816351,"is_transit":false,"time":1,"station_name":"Karet","distance":471,"station_id":"KAT","line":1},{"transit":true,"line":1,"station_id":"THB","i_long":106.811091,"is_transit":true,"distance":2029,"station_name":"Tanah Abang","i_lat":-6.185545,"time":5},{"is_transit":false,"station_id":"PLM","station_name":"Palmerah","i_long":106.79689,"transit":false,"distance":3191,"time":6,"line":6,"i_lat":-6.207404},{"i_lat":-6.237242,"time":7,"station_id":"KBY","i_long":106.780334,"line":6,"is_transit":false,"station_name":"Kebayoran","transit":false,"distance":3737},{"i_lat":-6.276362,"i_long":106.74273,"transit":false,"is_transit":false,"line":6,"station_name":"Pondokranji","distance":6218,"time":8,"station_id":"PDJ"},{"time":3,"transit":false,"i_long":106.728916,"line":6,"distance":2179,"is_transit":false,"station_name":"Jurangmangu","station_id":"JMU","i_lat":-6.288927},{"time":4,"transit":false,"distance":1994,"i_lat":-6.296963,"line":6,"station_name":"Sudimara","i_long":106.712277,"station_id":"SDM","is_transit":false},{"time":6,"distance":4566,"station_id":"RU","line":6,"is_transit":false,"i_lat":-6.314823,"station_name":"Rawa Buntu","transit":false,"i_long":106.675475}],[{"time":0,"station_id":"CUK","transit":false,"distance":0,"i_long":106.951283,"line":1,"i_lat":-6.219053,"station_name":"Cakung","is_transit":false},{"station_name":"Klenderbaru","station_id":"KLDB","is_transit":false,"i_long":106.939679,"distance":1385,"i_lat":-6.217455,"time":8,"transit":false,"line":1},{"is_transit":false,"transit":false,"i_lat":-6.215568,"time":1,"distance":1305,"station_name":"Buaran","station_id":"BUA","i_long":106.922662,"line":1},{"line":1,"i_lat":-6.2135,"station_name":"Klender","is_transit":false,"i_long":106.899548,"time":2,"transit":false,"distance":3100,"station_id":"KLD"},{"distance":3395,"is_transit":true,"transit":true,"time":3,"i_lat":-6.215091,"i_long":106.86807400000001,"line":1,"station_id":"JNG","station_name":"Jatinegara"},{"transit":false,"i_long":106.861737,"station_name":"Pondok Jati","time":2,"i_lat":-6.209188,"is_transit":false,"line":11,"distance":1236,"station_id":"POK"},{"station_name":"Kramat","distance":1829,"line":11,"i_lat":-6.193792,"i_long":106.855437,"transit":false,"time":2,"is_transit":false,"station_id":"KMT"},{"line":11,"station_name":"Gang Sentiong","is_transit":false,"time":1,"transit":false,"i_long":106.850107,"distance":973,"station_id":"GST","i_lat":-6.185975},{"station_name":"Pasar Senen","i_long":106.84368,"time":8,"i_lat":-6.174784,"line":11,"transit":false,"distance":1567,"station_id":"PSE","is_transit":false},{"distance":1436,"i_lat":-6.161728,"is_transit":false,"transit":false,"station_name":"Kemayoran","time":4,"station_id":"KMO","i_long":106.839204,"line":11},{"station_id":"RJW","station_name":"Rajawali","i_lat":-6.14505,"line":11,"is_transit":false,"i_long":106.836569,"transit":false,"distance":1901,"time":5},{"distance":1444,"time":3,"is_transit":true,"transit":true,"i_lat":-6.132549,"i_long":106.826365,"station_name":"Kampung Bandan","station_id":"KPB","line":4},{"is_transit":false,"i_lat":-6.144674,"station_name":"Angke","time":9,"distance":4102,"i_long":106.79867,"line":1,"station_id":"AK","transit":false},{"station_name":"Duri","transit":false,"time":4,"distance":1230,"is_transit":false,"station_id":"DU","i_lat":-6.155215,"i_long":106.800832,"line":1},{"transit":true,"i_lat":-6.185545,"station_id":"THB","is_transit":true,"distance":3632,"station_name":"Tanah Abang","time":8,"i_long":106.811091,"line":1},{"transit":false,"i_long":106.79689,"line":6,"distance":3191,"i_lat":-6.207404,"is_transit":false,"time":6,"station_id":"PLM","station_name":"Palmerah"},{"distance":3737,"i_lat":-6.237242,"is_transit":false,"station_name":"Kebayoran","time":7,"transit":false,"station_id":"KBY","line":6,"i_long":106.780334},{"line":6,"is_transit":false,"transit":false,"station_id":"PDJ","i_lat":-6.276362,"distance":6218,"station_name":"Pondokranji","time":8,"i_long":106.74273},{"line":6,"station_name":"Jurangmangu","i_long":106.728916,"station_id":"JMU","time":3,"distance":2179,"i_lat":-6.288927,"transit":false,"is_transit":false},{"transit":false,"line":6,"i_long":106.712277,"distance":1994,"i_lat":-6.296963,"station_id":"SDM","is_transit":false,"station_name":"Sudimara","time":4},{"i_long":106.675475,"line":6,"transit":false,"station_name":"Rawa Buntu","is_transit":false,"distance":4566,"station_id":"RU","time":6,"i_lat":-6.314823}],[{"line":1,"station_id":"CUK","i_lat":-6.219053,"time":0,"is_transit":false,"transit":false,"station_name":"Cakung","i_long":106.951283,"distance":0},{"station_name":"Klenderbaru","is_transit":false,"i_long":106.939679,"time":8,"i_lat":-6.217455,"line":1,"transit":false,"distance":1385,"station_id":"KLDB"},{"line":1,"is_transit":false,"transit":false,"time":1,"i_lat":-6.215568,"station_id":"BUA","station_name":"Buaran","i_long":106.922662,"distance":1305},{"station_name":"Klender","i_lat":-6.2135,"i_long":106.899548,"line":1,"is_transit":false,"station_id":"KLD","transit":false,"time":2,"distance":3100},{"time":3,"station_id":"JNG","is_transit":false,"transit":false,"i_long":106.86807400000001,"i_lat":-6.215091,"distance":3395,"line":1,"station_name":"Jatinegara"},{"i_lat":-6.212485,"station_name":"Matraman","transit":false,"distance":1377,"is_transit":false,"station_id":"MTR","i_long":106.858896,"line":1,"time":2},{"line":2,"is_transit":true,"station_id":"MRI","i_lat":-6.209883,"time":2,"station_name":"Manggarai","distance":1275,"i_long":106.84912,"transit":true},{"i_long":106.840169,"i_lat":-6.198556,"station_name":"Cikini","distance":1590,"station_id":"CKI","is_transit":false,"line":2,"transit":false,"time":4},{"is_transit":false,"station_name":"Gondangdia","station_id":"GDD","transit":false,"i_lat":-6.186295,"time":3,"line":2,"i_long":106.832183,"distance":1750},{"line":2,"transit":false,"time":4,"i_lat":-6.166716,"station_id":"JUA","distance":2015,"is_transit":false,"i_long":106.828284,"station_name":"Juanda"},{"is_transit":false,"line":2,"i_long":106.827103,"distance":1149,"station_id":"SW","i_lat":-6.160725,"station_name":"Sawah Besar","time":2,"transit":false},{"station_id":"MGB","station_name":"Manggabesar","is_transit":false,"transit":false,"line":2,"distance":906,"i_lat":-6.149769,"time":2,"i_long":106.82482},{"station_name":"Jayakarta","is_transit":false,"station_id":"JAY","i_long":106.820901,"time":2,"transit":false,"distance":1080,"i_lat":-6.141205,"line":2},{"station_id":"JAKK","time":4,"i_long":106.812439,"station_name":"Jakarta Kota","line":2,"distance":1264,"transit":true,"i_lat":-6.137569,"is_transit":true},{"i_long":106.826365,"line":4,"is_transit":true,"distance":1364,"station_name":"Kampung Bandan","time":3,"transit":true,"station_id":"KPB","i_lat":-6.132549},{"is_transit":false,"distance":4102,"i_long":106.79867,"station_id":"AK","station_name":"Angke","i_lat":-6.144674,"line":1,"transit":false,"time":9},{"i_lat":-6.155215,"i_long":106.800832,"is_transit":false,"distance":1230,"line":1,"time":4,"station_id":"DU","transit":false,"station_name":"Duri"},{"time":8,"i_lat":-6.185545,"i_long":106.811091,"is_transit":true,"transit":true,"line":1,"distance":3632,"station_name":"Tanah Abang","station_id":"THB"},{"transit":false,"station_name":"Palmerah","time":6,"i_lat":-6.207404,"i_long":106.79689,"is_transit":false,"distance":3191,"station_id":"PLM","line":6},{"i_lat":-6.237242,"line":6,"time":7,"transit":false,"station_name":"Kebayoran","distance":3737,"is_transit":false,"station_id":"KBY","i_long":106.780334},{"time":8,"station_id":"PDJ","i_long":106.74273,"is_transit":false,"i_lat":-6.276362,"transit":false,"station_name":"Pondokranji","distance":6218,"line":6},{"station_id":"JMU","i_lat":-6.288927,"line":6,"transit":false,"station_name":"Jurangmangu","is_transit":false,"time":3,"distance":2179,"i_long":106.728916},{"distance":1994,"station_id":"SDM","i_long":106.712277,"time":4,"is_transit":false,"station_name":"Sudimara","transit":false,"line":6,"i_lat":-6.296963},{"is_transit":false,"station_name":"Rawa Buntu","time":6,"i_lat":-6.314823,"station_id":"RU","i_long":106.675475,"distance":4566,"line":6,"transit":false}],[{"i_lat":-6.219053,"station_id":"CUK","station_name":"Cakung","distance":0,"is_transit":false,"i_long":106.951283,"transit":false,"line":1,"time":0},{"distance":1385,"i_long":106.939679,"station_name":"Klenderbaru","station_id":"KLDB","i_lat":-6.217455,"time":8,"transit":false,"line":1,"is_transit":false},{"i_lat":-6.215568,"transit":false,"distance":1305,"time":1,"i_long":106.922662,"is_transit":false,"line":1,"station_id":"BUA","station_name":"Buaran"},{"station_name":"Klender","line":1,"i_lat":-6.2135,"transit":false,"is_transit":false,"i_long":106.899548,"station_id":"KLD","distance":3100,"time":2},{"station_name":"Jatinegara","time":3,"distance":3395,"station_id":"JNG","line":1,"transit":true,"i_lat":-6.215091,"is_transit":true,"i_long":106.86807400000001},{"line":11,"is_transit":false,"i_lat":-6.209188,"station_id":"POK","station_name":"Pondok Jati","distance":1236,"i_long":106.861737,"time":2,"transit":false},{"transit":false,"distance":1829,"line":11,"station_name":"Kramat","is_transit":false,"time":2,"station_id":"KMT","i_lat":-6.193792,"i_long":106.855437},{"station_id":"GST","time":1,"line":11,"distance":973,"station_name":"Gang Sentiong","i_lat":-6.185975,"transit":false,"i_long":106.850107,"is_transit":false},{"i_lat":-6.174784,"transit":false,"line":11,"station_name":"Pasar Senen","is_transit":false,"i_long":106.84368,"time":8,"distance":1567,"station_id":"PSE"},{"line":11,"transit":false,"i_lat":-6.161728,"station_name":"Kemayoran","time":4,"distance":1436,"is_transit":false,"station_id":"KMO","i_long":106.839204},{"distance":1901,"station_name":"Rajawali","transit":false,"station_id":"RJW","i_long":106.836569,"i_lat":-6.14505,"line":11,"is_transit":false,"time":5},{"i_long":106.826365,"transit":true,"station_id":"KPB","time":3,"distance":1444,"i_lat":-6.132549,"station_name":"Kampung Bandan","line":4,"is_transit":true},{"i_lat":-6.137569,"station_id":"JAKK","station_name":"Jakarta Kota","distance":1364,"transit":true,"i_long":106.812439,"line":2,"is_transit":true,"time":3},{"i_lat":-6.141205,"line":2,"transit":false,"time":4,"is_transit":false,"station_id":"JAY","i_long":106.820901,"station_name":"Jayakarta","distance":1264},{"distance":1080,"station_id":"MGB","i_lat":-6.149769,"time":2,"i_long":106.82482,"line":2,"is_transit":false,"station_name":"Manggabesar","transit":false},{"transit":false,"station_name":"Sawah Besar","station_id":"SW","i_long":106.827103,"line":2,"i_lat":-6.160725,"is_transit":false,"time":2,"distance":906},{"i_long":106.828284,"time":2,"station_id":"JUA","i_lat":-6.166716,"line":2,"station_name":"Juanda","distance":1149,"is_transit":false,"transit":false},{"station_name":"Gondangdia","line":2,"is_transit":false,"time":4,"i_lat":-6.186295,"station_id":"GDD","distance":2015,"i_long":106.832183,"transit":false},{"transit":false,"i_lat":-6.198556,"station_id":"CKI","time":3,"station_name":"Cikini","is_transit":false,"distance":1750,"line":2,"i_long":106.840169},{"line":2,"distance":1590,"is_transit":true,"station_id":"MRI","transit":true,"station_name":"Manggarai","time":4,"i_lat":-6.209883,"i_long":106.84912},{"distance":3186,"transit":false,"station_name":"Sudirman","i_lat":-6.202263,"is_transit":false,"station_id":"SUD","i_long":106.822649,"time":4,"line":1},{"station_id":"SUDB","transit":false,"is_transit":false,"i_long":106.819881,"station_name":"Sudirman Baru","time":1,"distance":280,"line":1,"i_lat":-6.201433},{"time":1,"station_name":"Karet","line":1,"i_long":106.816351,"is_transit":false,"transit":false,"distance":471,"i_lat":-6.20132,"station_id":"KAT"},{"i_lat":-6.185545,"transit":true,"distance":2029,"station_id":"THB","i_long":106.811091,"time":5,"station_name":"Tanah Abang","line":1,"is_transit":true},{"time":6,"i_long":106.79689,"line":6,"station_name":"Palmerah","station_id":"PLM","distance":3191,"i_lat":-6.207404,"is_transit":false,"transit":false},{"i_lat":-6.237242,"time":7,"distance":3737,"is_transit":false,"station_id":"KBY","line":6,"transit":false,"station_name":"Kebayoran","i_long":106.780334},{"station_name":"Pondokranji","line":6,"is_transit":false,"distance":6218,"time":8,"station_id":"PDJ","i_long":106.74273,"i_lat":-6.276362,"transit":false},{"i_long":106.728916,"time":3,"i_lat":-6.288927,"line":6,"station_name":"Jurangmangu","station_id":"JMU","distance":2179,"transit":false,"is_transit":false},{"i_lat":-6.296963,"is_transit":false,"time":4,"distance":1994,"station_name":"Sudimara","line":6,"transit":false,"i_long":106.712277,"station_id":"SDM"},{"is_transit":false,"i_long":106.675475,"i_lat":-6.314823,"time":6,"station_id":"RU","line":6,"distance":4566,"transit":false,"station_name":"Rawa Buntu"}]]}