{"data":[[{"distance":0,"transit":false,"i_long":106.951283,"is_transit":false,"station_id":"CUK","time":0,"i_lat":-6.219053,"line":0,"station_name":"Cakung"},{"i_lat":-6.217455,"station_name":"Klenderbaru","time":8,"transit":false,"i_long":106.939679,"is_transit":false,"line":1,"station_id":"KLDB","distance":1385},{"is_transit":false,"time":1,"i_lat":-6.215568,"transit":false,"i_long":106.922662,"station_id":"BUA","station_name":"Buaran","line":0,"distance":1305},{"distance":3100,"station_name":"Klender","time":2,"station_id":"KLD","is_transit":false,"transit":false,"i_long":106.899548,"i_lat":-6.2135,"line":1},{"i_lat":-6.215091,"line":0,"time":3,"station_id":"JNG","is_transit":true,"i_long":106.86807400000001,"station_name":"Jatinegara","distance":3395,"transit":false},{"station_id":"MTR","is_transit":false,"i_lat":-6.212485,"line":1,"time":2,"i_long":106.858896,"station_name":"Matraman","distance":1377,"transit":false},{"station_name":"Manggarai","time":2,"is_transit":true,"distance":1275,"i_lat":-6.209883,"transit":false,"i_long":106.84912,"line":0,"station_id":"MRI"}],[{"transit":false,"i_lat":-6.219053,"line":0,"station_name":"Cakung","station_id":"CUK","is_transit":false,"distance":0,"i_long":106.951283,"time":0},{"distance":1385,"station_id":"KLDB","i_lat":-6.217455,"time":8,"i_long":106.939679,"line":1,"is_transit":false,"station_name":"Klenderbaru","transit":false},{"i_lat":-6.215568,"time":1,"station_name":"Buaran","is_transit":false,"line":0,"transit":false,"distance":1305,"i_long":106.922662,"station_id":"BUA"},{"i_lat":-6.2135,"i_long":106.899548,"line":1,"is_transit":false,"time":2,"distance":3100,"station_id":"KLD","transit":false,"station_name":"Klender"},{"i_lat":-6.215091,"line":0,"station_id":"JNG","distance":3395,"is_transit":true,"station_name":"Jatinegara","time":3,"i_long":106.86807400000001,"transit":true},{"transit":false,"i_lat":-6.209188,"time":2,"distance":1236,"station_name":"Pondok Jati","line":11,"station_id":"POK","i_long":106.861737,"is_transit":false},{"is_transit":false,"i_long":106.855437,"station_name":"Kramat","station_id":"KMT","distance":1829,"transit":false,"i_lat":-6.193792,"line":11,"time":2},{"station_id":"GST","line":11,"time":1,"is_transit":false,"transit":false,"distance":973,"i_lat":-6.185975,"station_name":"Gang Sentiong","i_long":106.850107},{"station_name":"Pasar Senen","is_transit":false,"line":11,"transit":false,"time":8,"i_long":106.84368,"distance":1567,"i_lat":-6.174784,"station_id":"PSE"},{"station_id":"KMO","transit":false,"time":4,"station_name":"Kemayoran","is_transit":false,"i_lat":-6.161728,"distance":1436,"line":11,"i_long":106.839204},{"station_id":"RJW","is_transit":false,"i_lat":-6.14505,"i_long":106.836569,"transit":false,"time":5,"line":11,"distance":1901,"station_name":"Rajawali"},{"i_lat":-6.132549,"line":0,"i_long":106.826365,"is_transit":true,"distance":1444,"station_id":"KPB","transit":true,"station_name":"Kampung Bandan","time":3},{"station_id":"AK","is_transit":false,"line":0,"station_name":"Angke","i_lat":-6.144674,"distance":4102,"transit":false,"i_long":106.79867,"time":9},{"time":4,"station_name":"Duri","transit":true,"i_long":106.800832,"line":1,"station_id":"DU","is_transit":true,"distance":1230,"i_lat":-6.155215},{"station_id":"THB","time":8,"is_transit":true,"distance":3632,"line":1,"transit":false,"i_lat":-6.185545,"station_name":"Tanah Abang","i_long":106.811091},{"station_name":"Karet","i_long":106.816351,"station_id":"KAT","time":5,"is_transit":false,"distance":2029,"transit":false,"i_lat":-6.20132,"line":1},{"line":1,"distance":471,"is_transit":false,"i_lat":-6.201433,"station_id":"SUDB","i_long":106.819881,"station_name":"Sudirman Baru","time":1,"transit":false},{"time":1,"is_transit":false,"transit":false,"station_id":"SUD","station_name":"Sudirman","i_lat":-6.202263,"i_long":106.822649,"line":1,"distance":280},{"is_transit":true,"distance":3186,"i_lat":-6.209883,"line":0,"i_long":106.84912,"station_name":"Manggarai","transit":false,"time":4,"station_id":"MRI"}],[{"i_long":106.951283,"is_transit":false,"line":0,"station_name":"Cakung","transit":false,"i_lat":-6.219053,"time":0,"distance":0,"station_id":"CUK"},{"station_name":"Klenderbaru","time":8,"station_id":"KLDB","transit":false,"i_lat":-6.217455,"line":1,"distance":1385,"is_transit":false,"i_long":106.939679},{"i_lat":-6.215568,"transit":false,"i_long":106.922662,"distance":1305,"time":1,"station_id":"BUA","line":0,"station_name":"Buaran","is_transit":false},{"is_transit":false,"station_name":"Klender","i_lat":-6.2135,"i_long":106.899548,"line":1,"time":2,"transit":false,"station_id":"KLD","distance":3100},{"line":0,"i_long":106.86807400000001,"i_lat":-6.215091,"transit":true,"station_id":"JNG","station_name":"Jatinegara","time":3,"distance":3395,"is_transit":true},{"transit":false,"i_lat":-6.209188,"line":11,"i_long":106.861737,"is_transit":false,"distance":1236,"station_id":"POK","time":2,"station_name":"Pondok Jati"},{"station_id":"KMT","distance":1829,"transit":false,"i_lat":-6.193792,"time":2,"i_long":106.855437,"line":11,"is_transit":false,"station_name":"Kramat"},{"is_transit":false,"transit":false,"station_id":"GST","distance":973,"i_long":106.850107,"time":1,"line":11,"station_name":"Gang Sentiong","i_lat":-6.185975},{"distance":1567,"i_long":106.84368,"i_lat":-6.174784,"line":11,"station_id":"PSE","time":8,"is_transit":false,"transit":false,"station_name":"Pasar Senen"},{"i_long":106.839204,"is_transit":false,"time":4,"line":11,"station_name":"Kemayoran","transit":false,"i_lat":-6.161728,"station_id":"KMO","distance":1436},{"transit":false,"i_lat":-6.14505,"line":11,"i_long":106.836569,"station_id":"RJW","is_transit":false,"time":5,"station_name":"Rajawali","distance":1901},{"station_name":"Kampung Bandan","station_id":"KPB","time":3,"transit":true,"line":0,"i_lat":-6.132549,"i_long":106.826365,"distance":1444,"is_transit":true},{"is_transit":true,"i_long":106.812439,"line":0,"station_id":"JAKK","distance":1364,"station_name":"Jakarta Kota","i_lat":-6.137569,"time":3,"transit":true},{"distance":1264,"i_lat":-6.141205,"time":4,"is_transit":false,"i_long":106.820901,"transit":false,"line":7,"station_name":"Jayakarta","station_id":"JAY"},{"is_transit":false,"station_name":"Manggabesar","time":2,"i_lat":-6.149769,"transit":false,"line":2,"i_long":106.82482,"distance":1080,"station_id":"MGB"},{"time":2,"station_name":"Sawah Besar","i_lat":-6.160725,"i_long":106.827103,"transit":false,"line":2,"is_transit":false,"distance":906,"station_id":"SW"},{"is_transit":false,"line":2,"station_name":"Juanda","time":2,"distance":1149,"i_lat":-6.166716,"station_id":"JUA","transit":false,"i_long":106.828284},{"line":2,"station_id":"GDD","distance":2015,"i_long":106.832183,"time":4,"transit":false,"station_name":"Gondangdia","is_transit":false,"i_lat":-6.186295},{"distance":1750,"station_name":"Cikini","time":3,"i_long":106.840169,"station_id":"CKI","transit":false,"line":0,"i_lat":-6.198556,"is_transit":false},{"station_name":"Manggarai","transit":false,"time":4,"station_id":"MRI","i_long":106.84912,"is_transit":true,"i_lat":-6.209883,"distance":1590,"line":0}]]}