{"data":[[{"i_lat":-6.219053,"is_transit":false,"i_long":106.951283,"station_name":"Cakung","distance":0,"transit":false,"line":1,"time":0,"station_id":"CUK"},{"time":8,"is_transit":false,"transit":false,"station_name":"Klenderbaru","line":1,"i_lat":-6.217455,"distance":1385,"station_id":"KLDB","i_long":106.939679},{"station_id":"BUA","station_name":"Buaran","i_lat":-6.215568,"transit":false,"distance":1305,"is_transit":false,"i_long":106.922662,"line":1,"time":1},{"transit":false,"station_id":"KLD","time":2,"i_long":106.899548,"i_lat":-6.2135,"station_name":"Klender","line":1,"distance":3100,"is_transit":false},{"transit":false,"line":1,"time":3,"is_transit":false,"i_lat":-6.215091,"distance":3395,"i_long":106.86807400000001,"station_id":"JNG","station_name":"Jatinegara"},{"station_name":"Matraman","distance":1377,"time":2,"line":1,"station_id":"MTR","i_long":106.858896,"is_transit":false,"i_lat":-6.212485,"transit":false},{"time":2,"i_long":106.84912,"i_lat":-6.209883,"distance":1275,"station_id":"MRI","station_name":"Manggarai","transit":false,"line":2,"is_transit":false},{"time":4,"station_id":"SUD","station_name":"Sudirman","i_long":106.822649,"distance":3186,"transit":false,"i_lat":-6.202263,"line":1,"is_transit":false},{"i_lat":-6.201433,"line":1,"station_name":"Sudirman Baru","i_long":106.819881,"transit":false,"is_transit":false,"station_id":"SUDB","distance":280,"time":1},{"is_transit":false,"i_lat":-6.20132,"transit":false,"line":1,"station_id":"KAT","time":1,"i_long":106.816351,"station_name":"Karet","distance":471},{"time":5,"transit":true,"i_lat":-6.185545,"is_transit":true,"station_name":"Tanah Abang","i_long":106.811091,"station_id":"THB","line":1,"distance":2029},{"station_name":"Palmerah","i_long":106.79689,"line":6,"distance":3191,"time":6,"station_id":"PLM","i_lat":-6.207404,"transit":false,"is_transit":false},{"is_transit":false,"time":7,"i_lat":-6.237242,"i_long":106.780334,"line":6,"transit":false,"distance":3737,"station_name":"Kebayoran","station_id":"KBY"},{"time":8,"is_transit":false,"i_lat":-6.276362,"station_name":"Pondokranji","distance":6218,"i_long":106.74273,"line":6,"transit":false,"station_id":"PDJ"},{"station_id":"JMU","time":3,"i_lat":-6.288927,"line":6,"distance":2179,"station_name":"Jurangmangu","i_long":106.728916,"transit":false,"is_transit":false},{"line":6,"time":4,"station_id":"SDM","transit":false,"i_long":106.712277,"distance":1994,"is_transit":false,"i_lat":-6.296963,"station_name":"Sudimara"},{"distance":4566,"i_lat":-6.314823,"station_id":"RU","i_long":106.675475,"line":6,"time":6,"is_transit":false,"transit":false,"station_name":"Rawa Buntu"},{"distance":2413,"station_id":"SRP","transit":false,"time":4,"line":6,"is_transit":false,"station_name":"Serpong","i_lat":-6.319871,"i_long":106.66566},{"i_lat":-6.32484,"i_long":106.640411,"distance":1784,"station_id":"CSK","line":3,"transit":false,"time":4,"station_name":"Cisauk","is_transit":false},{"i_long":106.617853,"line":3,"i_lat":-6.329547,"distance":2519,"time":4,"is_transit":false,"station_id":"CC","transit":false,"station_name":"Cicayur"},{"time":8,"station_id":"PRP","distance":5968,"station_name":"Parung Panjang","line":6,"transit":false,"i_lat":-6.3441410000000005,"is_transit":false,"i_long":106.568863},{"i_long":106.508482,"time":9,"is_transit":false,"i_lat":-6.354349,"distance":7025,"station_name":"Cilejit","line":3,"transit":false,"station_id":"CJT"},{"station_id":"DAR","i_lat":-6.338021,"line":0,"i_long":106.491338,"distance":2675,"is_transit":false,"time":6,"transit":false,"station_name":"Daru"},{"distance":3902,"station_name":"Tenjo","i_long":106.460812,"transit":false,"station_id":"TEJ","i_lat":-6.327251,"time":5,"is_transit":false,"line":6},{"station_name":"Tigaraksa","i_lat":-6.328533,"transit":false,"i_long":106.425991,"line":6,"station_id":"TGS","distance":2974,"is_transit":false,"time":5},{"is_transit":false,"station_name":"Cikoya","station_id":"CKY","i_lat":-6.33561,"distance":2651,"time":3,"i_long":106.411216,"transit":false,"line":3},{"line":6,"i_lat":-6.332307,"transit":false,"is_transit":false,"distance":1853,"station_id":"MJ","station_name":"Maja","time":4,"i_long":106.394373},{"transit":false,"is_transit":false,"station_id":"CTR","station_name":"Citeras","i_lat":-6.334892,"time":10,"distance":7293,"line":3,"i_long":106.332092}],[{"transit":false,"station_id":"CUK","time":0,"i_long":106.951283,"station_name":"Cakung","i_lat":-6.219053,"distance":0,"line":1,"is_transit":false},{"is_transit":false,"distance":1385,"transit":false,"i_long":106.939679,"i_lat":-6.217455,"station_name":"Klenderbaru","station_id":"KLDB","time":8,"line":1},{"i_lat":-6.215568,"line":1,"transit":false,"station_id":"BUA","distance":1305,"time":1,"station_name":"Buaran","is_transit":false,"i_long":106.922662},{"i_long":106.899548,"line":1,"transit":false,"time":2,"station_name":"Klender","distance":3100,"is_transit":false,"station_id":"KLD","i_lat":-6.2135},{"station_name":"Jatinegara","transit":true,"is_transit":true,"i_lat":-6.215091,"i_long":106.86807400000001,"line":1,"time":3,"distance":3395,"station_id":"JNG"},{"is_transit":false,"station_name":"Pondok Jati","line":11,"station_id":"POK","i_long":106.861737,"i_lat":-6.209188,"distance":1236,"transit":false,"time":2},{"line":11,"station_name":"Kramat","i_lat":-6.193792,"station_id":"KMT","transit":false,"distance":1829,"i_long":106.855437,"time":2,"is_transit":false},{"time":1,"distance":973,"station_id":"GST","i_long":106.850107,"transit":false,"is_transit":false,"station_name":"Gang Sentiong","line":11,"i_lat":-6.185975},{"transit":false,"time":8,"station_id":"PSE","i_long":106.84368,"i_lat":-6.174784,"line":11,"station_name":"Pasar Senen","distance":1567,"is_transit":false},{"station_name":"Kemayoran","is_transit":false,"time":4,"i_lat":-6.161728,"distance":1436,"station_id":"KMO","i_long":106.839204,"transit":false,"line":11},{"distance":1901,"station_name":"Rajawali","i_lat":-6.14505,"time":5,"i_long":106.836569,"line":11,"station_id":"RJW","is_transit":false,"transit":false},{"line":4,"time":3,"distance":1444,"is_transit":true,"station_id":"KPB","i_long":106.826365,"transit":true,"station_name":"Kampung Bandan","i_lat":-6.132549},{"station_id":"AK","is_transit":false,"i_long":106.79867,"station_name":"Angke","i_lat":-6.144674,"transit":false,"line":1,"distance":4102,"time":9},{"i_lat":-6.155215,"distance":1230,"station_id":"DU","transit":false,"line":1,"i_long":106.800832,"is_transit":false,"station_name":"Duri","time":4},{"i_lat":-6.185545,"distance":3632,"is_transit":true,"station_id":"THB","i_long":106.811091,"transit":true,"line":1,"time":8,"station_name":"Tanah Abang"},{"station_id":"PLM","transit":false,"i_long":106.79689,"distance":3191,"line":6,"time":6,"station_name":"Palmerah","is_transit":false,"i_lat":-6.207404},{"time":7,"is_transit":false,"station_name":"Kebayoran","station_id":"KBY","distance":3737,"transit":false,"line":6,"i_lat":-6.237242,"i_long":106.780334},{"is_transit":false,"distance":6218,"time":8,"i_lat":-6.276362,"transit":false,"station_name":"Pondokranji","i_long":106.74273,"line":6,"station_id":"PDJ"},{"i_long":106.728916,"distance":2179,"station_id":"JMU","station_name":"Jurangmangu","i_lat":-6.288927,"line":6,"is_transit":false,"transit":false,"time":3},{"distance":1994,"i_lat":-6.296963,"station_name":"Sudimara","is_transit":false,"line":6,"i_long":106.712277,"transit":false,"time":4,"station_id":"SDM"},{"line":6,"time":6,"station_name":"Rawa Buntu","distance":4566,"transit":false,"i_lat":-6.314823,"station_id":"RU","is_transit":false,"i_long":106.675475},{"station_name":"Serpong","i_lat":-6.319871,"line":6,"station_id":"SRP","is_transit":false,"i_long":106.66566,"transit":false,"distance":2413,"time":4},{"line":3,"is_transit":false,"station_name":"Cisauk","time":4,"transit":false,"i_lat":-6.32484,"distance":1784,"i_long":106.640411,"station_id":"CSK"},{"time":4,"i_lat":-6.329547,"station_name":"Cicayur","station_id":"CC","transit":false,"is_transit":false,"distance":2519,"i_long":106.617853,"line":3},{"is_transit":false,"station_name":"Parung Panjang","line":6,"transit":false,"time":8,"distance":5968,"station_id":"PRP","i_long":106.568863,"i_lat":-6.3441410000000005},{"time":9,"transit":false,"station_id":"CJT","i_long":106.508482,"line":3,"distance":7025,"is_transit":false,"i_lat":-6.354349,"station_name":"Cilejit"},{"is_transit":false,"time":6,"transit":false,"i_lat":-6.338021,"station_name":"Daru","distance":2675,"line":0,"i_long":106.491338,"station_id":"DAR"},{"time":5,"i_long":106.460812,"distance":3902,"station_name":"Tenjo","station_id":"TEJ","is_transit":false,"i_lat":-6.327251,"transit":false,"line":6},{"transit":false,"station_id":"TGS","is_transit":false,"station_name":"Tigaraksa","i_long":106.425991,"line":6,"distance":2974,"i_lat":-6.328533,"time":5},{"station_name":"Cikoya","i_lat":-6.33561,"i_long":106.411216,"line":3,"transit":false,"distance":2651,"is_transit":false,"station_id":"CKY","time":3},{"time":4,"i_lat":-6.332307,"distance":1853,"station_name":"Maja","i_long":106.394373,"station_id":"MJ","transit":false,"line":6,"is_transit":false},{"is_transit":false,"time":10,"transit":false,"distance":7293,"i_lat":-6.334892,"station_id":"CTR","station_name":"Citeras","line":3,"i_long":106.332092}],[{"distance":0,"station_id":"CUK","i_long":106.951283,"is_transit":false,"line":1,"station_name":"Cakung","i_lat":-6.219053,"transit":false,"time":0},{"distance":1385,"time":8,"station_id":"KLDB","i_long":106.939679,"line":1,"transit":false,"is_transit":false,"i_lat":-6.217455,"station_name":"Klenderbaru"},{"i_long":106.922662,"time":1,"i_lat":-6.215568,"line":1,"is_transit":false,"distance":1305,"station_id":"BUA","station_name":"Buaran","transit":false},{"distance":3100,"time":2,"i_lat":-6.2135,"is_transit":false,"transit":false,"station_id":"KLD","line":1,"i_long":106.899548,"station_name":"Klender"},{"station_name":"Jatinegara","station_id":"JNG","i_lat":-6.215091,"transit":false,"time":3,"distance":3395,"is_transit":false,"line":1,"i_long":106.86807400000001},{"i_long":106.858896,"distance":1377,"transit":false,"station_id":"MTR","station_name":"Matraman","line":1,"is_transit":false,"i_lat":-6.212485,"time":2},{"i_lat":-6.209883,"station_id":"MRI","i_long":106.84912,"distance":1275,"is_transit":true,"line":2,"transit":true,"time":2,"station_name":"Manggarai"},{"time":4,"i_lat":-6.198556,"distance":1590,"line":2,"i_long":106.840169,"is_transit":false,"station_name":"Cikini","transit":false,"station_id":"CKI"},{"station_name":"Gondangdia","i_lat":-6.186295,"i_long":106.832183,"line":2,"transit":false,"is_transit":false,"time":3,"distance":1750,"station_id":"GDD"},{"station_id":"JUA","distance":2015,"time":4,"is_transit":false,"station_name":"Juanda","i_lat":-6.166716,"i_long":106.828284,"line":2,"transit":false},{"transit":false,"distance":1149,"station_id":"SW","i_lat":-6.160725,"station_name":"Sawah Besar","i_long":106.827103,"time":2,"is_transit":false,"line":2},{"is_transit":false,"transit":false,"i_lat":-6.149769,"line":2,"time":2,"station_id":"MGB","i_long":106.82482,"station_name":"Manggabesar","distance":906},{"distance":1080,"line":2,"is_transit":false,"station_id":"JAY","station_name":"Jayakarta","i_long":106.820901,"transit":false,"time":2,"i_lat":-6.141205},{"time":4,"distance":1264,"station_id":"JAKK","i_long":106.812439,"station_name":"Jakarta Kota","is_transit":true,"i_lat":-6.137569,"transit":true,"line":2},{"transit":true,"line":4,"station_id":"KPB","time":3,"i_lat":-6.132549,"i_long":106.826365,"station_name":"Kampung Bandan","distance":1364,"is_transit":true},{"i_lat":-6.144674,"i_long":106.79867,"line":1,"station_name":"Angke","time":9,"transit":false,"distance":4102,"is_transit":false,"station_id":"AK"},{"station_id":"DU","time":4,"is_transit":false,"i_long":106.800832,"line":1,"distance":1230,"i_lat":-6.155215,"station_name":"Duri","transit":false},{"station_name":"Tanah Abang","distance":3632,"time":8,"transit":true,"line":1,"i_long":106.811091,"station_id":"THB","i_lat":-6.185545,"is_transit":true},{"i_long":106.79689,"transit":false,"i_lat":-6.207404,"station_id":"PLM","time":6,"distance":3191,"is_transit":false,"station_name":"Palmerah","line":6},{"distance":3737,"i_long":106.780334,"time":7,"is_transit":false,"station_id":"KBY","station_name":"Kebayoran","line":6,"i_lat":-6.237242,"transit":false},{"is_transit":false,"transit":false,"station_id":"PDJ","i_long":106.74273,"station_name":"Pondokranji","i_lat":-6.276362,"line":6,"distance":6218,"time":8},{"distance":2179,"station_name":"Jurangmangu","time":3,"is_transit":false,"i_long":106.728916,"i_lat":-6.288927,"transit":false,"line":6,"station_id":"JMU"},{"is_transit":false,"i_lat":-6.296963,"transit":false,"i_long":106.712277,"station_id":"SDM","distance":1994,"station_name":"Sudimara","time":4,"line":6},{"distance":4566,"is_transit":false,"station_name":"Rawa Buntu","transit":false,"station_id":"RU","i_long":106.675475,"time":6,"i_lat":-6.314823,"line":6},{"station_id":"SRP","transit":false,"station_name":"Serpong","distance":2413,"i_lat":-6.319871,"i_long":106.66566,"time":4,"line":6,"is_transit":false},{"distance":1784,"transit":false,"time":4,"i_lat":-6.32484,"i_long":106.640411,"station_name":"Cisauk","is_transit":false,"station_id":"CSK","line":3},{"i_long":106.617853,"station_name":"Cicayur","time":4,"transit":false,"i_lat":-6.329547,"distance":2519,"station_id":"CC","line":3,"is_transit":false},{"i_lat":-6.3441410000000005,"station_name":"Parung Panjang","line":6,"distance":5968,"is_transit":false,"time":8,"transit":false,"station_id":"PRP","i_long":106.568863},{"time":9,"line":3,"i_long":106.508482,"is_transit":false,"distance":7025,"transit":false,"station_name":"Cilejit","station_id":"CJT","i_lat":-6.354349},{"time":6,"i_lat":-6.338021,"transit":false,"i_long":106.491338,"station_name":"Daru","line":0,"distance":2675,"is_transit":false,"station_id":"DAR"},{"i_long":106.460812,"line":6,"station_name":"Tenjo","distance":3902,"time":5,"is_transit":false,"station_id":"TEJ","i_lat":-6.327251,"transit":false},{"time":5,"station_name":"Tigaraksa","transit":false,"is_transit":false,"line":6,"distance":2974,"station_id":"TGS","i_long":106.425991,"i_lat":-6.328533},{"line":3,"is_transit":false,"distance":2651,"station_name":"Cikoya","i_lat":-6.33561,"i_long":106.411216,"transit":false,"time":3,"station_id":"CKY"},{"transit":false,"time":4,"station_name":"Maja","distance":1853,"i_lat":-6.332307,"line":6,"i_long":106.394373,"is_transit":false,"station_id":"MJ"},{"time":10,"station_id":"CTR","station_name":"Citeras","distance":7293,"transit":false,"line":3,"i_long":106.332092,"i_lat":-6.334892,"is_transit":false}],[{"time":0,"transit":false,"line":1,"is_transit":false,"station_id":"CUK","i_lat":-6.219053,"station_name":"Cakung","distance":0,"i_long":106.951283},{"line":1,"station_id":"KLDB","station_name":"Klenderbaru","i_long":106.939679,"distance":1385,"transit":false,"is_transit":false,"i_lat":-6.217455,"time":8},{"station_id":"BUA","i_lat":-6.215568,"time":1,"distance":1305,"transit":false,"is_transit":false,"station_name":"Buaran","line":1,"i_long":106.922662},{"line":1,"i_lat":-6.2135,"time":2,"distance":3100,"station_name":"Klender","i_long":106.899548,"transit":false,"station_id":"KLD","is_transit":false},{"station_id":"JNG","distance":3395,"transit":true,"station_name":"Jatinegara","time":3,"i_lat":-6.215091,"line":1,"is_transit":true,"i_long":106.86807400000001},{"distance":1236,"line":11,"transit":false,"is_transit":false,"i_lat":-6.209188,"i_long":106.861737,"station_name":"Pondok Jati","station_id":"POK","time":2},{"station_name":"Kramat","distance":1829,"is_transit":false,"time":2,"station_id":"KMT","i_lat":-6.193792,"transit":false,"i_long":106.855437,"line":11},{"station_name":"Gang Sentiong","time":1,"is_transit":false,"distance":973,"transit":false,"i_long":106.850107,"line":11,"station_id":"GST","i_lat":-6.185975},{"distance":1567,"is_transit":false,"i_lat":-6.174784,"i_long":106.84368,"transit":false,"time":8,"station_id":"PSE","station_name":"Pasar Senen","line":11},{"is_transit":false,"station_id":"KMO","time":4,"station_name":"Kemayoran","distance":1436,"transit":false,"i_lat":-6.161728,"i_long":106.839204,"line":11},{"station_id":"RJW","i_lat":-6.14505,"time":5,"transit":false,"distance":1901,"is_transit":false,"station_name":"Rajawali","line":11,"i_long":106.836569},{"time":3,"i_lat":-6.132549,"line":4,"i_long":106.826365,"distance":1444,"transit":true,"station_id":"KPB","station_name":"Kampung Bandan","is_transit":true},{"i_long":106.812439,"distance":1364,"station_name":"Jakarta Kota","time":3,"is_transit":true,"i_lat":-6.137569,"station_id":"JAKK","line":2,"transit":true},{"time":4,"i_long":106.820901,"is_transit":false,"transit":false,"distance":1264,"station_id":"JAY","line":2,"i_lat":-6.141205,"station_name":"Jayakarta"},{"line":2,"time":2,"station_id":"MGB","i_lat":-6.149769,"i_long":106.82482,"station_name":"Manggabesar","is_transit":false,"transit":false,"distance":1080},{"is_transit":false,"time":2,"i_lat":-6.160725,"distance":906,"station_id":"SW","i_long":106.827103,"line":2,"transit":false,"station_name":"Sawah Besar"},{"distance":1149,"is_transit":false,"station_name":"Juanda","time":2,"i_lat":-6.166716,"transit":false,"i_long":106.828284,"station_id":"JUA","line":2},{"time":4,"distance":2015,"line":2,"is_transit":false,"station_id":"GDD","i_lat":-6.186295,"i_long":106.832183,"station_name":"Gondangdia","transit":false},{"transit":false,"time":3,"distance":1750,"i_lat":-6.198556,"is_transit":false,"i_long":106.840169,"station_id":"CKI","line":2,"station_name":"Cikini"},{"time":4,"distance":1590,"station_id":"MRI","line":2,"station_name":"Manggarai","i_lat":-6.209883,"i_long":106.84912,"is_transit":true,"transit":true},{"time":4,"i_lat":-6.202263,"i_long":106.822649,"line":1,"station_name":"Sudirman","distance":3186,"transit":false,"station_id":"SUD","is_transit":false},{"station_id":"SUDB","distance":280,"transit":false,"station_name":"Sudirman Baru","i_lat":-6.201433,"is_transit":false,"i_long":106.819881,"time":1,"line":1},{"station_id":"KAT","transit":false,"i_lat":-6.20132,"time":1,"station_name":"Karet","i_long":106.816351,"is_transit":false,"line":1,"distance":471},{"time":5,"transit":true,"is_transit":true,"i_lat":-6.185545,"line":1,"distance":2029,"i_long":106.811091,"station_id":"THB","station_name":"Tanah Abang"},{"i_long":106.79689,"station_name":"Palmerah","distance":3191,"i_lat":-6.207404,"is_transit":false,"line":6,"station_id":"PLM","transit":false,"time":6},{"time":7,"transit":false,"station_name":"Kebayoran","is_transit":false,"i_long":106.780334,"station_id":"KBY","line":6,"i_lat":-6.237242,"distance":3737},{"transit":false,"is_transit":false,"i_long":106.74273,"station_name":"Pondokranji","line":6,"station_id":"PDJ","distance":6218,"i_lat":-6.276362,"time":8},{"i_long":106.728916,"i_lat":-6.288927,"station_name":"Jurangmangu","line":6,"distance":2179,"station_id":"JMU","transit":false,"time":3,"is_transit":false},{"distance":1994,"station_name":"Sudimara","time":4,"station_id":"SDM","i_lat":-6.296963,"transit":false,"i_long":106.712277,"line":6,"is_transit":false},{"is_transit":false,"station_id":"RU","time":6,"station_name":"Rawa Buntu","distance":4566,"i_long":106.675475,"transit":false,"line":6,"i_lat":-6.314823},{"i_long":106.66566,"distance":2413,"time":4,"line":6,"is_transit":false,"transit":false,"station_name":"Serpong","i_lat":-6.319871,"station_id":"SRP"},{"distance":1784,"station_name":"Cisauk","line":3,"station_id":"CSK","i_lat":-6.32484,"time":4,"transit":false,"is_transit":false,"i_long":106.640411},{"i_lat":-6.329547,"i_long":106.617853,"time":4,"station_name":"Cicayur","distance":2519,"transit":false,"is_transit":false,"station_id":"CC","line":3},{"distance":5968,"transit":false,"time":8,"station_id":"PRP","i_long":106.568863,"is_transit":false,"i_lat":-6.3441410000000005,"station_name":"Parung Panjang","line":6},{"transit":false,"distance":7025,"i_lat":-6.354349,"station_name":"Cilejit","station_id":"CJT","i_long":106.508482,"line":3,"time":9,"is_transit":false},{"distance":2675,"i_long":106.491338,"time":6,"is_transit":false,"i_lat":-6.338021,"line":0,"station_name":"Daru","transit":false,"station_id":"DAR"},{"transit":false,"distance":3902,"station_name":"Tenjo","is_transit":false,"station_id":"TEJ","line":6,"time":5,"i_long":106.460812,"i_lat":-6.327251},{"line":6,"station_id":"TGS","i_long":106.425991,"distance":2974,"transit":false,"is_transit":false,"i_lat":-6.328533,"time":5,"station_name":"Tigaraksa"},{"station_name":"Cikoya","i_lat":-6.33561,"distance":2651,"station_id":"CKY","i_long":106.411216,"line":3,"time":3,"is_transit":false,"transit":false},{"time":4,"distance":1853,"is_transit":false,"station_id":"MJ","i_long":106.394373,"station_name":"Maja","transit":false,"line":6,"i_lat":-6.332307},{"distance":7293,"time":10,"i_long":106.332092,"transit":false,"station_id":"CTR","is_transit":false,"i_lat":-6.334892,"line":3,"station_name":"Citeras"}]]}