{"data":[[{"station_id":"CUK","line":0,"is_transit":false,"i_lat":-6.219053,"transit":false,"distance":0,"station_name":"Cakung","time":0,"i_long":106.951283},{"station_name":"Klenderbaru","station_id":"KLDB","distance":1385,"time":8,"i_lat":-6.217455,"transit":false,"line":1,"is_transit":false,"i_long":106.939679},{"i_long":106.922662,"i_lat":-6.215568,"line":0,"station_name":"Buaran","station_id":"BUA","transit":false,"distance":1305,"time":1,"is_transit":false},{"i_long":106.899548,"station_name":"Klender","line":1,"distance":3100,"transit":false,"time":2,"is_transit":false,"station_id":"KLD","i_lat":-6.2135},{"distance":3395,"transit":false,"i_lat":-6.215091,"is_transit":true,"i_long":106.86807400000001,"line":0,"time":3,"station_id":"JNG","station_name":"Jatinegara"},{"line":1,"i_lat":-6.212485,"transit":false,"distance":1377,"is_transit":false,"i_long":106.858896,"time":2,"station_id":"MTR","station_name":"Matraman"},{"is_transit":true,"line":0,"time":2,"station_id":"MRI","i_long":106.84912,"i_lat":-6.209883,"transit":false,"station_name":"Manggarai","distance":1275},{"i_lat":-6.202263,"distance":3186,"i_long":106.822649,"station_name":"Sudirman","time":4,"is_transit":false,"station_id":"SUD","transit":false,"line":1},{"line":1,"station_name":"Sudirman Baru","distance":280,"station_id":"SUDB","i_lat":-6.201433,"transit":false,"i_long":106.819881,"is_transit":false,"time":1},{"transit":false,"time":1,"station_id":"KAT","station_name":"Karet","is_transit":false,"i_long":106.816351,"line":1,"distance":471,"i_lat":-6.20132},{"line":1,"i_long":106.811091,"distance":2029,"transit":true,"station_id":"THB","is_transit":true,"station_name":"Tanah Abang","time":5,"i_lat":-6.185545},{"is_transit":false,"time":6,"i_lat":-6.207404,"station_name":"Palmerah","i_long":106.79689,"transit":false,"station_id":"PLM","distance":3191,"line":6},{"distance":3737,"time":7,"station_name":"Kebayoran","transit":false,"station_id":"KBY","i_lat":-6.237242,"line":6,"is_transit":false,"i_long":106.780334},{"i_long":106.74273,"line":6,"time":8,"station_name":"Pondokranji","distance":6218,"is_transit":false,"i_lat":-6.276362,"station_id":"PDJ","transit":false},{"line":6,"i_long":106.728916,"transit":false,"station_id":"JMU","is_transit":false,"i_lat":-6.288927,"time":3,"station_name":"Jurangmangu","distance":2179},{"line":6,"is_transit":false,"distance":1994,"station_name":"Sudimara","time":4,"station_id":"SDM","i_long":106.712277,"i_lat":-6.296963,"transit":false},{"line":6,"time":6,"is_transit":false,"distance":4566,"i_long":106.675475,"transit":false,"station_id":"RU","i_lat":-6.314823,"station_name":"Rawa Buntu"},{"line":6,"is_transit":false,"station_id":"SRP","distance":2413,"transit":false,"station_name":"Serpong","i_long":106.66566,"time":4,"i_lat":-6.319871},{"station_name":"Cisauk","station_id":"CSK","distance":1784,"i_long":106.640411,"transit":false,"time":4,"i_lat":-6.32484,"line":0,"is_transit":false},{"i_lat":-6.329547,"transit":false,"station_name":"Cicayur","distance":2519,"station_id":"CC","line":0,"time":4,"i_long":106.617853,"is_transit":false},{"transit":false,"line":6,"station_id":"PRP","time":8,"is_transit":false,"i_lat":-6.3441410000000005,"station_name":"Parung Panjang","i_long":106.568863,"distance":5968},{"line":0,"station_name":"Cilejit","transit":false,"is_transit":false,"distance":7025,"i_lat":-6.354349,"i_long":106.508482,"time":9,"station_id":"CJT"},{"distance":2675,"station_id":"DAR","i_lat":-6.338021,"transit":false,"is_transit":false,"time":6,"station_name":"Daru","i_long":106.491338,"line":0},{"is_transit":false,"line":6,"station_name":"Tenjo","transit":false,"distance":3902,"time":5,"i_lat":-6.327251,"station_id":"TEJ","i_long":106.460812},{"i_lat":-6.328533,"station_id":"TGS","i_long":106.425991,"transit":false,"is_transit":false,"station_name":"Tigaraksa","time":5,"line":6,"distance":2974},{"station_name":"Cikoya","i_long":106.411216,"transit":false,"i_lat":-6.33561,"is_transit":false,"distance":2651,"line":0,"station_id":"CKY","time":3},{"station_id":"MJ","station_name":"Maja","i_long":106.394373,"is_transit":false,"i_lat":-6.332307,"transit":false,"distance":1853,"time":4,"line":6},{"is_transit":false,"time":10,"station_name":"Citeras","transit":false,"distance":7293,"i_lat":-6.334892,"i_long":106.332092,"line":0,"station_id":"CTR"}],[{"station_name":"Cakung","is_transit":false,"distance":0,"transit":false,"station_id":"CUK","time":0,"i_long":106.951283,"i_lat":-6.219053,"line":0},{"i_long":106.939679,"station_name":"Klenderbaru","i_lat":-6.217455,"line":1,"distance":1385,"time":8,"station_id":"KLDB","transit":false,"is_transit":false},{"i_lat":-6.215568,"station_name":"Buaran","transit":false,"line":0,"i_long":106.922662,"time":1,"station_id":"BUA","is_transit":false,"distance":1305},{"time":2,"transit":false,"station_id":"KLD","distance":3100,"line":1,"i_long":106.899548,"i_lat":-6.2135,"is_transit":false,"station_name":"Klender"},{"i_long":106.86807400000001,"station_id":"JNG","is_transit":true,"line":0,"time":3,"station_name":"Jatinegara","i_lat":-6.215091,"transit":true,"distance":3395},{"i_lat":-6.209188,"transit":false,"station_name":"Pondok Jati","is_transit":false,"distance":1236,"i_long":106.861737,"line":11,"time":2,"station_id":"POK"},{"station_id":"KMT","transit":false,"time":2,"is_transit":false,"station_name":"Kramat","line":11,"distance":1829,"i_long":106.855437,"i_lat":-6.193792},{"transit":false,"station_name":"Gang Sentiong","station_id":"GST","line":11,"time":1,"i_long":106.850107,"distance":973,"is_transit":false,"i_lat":-6.185975},{"transit":false,"distance":1567,"time":8,"station_id":"PSE","is_transit":false,"line":11,"i_lat":-6.174784,"i_long":106.84368,"station_name":"Pasar Senen"},{"is_transit":false,"station_name":"Kemayoran","station_id":"KMO","distance":1436,"i_lat":-6.161728,"line":11,"transit":false,"time":4,"i_long":106.839204},{"distance":1901,"time":5,"i_lat":-6.14505,"station_id":"RJW","station_name":"Rajawali","i_long":106.836569,"line":11,"transit":false,"is_transit":false},{"time":3,"distance":1444,"is_transit":true,"i_long":106.826365,"line":0,"transit":true,"i_lat":-6.132549,"station_name":"Kampung Bandan","station_id":"KPB"},{"time":9,"i_long":106.79867,"transit":false,"line":0,"i_lat":-6.144674,"distance":4102,"is_transit":false,"station_name":"Angke","station_id":"AK"},{"station_id":"DU","transit":true,"is_transit":true,"station_name":"Duri","i_long":106.800832,"time":4,"i_lat":-6.155215,"distance":1230,"line":1},{"i_long":106.811091,"i_lat":-6.185545,"transit":true,"is_transit":true,"distance":3632,"station_name":"Tanah Abang","station_id":"THB","line":1,"time":8},{"station_name":"Palmerah","i_lat":-6.207404,"line":6,"is_transit":false,"station_id":"PLM","distance":3191,"transit":false,"time":6,"i_long":106.79689},{"distance":3737,"is_transit":false,"station_id":"KBY","i_long":106.780334,"i_lat":-6.237242,"station_name":"Kebayoran","transit":false,"time":7,"line":6},{"line":6,"distance":6218,"time":8,"station_name":"Pondokranji","i_long":106.74273,"transit":false,"is_transit":false,"station_id":"PDJ","i_lat":-6.276362},{"line":6,"station_id":"JMU","distance":2179,"time":3,"is_transit":false,"transit":false,"station_name":"Jurangmangu","i_lat":-6.288927,"i_long":106.728916},{"line":6,"transit":false,"distance":1994,"time":4,"station_name":"Sudimara","station_id":"SDM","is_transit":false,"i_lat":-6.296963,"i_long":106.712277},{"transit":false,"is_transit":false,"station_id":"RU","i_lat":-6.314823,"i_long":106.675475,"distance":4566,"station_name":"Rawa Buntu","time":6,"line":6},{"station_id":"SRP","distance":2413,"line":6,"time":4,"i_long":106.66566,"station_name":"Serpong","is_transit":false,"transit":false,"i_lat":-6.319871},{"i_lat":-6.32484,"time":4,"station_id":"CSK","transit":false,"distance":1784,"i_long":106.640411,"is_transit":false,"station_name":"Cisauk","line":0},{"distance":2519,"i_long":106.617853,"transit":false,"line":0,"is_transit":false,"time":4,"station_name":"Cicayur","station_id":"CC","i_lat":-6.329547},{"transit":false,"time":8,"is_transit":false,"i_lat":-6.3441410000000005,"distance":5968,"station_name":"Parung Panjang","station_id":"PRP","i_long":106.568863,"line":6},{"time":9,"distance":7025,"i_lat":-6.354349,"i_long":106.508482,"transit":false,"station_name":"Cilejit","line":0,"station_id":"CJT","is_transit":false},{"line":0,"time":6,"i_long":106.491338,"i_lat":-6.338021,"distance":2675,"station_name":"Daru","is_transit":false,"station_id":"DAR","transit":false},{"transit":false,"time":5,"line":6,"is_transit":false,"distance":3902,"i_long":106.460812,"i_lat":-6.327251,"station_name":"Tenjo","station_id":"TEJ"},{"time":5,"station_id":"TGS","distance":2974,"line":6,"i_lat":-6.328533,"is_transit":false,"station_name":"Tigaraksa","i_long":106.425991,"transit":false},{"station_id":"CKY","station_name":"Cikoya","i_long":106.411216,"transit":false,"distance":2651,"i_lat":-6.33561,"time":3,"is_transit":false,"line":0},{"line":6,"i_lat":-6.332307,"is_transit":false,"station_id":"MJ","transit":false,"time":4,"distance":1853,"station_name":"Maja","i_long":106.394373},{"distance":7293,"i_lat":-6.334892,"is_transit":false,"station_name":"Citeras","time":10,"station_id":"CTR","i_long":106.332092,"line":0,"transit":false}],[{"station_id":"CUK","line":0,"is_transit":false,"transit":false,"time":0,"station_name":"Cakung","i_long":106.951283,"i_lat":-6.219053,"distance":0},{"i_lat":-6.217455,"station_id":"KLDB","distance":1385,"i_long":106.939679,"time":8,"is_transit":false,"transit":false,"line":1,"station_name":"Klenderbaru"},{"transit":false,"time":1,"station_name":"Buaran","is_transit":false,"station_id":"BUA","line":0,"i_lat":-6.215568,"i_long":106.922662,"distance":1305},{"time":2,"station_id":"KLD","is_transit":false,"i_lat":-6.2135,"distance":3100,"transit":false,"station_name":"Klender","i_long":106.899548,"line":1},{"station_id":"JNG","i_long":106.86807400000001,"distance":3395,"is_transit":true,"station_name":"Jatinegara","transit":false,"i_lat":-6.215091,"line":0,"time":3},{"line":1,"transit":false,"is_transit":false,"time":2,"station_id":"MTR","station_name":"Matraman","distance":1377,"i_lat":-6.212485,"i_long":106.858896},{"i_long":106.84912,"transit":true,"line":0,"distance":1275,"station_id":"MRI","station_name":"Manggarai","time":2,"i_lat":-6.209883,"is_transit":true},{"station_name":"Cikini","line":0,"distance":1590,"i_lat":-6.198556,"i_long":106.840169,"time":4,"transit":false,"is_transit":false,"station_id":"CKI"},{"transit":false,"i_long":106.832183,"station_name":"Gondangdia","is_transit":false,"i_lat":-6.186295,"time":3,"distance":1750,"line":2,"station_id":"GDD"},{"time":4,"distance":2015,"i_lat":-6.166716,"station_id":"JUA","is_transit":false,"i_long":106.828284,"transit":false,"line":2,"station_name":"Juanda"},{"time":2,"is_transit":false,"i_long":106.827103,"distance":1149,"transit":false,"i_lat":-6.160725,"line":2,"station_id":"SW","station_name":"Sawah Besar"},{"station_id":"MGB","line":2,"time":2,"i_lat":-6.149769,"transit":false,"distance":906,"i_long":106.82482,"is_transit":false,"station_name":"Manggabesar"},{"transit":false,"time":2,"is_transit":false,"i_long":106.820901,"station_id":"JAY","line":7,"distance":1080,"i_lat":-6.141205,"station_name":"Jayakarta"},{"distance":1264,"is_transit":true,"station_id":"JAKK","i_long":106.812439,"transit":true,"line":0,"station_name":"Jakarta Kota","time":4,"i_lat":-6.137569},{"station_name":"Kampung Bandan","is_transit":true,"i_lat":-6.132549,"distance":1364,"i_long":106.826365,"transit":false,"time":3,"line":0,"station_id":"KPB"},{"time":9,"distance":4102,"i_long":106.79867,"line":0,"station_name":"Angke","is_transit":false,"i_lat":-6.144674,"transit":false,"station_id":"AK"},{"i_long":106.800832,"line":1,"i_lat":-6.155215,"time":4,"is_transit":true,"station_name":"Duri","distance":1230,"transit":true,"station_id":"DU"},{"time":8,"station_name":"Tanah Abang","i_lat":-6.185545,"i_long":106.811091,"distance":3632,"transit":true,"station_id":"THB","line":1,"is_transit":true},{"distance":3191,"transit":false,"station_id":"PLM","time":6,"station_name":"Palmerah","i_lat":-6.207404,"i_long":106.79689,"is_transit":false,"line":6},{"time":7,"transit":false,"is_transit":false,"station_name":"Kebayoran","i_long":106.780334,"station_id":"KBY","distance":3737,"line":6,"i_lat":-6.237242},{"i_long":106.74273,"i_lat":-6.276362,"line":6,"distance":6218,"transit":false,"time":8,"is_transit":false,"station_id":"PDJ","station_name":"Pondokranji"},{"transit":false,"time":3,"distance":2179,"i_lat":-6.288927,"i_long":106.728916,"is_transit":false,"station_id":"JMU","station_name":"Jurangmangu","line":6},{"time":4,"station_name":"Sudimara","transit":false,"is_transit":false,"i_lat":-6.296963,"line":6,"i_long":106.712277,"station_id":"SDM","distance":1994},{"i_lat":-6.314823,"station_id":"RU","time":6,"transit":false,"line":6,"station_name":"Rawa Buntu","i_long":106.675475,"is_transit":false,"distance":4566},{"is_transit":false,"station_name":"Serpong","line":6,"distance":2413,"i_lat":-6.319871,"time":4,"i_long":106.66566,"transit":false,"station_id":"SRP"},{"i_long":106.640411,"distance":1784,"i_lat":-6.32484,"line":0,"transit":false,"is_transit":false,"station_name":"Cisauk","station_id":"CSK","time":4},{"transit":false,"time":4,"is_transit":false,"i_lat":-6.329547,"station_name":"Cicayur","station_id":"CC","distance":2519,"i_long":106.617853,"line":0},{"distance":5968,"line":6,"i_long":106.568863,"station_name":"Parung Panjang","time":8,"is_transit":false,"station_id":"PRP","i_lat":-6.3441410000000005,"transit":false},{"transit":false,"station_id":"CJT","i_lat":-6.354349,"line":0,"time":9,"is_transit":false,"i_long":106.508482,"distance":7025,"station_name":"Cilejit"},{"station_id":"DAR","transit":false,"is_transit":false,"i_lat":-6.338021,"line":0,"distance":2675,"time":6,"i_long":106.491338,"station_name":"Daru"},{"time":5,"is_transit":false,"i_lat":-6.327251,"station_name":"Tenjo","transit":false,"station_id":"TEJ","distance":3902,"i_long":106.460812,"line":6},{"line":6,"transit":false,"time":5,"is_transit":false,"station_id":"TGS","station_name":"Tigaraksa","i_long":106.425991,"distance":2974,"i_lat":-6.328533},{"i_long":106.411216,"is_transit":false,"i_lat":-6.33561,"station_name":"Cikoya","time":3,"station_id":"CKY","distance":2651,"line":0,"transit":false},{"station_id":"MJ","time":4,"i_long":106.394373,"is_transit":false,"station_name":"Maja","transit":false,"i_lat":-6.332307,"distance":1853,"line":6},{"is_transit":false,"line":0,"station_id":"CTR","transit":false,"time":10,"station_name":"Citeras","distance":7293,"i_long":106.332092,"i_lat":-6.334892}],[{"i_lat":-6.219053,"is_transit":false,"line":0,"distance":0,"i_long":106.951283,"station_name":"Cakung","transit":false,"station_id":"CUK","time":0},{"time":8,"station_id":"KLDB","transit":false,"line":1,"station_name":"Klenderbaru","distance":1385,"i_long":106.939679,"is_transit":false,"i_lat":-6.217455},{"is_transit":false,"line":0,"time":1,"station_id":"BUA","distance":1305,"transit":false,"i_long":106.922662,"station_name":"Buaran","i_lat":-6.215568},{"i_lat":-6.2135,"line":1,"i_long":106.899548,"time":2,"distance":3100,"station_name":"Klender","is_transit":false,"transit":false,"station_id":"KLD"},{"i_lat":-6.215091,"distance":3395,"time":3,"station_name":"Jatinegara","i_long":106.86807400000001,"transit":true,"station_id":"JNG","line":0,"is_transit":true},{"i_lat":-6.209188,"i_long":106.861737,"is_transit":false,"time":2,"line":11,"station_name":"Pondok Jati","transit":false,"station_id":"POK","distance":1236},{"station_name":"Kramat","i_long":106.855437,"line":11,"time":2,"i_lat":-6.193792,"transit":false,"station_id":"KMT","is_transit":false,"distance":1829},{"transit":false,"distance":973,"station_name":"Gang Sentiong","is_transit":false,"i_long":106.850107,"time":1,"i_lat":-6.185975,"line":11,"station_id":"GST"},{"time":8,"i_lat":-6.174784,"transit":false,"distance":1567,"station_id":"PSE","i_long":106.84368,"is_transit":false,"station_name":"Pasar Senen","line":11},{"i_long":106.839204,"line":11,"transit":false,"is_transit":false,"station_name":"Kemayoran","station_id":"KMO","time":4,"distance":1436,"i_lat":-6.161728},{"station_name":"Rajawali","line":11,"i_long":106.836569,"distance":1901,"time":5,"i_lat":-6.14505,"is_transit":false,"transit":false,"station_id":"RJW"},{"time":3,"transit":true,"is_transit":true,"distance":1444,"station_id":"KPB","i_long":106.826365,"station_name":"Kampung Bandan","i_lat":-6.132549,"line":0},{"i_lat":-6.137569,"is_transit":true,"line":0,"i_long":106.812439,"time":3,"station_id":"JAKK","station_name":"Jakarta Kota","distance":1364,"transit":true},{"transit":false,"line":7,"distance":1264,"station_name":"Jayakarta","i_long":106.820901,"station_id":"JAY","i_lat":-6.141205,"time":4,"is_transit":false},{"is_transit":false,"i_lat":-6.149769,"time":2,"i_long":106.82482,"station_name":"Manggabesar","line":2,"transit":false,"distance":1080,"station_id":"MGB"},{"i_lat":-6.160725,"station_id":"SW","distance":906,"transit":false,"is_transit":false,"station_name":"Sawah Besar","time":2,"line":2,"i_long":106.827103},{"station_id":"JUA","distance":1149,"i_long":106.828284,"time":2,"transit":false,"i_lat":-6.166716,"is_transit":false,"station_name":"Juanda","line":2},{"transit":false,"distance":2015,"time":4,"station_id":"GDD","is_transit":false,"i_lat":-6.186295,"station_name":"Gondangdia","i_long":106.832183,"line":2},{"is_transit":false,"i_long":106.840169,"transit":false,"station_id":"CKI","station_name":"Cikini","i_lat":-6.198556,"line":0,"distance":1750,"time":3},{"line":0,"is_transit":true,"i_lat":-6.209883,"i_long":106.84912,"time":4,"transit":true,"station_id":"MRI","station_name":"Manggarai","distance":1590},{"i_long":106.822649,"transit":false,"i_lat":-6.202263,"time":4,"distance":3186,"line":1,"station_name":"Sudirman","is_transit":false,"station_id":"SUD"},{"transit":false,"line":1,"time":1,"station_id":"SUDB","station_name":"Sudirman Baru","i_lat":-6.201433,"distance":280,"is_transit":false,"i_long":106.819881},{"transit":false,"i_long":106.816351,"line":1,"time":1,"station_id":"KAT","i_lat":-6.20132,"is_transit":false,"station_name":"Karet","distance":471},{"line":1,"i_long":106.811091,"i_lat":-6.185545,"time":5,"distance":2029,"is_transit":true,"transit":true,"station_name":"Tanah Abang","station_id":"THB"},{"transit":false,"line":6,"is_transit":false,"station_id":"PLM","time":6,"i_long":106.79689,"distance":3191,"i_lat":-6.207404,"station_name":"Palmerah"},{"station_id":"KBY","station_name":"Kebayoran","distance":3737,"line":6,"transit":false,"is_transit":false,"i_lat":-6.237242,"time":7,"i_long":106.780334},{"station_name":"Pondokranji","i_long":106.74273,"line":6,"time":8,"station_id":"PDJ","distance":6218,"transit":false,"is_transit":false,"i_lat":-6.276362},{"station_name":"Jurangmangu","time":3,"distance":2179,"transit":false,"i_long":106.728916,"line":6,"is_transit":false,"station_id":"JMU","i_lat":-6.288927},{"i_long":106.712277,"station_name":"Sudimara","is_transit":false,"distance":1994,"i_lat":-6.296963,"station_id":"SDM","time":4,"transit":false,"line":6},{"station_name":"Rawa Buntu","i_lat":-6.314823,"transit":false,"i_long":106.675475,"station_id":"RU","distance":4566,"line":6,"is_transit":false,"time":6},{"distance":2413,"time":4,"i_lat":-6.319871,"i_long":106.66566,"transit":false,"station_id":"SRP","station_name":"Serpong","line":6,"is_transit":false},{"distance":1784,"station_name":"Cisauk","station_id":"CSK","line":0,"is_transit":false,"transit":false,"i_lat":-6.32484,"time":4,"i_long":106.640411},{"time":4,"station_name":"Cicayur","line":0,"distance":2519,"transit":false,"station_id":"CC","i_long":106.617853,"is_transit":false,"i_lat":-6.329547},{"transit":false,"distance":5968,"i_lat":-6.3441410000000005,"time":8,"line":6,"station_id":"PRP","station_name":"Parung Panjang","i_long":106.568863,"is_transit":false},{"i_long":106.508482,"station_id":"CJT","distance":7025,"is_transit":false,"transit":false,"time":9,"station_name":"Cilejit","line":0,"i_lat":-6.354349},{"station_name":"Daru","time":6,"line":0,"is_transit":false,"station_id":"DAR","i_long":106.491338,"transit":false,"i_lat":-6.338021,"distance":2675},{"time":5,"is_transit":false,"distance":3902,"line":6,"station_name":"Tenjo","station_id":"TEJ","transit":false,"i_lat":-6.327251,"i_long":106.460812},{"is_transit":false,"station_name":"Tigaraksa","i_lat":-6.328533,"transit":false,"time":5,"i_long":106.425991,"distance":2974,"station_id":"TGS","line":6},{"distance":2651,"is_transit":false,"i_long":106.411216,"station_id":"CKY","station_name":"Cikoya","line":0,"time":3,"i_lat":-6.33561,"transit":false},{"distance":1853,"is_transit":false,"line":6,"transit":false,"station_name":"Maja","station_id":"MJ","i_lat":-6.332307,"i_long":106.394373,"time":4},{"is_transit":false,"station_name":"Citeras","i_lat":-6.334892,"transit":false,"line":0,"station_id":"CTR","distance":7293,"i_long":106.332092,"time":10}]]}