{"data":[[{"i_long":106.951283,"time":0,"i_lat":-6.219053,"distance":0,"station_id":"CUK","is_transit":false,"station_name":"Cakung","transit":false,"line":1},{"time":8,"distance":1385,"transit":false,"line":1,"is_transit":false,"i_long":106.939679,"station_name":"Klenderbaru","station_id":"KLDB","i_lat":-6.217455},{"distance":1305,"line":1,"time":1,"station_id":"BUA","transit":false,"i_long":106.922662,"i_lat":-6.215568,"is_transit":false,"station_name":"Buaran"},{"distance":3100,"station_id":"KLD","i_lat":-6.2135,"is_transit":false,"time":2,"transit":false,"i_long":106.899548,"line":1,"station_name":"Klender"},{"i_lat":-6.215091,"is_transit":false,"station_id":"JNG","time":3,"distance":3395,"station_name":"Jatinegara","line":1,"i_long":106.86807400000001,"transit":false},{"transit":false,"line":1,"i_lat":-6.212485,"distance":1377,"station_id":"MTR","time":2,"station_name":"Matraman","is_transit":false,"i_long":106.858896},{"is_transit":false,"station_name":"Manggarai","distance":1275,"i_long":106.84912,"station_id":"MRI","i_lat":-6.209883,"time":2,"transit":false,"line":2},{"i_long":106.822649,"is_transit":false,"line":1,"station_id":"SUD","distance":3186,"station_name":"Sudirman","i_lat":-6.202263,"transit":false,"time":4},{"time":1,"distance":280,"station_id":"SUDB","station_name":"Sudirman Baru","i_lat":-6.201433,"transit":false,"is_transit":false,"i_long":106.819881,"line":1},{"is_transit":false,"line":1,"transit":false,"i_lat":-6.20132,"station_id":"KAT","distance":471,"time":1,"station_name":"Karet","i_long":106.816351},{"station_id":"THB","line":1,"i_long":106.811091,"i_lat":-6.185545,"station_name":"Tanah Abang","time":5,"is_transit":true,"transit":true,"distance":2029},{"line":6,"i_long":106.79689,"distance":3191,"i_lat":-6.207404,"time":6,"station_name":"Palmerah","station_id":"PLM","is_transit":false,"transit":false},{"is_transit":false,"i_long":106.780334,"station_name":"Kebayoran","line":6,"transit":false,"i_lat":-6.237242,"station_id":"KBY","time":7,"distance":3737},{"time":8,"is_transit":false,"distance":6218,"station_id":"PDJ","transit":false,"i_lat":-6.276362,"i_long":106.74273,"station_name":"Pondokranji","line":6},{"distance":2179,"time":3,"station_id":"JMU","station_name":"Jurangmangu","is_transit":false,"i_lat":-6.288927,"i_long":106.728916,"line":6,"transit":false},{"line":6,"is_transit":false,"distance":1994,"station_id":"SDM","i_long":106.712277,"transit":false,"time":4,"station_name":"Sudimara","i_lat":-6.296963},{"time":6,"i_long":106.675475,"transit":false,"distance":4566,"station_id":"RU","is_transit":false,"station_name":"Rawa Buntu","line":6,"i_lat":-6.314823},{"transit":false,"distance":2413,"time":4,"is_transit":false,"i_lat":-6.319871,"station_id":"SRP","i_long":106.66566,"line":6,"station_name":"Serpong"},{"is_transit":false,"station_id":"CSK","distance":1784,"i_long":106.640411,"station_name":"Cisauk","i_lat":-6.32484,"line":3,"time":4,"transit":false},{"transit":false,"station_name":"Cicayur","i_long":106.617853,"time":4,"station_id":"CC","i_lat":-6.329547,"distance":2519,"is_transit":false,"line":3},{"station_id":"PRP","is_transit":false,"station_name":"Parung Panjang","distance":5968,"i_lat":-6.3441410000000005,"line":6,"transit":false,"i_long":106.568863,"time":8},{"line":3,"is_transit":false,"distance":7025,"station_name":"Cilejit","station_id":"CJT","transit":false,"i_lat":-6.354349,"time":9,"i_long":106.508482},{"is_transit":false,"transit":false,"time":6,"station_id":"DAR","i_lat":-6.338021,"i_long":106.491338,"line":0,"station_name":"Daru","distance":2675},{"is_transit":false,"i_lat":-6.327251,"distance":3902,"station_id":"TEJ","time":5,"transit":false,"i_long":106.460812,"station_name":"Tenjo","line":6},{"station_name":"Tigaraksa","transit":false,"is_transit":false,"i_long":106.425991,"time":5,"distance":2974,"line":6,"i_lat":-6.328533,"station_id":"TGS"},{"station_id":"CKY","time":3,"i_lat":-6.33561,"i_long":106.411216,"distance":2651,"transit":false,"line":3,"is_transit":false,"station_name":"Cikoya"},{"station_name":"Maja","time":4,"distance":1853,"i_long":106.394373,"station_id":"MJ","is_transit":false,"line":6,"i_lat":-6.332307,"transit":false},{"i_long":106.332092,"station_name":"Citeras","transit":false,"distance":7293,"i_lat":-6.334892,"time":10,"is_transit":false,"line":3,"station_id":"CTR"}],[{"i_lat":-6.219053,"is_transit":false,"station_name":"Cakung","station_id":"CUK","distance":0,"i_long":106.951283,"time":0,"line":1,"transit":false},{"is_transit":false,"station_name":"Klenderbaru","i_lat":-6.217455,"time":8,"station_id":"KLDB","transit":false,"i_long":106.939679,"line":1,"distance":1385},{"line":1,"time":1,"transit":false,"station_id":"BUA","station_name":"Buaran","distance":1305,"is_transit":false,"i_long":106.922662,"i_lat":-6.215568},{"i_long":106.899548,"is_transit":false,"distance":3100,"transit":false,"line":1,"station_name":"Klender","i_lat":-6.2135,"time":2,"station_id":"KLD"},{"i_lat":-6.215091,"line":1,"distance":3395,"transit":true,"station_name":"Jatinegara","i_long":106.86807400000001,"time":3,"is_transit":true,"station_id":"JNG"},{"is_transit":false,"distance":1236,"i_lat":-6.209188,"station_name":"Pondok Jati","time":2,"line":11,"transit":false,"i_long":106.861737,"station_id":"POK"},{"transit":false,"station_id":"KMT","time":2,"line":11,"distance":1829,"station_name":"Kramat","is_transit":false,"i_long":106.855437,"i_lat":-6.193792},{"time":1,"transit":false,"station_id":"GST","i_lat":-6.185975,"is_transit":false,"line":11,"distance":973,"station_name":"Gang Sentiong","i_long":106.850107},{"station_id":"PSE","transit":false,"i_lat":-6.174784,"line":11,"time":8,"is_transit":false,"station_name":"Pasar Senen","i_long":106.84368,"distance":1567},{"station_id":"KMO","time":4,"line":11,"distance":1436,"is_transit":false,"i_long":106.839204,"station_name":"Kemayoran","transit":false,"i_lat":-6.161728},{"i_long":106.836569,"line":11,"i_lat":-6.14505,"time":5,"station_id":"RJW","distance":1901,"transit":false,"station_name":"Rajawali","is_transit":false},{"transit":true,"i_lat":-6.132549,"i_long":106.826365,"is_transit":true,"station_id":"KPB","time":3,"line":4,"station_name":"Kampung Bandan","distance":1444},{"is_transit":false,"transit":false,"line":1,"station_name":"Angke","distance":4102,"time":9,"i_lat":-6.144674,"station_id":"AK","i_long":106.79867},{"i_long":106.800832,"i_lat":-6.155215,"is_transit":false,"distance":1230,"station_id":"DU","station_name":"Duri","line":1,"time":4,"transit":false},{"transit":true,"station_id":"THB","i_long":106.811091,"station_name":"Tanah Abang","i_lat":-6.185545,"is_transit":true,"time":8,"line":1,"distance":3632},{"time":6,"is_transit":false,"station_name":"Palmerah","station_id":"PLM","i_long":106.79689,"transit":false,"i_lat":-6.207404,"distance":3191,"line":6},{"transit":false,"i_long":106.780334,"i_lat":-6.237242,"station_name":"Kebayoran","is_transit":false,"station_id":"KBY","distance":3737,"time":7,"line":6},{"distance":6218,"station_name":"Pondokranji","transit":false,"i_long":106.74273,"station_id":"PDJ","is_transit":false,"i_lat":-6.276362,"time":8,"line":6},{"is_transit":false,"station_id":"JMU","station_name":"Jurangmangu","distance":2179,"i_lat":-6.288927,"transit":false,"i_long":106.728916,"line":6,"time":3},{"line":6,"time":4,"is_transit":false,"station_id":"SDM","distance":1994,"transit":false,"i_long":106.712277,"i_lat":-6.296963,"station_name":"Sudimara"},{"distance":4566,"transit":false,"is_transit":false,"station_name":"Rawa Buntu","i_lat":-6.314823,"i_long":106.675475,"line":6,"time":6,"station_id":"RU"},{"distance":2413,"i_long":106.66566,"time":4,"station_name":"Serpong","station_id":"SRP","transit":false,"line":6,"i_lat":-6.319871,"is_transit":false},{"is_transit":false,"i_lat":-6.32484,"time":4,"i_long":106.640411,"line":3,"distance":1784,"transit":false,"station_id":"CSK","station_name":"Cisauk"},{"station_name":"Cicayur","i_long":106.617853,"i_lat":-6.329547,"time":4,"is_transit":false,"station_id":"CC","distance":2519,"transit":false,"line":3},{"i_lat":-6.3441410000000005,"is_transit":false,"line":6,"time":8,"station_name":"Parung Panjang","station_id":"PRP","distance":5968,"transit":false,"i_long":106.568863},{"i_long":106.508482,"is_transit":false,"line":3,"time":9,"station_id":"CJT","i_lat":-6.354349,"station_name":"Cilejit","distance":7025,"transit":false},{"transit":false,"station_name":"Daru","is_transit":false,"i_long":106.491338,"line":0,"distance":2675,"i_lat":-6.338021,"station_id":"DAR","time":6},{"time":5,"station_name":"Tenjo","distance":3902,"transit":false,"i_long":106.460812,"i_lat":-6.327251,"line":6,"is_transit":false,"station_id":"TEJ"},{"distance":2974,"i_lat":-6.328533,"i_long":106.425991,"station_id":"TGS","transit":false,"line":6,"time":5,"is_transit":false,"station_name":"Tigaraksa"},{"time":3,"line":3,"i_lat":-6.33561,"station_id":"CKY","distance":2651,"station_name":"Cikoya","transit":false,"i_long":106.411216,"is_transit":false},{"station_name":"Maja","i_lat":-6.332307,"distance":1853,"station_id":"MJ","line":6,"transit":false,"i_long":106.394373,"is_transit":false,"time":4},{"time":10,"station_id":"CTR","distance":7293,"i_long":106.332092,"line":3,"station_name":"Citeras","is_transit":false,"transit":false,"i_lat":-6.334892}],[{"time":0,"transit":false,"station_id":"CUK","distance":0,"line":1,"station_name":"Cakung","i_lat":-6.219053,"is_transit":false,"i_long":106.951283},{"i_long":106.939679,"line":1,"is_transit":false,"station_name":"Klenderbaru","time":8,"distance":1385,"i_lat":-6.217455,"station_id":"KLDB","transit":false},{"i_lat":-6.215568,"transit":false,"line":1,"is_transit":false,"station_id":"BUA","station_name":"Buaran","i_long":106.922662,"time":1,"distance":1305},{"line":1,"station_id":"KLD","is_transit":false,"station_name":"Klender","time":2,"i_lat":-6.2135,"i_long":106.899548,"distance":3100,"transit":false},{"station_id":"JNG","time":3,"line":1,"station_name":"Jatinegara","is_transit":false,"transit":false,"i_long":106.86807400000001,"i_lat":-6.215091,"distance":3395},{"station_id":"MTR","transit":false,"station_name":"Matraman","is_transit":false,"i_lat":-6.212485,"distance":1377,"i_long":106.858896,"line":1,"time":2},{"is_transit":true,"line":2,"time":2,"station_id":"MRI","distance":1275,"transit":true,"i_lat":-6.209883,"i_long":106.84912,"station_name":"Manggarai"},{"i_lat":-6.198556,"line":2,"time":4,"distance":1590,"transit":false,"is_transit":false,"i_long":106.840169,"station_name":"Cikini","station_id":"CKI"},{"station_id":"GDD","is_transit":false,"station_name":"Gondangdia","transit":false,"time":3,"i_lat":-6.186295,"distance":1750,"i_long":106.832183,"line":2},{"line":2,"i_lat":-6.166716,"i_long":106.828284,"station_name":"Juanda","time":4,"distance":2015,"is_transit":false,"station_id":"JUA","transit":false},{"station_id":"SW","i_lat":-6.160725,"line":2,"is_transit":false,"distance":1149,"time":2,"transit":false,"station_name":"Sawah Besar","i_long":106.827103},{"line":2,"distance":906,"is_transit":false,"time":2,"station_id":"MGB","station_name":"Manggabesar","transit":false,"i_long":106.82482,"i_lat":-6.149769},{"line":2,"station_id":"JAY","time":2,"station_name":"Jayakarta","transit":false,"i_lat":-6.141205,"is_transit":false,"distance":1080,"i_long":106.820901},{"i_long":106.812439,"transit":true,"is_transit":true,"station_id":"JAKK","distance":1264,"time":4,"station_name":"Jakarta Kota","line":2,"i_lat":-6.137569},{"distance":1364,"i_lat":-6.132549,"i_long":106.826365,"time":3,"transit":true,"is_transit":true,"station_name":"Kampung Bandan","line":4,"station_id":"KPB"},{"is_transit":false,"transit":false,"distance":4102,"time":9,"station_name":"Angke","station_id":"AK","i_long":106.79867,"line":1,"i_lat":-6.144674},{"i_long":106.800832,"is_transit":false,"distance":1230,"line":1,"station_name":"Duri","station_id":"DU","i_lat":-6.155215,"time":4,"transit":false},{"time":8,"station_name":"Tanah Abang","station_id":"THB","transit":true,"i_long":106.811091,"distance":3632,"is_transit":true,"i_lat":-6.185545,"line":1},{"station_name":"Palmerah","transit":false,"station_id":"PLM","distance":3191,"time":6,"is_transit":false,"line":6,"i_long":106.79689,"i_lat":-6.207404},{"line":6,"distance":3737,"station_name":"Kebayoran","is_transit":false,"station_id":"KBY","transit":false,"time":7,"i_lat":-6.237242,"i_long":106.780334},{"station_name":"Pondokranji","time":8,"is_transit":false,"distance":6218,"line":6,"transit":false,"station_id":"PDJ","i_long":106.74273,"i_lat":-6.276362},{"i_long":106.728916,"i_lat":-6.288927,"transit":false,"station_id":"JMU","is_transit":false,"line":6,"time":3,"station_name":"Jurangmangu","distance":2179},{"i_long":106.712277,"is_transit":false,"i_lat":-6.296963,"transit":false,"station_id":"SDM","time":4,"line":6,"distance":1994,"station_name":"Sudimara"},{"distance":4566,"i_long":106.675475,"i_lat":-6.314823,"line":6,"time":6,"station_name":"Rawa Buntu","is_transit":false,"station_id":"RU","transit":false},{"transit":false,"station_name":"Serpong","station_id":"SRP","i_long":106.66566,"line":6,"is_transit":false,"time":4,"distance":2413,"i_lat":-6.319871},{"station_name":"Cisauk","i_long":106.640411,"time":4,"station_id":"CSK","distance":1784,"i_lat":-6.32484,"line":3,"is_transit":false,"transit":false},{"is_transit":false,"station_name":"Cicayur","time":4,"station_id":"CC","transit":false,"distance":2519,"i_long":106.617853,"line":3,"i_lat":-6.329547},{"station_name":"Parung Panjang","time":8,"i_long":106.568863,"line":6,"station_id":"PRP","i_lat":-6.3441410000000005,"transit":false,"is_transit":false,"distance":5968},{"time":9,"distance":7025,"is_transit":false,"transit":false,"line":3,"i_lat":-6.354349,"station_name":"Cilejit","i_long":106.508482,"station_id":"CJT"},{"time":6,"transit":false,"distance":2675,"is_transit":false,"station_id":"DAR","i_lat":-6.338021,"station_name":"Daru","i_long":106.491338,"line":0},{"is_transit":false,"transit":false,"i_long":106.460812,"station_name":"Tenjo","distance":3902,"time":5,"station_id":"TEJ","line":6,"i_lat":-6.327251},{"i_lat":-6.328533,"distance":2974,"transit":false,"i_long":106.425991,"line":6,"time":5,"station_id":"TGS","is_transit":false,"station_name":"Tigaraksa"},{"is_transit":false,"station_name":"Cikoya","time":3,"distance":2651,"station_id":"CKY","transit":false,"i_lat":-6.33561,"i_long":106.411216,"line":3},{"line":6,"distance":1853,"i_lat":-6.332307,"i_long":106.394373,"transit":false,"is_transit":false,"station_name":"Maja","time":4,"station_id":"MJ"},{"station_name":"Citeras","station_id":"CTR","distance":7293,"is_transit":false,"i_lat":-6.334892,"time":10,"transit":false,"i_long":106.332092,"line":3}],[{"i_long":106.951283,"time":0,"station_id":"CUK","i_lat":-6.219053,"distance":0,"line":1,"station_name":"Cakung","transit":false,"is_transit":false},{"station_name":"Klenderbaru","i_long":106.939679,"line":1,"station_id":"KLDB","i_lat":-6.217455,"transit":false,"is_transit":false,"distance":1385,"time":8},{"i_lat":-6.215568,"is_transit":false,"station_name":"Buaran","i_long":106.922662,"line":1,"transit":false,"distance":1305,"time":1,"station_id":"BUA"},{"i_lat":-6.2135,"time":2,"transit":false,"is_transit":false,"i_long":106.899548,"station_id":"KLD","station_name":"Klender","distance":3100,"line":1},{"station_id":"JNG","is_transit":true,"station_name":"Jatinegara","distance":3395,"time":3,"i_lat":-6.215091,"transit":true,"line":1,"i_long":106.86807400000001},{"is_transit":false,"i_lat":-6.209188,"time":2,"station_id":"POK","station_name":"Pondok Jati","line":11,"i_long":106.861737,"transit":false,"distance":1236},{"distance":1829,"time":2,"i_lat":-6.193792,"station_id":"KMT","is_transit":false,"transit":false,"line":11,"station_name":"Kramat","i_long":106.855437},{"transit":false,"time":1,"i_lat":-6.185975,"i_long":106.850107,"line":11,"station_id":"GST","distance":973,"station_name":"Gang Sentiong","is_transit":false},{"transit":false,"line":11,"time":8,"distance":1567,"station_id":"PSE","i_long":106.84368,"station_name":"Pasar Senen","is_transit":false,"i_lat":-6.174784},{"time":4,"distance":1436,"transit":false,"station_name":"Kemayoran","i_long":106.839204,"station_id":"KMO","is_transit":false,"i_lat":-6.161728,"line":11},{"distance":1901,"i_long":106.836569,"line":11,"is_transit":false,"transit":false,"i_lat":-6.14505,"station_name":"Rajawali","station_id":"RJW","time":5},{"i_long":106.826365,"transit":true,"time":3,"station_id":"KPB","i_lat":-6.132549,"distance":1444,"line":4,"is_transit":true,"station_name":"Kampung Bandan"},{"i_lat":-6.137569,"transit":true,"time":3,"distance":1364,"station_name":"Jakarta Kota","is_transit":true,"station_id":"JAKK","line":2,"i_long":106.812439},{"station_id":"JAY","i_lat":-6.141205,"line":2,"transit":false,"station_name":"Jayakarta","distance":1264,"i_long":106.820901,"time":4,"is_transit":false},{"is_transit":false,"station_id":"MGB","transit":false,"i_lat":-6.149769,"time":2,"i_long":106.82482,"distance":1080,"line":2,"station_name":"Manggabesar"},{"i_lat":-6.160725,"distance":906,"station_name":"Sawah Besar","transit":false,"i_long":106.827103,"is_transit":false,"station_id":"SW","time":2,"line":2},{"time":2,"i_lat":-6.166716,"station_name":"Juanda","station_id":"JUA","distance":1149,"transit":false,"is_transit":false,"i_long":106.828284,"line":2},{"time":4,"i_lat":-6.186295,"line":2,"station_id":"GDD","is_transit":false,"i_long":106.832183,"distance":2015,"transit":false,"station_name":"Gondangdia"},{"i_long":106.840169,"station_name":"Cikini","line":2,"i_lat":-6.198556,"time":3,"is_transit":false,"distance":1750,"transit":false,"station_id":"CKI"},{"line":2,"time":4,"is_transit":true,"distance":1590,"i_lat":-6.209883,"station_id":"MRI","transit":true,"station_name":"Manggarai","i_long":106.84912},{"i_lat":-6.202263,"i_long":106.822649,"is_transit":false,"line":1,"time":4,"station_name":"Sudirman","transit":false,"distance":3186,"station_id":"SUD"},{"station_id":"SUDB","transit":false,"i_lat":-6.201433,"distance":280,"is_transit":false,"station_name":"Sudirman Baru","line":1,"i_long":106.819881,"time":1},{"i_long":106.816351,"transit":false,"time":1,"station_name":"Karet","line":1,"station_id":"KAT","is_transit":false,"i_lat":-6.20132,"distance":471},{"time":5,"is_transit":true,"station_name":"Tanah Abang","station_id":"THB","i_lat":-6.185545,"line":1,"transit":true,"i_long":106.811091,"distance":2029},{"transit":false,"time":6,"line":6,"station_name":"Palmerah","i_long":106.79689,"station_id":"PLM","distance":3191,"i_lat":-6.207404,"is_transit":false},{"station_name":"Kebayoran","i_long":106.780334,"is_transit":false,"distance":3737,"i_lat":-6.237242,"line":6,"transit":false,"time":7,"station_id":"KBY"},{"time":8,"transit":false,"is_transit":false,"station_name":"Pondokranji","i_lat":-6.276362,"i_long":106.74273,"station_id":"PDJ","line":6,"distance":6218},{"station_name":"Jurangmangu","distance":2179,"i_lat":-6.288927,"is_transit":false,"transit":false,"line":6,"time":3,"i_long":106.728916,"station_id":"JMU"},{"station_id":"SDM","station_name":"Sudimara","transit":false,"i_lat":-6.296963,"i_long":106.712277,"time":4,"is_transit":false,"distance":1994,"line":6},{"is_transit":false,"line":6,"station_name":"Rawa Buntu","transit":false,"time":6,"station_id":"RU","i_lat":-6.314823,"distance":4566,"i_long":106.675475},{"distance":2413,"is_transit":false,"station_id":"SRP","line":6,"i_long":106.66566,"station_name":"Serpong","i_lat":-6.319871,"time":4,"transit":false},{"is_transit":false,"station_id":"CSK","distance":1784,"time":4,"transit":false,"station_name":"Cisauk","i_lat":-6.32484,"line":3,"i_long":106.640411},{"i_lat":-6.329547,"station_name":"Cicayur","transit":false,"time":4,"station_id":"CC","is_transit":false,"distance":2519,"i_long":106.617853,"line":3},{"i_long":106.568863,"distance":5968,"i_lat":-6.3441410000000005,"station_name":"Parung Panjang","transit":false,"station_id":"PRP","is_transit":false,"time":8,"line":6},{"transit":false,"station_id":"CJT","station_name":"Cilejit","distance":7025,"i_lat":-6.354349,"is_transit":false,"time":9,"i_long":106.508482,"line":3},{"i_lat":-6.338021,"distance":2675,"station_id":"DAR","line":0,"transit":false,"i_long":106.491338,"is_transit":false,"station_name":"Daru","time":6},{"distance":3902,"transit":false,"station_name":"Tenjo","time":5,"is_transit":false,"i_lat":-6.327251,"station_id":"TEJ","line":6,"i_long":106.460812},{"time":5,"line":6,"i_long":106.425991,"station_id":"TGS","i_lat":-6.328533,"transit":false,"is_transit":false,"distance":2974,"station_name":"Tigaraksa"},{"time":3,"is_transit":false,"transit":false,"i_lat":-6.33561,"station_id":"CKY","line":3,"station_name":"Cikoya","i_long":106.411216,"distance":2651},{"line":6,"is_transit":false,"station_id":"MJ","distance":1853,"station_name":"Maja","transit":false,"i_long":106.394373,"i_lat":-6.332307,"time":4},{"station_name":"Citeras","station_id":"CTR","is_transit":false,"distance":7293,"i_lat":-6.334892,"i_long":106.332092,"line":3,"time":10,"transit":false}]]}