{"data":[[{"distance":0,"time":0,"station_name":"Cakung","station_id":"CUK","is_transit":false,"i_lat":-6.219053,"transit":false,"line":1,"i_long":106.951283},{"is_transit":false,"time":8,"station_name":"Klenderbaru","i_long":106.939679,"i_lat":-6.217455,"line":1,"station_id":"KLDB","transit":false,"distance":1385},{"line":1,"transit":false,"i_long":106.922662,"i_lat":-6.215568,"is_transit":false,"station_id":"BUA","station_name":"Buaran","distance":1305,"time":1},{"station_id":"KLD","station_name":"Klender","distance":3100,"time":2,"i_long":106.899548,"line":1,"transit":false,"is_transit":false,"i_lat":-6.2135},{"i_lat":-6.215091,"station_id":"JNG","is_transit":true,"time":3,"distance":3395,"station_name":"Jatinegara","i_long":106.86807400000001,"transit":true,"line":1},{"distance":1236,"station_id":"POK","is_transit":false,"station_name":"Pondok Jati","transit":false,"i_long":106.861737,"i_lat":-6.209188,"time":2,"line":11},{"i_lat":-6.193792,"time":2,"transit":false,"i_long":106.855437,"line":11,"distance":1829,"station_id":"KMT","is_transit":false,"station_name":"Kramat"},{"station_name":"Gang Sentiong","time":1,"is_transit":false,"transit":false,"i_long":106.850107,"line":11,"station_id":"GST","i_lat":-6.185975,"distance":973}],[{"station_name":"Cakung","i_lat":-6.219053,"line":1,"is_transit":false,"station_id":"CUK","time":0,"transit":false,"distance":0,"i_long":106.951283},{"i_lat":-6.217455,"distance":1385,"line":1,"time":8,"station_id":"KLDB","is_transit":false,"i_long":106.939679,"station_name":"Klenderbaru","transit":false},{"station_id":"BUA","i_long":106.922662,"station_name":"Buaran","distance":1305,"time":1,"i_lat":-6.215568,"line":1,"is_transit":false,"transit":false},{"line":1,"station_id":"KLD","i_lat":-6.2135,"time":2,"station_name":"Klender","i_long":106.899548,"is_transit":false,"distance":3100,"transit":false},{"i_long":106.86807400000001,"is_transit":false,"transit":false,"station_id":"JNG","distance":3395,"line":1,"i_lat":-6.215091,"station_name":"Jatinegara","time":3},{"time":2,"distance":1377,"station_name":"Matraman","transit":false,"i_lat":-6.212485,"station_id":"MTR","i_long":106.858896,"is_transit":false,"line":1},{"station_id":"MRI","i_lat":-6.209883,"line":2,"is_transit":false,"station_name":"Manggarai","distance":1275,"time":2,"i_long":106.84912,"transit":false},{"station_id":"SUD","transit":false,"distance":3186,"time":4,"line":1,"station_name":"Sudirman","i_lat":-6.202263,"i_long":106.822649,"is_transit":false},{"distance":280,"i_lat":-6.201433,"i_long":106.819881,"line":1,"station_id":"SUDB","station_name":"Sudirman Baru","transit":false,"is_transit":false,"time":1},{"transit":false,"is_transit":false,"i_long":106.816351,"station_id":"KAT","distance":471,"station_name":"Karet","line":1,"time":1,"i_lat":-6.20132},{"distance":2029,"i_lat":-6.185545,"i_long":106.811091,"line":1,"station_id":"THB","time":5,"is_transit":false,"transit":false,"station_name":"Tanah Abang"},{"station_name":"Duri","is_transit":false,"distance":3632,"i_long":106.800832,"line":1,"i_lat":-6.155215,"station_id":"DU","transit":false,"time":8},{"station_name":"Angke","distance":1230,"line":1,"is_transit":false,"time":4,"station_id":"AK","i_lat":-6.144674,"transit":false,"i_long":106.79867},{"is_transit":true,"distance":4102,"line":4,"i_lat":-6.132549,"transit":true,"station_name":"Kampung Bandan","i_long":106.826365,"time":9,"station_id":"KPB"},{"station_name":"Rajawali","station_id":"RJW","distance":1444,"i_lat":-6.14505,"line":11,"is_transit":false,"transit":false,"time":3,"i_long":106.836569},{"station_id":"KMO","is_transit":false,"station_name":"Kemayoran","i_long":106.839204,"transit":false,"line":11,"distance":1901,"i_lat":-6.161728,"time":5},{"i_lat":-6.174784,"line":11,"time":4,"transit":false,"is_transit":false,"i_long":106.84368,"distance":1436,"station_id":"PSE","station_name":"Pasar Senen"},{"station_name":"Gang Sentiong","station_id":"GST","i_long":106.850107,"time":8,"i_lat":-6.185975,"line":11,"distance":1567,"transit":false,"is_transit":false}],[{"station_id":"CUK","transit":false,"station_name":"Cakung","i_long":106.951283,"time":0,"distance":0,"line":1,"i_lat":-6.219053,"is_transit":false},{"distance":1385,"i_lat":-6.217455,"line":1,"i_long":106.939679,"station_name":"Klenderbaru","transit":false,"is_transit":false,"station_id":"KLDB","time":8},{"distance":1305,"time":1,"station_name":"Buaran","line":1,"i_lat":-6.215568,"i_long":106.922662,"transit":false,"station_id":"BUA","is_transit":false},{"station_id":"KLD","line":1,"is_transit":false,"time":2,"i_long":106.899548,"station_name":"Klender","i_lat":-6.2135,"transit":false,"distance":3100},{"distance":3395,"i_long":106.86807400000001,"transit":false,"is_transit":false,"line":1,"time":3,"station_id":"JNG","i_lat":-6.215091,"station_name":"Jatinegara"},{"station_id":"MTR","station_name":"Matraman","line":1,"is_transit":false,"transit":false,"distance":1377,"i_long":106.858896,"time":2,"i_lat":-6.212485},{"time":2,"transit":true,"i_lat":-6.209883,"station_name":"Manggarai","i_long":106.84912,"is_transit":true,"station_id":"MRI","line":2,"distance":1275},{"line":2,"is_transit":false,"i_long":106.840169,"time":4,"distance":1590,"station_id":"CKI","i_lat":-6.198556,"transit":false,"station_name":"Cikini"},{"station_id":"GDD","time":3,"i_long":106.832183,"transit":false,"line":2,"is_transit":false,"i_lat":-6.186295,"station_name":"Gondangdia","distance":1750},{"transit":false,"station_name":"Juanda","line":2,"is_transit":false,"i_lat":-6.166716,"i_long":106.828284,"time":4,"distance":2015,"station_id":"JUA"},{"i_long":106.827103,"i_lat":-6.160725,"transit":false,"distance":1149,"is_transit":false,"station_id":"SW","station_name":"Sawah Besar","line":2,"time":2},{"i_lat":-6.149769,"station_name":"Manggabesar","transit":false,"station_id":"MGB","distance":906,"i_long":106.82482,"is_transit":false,"time":2,"line":2},{"station_name":"Jayakarta","station_id":"JAY","i_long":106.820901,"line":2,"i_lat":-6.141205,"distance":1080,"time":2,"transit":false,"is_transit":false},{"transit":true,"station_name":"Jakarta Kota","time":4,"is_transit":true,"station_id":"JAKK","distance":1264,"i_lat":-6.137569,"i_long":106.812439,"line":2},{"i_long":106.826365,"station_id":"KPB","station_name":"Kampung Bandan","distance":1364,"i_lat":-6.132549,"line":4,"transit":true,"time":3,"is_transit":true},{"line":11,"station_id":"RJW","station_name":"Rajawali","transit":false,"is_transit":false,"i_long":106.836569,"distance":1444,"time":3,"i_lat":-6.14505},{"station_id":"KMO","is_transit":false,"station_name":"Kemayoran","distance":1901,"transit":false,"line":11,"time":5,"i_lat":-6.161728,"i_long":106.839204},{"transit":false,"time":4,"distance":1436,"i_lat":-6.174784,"i_long":106.84368,"is_transit":false,"station_name":"Pasar Senen","line":11,"station_id":"PSE"},{"line":11,"transit":false,"i_long":106.850107,"time":8,"is_transit":false,"station_name":"Gang Sentiong","station_id":"GST","distance":1567,"i_lat":-6.185975}]]}