{"data":[[{"time":0,"station_name":"Cakung","transit":false,"i_long":106.951283,"is_transit":false,"distance":0,"i_lat":-6.219053,"station_id":"CUK","line":1},{"transit":false,"is_transit":false,"i_long":106.939679,"time":8,"i_lat":-6.217455,"line":1,"station_id":"KLDB","distance":1385,"station_name":"Klenderbaru"},{"i_lat":-6.215568,"line":1,"i_long":106.922662,"station_name":"Buaran","station_id":"BUA","time":1,"distance":1305,"is_transit":false,"transit":false},{"station_name":"Klender","i_long":106.899548,"station_id":"KLD","time":2,"distance":3100,"is_transit":false,"i_lat":-6.2135,"line":1,"transit":false},{"distance":3395,"i_lat":-6.215091,"transit":true,"station_name":"Jatinegara","time":3,"station_id":"JNG","i_long":106.86807400000001,"is_transit":true,"line":1},{"is_transit":false,"line":11,"station_id":"POK","time":2,"i_long":106.861737,"distance":1236,"station_name":"Pondok Jati","transit":false,"i_lat":-6.209188},{"is_transit":false,"time":2,"i_lat":-6.193792,"distance":1829,"i_long":106.855437,"line":11,"station_id":"KMT","station_name":"Kramat","transit":false},{"time":1,"distance":973,"station_id":"GST","station_name":"Gang Sentiong","transit":false,"is_transit":false,"i_lat":-6.185975,"line":11,"i_long":106.850107},{"station_id":"PSE","line":11,"i_long":106.84368,"is_transit":false,"station_name":"Pasar Senen","time":8,"distance":1567,"transit":false,"i_lat":-6.174784}],[{"station_id":"CUK","i_lat":-6.219053,"transit":false,"distance":0,"is_transit":false,"line":1,"time":0,"station_name":"Cakung","i_long":106.951283},{"time":8,"transit":false,"i_long":106.939679,"line":1,"station_name":"Klenderbaru","station_id":"KLDB","is_transit":false,"i_lat":-6.217455,"distance":1385},{"i_long":106.922662,"station_id":"BUA","is_transit":false,"station_name":"Buaran","i_lat":-6.215568,"time":1,"distance":1305,"transit":false,"line":1},{"line":1,"time":2,"station_id":"KLD","transit":false,"distance":3100,"is_transit":false,"station_name":"Klender","i_long":106.899548,"i_lat":-6.2135},{"transit":false,"time":3,"i_lat":-6.215091,"i_long":106.86807400000001,"line":1,"distance":3395,"station_id":"JNG","is_transit":false,"station_name":"Jatinegara"},{"distance":1377,"station_name":"Matraman","transit":false,"i_lat":-6.212485,"station_id":"MTR","time":2,"line":1,"i_long":106.858896,"is_transit":false},{"is_transit":false,"time":2,"i_long":106.84912,"line":2,"station_id":"MRI","station_name":"Manggarai","transit":false,"i_lat":-6.209883,"distance":1275},{"i_lat":-6.202263,"station_name":"Sudirman","distance":3186,"station_id":"SUD","transit":false,"is_transit":false,"time":4,"i_long":106.822649,"line":1},{"distance":280,"station_name":"Sudirman Baru","i_long":106.819881,"is_transit":false,"i_lat":-6.201433,"time":1,"station_id":"SUDB","line":1,"transit":false},{"station_name":"Karet","i_lat":-6.20132,"distance":471,"i_long":106.816351,"station_id":"KAT","line":1,"time":1,"transit":false,"is_transit":false},{"station_name":"Tanah Abang","line":1,"i_long":106.811091,"station_id":"THB","is_transit":false,"i_lat":-6.185545,"transit":false,"time":5,"distance":2029},{"is_transit":false,"station_name":"Duri","station_id":"DU","transit":false,"distance":3632,"i_long":106.800832,"line":1,"i_lat":-6.155215,"time":8},{"i_long":106.79867,"transit":false,"is_transit":false,"station_name":"Angke","line":1,"station_id":"AK","time":4,"i_lat":-6.144674,"distance":1230},{"i_lat":-6.132549,"is_transit":true,"distance":4102,"station_name":"Kampung Bandan","i_long":106.826365,"time":9,"transit":true,"station_id":"KPB","line":4},{"time":3,"transit":false,"distance":1444,"station_id":"RJW","is_transit":false,"i_long":106.836569,"line":11,"station_name":"Rajawali","i_lat":-6.14505},{"distance":1901,"transit":false,"is_transit":false,"line":11,"time":5,"station_name":"Kemayoran","i_lat":-6.161728,"i_long":106.839204,"station_id":"KMO"},{"is_transit":false,"transit":false,"time":4,"distance":1436,"line":11,"i_lat":-6.174784,"i_long":106.84368,"station_name":"Pasar Senen","station_id":"PSE"}],[{"station_name":"Cakung","time":0,"i_long":106.951283,"line":1,"distance":0,"i_lat":-6.219053,"transit":false,"station_id":"CUK","is_transit":false},{"distance":1385,"transit":false,"station_name":"Klenderbaru","time":8,"is_transit":false,"station_id":"KLDB","i_lat":-6.217455,"i_long":106.939679,"line":1},{"time":1,"is_transit":false,"line":1,"i_lat":-6.215568,"i_long":106.922662,"distance":1305,"station_id":"BUA","station_name":"Buaran","transit":false},{"i_long":106.899548,"distance":3100,"is_transit":false,"time":2,"line":1,"i_lat":-6.2135,"transit":false,"station_name":"Klender","station_id":"KLD"},{"i_lat":-6.215091,"station_name":"Jatinegara","distance":3395,"station_id":"JNG","is_transit":false,"line":1,"time":3,"transit":false,"i_long":106.86807400000001},{"line":1,"i_lat":-6.212485,"transit":false,"station_name":"Matraman","distance":1377,"is_transit":false,"time":2,"i_long":106.858896,"station_id":"MTR"},{"is_transit":true,"i_long":106.84912,"station_name":"Manggarai","line":2,"station_id":"MRI","time":2,"distance":1275,"i_lat":-6.209883,"transit":true},{"is_transit":false,"line":2,"station_name":"Cikini","transit":false,"time":4,"station_id":"CKI","i_lat":-6.198556,"i_long":106.840169,"distance":1590},{"distance":1750,"station_id":"GDD","i_long":106.832183,"i_lat":-6.186295,"line":2,"is_transit":false,"transit":false,"time":3,"station_name":"Gondangdia"},{"distance":2015,"i_long":106.828284,"time":4,"station_id":"JUA","transit":false,"is_transit":false,"station_name":"Juanda","i_lat":-6.166716,"line":2},{"line":2,"time":2,"distance":1149,"i_lat":-6.160725,"is_transit":false,"station_name":"Sawah Besar","station_id":"SW","i_long":106.827103,"transit":false},{"station_id":"MGB","is_transit":false,"i_long":106.82482,"time":2,"transit":false,"station_name":"Manggabesar","i_lat":-6.149769,"distance":906,"line":2},{"distance":1080,"transit":false,"time":2,"station_id":"JAY","is_transit":false,"station_name":"Jayakarta","i_long":106.820901,"line":2,"i_lat":-6.141205},{"distance":1264,"station_id":"JAKK","line":2,"transit":true,"i_lat":-6.137569,"time":4,"is_transit":true,"i_long":106.812439,"station_name":"Jakarta Kota"},{"line":4,"station_name":"Kampung Bandan","time":3,"station_id":"KPB","i_lat":-6.132549,"i_long":106.826365,"distance":1364,"transit":true,"is_transit":true},{"station_id":"RJW","distance":1444,"i_lat":-6.14505,"station_name":"Rajawali","is_transit":false,"i_long":106.836569,"line":11,"transit":false,"time":3},{"station_id":"KMO","transit":false,"line":11,"i_long":106.839204,"distance":1901,"i_lat":-6.161728,"station_name":"Kemayoran","is_transit":false,"time":5},{"i_long":106.84368,"time":4,"station_id":"PSE","i_lat":-6.174784,"transit":false,"line":11,"is_transit":false,"distance":1436,"station_name":"Pasar Senen"}]]}