{"data":[[{"is_transit":false,"station_id":"CUK","i_long":106.951283,"i_lat":-6.219053,"time":0,"distance":0,"station_name":"Cakung","line":0,"transit":false},{"station_id":"KLDB","i_lat":-6.217455,"line":1,"transit":false,"i_long":106.939679,"distance":1385,"station_name":"Klenderbaru","is_transit":false,"time":8},{"time":1,"line":0,"station_name":"Buaran","is_transit":false,"station_id":"BUA","i_long":106.922662,"transit":false,"i_lat":-6.215568,"distance":1305},{"transit":false,"station_id":"KLD","is_transit":false,"time":2,"i_lat":-6.2135,"i_long":106.899548,"station_name":"Klender","line":1,"distance":3100},{"distance":3395,"station_id":"JNG","is_transit":true,"i_lat":-6.215091,"line":0,"station_name":"Jatinegara","transit":false,"time":3,"i_long":106.86807400000001},{"transit":false,"i_long":106.858896,"station_name":"Matraman","distance":1377,"is_transit":false,"station_id":"MTR","time":2,"i_lat":-6.212485,"line":1},{"transit":false,"station_name":"Manggarai","i_long":106.84912,"i_lat":-6.209883,"station_id":"MRI","is_transit":true,"time":2,"line":0,"distance":1275},{"station_id":"SUD","is_transit":false,"time":4,"transit":false,"station_name":"Sudirman","i_lat":-6.202263,"distance":3186,"i_long":106.822649,"line":1},{"station_name":"Sudirman Baru","is_transit":false,"i_long":106.819881,"station_id":"SUDB","distance":280,"line":1,"time":1,"i_lat":-6.201433,"transit":false},{"transit":false,"i_lat":-6.20132,"i_long":106.816351,"station_name":"Karet","line":1,"distance":471,"is_transit":false,"time":1,"station_id":"KAT"},{"distance":2029,"station_id":"THB","is_transit":true,"i_lat":-6.185545,"station_name":"Tanah Abang","transit":true,"time":5,"i_long":106.811091,"line":1},{"station_name":"Palmerah","i_lat":-6.207404,"transit":false,"is_transit":false,"station_id":"PLM","line":6,"time":6,"distance":3191,"i_long":106.79689},{"line":6,"time":7,"transit":false,"distance":3737,"is_transit":false,"station_id":"KBY","i_long":106.780334,"i_lat":-6.237242,"station_name":"Kebayoran"},{"station_id":"PDJ","time":8,"distance":6218,"i_long":106.74273,"line":6,"station_name":"Pondokranji","transit":false,"is_transit":false,"i_lat":-6.276362},{"i_lat":-6.288927,"line":6,"is_transit":false,"station_id":"JMU","distance":2179,"i_long":106.728916,"transit":false,"station_name":"Jurangmangu","time":3},{"station_id":"SDM","distance":1994,"i_lat":-6.296963,"time":4,"i_long":106.712277,"line":6,"is_transit":false,"station_name":"Sudimara","transit":false},{"i_long":106.675475,"transit":false,"line":6,"station_name":"Rawa Buntu","is_transit":false,"station_id":"RU","i_lat":-6.314823,"time":6,"distance":4566}],[{"line":0,"distance":0,"i_lat":-6.219053,"transit":false,"i_long":106.951283,"station_name":"Cakung","is_transit":false,"station_id":"CUK","time":0},{"transit":false,"distance":1385,"is_transit":false,"time":8,"station_name":"Klenderbaru","station_id":"KLDB","i_long":106.939679,"line":1,"i_lat":-6.217455},{"time":1,"i_long":106.922662,"station_id":"BUA","transit":false,"i_lat":-6.215568,"station_name":"Buaran","is_transit":false,"distance":1305,"line":0},{"line":1,"station_id":"KLD","station_name":"Klender","distance":3100,"i_lat":-6.2135,"is_transit":false,"transit":false,"time":2,"i_long":106.899548},{"transit":true,"distance":3395,"station_id":"JNG","station_name":"Jatinegara","line":0,"i_lat":-6.215091,"is_transit":true,"time":3,"i_long":106.86807400000001},{"station_name":"Pondok Jati","line":11,"distance":1236,"is_transit":false,"station_id":"POK","time":2,"i_lat":-6.209188,"i_long":106.861737,"transit":false},{"i_long":106.855437,"time":2,"station_id":"KMT","station_name":"Kramat","is_transit":false,"distance":1829,"line":11,"i_lat":-6.193792,"transit":false},{"is_transit":false,"i_lat":-6.185975,"station_id":"GST","station_name":"Gang Sentiong","time":1,"transit":false,"line":11,"i_long":106.850107,"distance":973},{"i_lat":-6.174784,"line":11,"time":8,"i_long":106.84368,"transit":false,"distance":1567,"is_transit":false,"station_name":"Pasar Senen","station_id":"PSE"},{"station_name":"Kemayoran","station_id":"KMO","is_transit":false,"i_lat":-6.161728,"time":4,"transit":false,"distance":1436,"i_long":106.839204,"line":11},{"time":5,"i_long":106.836569,"line":11,"is_transit":false,"i_lat":-6.14505,"distance":1901,"transit":false,"station_name":"Rajawali","station_id":"RJW"},{"distance":1444,"is_transit":true,"transit":true,"time":3,"station_id":"KPB","line":0,"i_lat":-6.132549,"i_long":106.826365,"station_name":"Kampung Bandan"},{"i_long":106.79867,"time":9,"i_lat":-6.144674,"transit":false,"line":0,"distance":4102,"station_id":"AK","station_name":"Angke","is_transit":false},{"station_id":"DU","transit":true,"distance":1230,"i_long":106.800832,"station_name":"Duri","is_transit":true,"i_lat":-6.155215,"time":4,"line":1},{"time":8,"line":1,"is_transit":true,"station_id":"THB","i_long":106.811091,"distance":3632,"transit":true,"station_name":"Tanah Abang","i_lat":-6.185545},{"i_long":106.79689,"transit":false,"i_lat":-6.207404,"line":6,"distance":3191,"station_id":"PLM","station_name":"Palmerah","is_transit":false,"time":6},{"i_lat":-6.237242,"transit":false,"station_name":"Kebayoran","station_id":"KBY","i_long":106.780334,"time":7,"is_transit":false,"line":6,"distance":3737},{"i_long":106.74273,"station_id":"PDJ","is_transit":false,"distance":6218,"transit":false,"i_lat":-6.276362,"line":6,"time":8,"station_name":"Pondokranji"},{"station_id":"JMU","station_name":"Jurangmangu","distance":2179,"time":3,"line":6,"transit":false,"is_transit":false,"i_long":106.728916,"i_lat":-6.288927},{"i_lat":-6.296963,"i_long":106.712277,"station_name":"Sudimara","transit":false,"distance":1994,"is_transit":false,"time":4,"line":6,"station_id":"SDM"},{"distance":4566,"station_id":"RU","is_transit":false,"time":6,"line":6,"i_lat":-6.314823,"i_long":106.675475,"transit":false,"station_name":"Rawa Buntu"}],[{"station_name":"Cakung","is_transit":false,"i_lat":-6.219053,"i_long":106.951283,"station_id":"CUK","line":0,"transit":false,"distance":0,"time":0},{"time":8,"line":1,"i_long":106.939679,"is_transit":false,"transit":false,"distance":1385,"i_lat":-6.217455,"station_name":"Klenderbaru","station_id":"KLDB"},{"distance":1305,"is_transit":false,"time":1,"i_lat":-6.215568,"transit":false,"station_id":"BUA","station_name":"Buaran","i_long":106.922662,"line":0},{"time":2,"station_id":"KLD","transit":false,"station_name":"Klender","distance":3100,"i_lat":-6.2135,"i_long":106.899548,"line":1,"is_transit":false},{"time":3,"station_name":"Jatinegara","station_id":"JNG","is_transit":true,"i_long":106.86807400000001,"line":0,"transit":false,"i_lat":-6.215091,"distance":3395},{"line":1,"station_name":"Matraman","i_lat":-6.212485,"is_transit":false,"station_id":"MTR","transit":false,"distance":1377,"time":2,"i_long":106.858896},{"time":2,"station_name":"Manggarai","station_id":"MRI","i_long":106.84912,"distance":1275,"is_transit":true,"i_lat":-6.209883,"transit":true,"line":0},{"time":4,"i_lat":-6.198556,"transit":false,"distance":1590,"line":0,"station_name":"Cikini","is_transit":false,"station_id":"CKI","i_long":106.840169},{"distance":1750,"station_id":"GDD","line":2,"time":3,"station_name":"Gondangdia","i_long":106.832183,"is_transit":false,"i_lat":-6.186295,"transit":false},{"distance":2015,"is_transit":false,"station_id":"JUA","transit":false,"i_long":106.828284,"station_name":"Juanda","i_lat":-6.166716,"time":4,"line":2},{"distance":1149,"i_long":106.827103,"station_id":"SW","station_name":"Sawah Besar","time":2,"is_transit":false,"line":2,"transit":false,"i_lat":-6.160725},{"station_name":"Manggabesar","distance":906,"transit":false,"i_long":106.82482,"time":2,"line":2,"station_id":"MGB","i_lat":-6.149769,"is_transit":false},{"line":7,"station_name":"Jayakarta","distance":1080,"transit":false,"is_transit":false,"time":2,"i_long":106.820901,"i_lat":-6.141205,"station_id":"JAY"},{"i_lat":-6.137569,"line":0,"transit":true,"station_name":"Jakarta Kota","is_transit":true,"time":4,"station_id":"JAKK","i_long":106.812439,"distance":1264},{"line":0,"time":3,"transit":false,"station_id":"KPB","i_lat":-6.132549,"is_transit":true,"station_name":"Kampung Bandan","distance":1364,"i_long":106.826365},{"line":0,"station_id":"AK","i_lat":-6.144674,"is_transit":false,"transit":false,"distance":4102,"station_name":"Angke","time":9,"i_long":106.79867},{"is_transit":true,"station_name":"Duri","i_lat":-6.155215,"distance":1230,"line":1,"time":4,"transit":true,"station_id":"DU","i_long":106.800832},{"i_long":106.811091,"station_id":"THB","i_lat":-6.185545,"time":8,"line":1,"station_name":"Tanah Abang","distance":3632,"is_transit":true,"transit":true},{"station_id":"PLM","station_name":"Palmerah","is_transit":false,"i_lat":-6.207404,"i_long":106.79689,"transit":false,"line":6,"time":6,"distance":3191},{"station_name":"Kebayoran","distance":3737,"is_transit":false,"station_id":"KBY","i_lat":-6.237242,"transit":false,"i_long":106.780334,"line":6,"time":7},{"station_id":"PDJ","is_transit":false,"transit":false,"i_lat":-6.276362,"i_long":106.74273,"time":8,"station_name":"Pondokranji","line":6,"distance":6218},{"i_lat":-6.288927,"line":6,"station_name":"Jurangmangu","is_transit":false,"time":3,"i_long":106.728916,"station_id":"JMU","transit":false,"distance":2179},{"is_transit":false,"time":4,"station_id":"SDM","transit":false,"distance":1994,"i_long":106.712277,"station_name":"Sudimara","i_lat":-6.296963,"line":6},{"station_id":"RU","transit":false,"line":6,"station_name":"Rawa Buntu","is_transit":false,"distance":4566,"i_lat":-6.314823,"time":6,"i_long":106.675475}],[{"station_id":"CUK","station_name":"Cakung","transit":false,"is_transit":false,"i_lat":-6.219053,"i_long":106.951283,"time":0,"line":0,"distance":0},{"distance":1385,"station_id":"KLDB","is_transit":false,"time":8,"i_long":106.939679,"transit":false,"station_name":"Klenderbaru","i_lat":-6.217455,"line":1},{"i_lat":-6.215568,"station_name":"Buaran","i_long":106.922662,"line":0,"station_id":"BUA","distance":1305,"transit":false,"time":1,"is_transit":false},{"i_long":106.899548,"station_name":"Klender","i_lat":-6.2135,"line":1,"distance":3100,"is_transit":false,"station_id":"KLD","time":2,"transit":false},{"station_name":"Jatinegara","station_id":"JNG","distance":3395,"line":0,"transit":true,"is_transit":true,"time":3,"i_lat":-6.215091,"i_long":106.86807400000001},{"line":11,"station_name":"Pondok Jati","time":2,"is_transit":false,"i_long":106.861737,"transit":false,"distance":1236,"station_id":"POK","i_lat":-6.209188},{"transit":false,"line":11,"i_lat":-6.193792,"distance":1829,"is_transit":false,"time":2,"station_name":"Kramat","i_long":106.855437,"station_id":"KMT"},{"is_transit":false,"time":1,"i_lat":-6.185975,"line":11,"i_long":106.850107,"station_id":"GST","station_name":"Gang Sentiong","transit":false,"distance":973},{"station_name":"Pasar Senen","i_lat":-6.174784,"i_long":106.84368,"is_transit":false,"station_id":"PSE","transit":false,"distance":1567,"time":8,"line":11},{"line":11,"time":4,"station_name":"Kemayoran","i_long":106.839204,"distance":1436,"is_transit":false,"station_id":"KMO","transit":false,"i_lat":-6.161728},{"station_name":"Rajawali","time":5,"line":11,"distance":1901,"transit":false,"is_transit":false,"i_lat":-6.14505,"station_id":"RJW","i_long":106.836569},{"line":0,"transit":true,"station_name":"Kampung Bandan","is_transit":true,"station_id":"KPB","distance":1444,"i_long":106.826365,"time":3,"i_lat":-6.132549},{"is_transit":true,"time":3,"i_lat":-6.137569,"transit":true,"station_name":"Jakarta Kota","i_long":106.812439,"station_id":"JAKK","line":0,"distance":1364},{"station_id":"JAY","distance":1264,"transit":false,"time":4,"station_name":"Jayakarta","i_long":106.820901,"is_transit":false,"line":7,"i_lat":-6.141205},{"i_lat":-6.149769,"station_name":"Manggabesar","is_transit":false,"time":2,"transit":false,"station_id":"MGB","line":2,"i_long":106.82482,"distance":1080},{"transit":false,"distance":906,"time":2,"station_id":"SW","station_name":"Sawah Besar","i_long":106.827103,"i_lat":-6.160725,"is_transit":false,"line":2},{"is_transit":false,"time":2,"transit":false,"i_long":106.828284,"station_name":"Juanda","station_id":"JUA","i_lat":-6.166716,"distance":1149,"line":2},{"i_long":106.832183,"line":2,"distance":2015,"transit":false,"station_name":"Gondangdia","i_lat":-6.186295,"is_transit":false,"station_id":"GDD","time":4},{"time":3,"station_id":"CKI","i_long":106.840169,"is_transit":false,"transit":false,"i_lat":-6.198556,"distance":1750,"line":0,"station_name":"Cikini"},{"line":0,"distance":1590,"i_lat":-6.209883,"station_id":"MRI","is_transit":true,"time":4,"i_long":106.84912,"transit":true,"station_name":"Manggarai"},{"time":4,"transit":false,"is_transit":false,"station_name":"Sudirman","i_lat":-6.202263,"station_id":"SUD","distance":3186,"line":1,"i_long":106.822649},{"station_id":"SUDB","time":1,"i_lat":-6.201433,"line":1,"distance":280,"i_long":106.819881,"station_name":"Sudirman Baru","transit":false,"is_transit":false},{"distance":471,"station_name":"Karet","i_long":106.816351,"station_id":"KAT","time":1,"line":1,"is_transit":false,"transit":false,"i_lat":-6.20132},{"is_transit":true,"i_lat":-6.185545,"station_id":"THB","station_name":"Tanah Abang","line":1,"transit":true,"distance":2029,"time":5,"i_long":106.811091},{"station_name":"Palmerah","distance":3191,"line":6,"time":6,"i_long":106.79689,"transit":false,"is_transit":false,"station_id":"PLM","i_lat":-6.207404},{"is_transit":false,"i_lat":-6.237242,"distance":3737,"station_id":"KBY","station_name":"Kebayoran","time":7,"line":6,"transit":false,"i_long":106.780334},{"transit":false,"station_id":"PDJ","station_name":"Pondokranji","time":8,"is_transit":false,"distance":6218,"i_lat":-6.276362,"i_long":106.74273,"line":6},{"station_id":"JMU","i_lat":-6.288927,"transit":false,"i_long":106.728916,"station_name":"Jurangmangu","distance":2179,"line":6,"time":3,"is_transit":false},{"station_id":"SDM","i_lat":-6.296963,"time":4,"line":6,"transit":false,"distance":1994,"is_transit":false,"station_name":"Sudimara","i_long":106.712277},{"is_transit":false,"transit":false,"station_id":"RU","line":6,"time":6,"i_lat":-6.314823,"station_name":"Rawa Buntu","distance":4566,"i_long":106.675475}]]}