{"data":[[{"time":0,"i_long":106.951283,"line":1,"transit":false,"is_transit":false,"distance":0,"i_lat":-6.219053,"station_id":"CUK","station_name":"Cakung"},{"transit":false,"is_transit":false,"time":8,"station_name":"Klenderbaru","i_long":106.939679,"line":1,"station_id":"KLDB","distance":1385,"i_lat":-6.217455},{"transit":false,"i_long":106.922662,"i_lat":-6.215568,"distance":1305,"station_id":"BUA","is_transit":false,"time":1,"station_name":"Buaran","line":1},{"is_transit":false,"i_long":106.899548,"station_name":"Klender","line":1,"time":2,"i_lat":-6.2135,"distance":3100,"station_id":"KLD","transit":false},{"distance":3395,"station_name":"Jatinegara","is_transit":false,"i_long":106.86807400000001,"transit":false,"station_id":"JNG","i_lat":-6.215091,"time":3,"line":1},{"time":2,"station_name":"Matraman","transit":false,"is_transit":false,"line":1,"station_id":"MTR","distance":1377,"i_lat":-6.212485,"i_long":106.858896},{"station_id":"MRI","distance":1275,"i_long":106.84912,"line":2,"i_lat":-6.209883,"is_transit":false,"time":2,"station_name":"Manggarai","transit":false}],[{"station_name":"Cakung","i_long":106.951283,"transit":false,"is_transit":false,"station_id":"CUK","i_lat":-6.219053,"line":1,"distance":0,"time":0},{"distance":1385,"i_lat":-6.217455,"i_long":106.939679,"station_name":"Klenderbaru","transit":false,"is_transit":false,"station_id":"KLDB","time":8,"line":1},{"i_long":106.922662,"is_transit":false,"distance":1305,"transit":false,"i_lat":-6.215568,"line":1,"station_id":"BUA","station_name":"Buaran","time":1},{"line":1,"is_transit":false,"station_name":"Klender","i_lat":-6.2135,"time":2,"distance":3100,"transit":false,"station_id":"KLD","i_long":106.899548},{"station_name":"Jatinegara","station_id":"JNG","distance":3395,"i_long":106.86807400000001,"is_transit":true,"i_lat":-6.215091,"transit":true,"time":3,"line":1},{"is_transit":false,"distance":1236,"i_lat":-6.209188,"transit":false,"time":2,"line":11,"station_name":"Pondok Jati","station_id":"POK","i_long":106.861737},{"distance":1829,"is_transit":false,"transit":false,"i_long":106.855437,"station_id":"KMT","i_lat":-6.193792,"time":2,"line":11,"station_name":"Kramat"},{"i_long":106.850107,"line":11,"transit":false,"station_id":"GST","station_name":"Gang Sentiong","is_transit":false,"distance":973,"i_lat":-6.185975,"time":1},{"i_long":106.84368,"distance":1567,"transit":false,"time":8,"i_lat":-6.174784,"line":11,"is_transit":false,"station_id":"PSE","station_name":"Pasar Senen"},{"distance":1436,"is_transit":false,"i_long":106.839204,"i_lat":-6.161728,"transit":false,"station_id":"KMO","station_name":"Kemayoran","line":11,"time":4},{"is_transit":false,"i_long":106.836569,"transit":false,"i_lat":-6.14505,"time":5,"line":11,"distance":1901,"station_name":"Rajawali","station_id":"RJW"},{"i_long":106.826365,"is_transit":true,"station_name":"Kampung Bandan","transit":true,"distance":1444,"i_lat":-6.132549,"line":4,"station_id":"KPB","time":3},{"is_transit":false,"line":1,"distance":4102,"transit":false,"i_lat":-6.144674,"station_id":"AK","time":9,"station_name":"Angke","i_long":106.79867},{"station_name":"Duri","is_transit":false,"time":4,"line":1,"distance":1230,"station_id":"DU","transit":false,"i_lat":-6.155215,"i_long":106.800832},{"station_name":"Tanah Abang","transit":false,"is_transit":false,"time":8,"distance":3632,"i_lat":-6.185545,"station_id":"THB","i_long":106.811091,"line":1},{"line":1,"station_name":"Karet","i_long":106.816351,"i_lat":-6.20132,"distance":2029,"transit":false,"station_id":"KAT","time":5,"is_transit":false},{"i_long":106.819881,"distance":471,"is_transit":false,"transit":false,"time":1,"station_name":"Sudirman Baru","line":1,"i_lat":-6.201433,"station_id":"SUDB"},{"station_id":"SUD","distance":280,"line":1,"i_long":106.822649,"i_lat":-6.202263,"station_name":"Sudirman","time":1,"transit":false,"is_transit":false},{"i_long":106.84912,"is_transit":false,"line":2,"station_name":"Manggarai","station_id":"MRI","distance":3186,"time":4,"transit":false,"i_lat":-6.209883}],[{"i_long":106.951283,"line":1,"time":0,"transit":false,"station_name":"Cakung","station_id":"CUK","is_transit":false,"i_lat":-6.219053,"distance":0},{"station_id":"KLDB","station_name":"Klenderbaru","distance":1385,"time":8,"i_lat":-6.217455,"is_transit":false,"i_long":106.939679,"transit":false,"line":1},{"i_lat":-6.215568,"is_transit":false,"i_long":106.922662,"line":1,"transit":false,"station_id":"BUA","station_name":"Buaran","time":1,"distance":1305},{"time":2,"i_long":106.899548,"transit":false,"station_name":"Klender","is_transit":false,"distance":3100,"i_lat":-6.2135,"line":1,"station_id":"KLD"},{"station_id":"JNG","is_transit":true,"distance":3395,"station_name":"Jatinegara","i_lat":-6.215091,"transit":true,"line":1,"time":3,"i_long":106.86807400000001},{"i_lat":-6.209188,"is_transit":false,"distance":1236,"i_long":106.861737,"transit":false,"station_name":"Pondok Jati","time":2,"line":11,"station_id":"POK"},{"transit":false,"distance":1829,"line":11,"station_name":"Kramat","i_long":106.855437,"time":2,"i_lat":-6.193792,"station_id":"KMT","is_transit":false},{"station_id":"GST","time":1,"is_transit":false,"station_name":"Gang Sentiong","transit":false,"line":11,"distance":973,"i_long":106.850107,"i_lat":-6.185975},{"is_transit":false,"station_id":"PSE","i_lat":-6.174784,"time":8,"distance":1567,"i_long":106.84368,"line":11,"transit":false,"station_name":"Pasar Senen"},{"i_long":106.839204,"time":4,"line":11,"is_transit":false,"station_id":"KMO","station_name":"Kemayoran","transit":false,"distance":1436,"i_lat":-6.161728},{"station_id":"RJW","time":5,"line":11,"distance":1901,"station_name":"Rajawali","is_transit":false,"i_lat":-6.14505,"i_long":106.836569,"transit":false},{"distance":1444,"i_lat":-6.132549,"i_long":106.826365,"line":4,"is_transit":true,"transit":true,"station_id":"KPB","station_name":"Kampung Bandan","time":3},{"distance":1364,"time":3,"i_long":106.812439,"i_lat":-6.137569,"station_name":"Jakarta Kota","station_id":"JAKK","is_transit":true,"line":2,"transit":true},{"i_long":106.820901,"station_id":"JAY","distance":1264,"i_lat":-6.141205,"is_transit":false,"transit":false,"station_name":"Jayakarta","time":4,"line":2},{"station_id":"MGB","i_long":106.82482,"line":2,"is_transit":false,"distance":1080,"transit":false,"time":2,"station_name":"Manggabesar","i_lat":-6.149769},{"i_lat":-6.160725,"station_id":"SW","is_transit":false,"time":2,"distance":906,"transit":false,"line":2,"i_long":106.827103,"station_name":"Sawah Besar"},{"i_lat":-6.166716,"distance":1149,"time":2,"transit":false,"is_transit":false,"station_name":"Juanda","station_id":"JUA","line":2,"i_long":106.828284},{"station_id":"GDD","is_transit":false,"i_lat":-6.186295,"line":2,"i_long":106.832183,"distance":2015,"station_name":"Gondangdia","transit":false,"time":4},{"distance":1750,"transit":false,"station_name":"Cikini","station_id":"CKI","i_lat":-6.198556,"is_transit":false,"i_long":106.840169,"line":2,"time":3},{"i_lat":-6.209883,"station_name":"Manggarai","station_id":"MRI","transit":false,"is_transit":false,"i_long":106.84912,"time":4,"distance":1590,"line":2}]]}