{"data":[[{"transit":false,"i_long":106.951283,"station_name":"Cakung","station_id":"CUK","i_lat":-6.219053,"distance":0,"time":0,"line":1,"is_transit":false},{"distance":1385,"i_lat":-6.217455,"is_transit":false,"time":8,"station_name":"Klenderbaru","station_id":"KLDB","transit":false,"line":1,"i_long":106.939679},{"station_id":"BUA","time":1,"distance":1305,"station_name":"Buaran","line":1,"i_long":106.922662,"is_transit":false,"transit":false,"i_lat":-6.215568},{"i_lat":-6.2135,"transit":false,"is_transit":false,"station_id":"KLD","time":2,"station_name":"Klender","distance":3100,"i_long":106.899548,"line":1},{"distance":3395,"time":3,"is_transit":true,"i_long":106.86807400000001,"station_name":"Jatinegara","i_lat":-6.215091,"station_id":"JNG","line":1,"transit":true},{"transit":false,"i_lat":-6.209188,"line":11,"time":2,"station_name":"Pondok Jati","station_id":"POK","i_long":106.861737,"distance":1236,"is_transit":false},{"station_id":"KMT","transit":false,"distance":1829,"i_lat":-6.193792,"line":11,"is_transit":false,"station_name":"Kramat","i_long":106.855437,"time":2},{"time":1,"line":11,"i_long":106.850107,"is_transit":false,"station_name":"Gang Sentiong","distance":973,"station_id":"GST","transit":false,"i_lat":-6.185975},{"distance":1567,"transit":false,"is_transit":false,"time":8,"line":11,"i_lat":-6.174784,"station_name":"Pasar Senen","i_long":106.84368,"station_id":"PSE"}],[{"i_lat":-6.219053,"i_long":106.951283,"distance":0,"transit":false,"time":0,"station_id":"CUK","line":1,"station_name":"Cakung","is_transit":false},{"station_id":"KLDB","line":1,"i_lat":-6.217455,"time":8,"transit":false,"station_name":"Klenderbaru","distance":1385,"is_transit":false,"i_long":106.939679},{"transit":false,"distance":1305,"line":1,"i_long":106.922662,"is_transit":false,"i_lat":-6.215568,"station_name":"Buaran","station_id":"BUA","time":1},{"station_name":"Klender","i_lat":-6.2135,"line":1,"is_transit":false,"time":2,"transit":false,"i_long":106.899548,"distance":3100,"station_id":"KLD"},{"time":3,"transit":false,"distance":3395,"station_id":"JNG","i_lat":-6.215091,"is_transit":false,"line":1,"i_long":106.86807400000001,"station_name":"Jatinegara"},{"time":2,"is_transit":false,"transit":false,"i_lat":-6.212485,"line":1,"station_name":"Matraman","distance":1377,"station_id":"MTR","i_long":106.858896},{"time":2,"is_transit":false,"transit":false,"station_id":"MRI","distance":1275,"i_lat":-6.209883,"i_long":106.84912,"line":2,"station_name":"Manggarai"},{"line":1,"is_transit":false,"transit":false,"i_lat":-6.202263,"i_long":106.822649,"station_id":"SUD","distance":3186,"station_name":"Sudirman","time":4},{"line":1,"is_transit":false,"i_lat":-6.201433,"station_name":"Sudirman Baru","transit":false,"distance":280,"station_id":"SUDB","i_long":106.819881,"time":1},{"line":1,"time":1,"station_id":"KAT","i_lat":-6.20132,"i_long":106.816351,"station_name":"Karet","is_transit":false,"distance":471,"transit":false},{"station_id":"THB","transit":false,"i_long":106.811091,"time":5,"is_transit":false,"i_lat":-6.185545,"distance":2029,"station_name":"Tanah Abang","line":1},{"is_transit":false,"distance":3632,"time":8,"station_name":"Duri","transit":false,"i_long":106.800832,"station_id":"DU","i_lat":-6.155215,"line":1},{"time":4,"station_name":"Angke","station_id":"AK","is_transit":false,"i_lat":-6.144674,"distance":1230,"transit":false,"i_long":106.79867,"line":1},{"i_long":106.826365,"transit":true,"is_transit":true,"distance":4102,"line":4,"i_lat":-6.132549,"station_name":"Kampung Bandan","time":9,"station_id":"KPB"},{"time":3,"line":11,"i_long":106.836569,"is_transit":false,"station_id":"RJW","distance":1444,"transit":false,"i_lat":-6.14505,"station_name":"Rajawali"},{"is_transit":false,"station_id":"KMO","i_lat":-6.161728,"transit":false,"distance":1901,"line":11,"time":5,"station_name":"Kemayoran","i_long":106.839204},{"transit":false,"is_transit":false,"station_id":"PSE","i_lat":-6.174784,"time":4,"distance":1436,"line":11,"station_name":"Pasar Senen","i_long":106.84368}],[{"station_id":"CUK","is_transit":false,"i_lat":-6.219053,"distance":0,"transit":false,"time":0,"i_long":106.951283,"station_name":"Cakung","line":1},{"station_name":"Klenderbaru","is_transit":false,"time":8,"i_lat":-6.217455,"i_long":106.939679,"station_id":"KLDB","transit":false,"distance":1385,"line":1},{"distance":1305,"is_transit":false,"i_long":106.922662,"transit":false,"i_lat":-6.215568,"line":1,"station_id":"BUA","station_name":"Buaran","time":1},{"is_transit":false,"i_lat":-6.2135,"time":2,"i_long":106.899548,"station_name":"Klender","station_id":"KLD","transit":false,"distance":3100,"line":1},{"line":1,"i_long":106.86807400000001,"station_id":"JNG","station_name":"Jatinegara","is_transit":false,"i_lat":-6.215091,"time":3,"distance":3395,"transit":false},{"station_id":"MTR","i_lat":-6.212485,"line":1,"distance":1377,"station_name":"Matraman","transit":false,"time":2,"i_long":106.858896,"is_transit":false},{"time":2,"transit":true,"is_transit":true,"distance":1275,"i_lat":-6.209883,"line":2,"station_id":"MRI","station_name":"Manggarai","i_long":106.84912},{"transit":false,"is_transit":false,"station_name":"Cikini","distance":1590,"station_id":"CKI","i_lat":-6.198556,"i_long":106.840169,"time":4,"line":2},{"line":2,"is_transit":false,"station_id":"GDD","time":3,"i_lat":-6.186295,"distance":1750,"i_long":106.832183,"station_name":"Gondangdia","transit":false},{"is_transit":false,"station_id":"JUA","transit":false,"time":4,"i_long":106.828284,"station_name":"Juanda","distance":2015,"i_lat":-6.166716,"line":2},{"time":2,"i_long":106.827103,"line":2,"distance":1149,"i_lat":-6.160725,"transit":false,"station_id":"SW","station_name":"Sawah Besar","is_transit":false},{"line":2,"i_long":106.82482,"station_id":"MGB","i_lat":-6.149769,"is_transit":false,"time":2,"transit":false,"distance":906,"station_name":"Manggabesar"},{"is_transit":false,"line":2,"i_lat":-6.141205,"i_long":106.820901,"time":2,"station_id":"JAY","distance":1080,"transit":false,"station_name":"Jayakarta"},{"station_name":"Jakarta Kota","i_lat":-6.137569,"station_id":"JAKK","distance":1264,"time":4,"i_long":106.812439,"line":2,"is_transit":true,"transit":true},{"station_name":"Kampung Bandan","station_id":"KPB","i_lat":-6.132549,"time":3,"transit":true,"line":4,"distance":1364,"i_long":106.826365,"is_transit":true},{"transit":false,"station_id":"RJW","distance":1444,"time":3,"line":11,"station_name":"Rajawali","i_lat":-6.14505,"is_transit":false,"i_long":106.836569},{"distance":1901,"time":5,"line":11,"station_id":"KMO","i_long":106.839204,"transit":false,"i_lat":-6.161728,"station_name":"Kemayoran","is_transit":false},{"transit":false,"i_long":106.84368,"time":4,"station_name":"Pasar Senen","distance":1436,"is_transit":false,"station_id":"PSE","line":11,"i_lat":-6.174784}]]}