{"data":[[{"distance":0,"station_id":"CUK","is_transit":false,"line":0,"transit":false,"station_name":"Cakung","time":0,"i_long":106.951283,"i_lat":-6.219053},{"is_transit":false,"distance":3097,"station_name":"Kranji","station_id":"KRI","transit":false,"i_lat":-6.224515,"line":1,"i_long":106.977657,"time":3},{"time":4,"station_id":"BKS","station_name":"Bekasi","i_long":106.997013,"distance":2520,"is_transit":false,"line":0,"transit":false,"i_lat":-6.236616},{"time":2,"i_lat":-6.248029,"is_transit":false,"transit":false,"station_name":"Bekasi Timur","distance":2368,"line":0,"i_long":107.016735,"station_id":"BKST"},{"transit":false,"line":1,"station_id":"TB","i_lat":-6.258864,"is_transit":false,"station_name":"Tambun","time":7,"distance":4460,"i_long":107.055722},{"line":0,"i_long":107.083084,"transit":false,"station_id":"CIT","is_transit":false,"station_name":"Cibitung","i_lat":-6.261877,"time":3,"distance":3420}]]}