{"data":[[{"station_id":"CUK","time":0,"i_long":106.951283,"line":1,"is_transit":false,"distance":0,"station_name":"Cakung","i_lat":-6.219053,"transit":false},{"station_name":"Klenderbaru","distance":1385,"time":8,"is_transit":false,"transit":false,"i_lat":-6.217455,"line":1,"i_long":106.939679,"station_id":"KLDB"},{"i_long":106.922662,"station_name":"Buaran","distance":1305,"transit":false,"is_transit":false,"time":1,"i_lat":-6.215568,"line":1,"station_id":"BUA"},{"i_long":106.899548,"station_id":"KLD","transit":false,"distance":3100,"is_transit":false,"line":1,"time":2,"i_lat":-6.2135,"station_name":"Klender"},{"i_long":106.86807400000001,"time":3,"line":1,"i_lat":-6.215091,"station_name":"Jatinegara","is_transit":false,"transit":false,"distance":3395,"station_id":"JNG"},{"station_id":"MTR","i_lat":-6.212485,"station_name":"Matraman","line":1,"i_long":106.858896,"time":2,"transit":false,"is_transit":false,"distance":1377},{"line":2,"i_lat":-6.209883,"is_transit":true,"time":2,"station_id":"MRI","distance":1275,"station_name":"Manggarai","transit":true,"i_long":106.84912},{"time":4,"station_name":"Tebet","station_id":"TEB","line":2,"i_lat":-6.226659,"i_long":106.857948,"distance":2610,"transit":false,"is_transit":false},{"station_name":"Cawang","distance":1230,"is_transit":false,"transit":false,"i_long":106.856607,"station_id":"CW","i_lat":-6.242512,"time":2,"line":2},{"line":2,"i_lat":-6.255332,"time":3,"i_long":106.85449,"distance":1546,"is_transit":false,"transit":false,"station_id":"DRN","station_name":"Duren Kalibata"},{"time":2,"line":2,"station_name":"Pasar Minggu Baru","distance":824,"transit":false,"station_id":"PSMB","i_lat":-6.263214,"is_transit":false,"i_long":106.851577},{"line":2,"i_lat":-6.2842400000000005,"distance":2380,"transit":false,"is_transit":false,"time":2,"i_long":106.843999,"station_name":"Pasar Minggu","station_id":"PSM"},{"transit":false,"i_long":106.838896,"is_transit":false,"station_name":"Tanjung Barat","distance":2820,"time":4,"station_id":"TNT","line":2,"i_lat":-6.3080680000000005},{"is_transit":false,"transit":false,"station_name":"Lenteng Agung","time":3,"line":2,"i_lat":-6.330363,"station_id":"LNA","i_long":106.832616,"distance":2671},{"i_lat":-6.339291,"time":2,"transit":false,"distance":1029,"station_name":"Univ. Pancasila","i_long":106.834175,"line":2,"is_transit":false,"station_id":"UP"},{"i_long":106.831474,"station_id":"UI","line":2,"distance":2264,"transit":false,"is_transit":false,"i_lat":-6.360749,"station_name":"Univ. Indonesia","time":3},{"transit":false,"i_long":106.831114,"time":2,"distance":1109,"station_name":"Pondok Cina","is_transit":false,"station_id":"POC","line":2,"i_lat":-6.369073},{"time":4,"distance":2727,"i_lat":-6.391065,"station_name":"Depokbaru","station_id":"DPB","i_long":106.819451,"line":2,"is_transit":false,"transit":false},{"time":3,"line":2,"i_long":106.816926,"station_id":"DP","i_lat":-6.405256,"transit":false,"distance":1584,"station_name":"Depok","is_transit":false},{"i_long":106.800298,"is_transit":true,"time":6,"i_lat":-6.448811,"station_name":"Citayam","station_id":"CTA","line":2,"transit":true,"distance":5084},{"station_name":"Pondok Rajeg","i_long":106.824374,"transit":false,"line":21,"station_id":"PDRG","i_lat":-6.460735,"time":0,"distance":0,"is_transit":false}],[{"i_lat":-6.219053,"line":1,"distance":0,"transit":false,"is_transit":false,"time":0,"station_name":"Cakung","station_id":"CUK","i_long":106.951283},{"distance":1385,"station_id":"KLDB","is_transit":false,"station_name":"Klenderbaru","transit":false,"time":8,"i_lat":-6.217455,"i_long":106.939679,"line":1},{"i_lat":-6.215568,"line":1,"distance":1305,"station_id":"BUA","station_name":"Buaran","i_long":106.922662,"time":1,"transit":false,"is_transit":false},{"station_id":"KLD","line":1,"distance":3100,"time":2,"station_name":"Klender","is_transit":false,"i_lat":-6.2135,"transit":false,"i_long":106.899548},{"station_id":"JNG","distance":3395,"i_long":106.86807400000001,"time":3,"i_lat":-6.215091,"station_name":"Jatinegara","transit":true,"line":1,"is_transit":true},{"time":2,"line":11,"i_lat":-6.209188,"station_id":"POK","i_long":106.861737,"distance":1236,"station_name":"Pondok Jati","transit":false,"is_transit":false},{"station_id":"KMT","is_transit":false,"i_lat":-6.193792,"time":2,"i_long":106.855437,"transit":false,"line":11,"station_name":"Kramat","distance":1829},{"distance":973,"station_name":"Gang Sentiong","i_lat":-6.185975,"station_id":"GST","time":1,"line":11,"is_transit":false,"i_long":106.850107,"transit":false},{"station_id":"PSE","i_lat":-6.174784,"line":11,"transit":false,"station_name":"Pasar Senen","is_transit":false,"distance":1567,"i_long":106.84368,"time":8},{"is_transit":false,"i_long":106.839204,"station_name":"Kemayoran","distance":1436,"line":11,"station_id":"KMO","time":4,"i_lat":-6.161728,"transit":false},{"line":11,"distance":1901,"i_lat":-6.14505,"station_name":"Rajawali","transit":false,"time":5,"i_long":106.836569,"is_transit":false,"station_id":"RJW"},{"i_long":106.826365,"time":3,"station_id":"KPB","station_name":"Kampung Bandan","transit":true,"distance":1444,"line":4,"is_transit":true,"i_lat":-6.132549},{"station_name":"Angke","transit":false,"distance":4102,"is_transit":false,"line":1,"time":9,"station_id":"AK","i_lat":-6.144674,"i_long":106.79867},{"i_long":106.800832,"time":4,"line":1,"distance":1230,"station_id":"DU","is_transit":false,"transit":false,"station_name":"Duri","i_lat":-6.155215},{"time":8,"i_lat":-6.185545,"distance":3632,"station_name":"Tanah Abang","transit":false,"is_transit":false,"station_id":"THB","line":1,"i_long":106.811091},{"i_long":106.816351,"time":5,"transit":false,"i_lat":-6.20132,"distance":2029,"station_id":"KAT","line":1,"is_transit":false,"station_name":"Karet"},{"station_name":"Sudirman Baru","i_lat":-6.201433,"distance":471,"i_long":106.819881,"is_transit":false,"time":1,"line":1,"transit":false,"station_id":"SUDB"},{"i_lat":-6.202263,"time":1,"is_transit":false,"transit":false,"line":1,"distance":280,"station_id":"SUD","station_name":"Sudirman","i_long":106.822649},{"time":4,"i_lat":-6.209883,"is_transit":true,"i_long":106.84912,"distance":3186,"line":2,"station_name":"Manggarai","transit":true,"station_id":"MRI"},{"line":2,"distance":2610,"time":4,"transit":false,"station_id":"TEB","i_long":106.857948,"i_lat":-6.226659,"is_transit":false,"station_name":"Tebet"},{"line":2,"time":2,"i_lat":-6.242512,"station_id":"CW","station_name":"Cawang","i_long":106.856607,"distance":1230,"transit":false,"is_transit":false},{"line":2,"station_name":"Duren Kalibata","transit":false,"is_transit":false,"time":3,"distance":1546,"station_id":"DRN","i_lat":-6.255332,"i_long":106.85449},{"distance":824,"is_transit":false,"i_long":106.851577,"time":2,"transit":false,"station_name":"Pasar Minggu Baru","station_id":"PSMB","i_lat":-6.263214,"line":2},{"transit":false,"i_lat":-6.2842400000000005,"line":2,"distance":2380,"station_name":"Pasar Minggu","time":2,"i_long":106.843999,"station_id":"PSM","is_transit":false},{"station_name":"Tanjung Barat","transit":false,"line":2,"is_transit":false,"time":4,"i_lat":-6.3080680000000005,"station_id":"TNT","distance":2820,"i_long":106.838896},{"i_long":106.832616,"transit":false,"time":3,"station_id":"LNA","station_name":"Lenteng Agung","is_transit":false,"line":2,"distance":2671,"i_lat":-6.330363},{"line":2,"is_transit":false,"time":2,"i_lat":-6.339291,"transit":false,"distance":1029,"station_id":"UP","i_long":106.834175,"station_name":"Univ. Pancasila"},{"i_lat":-6.360749,"time":3,"i_long":106.831474,"station_name":"Univ. Indonesia","station_id":"UI","is_transit":false,"line":2,"transit":false,"distance":2264},{"i_long":106.831114,"is_transit":false,"station_name":"Pondok Cina","station_id":"POC","i_lat":-6.369073,"line":2,"distance":1109,"transit":false,"time":2},{"station_name":"Depokbaru","is_transit":false,"distance":2727,"line":2,"transit":false,"i_lat":-6.391065,"i_long":106.819451,"station_id":"DPB","time":4},{"i_long":106.816926,"line":2,"station_id":"DP","is_transit":false,"time":3,"station_name":"Depok","distance":1584,"transit":false,"i_lat":-6.405256},{"station_name":"Citayam","transit":true,"station_id":"CTA","i_long":106.800298,"is_transit":true,"i_lat":-6.448811,"time":6,"distance":5084,"line":2},{"transit":false,"line":21,"is_transit":false,"time":0,"station_id":"PDRG","i_lat":-6.460735,"distance":0,"station_name":"Pondok Rajeg","i_long":106.824374}],[{"line":1,"station_name":"Cakung","transit":false,"is_transit":false,"i_lat":-6.219053,"station_id":"CUK","distance":0,"time":0,"i_long":106.951283},{"station_id":"KLDB","line":1,"distance":1385,"transit":false,"station_name":"Klenderbaru","is_transit":false,"time":8,"i_lat":-6.217455,"i_long":106.939679},{"station_name":"Buaran","is_transit":false,"distance":1305,"line":1,"transit":false,"station_id":"BUA","i_lat":-6.215568,"time":1,"i_long":106.922662},{"station_name":"Klender","i_lat":-6.2135,"i_long":106.899548,"is_transit":false,"station_id":"KLD","transit":false,"line":1,"time":2,"distance":3100},{"i_lat":-6.215091,"transit":true,"i_long":106.86807400000001,"line":1,"is_transit":true,"station_id":"JNG","time":3,"station_name":"Jatinegara","distance":3395},{"distance":1236,"station_name":"Pondok Jati","station_id":"POK","transit":false,"i_lat":-6.209188,"time":2,"i_long":106.861737,"is_transit":false,"line":11},{"i_lat":-6.193792,"i_long":106.855437,"distance":1829,"station_name":"Kramat","is_transit":false,"line":11,"transit":false,"station_id":"KMT","time":2},{"is_transit":false,"i_lat":-6.185975,"time":1,"i_long":106.850107,"line":11,"transit":false,"distance":973,"station_name":"Gang Sentiong","station_id":"GST"},{"is_transit":false,"station_name":"Pasar Senen","station_id":"PSE","time":8,"distance":1567,"transit":false,"i_lat":-6.174784,"line":11,"i_long":106.84368},{"is_transit":false,"transit":false,"station_id":"KMO","time":4,"i_lat":-6.161728,"station_name":"Kemayoran","distance":1436,"i_long":106.839204,"line":11},{"line":11,"is_transit":false,"distance":1901,"station_name":"Rajawali","transit":false,"time":5,"i_lat":-6.14505,"i_long":106.836569,"station_id":"RJW"},{"transit":true,"station_name":"Kampung Bandan","i_lat":-6.132549,"is_transit":true,"i_long":106.826365,"line":4,"time":3,"station_id":"KPB","distance":1444},{"transit":true,"i_long":106.812439,"station_id":"JAKK","distance":1364,"time":3,"line":2,"i_lat":-6.137569,"is_transit":true,"station_name":"Jakarta Kota"},{"transit":false,"station_id":"JAY","time":4,"i_long":106.820901,"line":2,"is_transit":false,"station_name":"Jayakarta","distance":1264,"i_lat":-6.141205},{"station_id":"MGB","i_lat":-6.149769,"i_long":106.82482,"line":2,"distance":1080,"is_transit":false,"transit":false,"station_name":"Manggabesar","time":2},{"is_transit":false,"transit":false,"line":2,"station_id":"SW","i_lat":-6.160725,"distance":906,"station_name":"Sawah Besar","time":2,"i_long":106.827103},{"i_long":106.828284,"is_transit":false,"transit":false,"distance":1149,"station_id":"JUA","station_name":"Juanda","i_lat":-6.166716,"line":2,"time":2},{"line":2,"station_id":"GDD","is_transit":false,"station_name":"Gondangdia","time":4,"i_lat":-6.186295,"i_long":106.832183,"distance":2015,"transit":false},{"i_long":106.840169,"i_lat":-6.198556,"station_name":"Cikini","station_id":"CKI","is_transit":false,"time":3,"line":2,"transit":false,"distance":1750},{"time":4,"transit":false,"station_id":"MRI","is_transit":false,"distance":1590,"station_name":"Manggarai","i_lat":-6.209883,"i_long":106.84912,"line":2},{"i_lat":-6.226659,"line":2,"time":4,"station_name":"Tebet","distance":2610,"station_id":"TEB","transit":false,"is_transit":false,"i_long":106.857948},{"is_transit":false,"time":2,"i_lat":-6.242512,"transit":false,"station_id":"CW","line":2,"station_name":"Cawang","distance":1230,"i_long":106.856607},{"i_lat":-6.255332,"station_id":"DRN","time":3,"distance":1546,"transit":false,"station_name":"Duren Kalibata","is_transit":false,"line":2,"i_long":106.85449},{"time":2,"distance":824,"station_name":"Pasar Minggu Baru","station_id":"PSMB","i_lat":-6.263214,"line":2,"i_long":106.851577,"transit":false,"is_transit":false},{"i_lat":-6.2842400000000005,"station_id":"PSM","station_name":"Pasar Minggu","is_transit":false,"i_long":106.843999,"distance":2380,"line":2,"time":2,"transit":false},{"station_name":"Tanjung Barat","distance":2820,"transit":false,"station_id":"TNT","time":4,"i_long":106.838896,"line":2,"i_lat":-6.3080680000000005,"is_transit":false},{"station_id":"LNA","station_name":"Lenteng Agung","time":3,"i_lat":-6.330363,"distance":2671,"i_long":106.832616,"transit":false,"is_transit":false,"line":2},{"time":2,"i_lat":-6.339291,"is_transit":false,"distance":1029,"station_name":"Univ. Pancasila","station_id":"UP","transit":false,"i_long":106.834175,"line":2},{"station_name":"Univ. Indonesia","station_id":"UI","time":3,"distance":2264,"line":2,"i_long":106.831474,"i_lat":-6.360749,"transit":false,"is_transit":false},{"transit":false,"is_transit":false,"time":2,"line":2,"station_id":"POC","i_lat":-6.369073,"distance":1109,"station_name":"Pondok Cina","i_long":106.831114},{"i_long":106.819451,"line":2,"is_transit":false,"station_name":"Depokbaru","time":4,"i_lat":-6.391065,"distance":2727,"transit":false,"station_id":"DPB"},{"station_id":"DP","i_lat":-6.405256,"time":3,"i_long":106.816926,"station_name":"Depok","is_transit":false,"distance":1584,"transit":false,"line":2},{"i_long":106.800298,"line":2,"distance":5084,"station_name":"Citayam","time":6,"i_lat":-6.448811,"transit":true,"station_id":"CTA","is_transit":true},{"station_name":"Pondok Rajeg","station_id":"PDRG","time":0,"i_lat":-6.460735,"i_long":106.824374,"distance":0,"is_transit":false,"line":21,"transit":false}]]}