{"data":[[{"station_id":"CUK","is_transit":false,"distance":0,"time":0,"i_lat":-6.219053,"line":1,"station_name":"Cakung","i_long":106.951283,"transit":false},{"is_transit":false,"station_id":"KLDB","line":1,"i_long":106.939679,"time":8,"transit":false,"i_lat":-6.217455,"distance":1385,"station_name":"Klenderbaru"},{"transit":false,"i_lat":-6.215568,"station_name":"Buaran","i_long":106.922662,"is_transit":false,"line":1,"distance":1305,"time":1,"station_id":"BUA"},{"is_transit":false,"station_name":"Klender","distance":3100,"line":1,"i_lat":-6.2135,"i_long":106.899548,"transit":false,"time":2,"station_id":"KLD"},{"station_name":"Jatinegara","i_lat":-6.215091,"distance":3395,"time":3,"is_transit":false,"station_id":"JNG","i_long":106.86807400000001,"transit":false,"line":1},{"distance":1377,"transit":false,"time":2,"station_id":"MTR","line":1,"i_lat":-6.212485,"is_transit":false,"station_name":"Matraman","i_long":106.858896},{"i_lat":-6.209883,"time":2,"i_long":106.84912,"distance":1275,"transit":true,"line":2,"is_transit":true,"station_name":"Manggarai","station_id":"MRI"},{"station_id":"CKI","distance":1590,"i_lat":-6.198556,"station_name":"Cikini","time":4,"i_long":106.840169,"transit":false,"is_transit":false,"line":2},{"time":3,"is_transit":false,"station_name":"Gondangdia","distance":1750,"station_id":"GDD","i_long":106.832183,"i_lat":-6.186295,"line":2,"transit":false},{"line":2,"station_name":"Juanda","station_id":"JUA","transit":false,"i_lat":-6.166716,"i_long":106.828284,"distance":2015,"is_transit":false,"time":4},{"is_transit":false,"line":2,"station_name":"Sawah Besar","distance":1149,"station_id":"SW","i_lat":-6.160725,"time":2,"i_long":106.827103,"transit":false},{"time":2,"station_id":"MGB","station_name":"Manggabesar","is_transit":false,"distance":906,"i_lat":-6.149769,"transit":false,"line":2,"i_long":106.82482},{"line":2,"station_id":"JAY","is_transit":false,"station_name":"Jayakarta","time":2,"i_long":106.820901,"distance":1080,"transit":false,"i_lat":-6.141205}],[{"distance":0,"i_lat":-6.219053,"transit":false,"station_id":"CUK","is_transit":false,"time":0,"i_long":106.951283,"station_name":"Cakung","line":1},{"is_transit":false,"transit":false,"distance":1385,"station_id":"KLDB","time":8,"i_lat":-6.217455,"line":1,"i_long":106.939679,"station_name":"Klenderbaru"},{"is_transit":false,"transit":false,"station_id":"BUA","i_lat":-6.215568,"station_name":"Buaran","i_long":106.922662,"distance":1305,"time":1,"line":1},{"time":2,"is_transit":false,"distance":3100,"station_id":"KLD","i_long":106.899548,"line":1,"station_name":"Klender","i_lat":-6.2135,"transit":false},{"transit":true,"station_id":"JNG","i_lat":-6.215091,"i_long":106.86807400000001,"distance":3395,"is_transit":true,"station_name":"Jatinegara","line":1,"time":3},{"is_transit":false,"line":11,"distance":1236,"station_id":"POK","i_lat":-6.209188,"transit":false,"i_long":106.861737,"time":2,"station_name":"Pondok Jati"},{"station_id":"KMT","line":11,"distance":1829,"i_long":106.855437,"is_transit":false,"i_lat":-6.193792,"time":2,"station_name":"Kramat","transit":false},{"station_id":"GST","is_transit":false,"distance":973,"i_lat":-6.185975,"i_long":106.850107,"transit":false,"station_name":"Gang Sentiong","time":1,"line":11},{"i_long":106.84368,"transit":false,"is_transit":false,"station_name":"Pasar Senen","distance":1567,"station_id":"PSE","time":8,"i_lat":-6.174784,"line":11},{"is_transit":false,"transit":false,"i_lat":-6.161728,"line":11,"distance":1436,"time":4,"station_name":"Kemayoran","i_long":106.839204,"station_id":"KMO"},{"i_long":106.836569,"station_name":"Rajawali","i_lat":-6.14505,"is_transit":false,"distance":1901,"transit":false,"time":5,"station_id":"RJW","line":11},{"line":4,"is_transit":true,"distance":1444,"transit":true,"station_id":"KPB","i_long":106.826365,"station_name":"Kampung Bandan","time":3,"i_lat":-6.132549},{"i_long":106.812439,"station_name":"Jakarta Kota","line":2,"time":3,"station_id":"JAKK","distance":1364,"is_transit":true,"transit":true,"i_lat":-6.137569},{"i_long":106.820901,"station_id":"JAY","is_transit":false,"i_lat":-6.141205,"transit":false,"time":4,"distance":1264,"station_name":"Jayakarta","line":2}],[{"time":0,"i_lat":-6.219053,"i_long":106.951283,"station_name":"Cakung","is_transit":false,"transit":false,"station_id":"CUK","distance":0,"line":1},{"time":8,"i_lat":-6.217455,"distance":1385,"is_transit":false,"station_name":"Klenderbaru","i_long":106.939679,"line":1,"transit":false,"station_id":"KLDB"},{"is_transit":false,"i_lat":-6.215568,"line":1,"station_name":"Buaran","i_long":106.922662,"distance":1305,"transit":false,"station_id":"BUA","time":1},{"line":1,"is_transit":false,"transit":false,"station_name":"Klender","time":2,"station_id":"KLD","i_lat":-6.2135,"i_long":106.899548,"distance":3100},{"i_long":106.86807400000001,"station_id":"JNG","i_lat":-6.215091,"line":1,"time":3,"distance":3395,"transit":false,"station_name":"Jatinegara","is_transit":false},{"is_transit":false,"transit":false,"station_id":"MTR","time":2,"line":1,"i_lat":-6.212485,"distance":1377,"station_name":"Matraman","i_long":106.858896},{"distance":1275,"transit":false,"i_long":106.84912,"station_id":"MRI","station_name":"Manggarai","is_transit":false,"time":2,"i_lat":-6.209883,"line":2},{"i_long":106.822649,"line":1,"time":4,"distance":3186,"transit":false,"is_transit":false,"station_id":"SUD","station_name":"Sudirman","i_lat":-6.202263},{"station_name":"Sudirman Baru","is_transit":false,"transit":false,"i_long":106.819881,"line":1,"i_lat":-6.201433,"station_id":"SUDB","distance":280,"time":1},{"station_name":"Karet","i_lat":-6.20132,"distance":471,"i_long":106.816351,"transit":false,"time":1,"station_id":"KAT","is_transit":false,"line":1},{"distance":2029,"transit":false,"station_id":"THB","station_name":"Tanah Abang","time":5,"i_long":106.811091,"i_lat":-6.185545,"is_transit":false,"line":1},{"time":8,"i_lat":-6.155215,"is_transit":false,"station_id":"DU","line":1,"distance":3632,"transit":false,"station_name":"Duri","i_long":106.800832},{"distance":1230,"station_id":"AK","is_transit":false,"i_long":106.79867,"i_lat":-6.144674,"time":4,"transit":false,"line":1,"station_name":"Angke"},{"is_transit":true,"i_long":106.826365,"transit":true,"line":4,"distance":4102,"time":9,"station_name":"Kampung Bandan","station_id":"KPB","i_lat":-6.132549},{"station_id":"JAKK","i_long":106.812439,"line":2,"time":3,"is_transit":true,"distance":1364,"transit":true,"station_name":"Jakarta Kota","i_lat":-6.137569},{"time":4,"station_name":"Jayakarta","i_long":106.820901,"is_transit":false,"station_id":"JAY","transit":false,"distance":1264,"line":2,"i_lat":-6.141205}],[{"i_lat":-6.219053,"line":1,"is_transit":false,"transit":false,"time":0,"station_name":"Cakung","i_long":106.951283,"station_id":"CUK","distance":0},{"station_id":"KLDB","station_name":"Klenderbaru","i_long":106.939679,"transit":false,"distance":1385,"is_transit":false,"i_lat":-6.217455,"time":8,"line":1},{"line":1,"transit":false,"station_id":"BUA","i_lat":-6.215568,"time":1,"distance":1305,"is_transit":false,"station_name":"Buaran","i_long":106.922662},{"i_long":106.899548,"is_transit":false,"i_lat":-6.2135,"station_id":"KLD","distance":3100,"line":1,"transit":false,"time":2,"station_name":"Klender"},{"i_lat":-6.215091,"station_name":"Jatinegara","station_id":"JNG","is_transit":true,"time":3,"i_long":106.86807400000001,"line":1,"distance":3395,"transit":true},{"time":2,"is_transit":false,"transit":false,"station_id":"POK","distance":1236,"station_name":"Pondok Jati","i_long":106.861737,"i_lat":-6.209188,"line":11},{"is_transit":false,"time":2,"distance":1829,"transit":false,"station_id":"KMT","i_long":106.855437,"line":11,"station_name":"Kramat","i_lat":-6.193792},{"time":1,"transit":false,"i_long":106.850107,"i_lat":-6.185975,"line":11,"is_transit":false,"station_id":"GST","station_name":"Gang Sentiong","distance":973},{"i_lat":-6.174784,"station_name":"Pasar Senen","line":11,"i_long":106.84368,"distance":1567,"transit":false,"is_transit":false,"time":8,"station_id":"PSE"},{"line":11,"station_name":"Kemayoran","distance":1436,"station_id":"KMO","time":4,"i_lat":-6.161728,"is_transit":false,"i_long":106.839204,"transit":false},{"is_transit":false,"station_id":"RJW","line":11,"i_long":106.836569,"transit":false,"distance":1901,"time":5,"i_lat":-6.14505,"station_name":"Rajawali"},{"time":3,"distance":1444,"station_name":"Kampung Bandan","i_lat":-6.132549,"is_transit":true,"transit":true,"i_long":106.826365,"line":4,"station_id":"KPB"},{"distance":4102,"i_lat":-6.144674,"transit":false,"time":9,"i_long":106.79867,"line":1,"station_name":"Angke","is_transit":false,"station_id":"AK"},{"time":4,"is_transit":false,"distance":1230,"i_lat":-6.155215,"station_id":"DU","station_name":"Duri","line":1,"transit":false,"i_long":106.800832},{"line":1,"i_lat":-6.185545,"station_name":"Tanah Abang","is_transit":false,"station_id":"THB","i_long":106.811091,"distance":3632,"time":8,"transit":false},{"line":1,"is_transit":false,"station_id":"KAT","distance":2029,"transit":false,"time":5,"i_lat":-6.20132,"station_name":"Karet","i_long":106.816351},{"transit":false,"line":1,"i_long":106.819881,"i_lat":-6.201433,"is_transit":false,"distance":471,"station_name":"Sudirman Baru","time":1,"station_id":"SUDB"},{"time":1,"i_long":106.822649,"station_id":"SUD","is_transit":false,"station_name":"Sudirman","i_lat":-6.202263,"line":1,"distance":280,"transit":false},{"line":2,"is_transit":true,"transit":true,"i_lat":-6.209883,"station_name":"Manggarai","station_id":"MRI","i_long":106.84912,"distance":3186,"time":4},{"time":4,"is_transit":false,"line":2,"transit":false,"distance":1590,"station_name":"Cikini","i_long":106.840169,"station_id":"CKI","i_lat":-6.198556},{"station_id":"GDD","i_lat":-6.186295,"station_name":"Gondangdia","is_transit":false,"i_long":106.832183,"line":2,"time":3,"distance":1750,"transit":false},{"station_id":"JUA","i_lat":-6.166716,"distance":2015,"time":4,"line":2,"transit":false,"is_transit":false,"station_name":"Juanda","i_long":106.828284},{"time":2,"line":2,"distance":1149,"transit":false,"station_name":"Sawah Besar","i_long":106.827103,"station_id":"SW","i_lat":-6.160725,"is_transit":false},{"line":2,"distance":906,"is_transit":false,"time":2,"station_name":"Manggabesar","i_lat":-6.149769,"station_id":"MGB","i_long":106.82482,"transit":false},{"is_transit":false,"i_lat":-6.141205,"transit":false,"time":2,"distance":1080,"station_id":"JAY","i_long":106.820901,"station_name":"Jayakarta","line":2}]]}