{"data":[[{"i_lat":-6.219053,"transit":false,"time":0,"i_long":106.951283,"station_name":"Cakung","distance":0,"line":1,"is_transit":false,"station_id":"CUK"},{"time":8,"is_transit":false,"station_id":"KLDB","line":1,"station_name":"Klenderbaru","transit":false,"i_long":106.939679,"i_lat":-6.217455,"distance":1385},{"transit":false,"i_long":106.922662,"station_id":"BUA","time":1,"is_transit":false,"station_name":"Buaran","distance":1305,"line":1,"i_lat":-6.215568},{"station_name":"Klender","is_transit":false,"time":2,"i_lat":-6.2135,"transit":false,"i_long":106.899548,"line":1,"distance":3100,"station_id":"KLD"},{"time":3,"i_lat":-6.215091,"i_long":106.86807400000001,"is_transit":false,"transit":false,"station_name":"Jatinegara","station_id":"JNG","line":1,"distance":3395},{"i_lat":-6.212485,"station_id":"MTR","distance":1377,"station_name":"Matraman","i_long":106.858896,"time":2,"is_transit":false,"transit":false,"line":1},{"time":2,"i_long":106.84912,"station_id":"MRI","is_transit":false,"station_name":"Manggarai","i_lat":-6.209883,"distance":1275,"transit":false,"line":2},{"i_long":106.822649,"distance":3186,"is_transit":false,"i_lat":-6.202263,"line":1,"station_id":"SUD","time":4,"station_name":"Sudirman","transit":false},{"station_name":"Sudirman Baru","i_long":106.819881,"line":1,"i_lat":-6.201433,"is_transit":false,"station_id":"SUDB","distance":280,"transit":false,"time":1},{"time":1,"transit":false,"i_lat":-6.20132,"line":1,"is_transit":false,"i_long":106.816351,"station_name":"Karet","distance":471,"station_id":"KAT"},{"station_id":"THB","station_name":"Tanah Abang","distance":2029,"transit":true,"i_lat":-6.185545,"line":1,"time":5,"i_long":106.811091,"is_transit":true},{"distance":3191,"line":6,"i_lat":-6.207404,"station_id":"PLM","transit":false,"is_transit":false,"time":6,"i_long":106.79689,"station_name":"Palmerah"},{"station_id":"KBY","is_transit":false,"station_name":"Kebayoran","transit":false,"i_lat":-6.237242,"i_long":106.780334,"time":7,"distance":3737,"line":6},{"is_transit":false,"transit":false,"i_lat":-6.276362,"station_id":"PDJ","line":6,"time":8,"station_name":"Pondokranji","i_long":106.74273,"distance":6218},{"i_lat":-6.288927,"time":3,"is_transit":false,"line":6,"i_long":106.728916,"station_name":"Jurangmangu","distance":2179,"station_id":"JMU","transit":false},{"transit":false,"time":4,"is_transit":false,"station_id":"SDM","i_long":106.712277,"distance":1994,"station_name":"Sudimara","line":6,"i_lat":-6.296963},{"station_id":"RU","i_long":106.675475,"is_transit":false,"station_name":"Rawa Buntu","i_lat":-6.314823,"transit":false,"line":6,"distance":4566,"time":6},{"transit":false,"distance":2413,"i_long":106.66566,"time":4,"is_transit":false,"station_name":"Serpong","line":6,"station_id":"SRP","i_lat":-6.319871},{"station_name":"Cisauk","i_long":106.640411,"distance":1784,"station_id":"CSK","is_transit":false,"i_lat":-6.32484,"transit":false,"line":3,"time":4},{"i_lat":-6.329547,"transit":false,"line":3,"station_id":"CC","is_transit":false,"distance":2519,"station_name":"Cicayur","i_long":106.617853,"time":4},{"is_transit":false,"station_name":"Parung Panjang","transit":false,"i_long":106.568863,"time":8,"station_id":"PRP","i_lat":-6.3441410000000005,"line":6,"distance":5968}],[{"station_id":"CUK","distance":0,"line":1,"i_lat":-6.219053,"i_long":106.951283,"is_transit":false,"time":0,"transit":false,"station_name":"Cakung"},{"distance":1385,"station_name":"Klenderbaru","time":8,"line":1,"is_transit":false,"station_id":"KLDB","transit":false,"i_long":106.939679,"i_lat":-6.217455},{"i_lat":-6.215568,"transit":false,"distance":1305,"i_long":106.922662,"time":1,"line":1,"is_transit":false,"station_name":"Buaran","station_id":"BUA"},{"is_transit":false,"i_long":106.899548,"time":2,"i_lat":-6.2135,"station_name":"Klender","station_id":"KLD","line":1,"transit":false,"distance":3100},{"distance":3395,"i_lat":-6.215091,"station_name":"Jatinegara","transit":true,"line":1,"i_long":106.86807400000001,"is_transit":true,"station_id":"JNG","time":3},{"time":2,"line":11,"is_transit":false,"transit":false,"i_long":106.861737,"i_lat":-6.209188,"station_id":"POK","station_name":"Pondok Jati","distance":1236},{"station_name":"Kramat","i_lat":-6.193792,"station_id":"KMT","distance":1829,"transit":false,"i_long":106.855437,"line":11,"is_transit":false,"time":2},{"i_lat":-6.185975,"transit":false,"distance":973,"station_id":"GST","time":1,"station_name":"Gang Sentiong","line":11,"i_long":106.850107,"is_transit":false},{"i_long":106.84368,"line":11,"is_transit":false,"time":8,"distance":1567,"station_name":"Pasar Senen","transit":false,"i_lat":-6.174784,"station_id":"PSE"},{"i_lat":-6.161728,"distance":1436,"is_transit":false,"station_name":"Kemayoran","transit":false,"time":4,"i_long":106.839204,"station_id":"KMO","line":11},{"line":11,"transit":false,"i_lat":-6.14505,"station_id":"RJW","is_transit":false,"distance":1901,"time":5,"station_name":"Rajawali","i_long":106.836569},{"station_name":"Kampung Bandan","i_long":106.826365,"i_lat":-6.132549,"is_transit":true,"transit":true,"station_id":"KPB","time":3,"line":4,"distance":1444},{"station_id":"AK","time":9,"station_name":"Angke","i_lat":-6.144674,"i_long":106.79867,"distance":4102,"is_transit":false,"transit":false,"line":1},{"is_transit":false,"line":1,"i_lat":-6.155215,"i_long":106.800832,"transit":false,"time":4,"station_name":"Duri","distance":1230,"station_id":"DU"},{"station_id":"THB","is_transit":true,"station_name":"Tanah Abang","i_lat":-6.185545,"transit":true,"distance":3632,"line":1,"i_long":106.811091,"time":8},{"time":6,"station_name":"Palmerah","line":6,"transit":false,"i_long":106.79689,"is_transit":false,"station_id":"PLM","i_lat":-6.207404,"distance":3191},{"i_long":106.780334,"line":6,"station_id":"KBY","distance":3737,"transit":false,"station_name":"Kebayoran","is_transit":false,"time":7,"i_lat":-6.237242},{"time":8,"distance":6218,"transit":false,"line":6,"is_transit":false,"station_id":"PDJ","i_long":106.74273,"station_name":"Pondokranji","i_lat":-6.276362},{"distance":2179,"transit":false,"is_transit":false,"line":6,"time":3,"station_name":"Jurangmangu","i_lat":-6.288927,"station_id":"JMU","i_long":106.728916},{"time":4,"station_id":"SDM","i_lat":-6.296963,"distance":1994,"transit":false,"station_name":"Sudimara","is_transit":false,"i_long":106.712277,"line":6},{"time":6,"i_long":106.675475,"station_id":"RU","line":6,"station_name":"Rawa Buntu","transit":false,"is_transit":false,"distance":4566,"i_lat":-6.314823},{"station_id":"SRP","is_transit":false,"station_name":"Serpong","line":6,"transit":false,"time":4,"i_long":106.66566,"distance":2413,"i_lat":-6.319871},{"station_name":"Cisauk","is_transit":false,"line":3,"station_id":"CSK","i_lat":-6.32484,"transit":false,"time":4,"distance":1784,"i_long":106.640411},{"station_id":"CC","station_name":"Cicayur","distance":2519,"transit":false,"i_lat":-6.329547,"i_long":106.617853,"is_transit":false,"time":4,"line":3},{"i_long":106.568863,"station_name":"Parung Panjang","transit":false,"is_transit":false,"i_lat":-6.3441410000000005,"line":6,"time":8,"station_id":"PRP","distance":5968}],[{"station_id":"CUK","i_long":106.951283,"is_transit":false,"distance":0,"transit":false,"time":0,"i_lat":-6.219053,"line":1,"station_name":"Cakung"},{"station_id":"KLDB","transit":false,"time":8,"distance":1385,"i_lat":-6.217455,"is_transit":false,"line":1,"station_name":"Klenderbaru","i_long":106.939679},{"transit":false,"is_transit":false,"station_name":"Buaran","line":1,"i_lat":-6.215568,"i_long":106.922662,"distance":1305,"time":1,"station_id":"BUA"},{"i_lat":-6.2135,"line":1,"transit":false,"station_id":"KLD","i_long":106.899548,"time":2,"station_name":"Klender","is_transit":false,"distance":3100},{"i_lat":-6.215091,"is_transit":false,"i_long":106.86807400000001,"time":3,"line":1,"distance":3395,"transit":false,"station_id":"JNG","station_name":"Jatinegara"},{"is_transit":false,"line":1,"station_name":"Matraman","station_id":"MTR","i_lat":-6.212485,"i_long":106.858896,"distance":1377,"transit":false,"time":2},{"station_name":"Manggarai","station_id":"MRI","i_long":106.84912,"time":2,"i_lat":-6.209883,"distance":1275,"is_transit":true,"transit":true,"line":2},{"is_transit":false,"transit":false,"station_name":"Cikini","station_id":"CKI","time":4,"line":2,"i_long":106.840169,"i_lat":-6.198556,"distance":1590},{"i_lat":-6.186295,"distance":1750,"i_long":106.832183,"is_transit":false,"time":3,"station_name":"Gondangdia","line":2,"transit":false,"station_id":"GDD"},{"i_lat":-6.166716,"i_long":106.828284,"time":4,"line":2,"distance":2015,"station_id":"JUA","is_transit":false,"transit":false,"station_name":"Juanda"},{"i_lat":-6.160725,"line":2,"i_long":106.827103,"station_name":"Sawah Besar","distance":1149,"station_id":"SW","time":2,"is_transit":false,"transit":false},{"station_name":"Manggabesar","time":2,"station_id":"MGB","distance":906,"i_lat":-6.149769,"transit":false,"is_transit":false,"line":2,"i_long":106.82482},{"is_transit":false,"transit":false,"i_lat":-6.141205,"station_name":"Jayakarta","i_long":106.820901,"distance":1080,"time":2,"line":2,"station_id":"JAY"},{"station_id":"JAKK","transit":true,"distance":1264,"i_lat":-6.137569,"station_name":"Jakarta Kota","i_long":106.812439,"line":2,"time":4,"is_transit":true},{"transit":true,"line":4,"station_id":"KPB","i_lat":-6.132549,"distance":1364,"i_long":106.826365,"time":3,"station_name":"Kampung Bandan","is_transit":true},{"i_long":106.79867,"time":9,"distance":4102,"transit":false,"i_lat":-6.144674,"is_transit":false,"line":1,"station_name":"Angke","station_id":"AK"},{"line":1,"station_name":"Duri","is_transit":false,"distance":1230,"time":4,"i_lat":-6.155215,"transit":false,"i_long":106.800832,"station_id":"DU"},{"station_id":"THB","i_long":106.811091,"time":8,"transit":true,"line":1,"station_name":"Tanah Abang","distance":3632,"is_transit":true,"i_lat":-6.185545},{"is_transit":false,"time":6,"station_name":"Palmerah","i_long":106.79689,"line":6,"distance":3191,"i_lat":-6.207404,"station_id":"PLM","transit":false},{"station_name":"Kebayoran","distance":3737,"i_lat":-6.237242,"station_id":"KBY","line":6,"i_long":106.780334,"is_transit":false,"time":7,"transit":false},{"distance":6218,"i_long":106.74273,"station_id":"PDJ","time":8,"is_transit":false,"transit":false,"i_lat":-6.276362,"station_name":"Pondokranji","line":6},{"distance":2179,"line":6,"i_long":106.728916,"is_transit":false,"station_id":"JMU","time":3,"station_name":"Jurangmangu","transit":false,"i_lat":-6.288927},{"station_name":"Sudimara","i_long":106.712277,"distance":1994,"line":6,"time":4,"transit":false,"station_id":"SDM","is_transit":false,"i_lat":-6.296963},{"line":6,"is_transit":false,"station_name":"Rawa Buntu","i_lat":-6.314823,"station_id":"RU","transit":false,"i_long":106.675475,"time":6,"distance":4566},{"time":4,"station_id":"SRP","transit":false,"i_lat":-6.319871,"i_long":106.66566,"station_name":"Serpong","line":6,"is_transit":false,"distance":2413},{"is_transit":false,"transit":false,"line":3,"time":4,"station_name":"Cisauk","station_id":"CSK","i_lat":-6.32484,"i_long":106.640411,"distance":1784},{"is_transit":false,"line":3,"time":4,"transit":false,"i_long":106.617853,"distance":2519,"station_name":"Cicayur","station_id":"CC","i_lat":-6.329547},{"station_name":"Parung Panjang","transit":false,"station_id":"PRP","time":8,"distance":5968,"i_lat":-6.3441410000000005,"i_long":106.568863,"line":6,"is_transit":false}],[{"station_id":"CUK","transit":false,"i_lat":-6.219053,"i_long":106.951283,"line":1,"station_name":"Cakung","distance":0,"time":0,"is_transit":false},{"line":1,"distance":1385,"time":8,"station_id":"KLDB","transit":false,"is_transit":false,"i_long":106.939679,"station_name":"Klenderbaru","i_lat":-6.217455},{"i_long":106.922662,"station_name":"Buaran","i_lat":-6.215568,"is_transit":false,"distance":1305,"line":1,"time":1,"transit":false,"station_id":"BUA"},{"line":1,"distance":3100,"transit":false,"station_name":"Klender","i_long":106.899548,"station_id":"KLD","time":2,"i_lat":-6.2135,"is_transit":false},{"line":1,"transit":true,"time":3,"is_transit":true,"i_lat":-6.215091,"station_id":"JNG","distance":3395,"station_name":"Jatinegara","i_long":106.86807400000001},{"distance":1236,"is_transit":false,"station_name":"Pondok Jati","i_lat":-6.209188,"line":11,"transit":false,"time":2,"i_long":106.861737,"station_id":"POK"},{"transit":false,"line":11,"distance":1829,"i_long":106.855437,"station_id":"KMT","is_transit":false,"time":2,"i_lat":-6.193792,"station_name":"Kramat"},{"station_id":"GST","is_transit":false,"line":11,"time":1,"station_name":"Gang Sentiong","distance":973,"transit":false,"i_lat":-6.185975,"i_long":106.850107},{"i_lat":-6.174784,"is_transit":false,"transit":false,"line":11,"i_long":106.84368,"station_id":"PSE","distance":1567,"time":8,"station_name":"Pasar Senen"},{"time":4,"is_transit":false,"distance":1436,"line":11,"station_id":"KMO","station_name":"Kemayoran","transit":false,"i_long":106.839204,"i_lat":-6.161728},{"is_transit":false,"transit":false,"station_id":"RJW","time":5,"i_lat":-6.14505,"distance":1901,"i_long":106.836569,"line":11,"station_name":"Rajawali"},{"is_transit":true,"transit":true,"i_lat":-6.132549,"line":4,"time":3,"i_long":106.826365,"distance":1444,"station_id":"KPB","station_name":"Kampung Bandan"},{"distance":1364,"station_id":"JAKK","is_transit":true,"time":3,"station_name":"Jakarta Kota","i_long":106.812439,"i_lat":-6.137569,"transit":true,"line":2},{"distance":1264,"time":4,"station_id":"JAY","transit":false,"is_transit":false,"line":2,"i_long":106.820901,"station_name":"Jayakarta","i_lat":-6.141205},{"distance":1080,"transit":false,"i_lat":-6.149769,"i_long":106.82482,"time":2,"station_name":"Manggabesar","station_id":"MGB","line":2,"is_transit":false},{"line":2,"i_long":106.827103,"station_name":"Sawah Besar","transit":false,"time":2,"distance":906,"station_id":"SW","is_transit":false,"i_lat":-6.160725},{"i_long":106.828284,"distance":1149,"line":2,"time":2,"station_id":"JUA","station_name":"Juanda","transit":false,"is_transit":false,"i_lat":-6.166716},{"transit":false,"distance":2015,"time":4,"station_id":"GDD","i_long":106.832183,"line":2,"is_transit":false,"i_lat":-6.186295,"station_name":"Gondangdia"},{"i_lat":-6.198556,"i_long":106.840169,"station_id":"CKI","station_name":"Cikini","time":3,"transit":false,"line":2,"is_transit":false,"distance":1750},{"line":2,"distance":1590,"station_name":"Manggarai","station_id":"MRI","time":4,"is_transit":true,"i_lat":-6.209883,"i_long":106.84912,"transit":true},{"station_id":"SUD","line":1,"i_long":106.822649,"i_lat":-6.202263,"transit":false,"is_transit":false,"station_name":"Sudirman","time":4,"distance":3186},{"transit":false,"i_lat":-6.201433,"line":1,"is_transit":false,"time":1,"station_id":"SUDB","i_long":106.819881,"distance":280,"station_name":"Sudirman Baru"},{"line":1,"distance":471,"station_id":"KAT","is_transit":false,"station_name":"Karet","i_long":106.816351,"transit":false,"i_lat":-6.20132,"time":1},{"station_id":"THB","i_lat":-6.185545,"i_long":106.811091,"time":5,"station_name":"Tanah Abang","transit":true,"distance":2029,"line":1,"is_transit":true},{"station_id":"PLM","i_long":106.79689,"is_transit":false,"station_name":"Palmerah","distance":3191,"time":6,"transit":false,"i_lat":-6.207404,"line":6},{"is_transit":false,"line":6,"station_id":"KBY","i_long":106.780334,"station_name":"Kebayoran","distance":3737,"transit":false,"time":7,"i_lat":-6.237242},{"distance":6218,"is_transit":false,"transit":false,"station_id":"PDJ","i_lat":-6.276362,"station_name":"Pondokranji","line":6,"time":8,"i_long":106.74273},{"i_lat":-6.288927,"time":3,"station_name":"Jurangmangu","line":6,"distance":2179,"i_long":106.728916,"is_transit":false,"station_id":"JMU","transit":false},{"distance":1994,"i_lat":-6.296963,"time":4,"is_transit":false,"transit":false,"line":6,"station_id":"SDM","i_long":106.712277,"station_name":"Sudimara"},{"time":6,"is_transit":false,"station_name":"Rawa Buntu","i_lat":-6.314823,"i_long":106.675475,"station_id":"RU","transit":false,"line":6,"distance":4566},{"station_id":"SRP","is_transit":false,"station_name":"Serpong","line":6,"i_lat":-6.319871,"transit":false,"i_long":106.66566,"distance":2413,"time":4},{"station_name":"Cisauk","i_lat":-6.32484,"i_long":106.640411,"station_id":"CSK","transit":false,"line":3,"distance":1784,"is_transit":false,"time":4},{"station_id":"CC","distance":2519,"is_transit":false,"station_name":"Cicayur","i_lat":-6.329547,"i_long":106.617853,"line":3,"time":4,"transit":false},{"i_long":106.568863,"line":6,"station_id":"PRP","time":8,"transit":false,"i_lat":-6.3441410000000005,"station_name":"Parung Panjang","is_transit":false,"distance":5968}]]}