{"data":[[{"distance":0,"station_name":"Cakung","line":1,"is_transit":false,"transit":false,"station_id":"CUK","i_lat":-6.219053,"i_long":106.951283,"time":0},{"station_name":"Klenderbaru","time":8,"i_lat":-6.217455,"i_long":106.939679,"line":1,"transit":false,"station_id":"KLDB","distance":1385,"is_transit":false},{"i_long":106.922662,"station_name":"Buaran","transit":false,"line":1,"distance":1305,"is_transit":false,"time":1,"station_id":"BUA","i_lat":-6.215568},{"line":1,"transit":false,"time":2,"i_lat":-6.2135,"station_id":"KLD","distance":3100,"is_transit":false,"i_long":106.899548,"station_name":"Klender"},{"i_lat":-6.215091,"i_long":106.86807400000001,"is_transit":false,"station_name":"Jatinegara","time":3,"transit":false,"station_id":"JNG","line":1,"distance":3395},{"transit":false,"is_transit":false,"time":2,"i_long":106.858896,"distance":1377,"i_lat":-6.212485,"station_id":"MTR","line":1,"station_name":"Matraman"},{"station_name":"Manggarai","line":2,"i_long":106.84912,"i_lat":-6.209883,"transit":false,"is_transit":false,"distance":1275,"time":2,"station_id":"MRI"},{"distance":3186,"transit":false,"time":4,"line":1,"station_id":"SUD","i_lat":-6.202263,"i_long":106.822649,"is_transit":false,"station_name":"Sudirman"},{"distance":280,"time":1,"is_transit":false,"transit":false,"station_id":"SUDB","i_lat":-6.201433,"i_long":106.819881,"station_name":"Sudirman Baru","line":1},{"station_name":"Karet","line":1,"distance":471,"time":1,"is_transit":false,"station_id":"KAT","i_long":106.816351,"i_lat":-6.20132,"transit":false},{"is_transit":true,"i_lat":-6.185545,"i_long":106.811091,"line":1,"transit":true,"distance":2029,"station_id":"THB","time":5,"station_name":"Tanah Abang"},{"station_id":"PLM","i_long":106.79689,"is_transit":false,"station_name":"Palmerah","time":6,"i_lat":-6.207404,"line":6,"transit":false,"distance":3191},{"distance":3737,"transit":false,"station_id":"KBY","line":6,"is_transit":false,"i_long":106.780334,"station_name":"Kebayoran","i_lat":-6.237242,"time":7},{"line":6,"transit":false,"distance":6218,"station_id":"PDJ","is_transit":false,"station_name":"Pondokranji","i_lat":-6.276362,"i_long":106.74273,"time":8},{"transit":false,"time":3,"station_name":"Jurangmangu","station_id":"JMU","is_transit":false,"i_lat":-6.288927,"i_long":106.728916,"distance":2179,"line":6},{"time":4,"i_lat":-6.296963,"line":6,"distance":1994,"is_transit":false,"station_name":"Sudimara","station_id":"SDM","transit":false,"i_long":106.712277}],[{"distance":0,"transit":false,"station_name":"Cakung","time":0,"i_long":106.951283,"i_lat":-6.219053,"line":1,"station_id":"CUK","is_transit":false},{"station_name":"Klenderbaru","time":8,"transit":false,"is_transit":false,"i_long":106.939679,"station_id":"KLDB","line":1,"distance":1385,"i_lat":-6.217455},{"i_lat":-6.215568,"is_transit":false,"time":1,"transit":false,"station_name":"Buaran","line":1,"distance":1305,"i_long":106.922662,"station_id":"BUA"},{"time":2,"station_name":"Klender","is_transit":false,"distance":3100,"station_id":"KLD","line":1,"i_lat":-6.2135,"i_long":106.899548,"transit":false},{"time":3,"transit":true,"is_transit":true,"station_name":"Jatinegara","i_lat":-6.215091,"i_long":106.86807400000001,"distance":3395,"line":1,"station_id":"JNG"},{"transit":false,"station_id":"POK","distance":1236,"is_transit":false,"i_lat":-6.209188,"station_name":"Pondok Jati","time":2,"i_long":106.861737,"line":11},{"distance":1829,"i_lat":-6.193792,"transit":false,"station_id":"KMT","is_transit":false,"time":2,"station_name":"Kramat","i_long":106.855437,"line":11},{"transit":false,"station_name":"Gang Sentiong","is_transit":false,"line":11,"distance":973,"i_lat":-6.185975,"i_long":106.850107,"time":1,"station_id":"GST"},{"is_transit":false,"i_lat":-6.174784,"station_name":"Pasar Senen","i_long":106.84368,"transit":false,"line":11,"distance":1567,"time":8,"station_id":"PSE"},{"transit":false,"station_name":"Kemayoran","i_lat":-6.161728,"is_transit":false,"station_id":"KMO","i_long":106.839204,"line":11,"distance":1436,"time":4},{"line":11,"transit":false,"distance":1901,"i_long":106.836569,"station_name":"Rajawali","time":5,"station_id":"RJW","is_transit":false,"i_lat":-6.14505},{"transit":true,"is_transit":true,"distance":1444,"station_name":"Kampung Bandan","i_lat":-6.132549,"i_long":106.826365,"time":3,"line":4,"station_id":"KPB"},{"transit":false,"time":9,"i_long":106.79867,"line":1,"station_id":"AK","is_transit":false,"i_lat":-6.144674,"station_name":"Angke","distance":4102},{"station_name":"Duri","distance":1230,"line":1,"i_lat":-6.155215,"time":4,"station_id":"DU","transit":false,"is_transit":false,"i_long":106.800832},{"i_long":106.811091,"transit":true,"is_transit":true,"time":8,"distance":3632,"i_lat":-6.185545,"station_id":"THB","station_name":"Tanah Abang","line":1},{"i_long":106.79689,"time":6,"distance":3191,"i_lat":-6.207404,"transit":false,"is_transit":false,"station_id":"PLM","station_name":"Palmerah","line":6},{"distance":3737,"transit":false,"is_transit":false,"time":7,"i_lat":-6.237242,"i_long":106.780334,"line":6,"station_id":"KBY","station_name":"Kebayoran"},{"i_long":106.74273,"is_transit":false,"transit":false,"station_id":"PDJ","i_lat":-6.276362,"distance":6218,"line":6,"station_name":"Pondokranji","time":8},{"station_id":"JMU","station_name":"Jurangmangu","i_long":106.728916,"line":6,"i_lat":-6.288927,"is_transit":false,"distance":2179,"transit":false,"time":3},{"station_id":"SDM","is_transit":false,"time":4,"transit":false,"i_lat":-6.296963,"i_long":106.712277,"station_name":"Sudimara","line":6,"distance":1994}],[{"is_transit":false,"distance":0,"time":0,"station_name":"Cakung","i_lat":-6.219053,"line":1,"transit":false,"station_id":"CUK","i_long":106.951283},{"i_long":106.939679,"is_transit":false,"station_id":"KLDB","i_lat":-6.217455,"line":1,"transit":false,"distance":1385,"time":8,"station_name":"Klenderbaru"},{"transit":false,"is_transit":false,"distance":1305,"i_lat":-6.215568,"station_id":"BUA","i_long":106.922662,"time":1,"station_name":"Buaran","line":1},{"station_id":"KLD","line":1,"transit":false,"distance":3100,"is_transit":false,"i_lat":-6.2135,"station_name":"Klender","time":2,"i_long":106.899548},{"transit":false,"station_id":"JNG","i_lat":-6.215091,"is_transit":false,"time":3,"distance":3395,"i_long":106.86807400000001,"station_name":"Jatinegara","line":1},{"i_lat":-6.212485,"transit":false,"station_name":"Matraman","distance":1377,"station_id":"MTR","line":1,"i_long":106.858896,"is_transit":false,"time":2},{"station_id":"MRI","transit":true,"station_name":"Manggarai","time":2,"is_transit":true,"distance":1275,"line":2,"i_lat":-6.209883,"i_long":106.84912},{"time":4,"line":2,"station_id":"CKI","i_long":106.840169,"station_name":"Cikini","transit":false,"distance":1590,"i_lat":-6.198556,"is_transit":false},{"line":2,"i_long":106.832183,"station_name":"Gondangdia","i_lat":-6.186295,"time":3,"transit":false,"is_transit":false,"distance":1750,"station_id":"GDD"},{"time":4,"station_id":"JUA","station_name":"Juanda","i_lat":-6.166716,"transit":false,"i_long":106.828284,"distance":2015,"line":2,"is_transit":false},{"line":2,"i_lat":-6.160725,"distance":1149,"time":2,"is_transit":false,"transit":false,"station_name":"Sawah Besar","i_long":106.827103,"station_id":"SW"},{"station_id":"MGB","i_long":106.82482,"time":2,"i_lat":-6.149769,"station_name":"Manggabesar","distance":906,"line":2,"transit":false,"is_transit":false},{"is_transit":false,"time":2,"i_long":106.820901,"distance":1080,"station_id":"JAY","line":2,"i_lat":-6.141205,"station_name":"Jayakarta","transit":false},{"time":4,"i_lat":-6.137569,"line":2,"distance":1264,"is_transit":true,"station_name":"Jakarta Kota","station_id":"JAKK","i_long":106.812439,"transit":true},{"time":3,"station_name":"Kampung Bandan","station_id":"KPB","i_long":106.826365,"line":4,"distance":1364,"i_lat":-6.132549,"transit":true,"is_transit":true},{"i_lat":-6.144674,"i_long":106.79867,"time":9,"station_id":"AK","is_transit":false,"line":1,"distance":4102,"transit":false,"station_name":"Angke"},{"is_transit":false,"distance":1230,"i_long":106.800832,"line":1,"i_lat":-6.155215,"transit":false,"station_id":"DU","station_name":"Duri","time":4},{"distance":3632,"line":1,"i_long":106.811091,"i_lat":-6.185545,"transit":true,"time":8,"is_transit":true,"station_id":"THB","station_name":"Tanah Abang"},{"line":6,"station_name":"Palmerah","distance":3191,"transit":false,"station_id":"PLM","is_transit":false,"i_lat":-6.207404,"i_long":106.79689,"time":6},{"i_lat":-6.237242,"i_long":106.780334,"line":6,"is_transit":false,"transit":false,"distance":3737,"time":7,"station_id":"KBY","station_name":"Kebayoran"},{"station_id":"PDJ","time":8,"station_name":"Pondokranji","i_long":106.74273,"i_lat":-6.276362,"line":6,"is_transit":false,"distance":6218,"transit":false},{"transit":false,"time":3,"i_lat":-6.288927,"distance":2179,"station_id":"JMU","station_name":"Jurangmangu","is_transit":false,"i_long":106.728916,"line":6},{"distance":1994,"time":4,"transit":false,"is_transit":false,"station_id":"SDM","station_name":"Sudimara","i_lat":-6.296963,"i_long":106.712277,"line":6}],[{"station_id":"CUK","i_lat":-6.219053,"i_long":106.951283,"station_name":"Cakung","time":0,"distance":0,"line":1,"is_transit":false,"transit":false},{"time":8,"i_lat":-6.217455,"station_id":"KLDB","line":1,"transit":false,"station_name":"Klenderbaru","distance":1385,"is_transit":false,"i_long":106.939679},{"time":1,"transit":false,"station_name":"Buaran","i_lat":-6.215568,"distance":1305,"station_id":"BUA","i_long":106.922662,"line":1,"is_transit":false},{"station_id":"KLD","i_lat":-6.2135,"i_long":106.899548,"is_transit":false,"line":1,"time":2,"station_name":"Klender","distance":3100,"transit":false},{"is_transit":true,"i_long":106.86807400000001,"station_id":"JNG","station_name":"Jatinegara","transit":true,"i_lat":-6.215091,"distance":3395,"time":3,"line":1},{"is_transit":false,"transit":false,"station_id":"POK","station_name":"Pondok Jati","i_long":106.861737,"line":11,"time":2,"distance":1236,"i_lat":-6.209188},{"station_id":"KMT","i_long":106.855437,"i_lat":-6.193792,"is_transit":false,"transit":false,"time":2,"station_name":"Kramat","line":11,"distance":1829},{"is_transit":false,"i_lat":-6.185975,"distance":973,"time":1,"station_name":"Gang Sentiong","transit":false,"station_id":"GST","i_long":106.850107,"line":11},{"distance":1567,"station_id":"PSE","is_transit":false,"time":8,"line":11,"station_name":"Pasar Senen","i_long":106.84368,"i_lat":-6.174784,"transit":false},{"distance":1436,"i_lat":-6.161728,"i_long":106.839204,"line":11,"time":4,"is_transit":false,"transit":false,"station_id":"KMO","station_name":"Kemayoran"},{"station_id":"RJW","i_lat":-6.14505,"is_transit":false,"time":5,"distance":1901,"station_name":"Rajawali","i_long":106.836569,"line":11,"transit":false},{"i_long":106.826365,"distance":1444,"time":3,"station_id":"KPB","transit":true,"is_transit":true,"station_name":"Kampung Bandan","i_lat":-6.132549,"line":4},{"i_lat":-6.137569,"distance":1364,"time":3,"station_name":"Jakarta Kota","station_id":"JAKK","line":2,"transit":true,"i_long":106.812439,"is_transit":true},{"i_lat":-6.141205,"i_long":106.820901,"line":2,"is_transit":false,"station_name":"Jayakarta","transit":false,"time":4,"station_id":"JAY","distance":1264},{"transit":false,"station_name":"Manggabesar","i_lat":-6.149769,"line":2,"time":2,"i_long":106.82482,"station_id":"MGB","is_transit":false,"distance":1080},{"i_long":106.827103,"transit":false,"station_id":"SW","i_lat":-6.160725,"time":2,"line":2,"is_transit":false,"distance":906,"station_name":"Sawah Besar"},{"i_lat":-6.166716,"transit":false,"i_long":106.828284,"station_id":"JUA","line":2,"station_name":"Juanda","distance":1149,"is_transit":false,"time":2},{"distance":2015,"transit":false,"i_long":106.832183,"time":4,"station_name":"Gondangdia","i_lat":-6.186295,"is_transit":false,"station_id":"GDD","line":2},{"i_lat":-6.198556,"i_long":106.840169,"transit":false,"is_transit":false,"time":3,"distance":1750,"line":2,"station_name":"Cikini","station_id":"CKI"},{"i_long":106.84912,"distance":1590,"line":2,"time":4,"station_name":"Manggarai","is_transit":true,"transit":true,"station_id":"MRI","i_lat":-6.209883},{"distance":3186,"line":1,"i_lat":-6.202263,"transit":false,"station_id":"SUD","station_name":"Sudirman","is_transit":false,"time":4,"i_long":106.822649},{"time":1,"is_transit":false,"station_name":"Sudirman Baru","station_id":"SUDB","i_lat":-6.201433,"line":1,"i_long":106.819881,"distance":280,"transit":false},{"line":1,"i_lat":-6.20132,"transit":false,"distance":471,"i_long":106.816351,"station_id":"KAT","is_transit":false,"station_name":"Karet","time":1},{"transit":true,"i_long":106.811091,"station_id":"THB","i_lat":-6.185545,"station_name":"Tanah Abang","distance":2029,"is_transit":true,"line":1,"time":5},{"i_long":106.79689,"time":6,"is_transit":false,"transit":false,"line":6,"station_name":"Palmerah","distance":3191,"station_id":"PLM","i_lat":-6.207404},{"transit":false,"station_name":"Kebayoran","i_lat":-6.237242,"line":6,"time":7,"is_transit":false,"station_id":"KBY","distance":3737,"i_long":106.780334},{"station_name":"Pondokranji","distance":6218,"is_transit":false,"station_id":"PDJ","time":8,"transit":false,"i_lat":-6.276362,"line":6,"i_long":106.74273},{"station_id":"JMU","station_name":"Jurangmangu","is_transit":false,"transit":false,"i_lat":-6.288927,"time":3,"line":6,"distance":2179,"i_long":106.728916},{"i_lat":-6.296963,"time":4,"transit":false,"station_id":"SDM","station_name":"Sudimara","distance":1994,"is_transit":false,"i_long":106.712277,"line":6}]]}