{"data":[[{"is_transit":false,"station_name":"Cakung","transit":false,"i_lat":-6.219053,"line":1,"time":0,"distance":0,"i_long":106.951283,"station_id":"CUK"},{"i_lat":-6.217455,"line":1,"time":8,"is_transit":false,"i_long":106.939679,"station_id":"KLDB","transit":false,"distance":1385,"station_name":"Klenderbaru"},{"time":1,"distance":1305,"station_name":"Buaran","is_transit":false,"i_lat":-6.215568,"i_long":106.922662,"line":1,"transit":false,"station_id":"BUA"},{"time":2,"is_transit":false,"transit":false,"station_id":"KLD","i_lat":-6.2135,"i_long":106.899548,"station_name":"Klender","line":1,"distance":3100},{"line":1,"time":3,"station_id":"JNG","station_name":"Jatinegara","i_lat":-6.215091,"transit":false,"i_long":106.86807400000001,"distance":3395,"is_transit":false},{"i_long":106.858896,"line":1,"station_name":"Matraman","transit":false,"distance":1377,"station_id":"MTR","time":2,"is_transit":false,"i_lat":-6.212485},{"distance":1275,"transit":false,"i_long":106.84912,"i_lat":-6.209883,"time":2,"is_transit":false,"line":2,"station_name":"Manggarai","station_id":"MRI"},{"distance":3186,"station_id":"SUD","line":1,"time":4,"station_name":"Sudirman","i_lat":-6.202263,"i_long":106.822649,"transit":false,"is_transit":false},{"line":1,"station_name":"Sudirman Baru","transit":false,"i_lat":-6.201433,"i_long":106.819881,"distance":280,"station_id":"SUDB","is_transit":false,"time":1},{"is_transit":false,"transit":false,"i_lat":-6.20132,"time":1,"station_name":"Karet","line":1,"i_long":106.816351,"station_id":"KAT","distance":471},{"distance":2029,"i_lat":-6.185545,"station_id":"THB","i_long":106.811091,"line":1,"transit":true,"time":5,"station_name":"Tanah Abang","is_transit":true},{"i_lat":-6.207404,"time":6,"station_name":"Palmerah","i_long":106.79689,"line":6,"distance":3191,"is_transit":false,"transit":false,"station_id":"PLM"},{"transit":false,"i_lat":-6.237242,"time":7,"i_long":106.780334,"distance":3737,"station_id":"KBY","line":6,"is_transit":false,"station_name":"Kebayoran"},{"station_id":"PDJ","i_lat":-6.276362,"distance":6218,"station_name":"Pondokranji","is_transit":false,"time":8,"line":6,"transit":false,"i_long":106.74273},{"station_id":"JMU","i_lat":-6.288927,"is_transit":false,"i_long":106.728916,"distance":2179,"line":6,"transit":false,"time":3,"station_name":"Jurangmangu"},{"is_transit":false,"station_name":"Sudimara","station_id":"SDM","line":6,"distance":1994,"time":4,"transit":false,"i_lat":-6.296963,"i_long":106.712277},{"transit":false,"i_lat":-6.314823,"station_id":"RU","time":6,"is_transit":false,"line":6,"station_name":"Rawa Buntu","i_long":106.675475,"distance":4566}],[{"station_id":"CUK","station_name":"Cakung","distance":0,"is_transit":false,"line":1,"transit":false,"i_lat":-6.219053,"i_long":106.951283,"time":0},{"is_transit":false,"line":1,"distance":1385,"i_long":106.939679,"transit":false,"station_id":"KLDB","time":8,"i_lat":-6.217455,"station_name":"Klenderbaru"},{"line":1,"station_name":"Buaran","is_transit":false,"time":1,"i_long":106.922662,"station_id":"BUA","distance":1305,"transit":false,"i_lat":-6.215568},{"time":2,"distance":3100,"station_id":"KLD","transit":false,"i_long":106.899548,"is_transit":false,"i_lat":-6.2135,"station_name":"Klender","line":1},{"station_name":"Jatinegara","i_lat":-6.215091,"time":3,"transit":true,"line":1,"station_id":"JNG","is_transit":true,"i_long":106.86807400000001,"distance":3395},{"is_transit":false,"time":2,"station_id":"POK","i_lat":-6.209188,"i_long":106.861737,"distance":1236,"line":11,"transit":false,"station_name":"Pondok Jati"},{"is_transit":false,"i_lat":-6.193792,"distance":1829,"time":2,"station_id":"KMT","station_name":"Kramat","i_long":106.855437,"line":11,"transit":false},{"station_name":"Gang Sentiong","station_id":"GST","transit":false,"is_transit":false,"time":1,"i_lat":-6.185975,"i_long":106.850107,"distance":973,"line":11},{"i_lat":-6.174784,"transit":false,"station_id":"PSE","time":8,"is_transit":false,"station_name":"Pasar Senen","distance":1567,"line":11,"i_long":106.84368},{"station_id":"KMO","station_name":"Kemayoran","i_lat":-6.161728,"transit":false,"is_transit":false,"i_long":106.839204,"time":4,"line":11,"distance":1436},{"line":11,"i_lat":-6.14505,"station_name":"Rajawali","station_id":"RJW","transit":false,"time":5,"distance":1901,"is_transit":false,"i_long":106.836569},{"time":3,"is_transit":true,"i_lat":-6.132549,"i_long":106.826365,"station_id":"KPB","distance":1444,"station_name":"Kampung Bandan","transit":true,"line":4},{"distance":4102,"is_transit":false,"transit":false,"i_lat":-6.144674,"i_long":106.79867,"line":1,"time":9,"station_id":"AK","station_name":"Angke"},{"i_long":106.800832,"station_id":"DU","time":4,"distance":1230,"line":1,"transit":false,"is_transit":false,"station_name":"Duri","i_lat":-6.155215},{"is_transit":true,"time":8,"station_name":"Tanah Abang","distance":3632,"i_lat":-6.185545,"station_id":"THB","i_long":106.811091,"line":1,"transit":true},{"station_name":"Palmerah","i_lat":-6.207404,"is_transit":false,"line":6,"station_id":"PLM","distance":3191,"i_long":106.79689,"transit":false,"time":6},{"line":6,"i_lat":-6.237242,"transit":false,"time":7,"i_long":106.780334,"distance":3737,"is_transit":false,"station_id":"KBY","station_name":"Kebayoran"},{"station_id":"PDJ","i_lat":-6.276362,"distance":6218,"station_name":"Pondokranji","is_transit":false,"line":6,"i_long":106.74273,"time":8,"transit":false},{"station_name":"Jurangmangu","station_id":"JMU","distance":2179,"time":3,"is_transit":false,"i_long":106.728916,"line":6,"transit":false,"i_lat":-6.288927},{"line":6,"station_id":"SDM","transit":false,"is_transit":false,"distance":1994,"i_lat":-6.296963,"time":4,"station_name":"Sudimara","i_long":106.712277},{"transit":false,"distance":4566,"i_lat":-6.314823,"station_name":"Rawa Buntu","time":6,"is_transit":false,"line":6,"i_long":106.675475,"station_id":"RU"}],[{"station_id":"CUK","station_name":"Cakung","line":1,"transit":false,"is_transit":false,"time":0,"distance":0,"i_lat":-6.219053,"i_long":106.951283},{"line":1,"i_lat":-6.217455,"station_name":"Klenderbaru","time":8,"station_id":"KLDB","distance":1385,"transit":false,"i_long":106.939679,"is_transit":false},{"line":1,"is_transit":false,"time":1,"distance":1305,"station_name":"Buaran","i_lat":-6.215568,"station_id":"BUA","transit":false,"i_long":106.922662},{"transit":false,"i_long":106.899548,"time":2,"station_name":"Klender","distance":3100,"line":1,"station_id":"KLD","i_lat":-6.2135,"is_transit":false},{"line":1,"station_id":"JNG","station_name":"Jatinegara","transit":false,"is_transit":false,"distance":3395,"i_long":106.86807400000001,"time":3,"i_lat":-6.215091},{"i_long":106.858896,"i_lat":-6.212485,"station_id":"MTR","is_transit":false,"transit":false,"time":2,"distance":1377,"station_name":"Matraman","line":1},{"station_name":"Manggarai","line":2,"distance":1275,"i_lat":-6.209883,"station_id":"MRI","time":2,"is_transit":true,"i_long":106.84912,"transit":true},{"is_transit":false,"i_long":106.840169,"distance":1590,"line":2,"station_name":"Cikini","i_lat":-6.198556,"station_id":"CKI","transit":false,"time":4},{"distance":1750,"station_id":"GDD","transit":false,"station_name":"Gondangdia","i_lat":-6.186295,"time":3,"is_transit":false,"line":2,"i_long":106.832183},{"distance":2015,"i_lat":-6.166716,"transit":false,"station_id":"JUA","i_long":106.828284,"station_name":"Juanda","line":2,"time":4,"is_transit":false},{"time":2,"i_long":106.827103,"distance":1149,"i_lat":-6.160725,"station_id":"SW","line":2,"station_name":"Sawah Besar","is_transit":false,"transit":false},{"station_id":"MGB","is_transit":false,"i_lat":-6.149769,"station_name":"Manggabesar","time":2,"i_long":106.82482,"transit":false,"distance":906,"line":2},{"is_transit":false,"i_long":106.820901,"line":2,"time":2,"transit":false,"station_name":"Jayakarta","i_lat":-6.141205,"distance":1080,"station_id":"JAY"},{"station_name":"Jakarta Kota","distance":1264,"is_transit":true,"transit":true,"time":4,"station_id":"JAKK","i_lat":-6.137569,"line":2,"i_long":106.812439},{"station_id":"KPB","line":4,"time":3,"distance":1364,"i_lat":-6.132549,"station_name":"Kampung Bandan","is_transit":true,"transit":true,"i_long":106.826365},{"distance":4102,"i_long":106.79867,"line":1,"time":9,"transit":false,"i_lat":-6.144674,"is_transit":false,"station_name":"Angke","station_id":"AK"},{"station_id":"DU","transit":false,"distance":1230,"i_long":106.800832,"is_transit":false,"line":1,"station_name":"Duri","i_lat":-6.155215,"time":4},{"transit":true,"time":8,"line":1,"station_name":"Tanah Abang","i_long":106.811091,"station_id":"THB","distance":3632,"i_lat":-6.185545,"is_transit":true},{"station_name":"Palmerah","i_long":106.79689,"is_transit":false,"distance":3191,"i_lat":-6.207404,"line":6,"transit":false,"time":6,"station_id":"PLM"},{"time":7,"transit":false,"station_name":"Kebayoran","is_transit":false,"i_lat":-6.237242,"i_long":106.780334,"station_id":"KBY","line":6,"distance":3737},{"station_name":"Pondokranji","distance":6218,"i_lat":-6.276362,"is_transit":false,"transit":false,"line":6,"time":8,"i_long":106.74273,"station_id":"PDJ"},{"station_id":"JMU","transit":false,"station_name":"Jurangmangu","i_lat":-6.288927,"i_long":106.728916,"time":3,"is_transit":false,"distance":2179,"line":6},{"is_transit":false,"line":6,"transit":false,"station_name":"Sudimara","station_id":"SDM","time":4,"i_lat":-6.296963,"distance":1994,"i_long":106.712277},{"line":6,"transit":false,"is_transit":false,"station_name":"Rawa Buntu","time":6,"i_lat":-6.314823,"station_id":"RU","i_long":106.675475,"distance":4566}],[{"distance":0,"transit":false,"station_name":"Cakung","station_id":"CUK","is_transit":false,"i_long":106.951283,"i_lat":-6.219053,"line":1,"time":0},{"is_transit":false,"transit":false,"station_name":"Klenderbaru","time":8,"i_lat":-6.217455,"station_id":"KLDB","distance":1385,"i_long":106.939679,"line":1},{"station_id":"BUA","i_long":106.922662,"line":1,"station_name":"Buaran","transit":false,"time":1,"distance":1305,"is_transit":false,"i_lat":-6.215568},{"transit":false,"time":2,"station_id":"KLD","is_transit":false,"station_name":"Klender","i_lat":-6.2135,"line":1,"distance":3100,"i_long":106.899548},{"i_long":106.86807400000001,"time":3,"station_name":"Jatinegara","line":1,"station_id":"JNG","i_lat":-6.215091,"transit":true,"is_transit":true,"distance":3395},{"station_name":"Pondok Jati","i_long":106.861737,"time":2,"station_id":"POK","is_transit":false,"distance":1236,"transit":false,"line":11,"i_lat":-6.209188},{"station_name":"Kramat","station_id":"KMT","is_transit":false,"transit":false,"distance":1829,"time":2,"i_lat":-6.193792,"line":11,"i_long":106.855437},{"station_id":"GST","i_long":106.850107,"station_name":"Gang Sentiong","is_transit":false,"transit":false,"time":1,"line":11,"i_lat":-6.185975,"distance":973},{"distance":1567,"i_lat":-6.174784,"station_name":"Pasar Senen","station_id":"PSE","i_long":106.84368,"transit":false,"line":11,"is_transit":false,"time":8},{"time":4,"i_long":106.839204,"station_name":"Kemayoran","transit":false,"is_transit":false,"distance":1436,"station_id":"KMO","i_lat":-6.161728,"line":11},{"station_name":"Rajawali","time":5,"i_long":106.836569,"station_id":"RJW","distance":1901,"line":11,"transit":false,"is_transit":false,"i_lat":-6.14505},{"transit":true,"line":4,"i_long":106.826365,"station_name":"Kampung Bandan","is_transit":true,"station_id":"KPB","distance":1444,"time":3,"i_lat":-6.132549},{"i_lat":-6.137569,"is_transit":true,"i_long":106.812439,"transit":true,"station_id":"JAKK","station_name":"Jakarta Kota","line":2,"distance":1364,"time":3},{"is_transit":false,"line":2,"distance":1264,"transit":false,"i_long":106.820901,"i_lat":-6.141205,"station_name":"Jayakarta","station_id":"JAY","time":4},{"i_lat":-6.149769,"line":2,"station_id":"MGB","distance":1080,"time":2,"is_transit":false,"station_name":"Manggabesar","i_long":106.82482,"transit":false},{"time":2,"distance":906,"i_long":106.827103,"station_id":"SW","line":2,"i_lat":-6.160725,"transit":false,"station_name":"Sawah Besar","is_transit":false},{"station_id":"JUA","time":2,"distance":1149,"i_long":106.828284,"is_transit":false,"i_lat":-6.166716,"line":2,"transit":false,"station_name":"Juanda"},{"station_name":"Gondangdia","time":4,"i_lat":-6.186295,"line":2,"is_transit":false,"i_long":106.832183,"distance":2015,"station_id":"GDD","transit":false},{"is_transit":false,"station_name":"Cikini","transit":false,"time":3,"line":2,"i_long":106.840169,"distance":1750,"station_id":"CKI","i_lat":-6.198556},{"transit":true,"is_transit":true,"time":4,"distance":1590,"i_long":106.84912,"line":2,"station_name":"Manggarai","i_lat":-6.209883,"station_id":"MRI"},{"is_transit":false,"time":4,"i_long":106.822649,"line":1,"distance":3186,"i_lat":-6.202263,"transit":false,"station_id":"SUD","station_name":"Sudirman"},{"i_lat":-6.201433,"is_transit":false,"station_id":"SUDB","distance":280,"line":1,"transit":false,"time":1,"i_long":106.819881,"station_name":"Sudirman Baru"},{"is_transit":false,"line":1,"transit":false,"station_name":"Karet","distance":471,"time":1,"i_long":106.816351,"station_id":"KAT","i_lat":-6.20132},{"i_long":106.811091,"time":5,"i_lat":-6.185545,"is_transit":true,"station_name":"Tanah Abang","station_id":"THB","distance":2029,"line":1,"transit":true},{"line":6,"station_id":"PLM","distance":3191,"i_long":106.79689,"transit":false,"station_name":"Palmerah","time":6,"is_transit":false,"i_lat":-6.207404},{"station_id":"KBY","station_name":"Kebayoran","distance":3737,"line":6,"i_long":106.780334,"transit":false,"i_lat":-6.237242,"time":7,"is_transit":false},{"transit":false,"is_transit":false,"line":6,"distance":6218,"i_lat":-6.276362,"station_id":"PDJ","time":8,"i_long":106.74273,"station_name":"Pondokranji"},{"station_name":"Jurangmangu","station_id":"JMU","i_lat":-6.288927,"is_transit":false,"distance":2179,"transit":false,"time":3,"i_long":106.728916,"line":6},{"is_transit":false,"time":4,"distance":1994,"i_long":106.712277,"transit":false,"station_name":"Sudimara","i_lat":-6.296963,"line":6,"station_id":"SDM"},{"station_name":"Rawa Buntu","station_id":"RU","time":6,"line":6,"is_transit":false,"distance":4566,"i_lat":-6.314823,"i_long":106.675475,"transit":false}]]}