{"data":[[{"station_name":"Cakung","time":0,"i_lat":-6.219053,"distance":0,"i_long":106.951283,"station_id":"CUK","is_transit":false,"line":0,"transit":false},{"time":8,"i_long":106.939679,"distance":1385,"line":1,"station_id":"KLDB","is_transit":false,"transit":false,"i_lat":-6.217455,"station_name":"Klenderbaru"},{"transit":false,"station_id":"BUA","i_long":106.922662,"i_lat":-6.215568,"time":1,"is_transit":false,"line":0,"distance":1305,"station_name":"Buaran"},{"distance":3100,"line":1,"transit":false,"i_lat":-6.2135,"station_name":"Klender","time":2,"i_long":106.899548,"is_transit":false,"station_id":"KLD"},{"distance":3395,"is_transit":true,"transit":false,"i_long":106.86807400000001,"line":0,"station_name":"Jatinegara","i_lat":-6.215091,"station_id":"JNG","time":3},{"i_long":106.858896,"line":1,"distance":1377,"station_name":"Matraman","transit":false,"station_id":"MTR","time":2,"i_lat":-6.212485,"is_transit":false},{"station_id":"MRI","time":2,"line":0,"is_transit":true,"distance":1275,"station_name":"Manggarai","transit":true,"i_lat":-6.209883,"i_long":106.84912},{"transit":false,"station_id":"TEB","line":2,"time":4,"distance":2610,"station_name":"Tebet","i_long":106.857948,"is_transit":false,"i_lat":-6.226659},{"i_lat":-6.242512,"i_long":106.856607,"transit":false,"time":2,"station_id":"CW","is_transit":false,"distance":1230,"station_name":"Cawang","line":0},{"station_name":"Duren Kalibata","time":3,"line":0,"transit":false,"is_transit":false,"i_lat":-6.255332,"station_id":"DRN","i_long":106.85449,"distance":1546},{"station_name":"Pasar Minggu Baru","i_lat":-6.263214,"i_long":106.851577,"distance":824,"time":2,"is_transit":false,"transit":false,"station_id":"PSMB","line":2},{"i_lat":-6.2842400000000005,"line":2,"transit":false,"i_long":106.843999,"distance":2380,"station_name":"Pasar Minggu","station_id":"PSM","time":2,"is_transit":false},{"time":4,"distance":2820,"i_long":106.838896,"line":2,"station_id":"TNT","i_lat":-6.3080680000000005,"is_transit":false,"transit":false,"station_name":"Tanjung Barat"},{"distance":2671,"i_lat":-6.330363,"transit":false,"station_id":"LNA","is_transit":false,"line":2,"i_long":106.832616,"station_name":"Lenteng Agung","time":3},{"distance":1029,"i_long":106.834175,"station_id":"UP","is_transit":false,"time":2,"line":2,"station_name":"Univ. Pancasila","transit":false,"i_lat":-6.339291},{"station_id":"UI","distance":2264,"is_transit":false,"time":3,"i_lat":-6.360749,"i_long":106.831474,"station_name":"Univ. Indonesia","transit":false,"line":2},{"i_lat":-6.369073,"i_long":106.831114,"is_transit":false,"line":2,"station_id":"POC","time":2,"distance":1109,"station_name":"Pondok Cina","transit":false},{"is_transit":false,"distance":2727,"station_id":"DPB","station_name":"Depokbaru","transit":false,"i_lat":-6.391065,"i_long":106.819451,"line":0,"time":4},{"line":0,"station_id":"DP","i_long":106.816926,"distance":1584,"station_name":"Depok","is_transit":false,"transit":false,"time":3,"i_lat":-6.405256},{"transit":false,"line":1,"station_name":"Citayam","station_id":"CTA","time":6,"distance":5084,"i_long":106.800298,"is_transit":true,"i_lat":-6.448811},{"station_name":"Bojonggede","distance":5197,"transit":false,"station_id":"BJD","time":5,"i_long":106.792719,"is_transit":false,"i_lat":-6.493243,"line":0},{"i_lat":-6.530544,"time":5,"is_transit":false,"distance":4331,"station_name":"Cilebut","i_long":106.800016,"line":0,"station_id":"CLT","transit":false},{"time":9,"line":1,"i_lat":-6.594596,"distance":7514,"is_transit":true,"transit":false,"station_id":"BOO","i_long":106.790574,"station_name":"Bogor"}],[{"station_id":"CUK","transit":false,"is_transit":false,"i_lat":-6.219053,"time":0,"line":0,"i_long":106.951283,"station_name":"Cakung","distance":0},{"transit":false,"is_transit":false,"time":8,"i_lat":-6.217455,"station_name":"Klenderbaru","line":1,"station_id":"KLDB","i_long":106.939679,"distance":1385},{"distance":1305,"station_name":"Buaran","time":1,"i_lat":-6.215568,"is_transit":false,"line":0,"station_id":"BUA","transit":false,"i_long":106.922662},{"is_transit":false,"station_id":"KLD","transit":false,"station_name":"Klender","i_lat":-6.2135,"line":1,"time":2,"i_long":106.899548,"distance":3100},{"distance":3395,"station_name":"Jatinegara","is_transit":true,"i_lat":-6.215091,"time":3,"station_id":"JNG","transit":true,"i_long":106.86807400000001,"line":0},{"is_transit":false,"line":11,"i_lat":-6.209188,"transit":false,"station_name":"Pondok Jati","time":2,"station_id":"POK","i_long":106.861737,"distance":1236},{"station_id":"KMT","distance":1829,"i_lat":-6.193792,"line":11,"i_long":106.855437,"time":2,"is_transit":false,"station_name":"Kramat","transit":false},{"station_name":"Gang Sentiong","station_id":"GST","line":11,"i_long":106.850107,"distance":973,"i_lat":-6.185975,"time":1,"is_transit":false,"transit":false},{"station_id":"PSE","distance":1567,"station_name":"Pasar Senen","is_transit":false,"time":8,"i_long":106.84368,"transit":false,"i_lat":-6.174784,"line":11},{"station_id":"KMO","station_name":"Kemayoran","is_transit":false,"i_long":106.839204,"i_lat":-6.161728,"distance":1436,"time":4,"transit":false,"line":11},{"is_transit":false,"time":5,"distance":1901,"transit":false,"i_long":106.836569,"i_lat":-6.14505,"station_name":"Rajawali","station_id":"RJW","line":11},{"line":0,"distance":1444,"i_lat":-6.132549,"i_long":106.826365,"station_name":"Kampung Bandan","station_id":"KPB","is_transit":true,"time":3,"transit":true},{"i_lat":-6.144674,"distance":4102,"station_name":"Angke","is_transit":false,"line":0,"i_long":106.79867,"transit":false,"station_id":"AK","time":9},{"line":1,"is_transit":true,"time":4,"station_name":"Duri","distance":1230,"station_id":"DU","transit":true,"i_lat":-6.155215,"i_long":106.800832},{"time":8,"i_long":106.811091,"station_name":"Tanah Abang","transit":false,"i_lat":-6.185545,"is_transit":true,"distance":3632,"station_id":"THB","line":1},{"time":5,"transit":false,"i_long":106.816351,"line":1,"distance":2029,"station_name":"Karet","is_transit":false,"i_lat":-6.20132,"station_id":"KAT"},{"transit":false,"is_transit":false,"station_id":"SUDB","time":1,"i_long":106.819881,"i_lat":-6.201433,"line":1,"distance":471,"station_name":"Sudirman Baru"},{"station_id":"SUD","i_lat":-6.202263,"transit":false,"distance":280,"is_transit":false,"time":1,"line":1,"i_long":106.822649,"station_name":"Sudirman"},{"time":4,"distance":3186,"station_id":"MRI","station_name":"Manggarai","is_transit":true,"i_long":106.84912,"i_lat":-6.209883,"transit":true,"line":0},{"distance":2610,"line":2,"station_id":"TEB","i_lat":-6.226659,"i_long":106.857948,"transit":false,"time":4,"station_name":"Tebet","is_transit":false},{"transit":false,"station_name":"Cawang","is_transit":false,"distance":1230,"line":0,"station_id":"CW","i_lat":-6.242512,"time":2,"i_long":106.856607},{"i_lat":-6.255332,"distance":1546,"station_id":"DRN","time":3,"is_transit":false,"transit":false,"station_name":"Duren Kalibata","line":0,"i_long":106.85449},{"station_id":"PSMB","line":2,"i_lat":-6.263214,"distance":824,"transit":false,"station_name":"Pasar Minggu Baru","is_transit":false,"i_long":106.851577,"time":2},{"station_name":"Pasar Minggu","distance":2380,"is_transit":false,"i_lat":-6.2842400000000005,"transit":false,"station_id":"PSM","line":2,"time":2,"i_long":106.843999},{"distance":2820,"is_transit":false,"station_id":"TNT","transit":false,"time":4,"line":2,"i_lat":-6.3080680000000005,"station_name":"Tanjung Barat","i_long":106.838896},{"transit":false,"time":3,"station_id":"LNA","station_name":"Lenteng Agung","i_lat":-6.330363,"line":2,"distance":2671,"is_transit":false,"i_long":106.832616},{"station_id":"UP","is_transit":false,"time":2,"i_long":106.834175,"distance":1029,"transit":false,"station_name":"Univ. Pancasila","i_lat":-6.339291,"line":2},{"i_long":106.831474,"distance":2264,"transit":false,"i_lat":-6.360749,"line":2,"station_name":"Univ. Indonesia","is_transit":false,"station_id":"UI","time":3},{"transit":false,"time":2,"i_lat":-6.369073,"line":2,"is_transit":false,"i_long":106.831114,"station_name":"Pondok Cina","station_id":"POC","distance":1109},{"station_name":"Depokbaru","i_long":106.819451,"transit":false,"is_transit":false,"line":0,"i_lat":-6.391065,"time":4,"distance":2727,"station_id":"DPB"},{"i_long":106.816926,"line":0,"distance":1584,"is_transit":false,"transit":false,"i_lat":-6.405256,"station_id":"DP","station_name":"Depok","time":3},{"i_lat":-6.448811,"distance":5084,"is_transit":true,"time":6,"i_long":106.800298,"line":1,"transit":false,"station_id":"CTA","station_name":"Citayam"},{"line":0,"i_lat":-6.493243,"i_long":106.792719,"distance":5197,"is_transit":false,"transit":false,"time":5,"station_id":"BJD","station_name":"Bojonggede"},{"station_id":"CLT","station_name":"Cilebut","i_lat":-6.530544,"transit":false,"distance":4331,"time":5,"i_long":106.800016,"is_transit":false,"line":0},{"station_id":"BOO","station_name":"Bogor","transit":false,"is_transit":true,"distance":7514,"time":9,"i_lat":-6.594596,"i_long":106.790574,"line":1}],[{"i_long":106.951283,"line":0,"station_id":"CUK","distance":0,"i_lat":-6.219053,"is_transit":false,"station_name":"Cakung","time":0,"transit":false},{"i_long":106.939679,"is_transit":false,"i_lat":-6.217455,"distance":1385,"station_name":"Klenderbaru","transit":false,"time":8,"line":1,"station_id":"KLDB"},{"i_lat":-6.215568,"distance":1305,"i_long":106.922662,"station_name":"Buaran","line":0,"time":1,"transit":false,"is_transit":false,"station_id":"BUA"},{"station_name":"Klender","distance":3100,"transit":false,"line":1,"i_lat":-6.2135,"time":2,"i_long":106.899548,"is_transit":false,"station_id":"KLD"},{"time":3,"station_name":"Jatinegara","transit":true,"is_transit":true,"i_lat":-6.215091,"i_long":106.86807400000001,"line":0,"distance":3395,"station_id":"JNG"},{"station_id":"POK","time":2,"station_name":"Pondok Jati","i_lat":-6.209188,"transit":false,"is_transit":false,"i_long":106.861737,"distance":1236,"line":11},{"is_transit":false,"transit":false,"distance":1829,"time":2,"station_name":"Kramat","station_id":"KMT","i_long":106.855437,"line":11,"i_lat":-6.193792},{"station_name":"Gang Sentiong","transit":false,"is_transit":false,"i_lat":-6.185975,"i_long":106.850107,"time":1,"distance":973,"line":11,"station_id":"GST"},{"is_transit":false,"time":8,"distance":1567,"station_name":"Pasar Senen","transit":false,"i_lat":-6.174784,"station_id":"PSE","i_long":106.84368,"line":11},{"i_lat":-6.161728,"is_transit":false,"line":11,"station_name":"Kemayoran","distance":1436,"station_id":"KMO","time":4,"transit":false,"i_long":106.839204},{"distance":1901,"station_name":"Rajawali","is_transit":false,"i_long":106.836569,"line":11,"transit":false,"time":5,"i_lat":-6.14505,"station_id":"RJW"},{"line":0,"station_name":"Kampung Bandan","transit":true,"station_id":"KPB","i_long":106.826365,"i_lat":-6.132549,"is_transit":true,"distance":1444,"time":3},{"line":0,"distance":1364,"i_lat":-6.137569,"is_transit":true,"transit":true,"time":3,"station_id":"JAKK","i_long":106.812439,"station_name":"Jakarta Kota"},{"line":7,"transit":false,"station_name":"Jayakarta","station_id":"JAY","i_lat":-6.141205,"time":4,"is_transit":false,"distance":1264,"i_long":106.820901},{"i_lat":-6.149769,"i_long":106.82482,"transit":false,"station_name":"Manggabesar","is_transit":false,"time":2,"line":2,"distance":1080,"station_id":"MGB"},{"line":2,"is_transit":false,"time":2,"i_long":106.827103,"transit":false,"i_lat":-6.160725,"station_name":"Sawah Besar","station_id":"SW","distance":906},{"station_name":"Juanda","distance":1149,"i_long":106.828284,"station_id":"JUA","is_transit":false,"i_lat":-6.166716,"transit":false,"time":2,"line":2},{"time":4,"i_lat":-6.186295,"station_id":"GDD","distance":2015,"i_long":106.832183,"transit":false,"line":2,"station_name":"Gondangdia","is_transit":false},{"time":3,"station_id":"CKI","distance":1750,"i_long":106.840169,"station_name":"Cikini","i_lat":-6.198556,"transit":false,"line":0,"is_transit":false},{"line":0,"station_name":"Manggarai","transit":true,"i_lat":-6.209883,"distance":1590,"station_id":"MRI","is_transit":true,"time":4,"i_long":106.84912},{"transit":false,"station_name":"Tebet","is_transit":false,"distance":2610,"time":4,"station_id":"TEB","line":2,"i_lat":-6.226659,"i_long":106.857948},{"is_transit":false,"station_id":"CW","distance":1230,"time":2,"line":0,"station_name":"Cawang","i_lat":-6.242512,"transit":false,"i_long":106.856607},{"i_long":106.85449,"line":0,"station_id":"DRN","is_transit":false,"distance":1546,"station_name":"Duren Kalibata","i_lat":-6.255332,"time":3,"transit":false},{"line":2,"is_transit":false,"i_lat":-6.263214,"i_long":106.851577,"station_name":"Pasar Minggu Baru","distance":824,"station_id":"PSMB","transit":false,"time":2},{"transit":false,"i_long":106.843999,"station_id":"PSM","station_name":"Pasar Minggu","time":2,"i_lat":-6.2842400000000005,"distance":2380,"line":2,"is_transit":false},{"i_long":106.838896,"distance":2820,"transit":false,"i_lat":-6.3080680000000005,"line":2,"station_name":"Tanjung Barat","station_id":"TNT","is_transit":false,"time":4},{"i_long":106.832616,"line":2,"station_id":"LNA","station_name":"Lenteng Agung","is_transit":false,"distance":2671,"transit":false,"i_lat":-6.330363,"time":3},{"transit":false,"station_id":"UP","i_lat":-6.339291,"line":2,"is_transit":false,"distance":1029,"station_name":"Univ. Pancasila","i_long":106.834175,"time":2},{"station_name":"Univ. Indonesia","station_id":"UI","is_transit":false,"distance":2264,"i_lat":-6.360749,"line":2,"transit":false,"time":3,"i_long":106.831474},{"station_name":"Pondok Cina","i_lat":-6.369073,"distance":1109,"transit":false,"time":2,"i_long":106.831114,"is_transit":false,"station_id":"POC","line":2},{"time":4,"i_lat":-6.391065,"station_name":"Depokbaru","transit":false,"line":0,"is_transit":false,"distance":2727,"i_long":106.819451,"station_id":"DPB"},{"distance":1584,"i_lat":-6.405256,"station_id":"DP","transit":false,"is_transit":false,"time":3,"i_long":106.816926,"line":0,"station_name":"Depok"},{"i_long":106.800298,"transit":false,"i_lat":-6.448811,"station_name":"Citayam","station_id":"CTA","line":1,"distance":5084,"is_transit":true,"time":6},{"station_name":"Bojonggede","station_id":"BJD","transit":false,"distance":5197,"time":5,"line":0,"i_long":106.792719,"i_lat":-6.493243,"is_transit":false},{"line":0,"station_id":"CLT","station_name":"Cilebut","is_transit":false,"i_lat":-6.530544,"time":5,"i_long":106.800016,"distance":4331,"transit":false},{"transit":false,"station_name":"Bogor","station_id":"BOO","is_transit":true,"line":1,"i_lat":-6.594596,"i_long":106.790574,"distance":7514,"time":9}]]}