{"data":[[{"station_id":"CUK","transit":false,"i_long":106.951283,"line":1,"time":0,"is_transit":false,"i_lat":-6.219053,"distance":0,"station_name":"Cakung"},{"distance":1385,"line":1,"is_transit":false,"transit":false,"time":8,"i_lat":-6.217455,"i_long":106.939679,"station_name":"Klenderbaru","station_id":"KLDB"},{"station_id":"BUA","line":1,"station_name":"Buaran","i_lat":-6.215568,"distance":1305,"is_transit":false,"time":1,"transit":false,"i_long":106.922662},{"i_lat":-6.2135,"time":2,"transit":false,"station_name":"Klender","distance":3100,"i_long":106.899548,"is_transit":false,"line":1,"station_id":"KLD"},{"i_lat":-6.215091,"i_long":106.86807400000001,"transit":false,"time":3,"distance":3395,"station_name":"Jatinegara","station_id":"JNG","is_transit":false,"line":1},{"transit":false,"distance":1377,"station_id":"MTR","station_name":"Matraman","i_long":106.858896,"i_lat":-6.212485,"time":2,"line":1,"is_transit":false},{"station_id":"MRI","i_lat":-6.209883,"station_name":"Manggarai","i_long":106.84912,"transit":false,"is_transit":false,"line":2,"time":2,"distance":1275},{"i_long":106.822649,"station_id":"SUD","time":4,"transit":false,"is_transit":false,"line":1,"i_lat":-6.202263,"distance":3186,"station_name":"Sudirman"},{"station_name":"Sudirman Baru","distance":280,"transit":false,"time":1,"line":1,"i_lat":-6.201433,"station_id":"SUDB","i_long":106.819881,"is_transit":false},{"station_id":"KAT","is_transit":false,"time":1,"distance":471,"transit":false,"i_long":106.816351,"station_name":"Karet","i_lat":-6.20132,"line":1},{"is_transit":true,"station_name":"Tanah Abang","time":5,"line":1,"distance":2029,"i_long":106.811091,"transit":true,"station_id":"THB","i_lat":-6.185545},{"is_transit":false,"transit":false,"line":6,"time":6,"i_long":106.79689,"distance":3191,"i_lat":-6.207404,"station_name":"Palmerah","station_id":"PLM"},{"i_lat":-6.237242,"station_name":"Kebayoran","station_id":"KBY","is_transit":false,"line":6,"i_long":106.780334,"time":7,"distance":3737,"transit":false},{"time":8,"i_long":106.74273,"transit":false,"station_name":"Pondokranji","station_id":"PDJ","distance":6218,"line":6,"i_lat":-6.276362,"is_transit":false},{"i_lat":-6.288927,"line":6,"transit":false,"time":3,"station_name":"Jurangmangu","station_id":"JMU","i_long":106.728916,"is_transit":false,"distance":2179},{"time":4,"distance":1994,"is_transit":false,"i_long":106.712277,"i_lat":-6.296963,"station_id":"SDM","station_name":"Sudimara","transit":false,"line":6},{"i_lat":-6.314823,"line":6,"station_name":"Rawa Buntu","station_id":"RU","i_long":106.675475,"transit":false,"time":6,"distance":4566,"is_transit":false},{"station_name":"Serpong","transit":false,"i_lat":-6.319871,"i_long":106.66566,"line":6,"time":4,"distance":2413,"is_transit":false,"station_id":"SRP"},{"line":3,"i_long":106.640411,"i_lat":-6.32484,"is_transit":false,"station_id":"CSK","transit":false,"station_name":"Cisauk","distance":1784,"time":4},{"i_lat":-6.329547,"transit":false,"is_transit":false,"station_name":"Cicayur","station_id":"CC","line":3,"distance":2519,"time":4,"i_long":106.617853},{"transit":false,"i_long":106.568863,"distance":5968,"i_lat":-6.3441410000000005,"station_id":"PRP","time":8,"is_transit":false,"station_name":"Parung Panjang","line":6},{"line":3,"i_long":106.508482,"distance":7025,"station_name":"Cilejit","i_lat":-6.354349,"station_id":"CJT","transit":false,"is_transit":false,"time":9},{"station_id":"DAR","line":0,"i_long":106.491338,"is_transit":false,"time":6,"transit":false,"distance":2675,"i_lat":-6.338021,"station_name":"Daru"},{"time":5,"station_name":"Tenjo","distance":3902,"i_lat":-6.327251,"i_long":106.460812,"is_transit":false,"line":6,"transit":false,"station_id":"TEJ"},{"distance":2974,"is_transit":false,"station_name":"Tigaraksa","i_lat":-6.328533,"i_long":106.425991,"station_id":"TGS","time":5,"line":6,"transit":false}],[{"transit":false,"station_name":"Cakung","is_transit":false,"i_long":106.951283,"time":0,"i_lat":-6.219053,"line":1,"station_id":"CUK","distance":0},{"i_long":106.939679,"station_name":"Klenderbaru","i_lat":-6.217455,"distance":1385,"line":1,"time":8,"station_id":"KLDB","is_transit":false,"transit":false},{"station_id":"BUA","transit":false,"time":1,"is_transit":false,"station_name":"Buaran","distance":1305,"i_lat":-6.215568,"i_long":106.922662,"line":1},{"i_lat":-6.2135,"distance":3100,"i_long":106.899548,"transit":false,"is_transit":false,"station_id":"KLD","line":1,"time":2,"station_name":"Klender"},{"distance":3395,"time":3,"i_long":106.86807400000001,"station_name":"Jatinegara","line":1,"station_id":"JNG","i_lat":-6.215091,"transit":true,"is_transit":true},{"i_long":106.861737,"distance":1236,"line":11,"time":2,"transit":false,"is_transit":false,"station_id":"POK","station_name":"Pondok Jati","i_lat":-6.209188},{"time":2,"i_lat":-6.193792,"transit":false,"station_name":"Kramat","distance":1829,"i_long":106.855437,"station_id":"KMT","is_transit":false,"line":11},{"line":11,"transit":false,"is_transit":false,"i_lat":-6.185975,"station_id":"GST","station_name":"Gang Sentiong","time":1,"distance":973,"i_long":106.850107},{"i_lat":-6.174784,"time":8,"is_transit":false,"station_id":"PSE","transit":false,"station_name":"Pasar Senen","distance":1567,"i_long":106.84368,"line":11},{"station_id":"KMO","i_lat":-6.161728,"station_name":"Kemayoran","i_long":106.839204,"distance":1436,"time":4,"transit":false,"is_transit":false,"line":11},{"transit":false,"station_name":"Rajawali","time":5,"is_transit":false,"distance":1901,"i_long":106.836569,"station_id":"RJW","i_lat":-6.14505,"line":11},{"i_long":106.826365,"line":4,"i_lat":-6.132549,"station_id":"KPB","station_name":"Kampung Bandan","transit":true,"time":3,"is_transit":true,"distance":1444},{"station_name":"Angke","i_lat":-6.144674,"line":1,"transit":false,"distance":4102,"time":9,"station_id":"AK","is_transit":false,"i_long":106.79867},{"distance":1230,"station_id":"DU","i_long":106.800832,"i_lat":-6.155215,"station_name":"Duri","time":4,"transit":false,"line":1,"is_transit":false},{"time":8,"station_id":"THB","i_long":106.811091,"station_name":"Tanah Abang","transit":true,"distance":3632,"is_transit":true,"i_lat":-6.185545,"line":1},{"distance":3191,"station_id":"PLM","i_long":106.79689,"i_lat":-6.207404,"line":6,"station_name":"Palmerah","is_transit":false,"time":6,"transit":false},{"transit":false,"station_name":"Kebayoran","distance":3737,"i_lat":-6.237242,"i_long":106.780334,"station_id":"KBY","time":7,"is_transit":false,"line":6},{"line":6,"i_long":106.74273,"is_transit":false,"i_lat":-6.276362,"station_name":"Pondokranji","transit":false,"distance":6218,"time":8,"station_id":"PDJ"},{"station_id":"JMU","line":6,"is_transit":false,"transit":false,"i_long":106.728916,"i_lat":-6.288927,"time":3,"station_name":"Jurangmangu","distance":2179},{"station_name":"Sudimara","station_id":"SDM","transit":false,"distance":1994,"i_lat":-6.296963,"line":6,"is_transit":false,"time":4,"i_long":106.712277},{"distance":4566,"station_id":"RU","i_lat":-6.314823,"is_transit":false,"transit":false,"station_name":"Rawa Buntu","line":6,"time":6,"i_long":106.675475},{"transit":false,"i_lat":-6.319871,"distance":2413,"i_long":106.66566,"is_transit":false,"station_id":"SRP","time":4,"line":6,"station_name":"Serpong"},{"time":4,"distance":1784,"station_id":"CSK","transit":false,"is_transit":false,"station_name":"Cisauk","i_long":106.640411,"i_lat":-6.32484,"line":3},{"line":3,"distance":2519,"i_lat":-6.329547,"transit":false,"i_long":106.617853,"station_id":"CC","station_name":"Cicayur","is_transit":false,"time":4},{"distance":5968,"station_id":"PRP","is_transit":false,"i_lat":-6.3441410000000005,"transit":false,"i_long":106.568863,"line":6,"station_name":"Parung Panjang","time":8},{"station_id":"CJT","station_name":"Cilejit","i_lat":-6.354349,"i_long":106.508482,"time":9,"transit":false,"line":3,"is_transit":false,"distance":7025},{"is_transit":false,"distance":2675,"time":6,"station_id":"DAR","i_lat":-6.338021,"i_long":106.491338,"station_name":"Daru","transit":false,"line":0},{"station_name":"Tenjo","line":6,"transit":false,"time":5,"distance":3902,"station_id":"TEJ","i_lat":-6.327251,"i_long":106.460812,"is_transit":false},{"station_id":"TGS","station_name":"Tigaraksa","i_lat":-6.328533,"line":6,"transit":false,"distance":2974,"time":5,"is_transit":false,"i_long":106.425991}],[{"time":0,"i_lat":-6.219053,"distance":0,"is_transit":false,"transit":false,"station_name":"Cakung","station_id":"CUK","i_long":106.951283,"line":1},{"i_long":106.939679,"line":1,"is_transit":false,"distance":1385,"i_lat":-6.217455,"time":8,"transit":false,"station_name":"Klenderbaru","station_id":"KLDB"},{"distance":1305,"i_lat":-6.215568,"station_name":"Buaran","i_long":106.922662,"is_transit":false,"station_id":"BUA","line":1,"time":1,"transit":false},{"station_name":"Klender","i_lat":-6.2135,"distance":3100,"station_id":"KLD","transit":false,"line":1,"time":2,"is_transit":false,"i_long":106.899548},{"transit":false,"time":3,"is_transit":false,"i_lat":-6.215091,"line":1,"station_id":"JNG","i_long":106.86807400000001,"station_name":"Jatinegara","distance":3395},{"is_transit":false,"time":2,"distance":1377,"station_name":"Matraman","i_lat":-6.212485,"line":1,"station_id":"MTR","transit":false,"i_long":106.858896},{"time":2,"i_long":106.84912,"transit":true,"is_transit":true,"station_name":"Manggarai","station_id":"MRI","i_lat":-6.209883,"distance":1275,"line":2},{"transit":false,"i_lat":-6.198556,"is_transit":false,"time":4,"station_name":"Cikini","distance":1590,"station_id":"CKI","line":2,"i_long":106.840169},{"time":3,"is_transit":false,"transit":false,"distance":1750,"station_id":"GDD","station_name":"Gondangdia","i_lat":-6.186295,"i_long":106.832183,"line":2},{"i_long":106.828284,"station_id":"JUA","i_lat":-6.166716,"transit":false,"time":4,"is_transit":false,"station_name":"Juanda","distance":2015,"line":2},{"is_transit":false,"time":2,"station_name":"Sawah Besar","i_lat":-6.160725,"i_long":106.827103,"transit":false,"distance":1149,"station_id":"SW","line":2},{"distance":906,"i_lat":-6.149769,"i_long":106.82482,"line":2,"is_transit":false,"time":2,"station_id":"MGB","station_name":"Manggabesar","transit":false},{"i_long":106.820901,"i_lat":-6.141205,"is_transit":false,"time":2,"station_name":"Jayakarta","distance":1080,"station_id":"JAY","transit":false,"line":2},{"transit":true,"distance":1264,"is_transit":true,"time":4,"i_lat":-6.137569,"i_long":106.812439,"station_name":"Jakarta Kota","station_id":"JAKK","line":2},{"transit":true,"time":3,"line":4,"i_lat":-6.132549,"distance":1364,"is_transit":true,"station_id":"KPB","i_long":106.826365,"station_name":"Kampung Bandan"},{"time":9,"station_id":"AK","i_lat":-6.144674,"is_transit":false,"i_long":106.79867,"line":1,"station_name":"Angke","distance":4102,"transit":false},{"station_id":"DU","i_lat":-6.155215,"transit":false,"is_transit":false,"distance":1230,"i_long":106.800832,"station_name":"Duri","time":4,"line":1},{"transit":true,"time":8,"is_transit":true,"i_lat":-6.185545,"station_id":"THB","i_long":106.811091,"station_name":"Tanah Abang","line":1,"distance":3632},{"station_id":"PLM","i_lat":-6.207404,"transit":false,"is_transit":false,"distance":3191,"time":6,"i_long":106.79689,"line":6,"station_name":"Palmerah"},{"station_name":"Kebayoran","line":6,"is_transit":false,"transit":false,"station_id":"KBY","time":7,"i_lat":-6.237242,"i_long":106.780334,"distance":3737},{"line":6,"distance":6218,"is_transit":false,"station_id":"PDJ","station_name":"Pondokranji","transit":false,"i_lat":-6.276362,"time":8,"i_long":106.74273},{"distance":2179,"station_name":"Jurangmangu","is_transit":false,"station_id":"JMU","line":6,"i_lat":-6.288927,"transit":false,"time":3,"i_long":106.728916},{"distance":1994,"line":6,"transit":false,"time":4,"is_transit":false,"station_id":"SDM","i_lat":-6.296963,"i_long":106.712277,"station_name":"Sudimara"},{"is_transit":false,"transit":false,"i_lat":-6.314823,"station_name":"Rawa Buntu","station_id":"RU","i_long":106.675475,"distance":4566,"time":6,"line":6},{"is_transit":false,"station_id":"SRP","i_lat":-6.319871,"transit":false,"distance":2413,"i_long":106.66566,"station_name":"Serpong","line":6,"time":4},{"is_transit":false,"time":4,"transit":false,"distance":1784,"station_id":"CSK","i_long":106.640411,"station_name":"Cisauk","line":3,"i_lat":-6.32484},{"is_transit":false,"time":4,"station_name":"Cicayur","i_lat":-6.329547,"i_long":106.617853,"distance":2519,"line":3,"transit":false,"station_id":"CC"},{"is_transit":false,"i_lat":-6.3441410000000005,"station_id":"PRP","line":6,"station_name":"Parung Panjang","i_long":106.568863,"distance":5968,"transit":false,"time":8},{"distance":7025,"station_name":"Cilejit","i_long":106.508482,"time":9,"station_id":"CJT","transit":false,"is_transit":false,"i_lat":-6.354349,"line":3},{"time":6,"distance":2675,"i_lat":-6.338021,"line":0,"transit":false,"is_transit":false,"station_name":"Daru","i_long":106.491338,"station_id":"DAR"},{"i_long":106.460812,"transit":false,"is_transit":false,"station_name":"Tenjo","station_id":"TEJ","distance":3902,"i_lat":-6.327251,"line":6,"time":5},{"i_lat":-6.328533,"transit":false,"distance":2974,"station_name":"Tigaraksa","is_transit":false,"time":5,"station_id":"TGS","line":6,"i_long":106.425991}],[{"is_transit":false,"i_lat":-6.219053,"distance":0,"station_id":"CUK","line":1,"station_name":"Cakung","i_long":106.951283,"transit":false,"time":0},{"station_name":"Klenderbaru","station_id":"KLDB","i_lat":-6.217455,"i_long":106.939679,"transit":false,"line":1,"distance":1385,"time":8,"is_transit":false},{"time":1,"is_transit":false,"station_name":"Buaran","distance":1305,"i_lat":-6.215568,"i_long":106.922662,"transit":false,"station_id":"BUA","line":1},{"station_name":"Klender","distance":3100,"line":1,"i_long":106.899548,"is_transit":false,"transit":false,"i_lat":-6.2135,"time":2,"station_id":"KLD"},{"line":1,"is_transit":true,"transit":true,"i_long":106.86807400000001,"time":3,"i_lat":-6.215091,"station_name":"Jatinegara","station_id":"JNG","distance":3395},{"i_lat":-6.209188,"transit":false,"distance":1236,"station_id":"POK","line":11,"station_name":"Pondok Jati","i_long":106.861737,"time":2,"is_transit":false},{"is_transit":false,"i_long":106.855437,"distance":1829,"line":11,"station_name":"Kramat","time":2,"station_id":"KMT","i_lat":-6.193792,"transit":false},{"distance":973,"station_id":"GST","transit":false,"time":1,"i_lat":-6.185975,"station_name":"Gang Sentiong","i_long":106.850107,"is_transit":false,"line":11},{"is_transit":false,"station_name":"Pasar Senen","station_id":"PSE","i_lat":-6.174784,"time":8,"line":11,"distance":1567,"transit":false,"i_long":106.84368},{"distance":1436,"station_name":"Kemayoran","station_id":"KMO","i_long":106.839204,"transit":false,"line":11,"i_lat":-6.161728,"time":4,"is_transit":false},{"time":5,"i_long":106.836569,"distance":1901,"transit":false,"is_transit":false,"station_name":"Rajawali","i_lat":-6.14505,"line":11,"station_id":"RJW"},{"station_name":"Kampung Bandan","station_id":"KPB","i_lat":-6.132549,"distance":1444,"i_long":106.826365,"time":3,"is_transit":true,"transit":true,"line":4},{"is_transit":true,"station_id":"JAKK","station_name":"Jakarta Kota","i_lat":-6.137569,"time":3,"distance":1364,"i_long":106.812439,"line":2,"transit":true},{"line":2,"i_long":106.820901,"station_name":"Jayakarta","is_transit":false,"time":4,"transit":false,"distance":1264,"station_id":"JAY","i_lat":-6.141205},{"transit":false,"line":2,"i_long":106.82482,"i_lat":-6.149769,"time":2,"is_transit":false,"station_name":"Manggabesar","distance":1080,"station_id":"MGB"},{"time":2,"is_transit":false,"station_id":"SW","i_long":106.827103,"line":2,"distance":906,"transit":false,"station_name":"Sawah Besar","i_lat":-6.160725},{"station_id":"JUA","i_lat":-6.166716,"line":2,"station_name":"Juanda","transit":false,"time":2,"distance":1149,"i_long":106.828284,"is_transit":false},{"distance":2015,"station_id":"GDD","line":2,"is_transit":false,"i_long":106.832183,"i_lat":-6.186295,"time":4,"transit":false,"station_name":"Gondangdia"},{"line":2,"transit":false,"distance":1750,"i_long":106.840169,"time":3,"station_id":"CKI","station_name":"Cikini","is_transit":false,"i_lat":-6.198556},{"station_id":"MRI","time":4,"transit":true,"is_transit":true,"i_lat":-6.209883,"i_long":106.84912,"distance":1590,"line":2,"station_name":"Manggarai"},{"time":4,"i_long":106.822649,"transit":false,"is_transit":false,"i_lat":-6.202263,"station_id":"SUD","distance":3186,"line":1,"station_name":"Sudirman"},{"time":1,"station_name":"Sudirman Baru","i_long":106.819881,"station_id":"SUDB","distance":280,"is_transit":false,"line":1,"transit":false,"i_lat":-6.201433},{"time":1,"line":1,"station_id":"KAT","i_lat":-6.20132,"transit":false,"i_long":106.816351,"is_transit":false,"station_name":"Karet","distance":471},{"i_long":106.811091,"is_transit":true,"station_name":"Tanah Abang","station_id":"THB","i_lat":-6.185545,"transit":true,"line":1,"time":5,"distance":2029},{"distance":3191,"station_id":"PLM","i_lat":-6.207404,"line":6,"is_transit":false,"station_name":"Palmerah","i_long":106.79689,"transit":false,"time":6},{"is_transit":false,"line":6,"time":7,"i_long":106.780334,"transit":false,"distance":3737,"station_id":"KBY","i_lat":-6.237242,"station_name":"Kebayoran"},{"i_long":106.74273,"distance":6218,"is_transit":false,"time":8,"station_id":"PDJ","station_name":"Pondokranji","i_lat":-6.276362,"transit":false,"line":6},{"line":6,"station_id":"JMU","i_lat":-6.288927,"station_name":"Jurangmangu","transit":false,"is_transit":false,"time":3,"i_long":106.728916,"distance":2179},{"i_long":106.712277,"station_name":"Sudimara","is_transit":false,"station_id":"SDM","transit":false,"i_lat":-6.296963,"distance":1994,"line":6,"time":4},{"time":6,"is_transit":false,"distance":4566,"station_id":"RU","line":6,"i_long":106.675475,"station_name":"Rawa Buntu","transit":false,"i_lat":-6.314823},{"station_name":"Serpong","station_id":"SRP","distance":2413,"line":6,"time":4,"i_lat":-6.319871,"is_transit":false,"transit":false,"i_long":106.66566},{"i_long":106.640411,"time":4,"station_id":"CSK","line":3,"i_lat":-6.32484,"transit":false,"is_transit":false,"station_name":"Cisauk","distance":1784},{"transit":false,"time":4,"i_long":106.617853,"line":3,"i_lat":-6.329547,"distance":2519,"station_id":"CC","is_transit":false,"station_name":"Cicayur"},{"transit":false,"distance":5968,"is_transit":false,"station_name":"Parung Panjang","i_lat":-6.3441410000000005,"i_long":106.568863,"time":8,"station_id":"PRP","line":6},{"station_id":"CJT","i_lat":-6.354349,"is_transit":false,"distance":7025,"time":9,"station_name":"Cilejit","i_long":106.508482,"line":3,"transit":false},{"transit":false,"is_transit":false,"time":6,"distance":2675,"i_long":106.491338,"i_lat":-6.338021,"line":0,"station_name":"Daru","station_id":"DAR"},{"distance":3902,"station_id":"TEJ","i_long":106.460812,"line":6,"time":5,"transit":false,"station_name":"Tenjo","i_lat":-6.327251,"is_transit":false},{"transit":false,"station_name":"Tigaraksa","distance":2974,"i_lat":-6.328533,"i_long":106.425991,"time":5,"line":6,"station_id":"TGS","is_transit":false}]]}