{"data":[[{"station_name":"Cakung","i_long":106.951283,"i_lat":-6.219053,"time":0,"distance":0,"line":1,"station_id":"CUK","transit":false,"is_transit":false},{"distance":1385,"station_id":"KLDB","line":1,"i_lat":-6.217455,"transit":false,"time":8,"is_transit":false,"i_long":106.939679,"station_name":"Klenderbaru"},{"is_transit":false,"station_id":"BUA","distance":1305,"i_lat":-6.215568,"line":1,"i_long":106.922662,"time":1,"transit":false,"station_name":"Buaran"},{"distance":3100,"line":1,"station_name":"Klender","i_lat":-6.2135,"i_long":106.899548,"is_transit":false,"transit":false,"station_id":"KLD","time":2},{"line":1,"time":3,"station_id":"JNG","transit":false,"distance":3395,"is_transit":false,"i_lat":-6.215091,"station_name":"Jatinegara","i_long":106.86807400000001},{"line":1,"is_transit":false,"station_id":"MTR","transit":false,"i_lat":-6.212485,"station_name":"Matraman","i_long":106.858896,"distance":1377,"time":2},{"line":2,"time":2,"is_transit":false,"i_long":106.84912,"transit":false,"station_id":"MRI","i_lat":-6.209883,"distance":1275,"station_name":"Manggarai"},{"line":1,"station_name":"Sudirman","i_lat":-6.202263,"station_id":"SUD","time":4,"transit":false,"distance":3186,"i_long":106.822649,"is_transit":false},{"i_long":106.819881,"transit":false,"station_id":"SUDB","time":1,"distance":280,"station_name":"Sudirman Baru","i_lat":-6.201433,"line":1,"is_transit":false},{"i_long":106.816351,"station_id":"KAT","time":1,"station_name":"Karet","distance":471,"line":1,"i_lat":-6.20132,"is_transit":false,"transit":false},{"station_name":"Tanah Abang","i_long":106.811091,"time":5,"station_id":"THB","transit":true,"line":1,"i_lat":-6.185545,"distance":2029,"is_transit":true},{"line":6,"transit":false,"distance":3191,"i_lat":-6.207404,"i_long":106.79689,"station_id":"PLM","is_transit":false,"time":6,"station_name":"Palmerah"},{"line":6,"transit":false,"i_long":106.780334,"distance":3737,"station_name":"Kebayoran","station_id":"KBY","time":7,"i_lat":-6.237242,"is_transit":false},{"station_name":"Pondokranji","station_id":"PDJ","i_long":106.74273,"is_transit":false,"i_lat":-6.276362,"distance":6218,"transit":false,"time":8,"line":6},{"is_transit":false,"distance":2179,"transit":false,"time":3,"i_long":106.728916,"line":6,"station_name":"Jurangmangu","station_id":"JMU","i_lat":-6.288927},{"is_transit":false,"i_long":106.712277,"distance":1994,"station_name":"Sudimara","station_id":"SDM","transit":false,"time":4,"line":6,"i_lat":-6.296963},{"line":6,"transit":false,"station_id":"RU","i_lat":-6.314823,"i_long":106.675475,"distance":4566,"station_name":"Rawa Buntu","is_transit":false,"time":6}],[{"station_name":"Cakung","is_transit":false,"i_lat":-6.219053,"i_long":106.951283,"line":1,"station_id":"CUK","time":0,"transit":false,"distance":0},{"is_transit":false,"station_id":"KLDB","i_lat":-6.217455,"time":8,"i_long":106.939679,"line":1,"distance":1385,"transit":false,"station_name":"Klenderbaru"},{"station_id":"BUA","distance":1305,"line":1,"i_lat":-6.215568,"time":1,"transit":false,"is_transit":false,"i_long":106.922662,"station_name":"Buaran"},{"station_name":"Klender","time":2,"distance":3100,"line":1,"i_lat":-6.2135,"i_long":106.899548,"transit":false,"is_transit":false,"station_id":"KLD"},{"distance":3395,"time":3,"station_name":"Jatinegara","line":1,"is_transit":true,"transit":true,"i_lat":-6.215091,"station_id":"JNG","i_long":106.86807400000001},{"line":11,"i_lat":-6.209188,"i_long":106.861737,"distance":1236,"station_id":"POK","transit":false,"station_name":"Pondok Jati","time":2,"is_transit":false},{"station_id":"KMT","line":11,"i_lat":-6.193792,"is_transit":false,"station_name":"Kramat","transit":false,"i_long":106.855437,"distance":1829,"time":2},{"line":11,"station_id":"GST","distance":973,"i_long":106.850107,"is_transit":false,"station_name":"Gang Sentiong","time":1,"transit":false,"i_lat":-6.185975},{"i_lat":-6.174784,"i_long":106.84368,"time":8,"transit":false,"is_transit":false,"distance":1567,"station_name":"Pasar Senen","station_id":"PSE","line":11},{"line":11,"is_transit":false,"time":4,"station_name":"Kemayoran","distance":1436,"station_id":"KMO","i_lat":-6.161728,"i_long":106.839204,"transit":false},{"station_id":"RJW","is_transit":false,"i_lat":-6.14505,"transit":false,"distance":1901,"station_name":"Rajawali","i_long":106.836569,"line":11,"time":5},{"station_name":"Kampung Bandan","i_lat":-6.132549,"i_long":106.826365,"station_id":"KPB","is_transit":true,"transit":true,"line":4,"distance":1444,"time":3},{"transit":false,"time":9,"distance":4102,"i_long":106.79867,"station_name":"Angke","line":1,"station_id":"AK","is_transit":false,"i_lat":-6.144674},{"station_id":"DU","distance":1230,"i_lat":-6.155215,"is_transit":false,"line":1,"station_name":"Duri","i_long":106.800832,"transit":false,"time":4},{"is_transit":true,"i_long":106.811091,"line":1,"transit":true,"station_name":"Tanah Abang","i_lat":-6.185545,"station_id":"THB","time":8,"distance":3632},{"i_lat":-6.207404,"line":6,"i_long":106.79689,"distance":3191,"station_name":"Palmerah","time":6,"transit":false,"is_transit":false,"station_id":"PLM"},{"station_name":"Kebayoran","transit":false,"is_transit":false,"distance":3737,"i_lat":-6.237242,"line":6,"time":7,"i_long":106.780334,"station_id":"KBY"},{"i_lat":-6.276362,"i_long":106.74273,"time":8,"is_transit":false,"station_id":"PDJ","transit":false,"distance":6218,"line":6,"station_name":"Pondokranji"},{"station_id":"JMU","line":6,"time":3,"is_transit":false,"distance":2179,"transit":false,"station_name":"Jurangmangu","i_long":106.728916,"i_lat":-6.288927},{"distance":1994,"is_transit":false,"line":6,"time":4,"station_name":"Sudimara","i_long":106.712277,"transit":false,"i_lat":-6.296963,"station_id":"SDM"},{"i_lat":-6.314823,"distance":4566,"time":6,"station_name":"Rawa Buntu","transit":false,"i_long":106.675475,"line":6,"station_id":"RU","is_transit":false}],[{"i_long":106.951283,"transit":false,"time":0,"line":1,"distance":0,"i_lat":-6.219053,"station_id":"CUK","is_transit":false,"station_name":"Cakung"},{"station_name":"Klenderbaru","i_long":106.939679,"station_id":"KLDB","is_transit":false,"i_lat":-6.217455,"line":1,"time":8,"transit":false,"distance":1385},{"i_long":106.922662,"time":1,"transit":false,"i_lat":-6.215568,"station_id":"BUA","line":1,"distance":1305,"is_transit":false,"station_name":"Buaran"},{"i_lat":-6.2135,"line":1,"transit":false,"station_id":"KLD","i_long":106.899548,"time":2,"is_transit":false,"distance":3100,"station_name":"Klender"},{"distance":3395,"line":1,"transit":false,"i_long":106.86807400000001,"is_transit":false,"time":3,"station_name":"Jatinegara","station_id":"JNG","i_lat":-6.215091},{"line":1,"station_name":"Matraman","distance":1377,"is_transit":false,"time":2,"i_lat":-6.212485,"station_id":"MTR","transit":false,"i_long":106.858896},{"is_transit":true,"time":2,"line":2,"distance":1275,"transit":true,"station_name":"Manggarai","i_lat":-6.209883,"i_long":106.84912,"station_id":"MRI"},{"i_long":106.840169,"distance":1590,"station_name":"Cikini","transit":false,"line":2,"station_id":"CKI","time":4,"i_lat":-6.198556,"is_transit":false},{"station_name":"Gondangdia","time":3,"is_transit":false,"distance":1750,"transit":false,"i_lat":-6.186295,"line":2,"i_long":106.832183,"station_id":"GDD"},{"i_lat":-6.166716,"is_transit":false,"i_long":106.828284,"transit":false,"line":2,"time":4,"station_id":"JUA","distance":2015,"station_name":"Juanda"},{"i_long":106.827103,"transit":false,"i_lat":-6.160725,"is_transit":false,"line":2,"time":2,"station_id":"SW","distance":1149,"station_name":"Sawah Besar"},{"station_name":"Manggabesar","time":2,"transit":false,"i_long":106.82482,"is_transit":false,"distance":906,"i_lat":-6.149769,"line":2,"station_id":"MGB"},{"i_lat":-6.141205,"i_long":106.820901,"distance":1080,"is_transit":false,"station_name":"Jayakarta","line":2,"time":2,"transit":false,"station_id":"JAY"},{"is_transit":true,"distance":1264,"station_name":"Jakarta Kota","transit":true,"i_lat":-6.137569,"station_id":"JAKK","time":4,"i_long":106.812439,"line":2},{"transit":true,"is_transit":true,"line":4,"station_id":"KPB","distance":1364,"i_lat":-6.132549,"station_name":"Kampung Bandan","time":3,"i_long":106.826365},{"station_id":"AK","station_name":"Angke","i_lat":-6.144674,"time":9,"transit":false,"i_long":106.79867,"is_transit":false,"line":1,"distance":4102},{"transit":false,"station_name":"Duri","i_long":106.800832,"station_id":"DU","line":1,"i_lat":-6.155215,"is_transit":false,"time":4,"distance":1230},{"line":1,"distance":3632,"i_long":106.811091,"is_transit":true,"transit":true,"station_name":"Tanah Abang","i_lat":-6.185545,"time":8,"station_id":"THB"},{"transit":false,"station_name":"Palmerah","is_transit":false,"time":6,"station_id":"PLM","distance":3191,"i_long":106.79689,"line":6,"i_lat":-6.207404},{"station_name":"Kebayoran","is_transit":false,"station_id":"KBY","time":7,"distance":3737,"line":6,"i_long":106.780334,"transit":false,"i_lat":-6.237242},{"station_name":"Pondokranji","line":6,"distance":6218,"time":8,"transit":false,"is_transit":false,"i_long":106.74273,"station_id":"PDJ","i_lat":-6.276362},{"i_lat":-6.288927,"station_id":"JMU","distance":2179,"transit":false,"line":6,"time":3,"station_name":"Jurangmangu","i_long":106.728916,"is_transit":false},{"is_transit":false,"transit":false,"i_lat":-6.296963,"i_long":106.712277,"line":6,"station_name":"Sudimara","distance":1994,"time":4,"station_id":"SDM"},{"i_lat":-6.314823,"time":6,"station_id":"RU","line":6,"station_name":"Rawa Buntu","transit":false,"i_long":106.675475,"distance":4566,"is_transit":false}],[{"line":1,"station_name":"Cakung","is_transit":false,"i_long":106.951283,"station_id":"CUK","i_lat":-6.219053,"time":0,"transit":false,"distance":0},{"station_id":"KLDB","line":1,"time":8,"transit":false,"i_long":106.939679,"distance":1385,"station_name":"Klenderbaru","is_transit":false,"i_lat":-6.217455},{"distance":1305,"station_name":"Buaran","i_long":106.922662,"station_id":"BUA","is_transit":false,"i_lat":-6.215568,"line":1,"transit":false,"time":1},{"line":1,"i_long":106.899548,"time":2,"i_lat":-6.2135,"station_id":"KLD","is_transit":false,"transit":false,"distance":3100,"station_name":"Klender"},{"i_long":106.86807400000001,"i_lat":-6.215091,"station_id":"JNG","time":3,"line":1,"transit":true,"is_transit":true,"distance":3395,"station_name":"Jatinegara"},{"station_name":"Pondok Jati","distance":1236,"transit":false,"station_id":"POK","time":2,"i_long":106.861737,"is_transit":false,"i_lat":-6.209188,"line":11},{"is_transit":false,"distance":1829,"i_long":106.855437,"line":11,"station_name":"Kramat","transit":false,"i_lat":-6.193792,"station_id":"KMT","time":2},{"i_long":106.850107,"time":1,"station_id":"GST","i_lat":-6.185975,"line":11,"distance":973,"transit":false,"is_transit":false,"station_name":"Gang Sentiong"},{"distance":1567,"time":8,"station_name":"Pasar Senen","transit":false,"station_id":"PSE","is_transit":false,"i_lat":-6.174784,"i_long":106.84368,"line":11},{"time":4,"is_transit":false,"distance":1436,"station_id":"KMO","i_lat":-6.161728,"i_long":106.839204,"line":11,"transit":false,"station_name":"Kemayoran"},{"distance":1901,"transit":false,"station_name":"Rajawali","line":11,"station_id":"RJW","is_transit":false,"i_lat":-6.14505,"i_long":106.836569,"time":5},{"transit":true,"i_long":106.826365,"line":4,"station_id":"KPB","time":3,"station_name":"Kampung Bandan","i_lat":-6.132549,"is_transit":true,"distance":1444},{"is_transit":true,"i_long":106.812439,"transit":true,"distance":1364,"station_name":"Jakarta Kota","i_lat":-6.137569,"line":2,"station_id":"JAKK","time":3},{"distance":1264,"time":4,"is_transit":false,"transit":false,"line":2,"i_long":106.820901,"station_name":"Jayakarta","i_lat":-6.141205,"station_id":"JAY"},{"station_id":"MGB","time":2,"transit":false,"distance":1080,"is_transit":false,"station_name":"Manggabesar","i_lat":-6.149769,"line":2,"i_long":106.82482},{"distance":906,"transit":false,"station_name":"Sawah Besar","i_lat":-6.160725,"station_id":"SW","i_long":106.827103,"line":2,"is_transit":false,"time":2},{"i_lat":-6.166716,"time":2,"transit":false,"is_transit":false,"station_name":"Juanda","station_id":"JUA","line":2,"i_long":106.828284,"distance":1149},{"transit":false,"is_transit":false,"station_id":"GDD","station_name":"Gondangdia","i_lat":-6.186295,"distance":2015,"i_long":106.832183,"time":4,"line":2},{"i_lat":-6.198556,"station_name":"Cikini","station_id":"CKI","is_transit":false,"line":2,"i_long":106.840169,"transit":false,"time":3,"distance":1750},{"time":4,"line":2,"transit":true,"i_lat":-6.209883,"i_long":106.84912,"station_id":"MRI","distance":1590,"station_name":"Manggarai","is_transit":true},{"i_lat":-6.202263,"station_name":"Sudirman","distance":3186,"time":4,"i_long":106.822649,"line":1,"station_id":"SUD","transit":false,"is_transit":false},{"i_long":106.819881,"transit":false,"station_name":"Sudirman Baru","station_id":"SUDB","line":1,"time":1,"is_transit":false,"distance":280,"i_lat":-6.201433},{"distance":471,"i_long":106.816351,"time":1,"station_name":"Karet","line":1,"station_id":"KAT","transit":false,"is_transit":false,"i_lat":-6.20132},{"is_transit":true,"time":5,"transit":true,"i_lat":-6.185545,"station_id":"THB","line":1,"station_name":"Tanah Abang","distance":2029,"i_long":106.811091},{"station_name":"Palmerah","is_transit":false,"station_id":"PLM","distance":3191,"time":6,"i_long":106.79689,"line":6,"transit":false,"i_lat":-6.207404},{"station_id":"KBY","transit":false,"i_long":106.780334,"is_transit":false,"distance":3737,"station_name":"Kebayoran","time":7,"i_lat":-6.237242,"line":6},{"is_transit":false,"station_id":"PDJ","distance":6218,"i_lat":-6.276362,"transit":false,"line":6,"i_long":106.74273,"station_name":"Pondokranji","time":8},{"is_transit":false,"station_name":"Jurangmangu","line":6,"i_lat":-6.288927,"time":3,"i_long":106.728916,"station_id":"JMU","transit":false,"distance":2179},{"line":6,"distance":1994,"is_transit":false,"i_lat":-6.296963,"time":4,"station_id":"SDM","transit":false,"i_long":106.712277,"station_name":"Sudimara"},{"is_transit":false,"transit":false,"i_lat":-6.314823,"station_id":"RU","i_long":106.675475,"time":6,"distance":4566,"station_name":"Rawa Buntu","line":6}]]}