{"data":[[{"station_name":"Cakung","is_transit":false,"time":0,"distance":0,"transit":false,"station_id":"CUK","i_lat":-6.219053,"i_long":106.951283,"line":1},{"transit":false,"line":1,"is_transit":false,"time":8,"distance":1385,"station_id":"KLDB","i_long":106.939679,"i_lat":-6.217455,"station_name":"Klenderbaru"},{"i_long":106.922662,"station_name":"Buaran","time":1,"distance":1305,"is_transit":false,"transit":false,"station_id":"BUA","i_lat":-6.215568,"line":1},{"station_name":"Klender","is_transit":false,"i_lat":-6.2135,"distance":3100,"transit":false,"line":1,"station_id":"KLD","i_long":106.899548,"time":2},{"line":1,"is_transit":true,"time":3,"transit":true,"i_long":106.86807400000001,"distance":3395,"station_name":"Jatinegara","station_id":"JNG","i_lat":-6.215091},{"time":2,"station_id":"POK","i_long":106.861737,"is_transit":false,"station_name":"Pondok Jati","i_lat":-6.209188,"line":11,"distance":1236,"transit":false}],[{"station_name":"Cakung","transit":false,"line":1,"i_lat":-6.219053,"station_id":"CUK","time":0,"is_transit":false,"distance":0,"i_long":106.951283},{"distance":1385,"transit":false,"station_name":"Klenderbaru","i_long":106.939679,"time":8,"is_transit":false,"station_id":"KLDB","line":1,"i_lat":-6.217455},{"distance":1305,"transit":false,"line":1,"time":1,"station_name":"Buaran","is_transit":false,"i_long":106.922662,"i_lat":-6.215568,"station_id":"BUA"},{"distance":3100,"station_name":"Klender","is_transit":false,"station_id":"KLD","transit":false,"i_long":106.899548,"i_lat":-6.2135,"line":1,"time":2},{"distance":3395,"i_long":106.86807400000001,"is_transit":false,"time":3,"line":1,"i_lat":-6.215091,"transit":false,"station_name":"Jatinegara","station_id":"JNG"},{"i_long":106.858896,"is_transit":false,"time":2,"line":1,"station_name":"Matraman","distance":1377,"transit":false,"station_id":"MTR","i_lat":-6.212485},{"i_long":106.84912,"transit":false,"i_lat":-6.209883,"station_id":"MRI","time":2,"station_name":"Manggarai","line":2,"is_transit":false,"distance":1275},{"i_long":106.822649,"line":1,"is_transit":false,"transit":false,"station_name":"Sudirman","time":4,"distance":3186,"station_id":"SUD","i_lat":-6.202263},{"is_transit":false,"station_name":"Sudirman Baru","station_id":"SUDB","i_long":106.819881,"transit":false,"distance":280,"time":1,"i_lat":-6.201433,"line":1},{"station_name":"Karet","line":1,"distance":471,"station_id":"KAT","i_long":106.816351,"transit":false,"time":1,"is_transit":false,"i_lat":-6.20132},{"distance":2029,"transit":false,"station_id":"THB","i_lat":-6.185545,"station_name":"Tanah Abang","line":1,"i_long":106.811091,"time":5,"is_transit":false},{"transit":false,"station_name":"Duri","station_id":"DU","distance":3632,"is_transit":false,"time":8,"i_lat":-6.155215,"line":1,"i_long":106.800832},{"is_transit":false,"distance":1230,"i_lat":-6.144674,"station_id":"AK","time":4,"line":1,"i_long":106.79867,"transit":false,"station_name":"Angke"},{"station_id":"KPB","distance":4102,"i_long":106.826365,"line":4,"transit":true,"is_transit":true,"station_name":"Kampung Bandan","time":9,"i_lat":-6.132549},{"station_name":"Rajawali","station_id":"RJW","time":3,"is_transit":false,"distance":1444,"i_lat":-6.14505,"transit":false,"line":11,"i_long":106.836569},{"transit":false,"station_name":"Kemayoran","line":11,"is_transit":false,"distance":1901,"time":5,"i_long":106.839204,"i_lat":-6.161728,"station_id":"KMO"},{"line":11,"time":4,"i_lat":-6.174784,"transit":false,"is_transit":false,"station_id":"PSE","i_long":106.84368,"station_name":"Pasar Senen","distance":1436},{"i_lat":-6.185975,"transit":false,"line":11,"station_name":"Gang Sentiong","time":8,"is_transit":false,"station_id":"GST","distance":1567,"i_long":106.850107},{"station_name":"Kramat","line":11,"i_long":106.855437,"distance":973,"i_lat":-6.193792,"is_transit":false,"transit":false,"station_id":"KMT","time":1},{"station_id":"POK","i_lat":-6.209188,"time":2,"line":11,"i_long":106.861737,"transit":false,"station_name":"Pondok Jati","is_transit":false,"distance":1829}],[{"station_name":"Cakung","i_lat":-6.219053,"i_long":106.951283,"distance":0,"is_transit":false,"station_id":"CUK","line":1,"time":0,"transit":false},{"station_name":"Klenderbaru","line":1,"station_id":"KLDB","time":8,"i_lat":-6.217455,"transit":false,"i_long":106.939679,"distance":1385,"is_transit":false},{"station_id":"BUA","i_long":106.922662,"i_lat":-6.215568,"time":1,"is_transit":false,"station_name":"Buaran","distance":1305,"transit":false,"line":1},{"station_name":"Klender","i_long":106.899548,"is_transit":false,"distance":3100,"time":2,"station_id":"KLD","line":1,"i_lat":-6.2135,"transit":false},{"distance":3395,"station_name":"Jatinegara","transit":false,"time":3,"station_id":"JNG","is_transit":false,"i_long":106.86807400000001,"i_lat":-6.215091,"line":1},{"is_transit":false,"i_lat":-6.212485,"station_name":"Matraman","time":2,"transit":false,"i_long":106.858896,"station_id":"MTR","line":1,"distance":1377},{"is_transit":true,"time":2,"distance":1275,"transit":true,"i_lat":-6.209883,"line":2,"station_id":"MRI","i_long":106.84912,"station_name":"Manggarai"},{"time":4,"line":2,"transit":false,"is_transit":false,"station_name":"Cikini","station_id":"CKI","distance":1590,"i_long":106.840169,"i_lat":-6.198556},{"station_id":"GDD","i_lat":-6.186295,"station_name":"Gondangdia","i_long":106.832183,"line":2,"transit":false,"time":3,"distance":1750,"is_transit":false},{"distance":2015,"is_transit":false,"i_long":106.828284,"station_id":"JUA","time":4,"i_lat":-6.166716,"line":2,"station_name":"Juanda","transit":false},{"line":2,"i_long":106.827103,"time":2,"station_id":"SW","distance":1149,"station_name":"Sawah Besar","transit":false,"is_transit":false,"i_lat":-6.160725},{"is_transit":false,"distance":906,"transit":false,"i_lat":-6.149769,"station_id":"MGB","station_name":"Manggabesar","time":2,"i_long":106.82482,"line":2},{"station_id":"JAY","station_name":"Jayakarta","is_transit":false,"time":2,"i_lat":-6.141205,"line":2,"transit":false,"i_long":106.820901,"distance":1080},{"transit":true,"is_transit":true,"i_long":106.812439,"station_id":"JAKK","line":2,"i_lat":-6.137569,"distance":1264,"time":4,"station_name":"Jakarta Kota"},{"station_id":"KPB","i_lat":-6.132549,"time":3,"is_transit":true,"distance":1364,"i_long":106.826365,"station_name":"Kampung Bandan","transit":true,"line":4},{"distance":1444,"is_transit":false,"line":11,"i_lat":-6.14505,"transit":false,"time":3,"station_name":"Rajawali","i_long":106.836569,"station_id":"RJW"},{"distance":1901,"station_id":"KMO","i_lat":-6.161728,"time":5,"transit":false,"station_name":"Kemayoran","line":11,"i_long":106.839204,"is_transit":false},{"i_long":106.84368,"distance":1436,"station_id":"PSE","is_transit":false,"transit":false,"time":4,"station_name":"Pasar Senen","line":11,"i_lat":-6.174784},{"is_transit":false,"transit":false,"station_name":"Gang Sentiong","time":8,"station_id":"GST","i_lat":-6.185975,"distance":1567,"i_long":106.850107,"line":11},{"station_id":"KMT","station_name":"Kramat","time":1,"line":11,"i_lat":-6.193792,"is_transit":false,"distance":973,"transit":false,"i_long":106.855437},{"i_long":106.861737,"station_name":"Pondok Jati","station_id":"POK","transit":false,"line":11,"distance":1829,"is_transit":false,"i_lat":-6.209188,"time":2}]]}