{"data":[[{"distance":0,"transit":false,"i_lat":-6.219053,"i_long":106.951283,"station_id":"CUK","line":0,"station_name":"Cakung","time":0,"is_transit":false},{"station_name":"Klenderbaru","is_transit":false,"distance":1385,"i_lat":-6.217455,"i_long":106.939679,"line":1,"time":8,"transit":false,"station_id":"KLDB"},{"time":1,"station_name":"Buaran","i_lat":-6.215568,"is_transit":false,"distance":1305,"i_long":106.922662,"line":0,"station_id":"BUA","transit":false},{"line":1,"station_name":"Klender","distance":3100,"i_lat":-6.2135,"station_id":"KLD","time":2,"transit":false,"is_transit":false,"i_long":106.899548},{"time":3,"is_transit":true,"distance":3395,"line":0,"station_id":"JNG","transit":false,"i_lat":-6.215091,"station_name":"Jatinegara","i_long":106.86807400000001},{"line":1,"is_transit":false,"transit":false,"distance":1377,"time":2,"i_lat":-6.212485,"station_id":"MTR","station_name":"Matraman","i_long":106.858896},{"station_id":"MRI","i_lat":-6.209883,"time":2,"station_name":"Manggarai","distance":1275,"i_long":106.84912,"line":0,"transit":true,"is_transit":true},{"line":0,"i_lat":-6.198556,"station_name":"Cikini","transit":false,"is_transit":false,"i_long":106.840169,"time":4,"distance":1590,"station_id":"CKI"},{"line":2,"station_id":"GDD","transit":false,"i_lat":-6.186295,"i_long":106.832183,"station_name":"Gondangdia","time":3,"is_transit":false,"distance":1750}],[{"time":0,"transit":false,"station_id":"CUK","is_transit":false,"i_long":106.951283,"distance":0,"line":0,"i_lat":-6.219053,"station_name":"Cakung"},{"station_name":"Klenderbaru","i_lat":-6.217455,"is_transit":false,"line":1,"transit":false,"distance":1385,"time":8,"station_id":"KLDB","i_long":106.939679},{"station_id":"BUA","transit":false,"is_transit":false,"i_lat":-6.215568,"line":0,"i_long":106.922662,"time":1,"distance":1305,"station_name":"Buaran"},{"i_lat":-6.2135,"i_long":106.899548,"distance":3100,"transit":false,"line":1,"station_name":"Klender","station_id":"KLD","is_transit":false,"time":2},{"transit":true,"i_lat":-6.215091,"time":3,"is_transit":true,"i_long":106.86807400000001,"station_name":"Jatinegara","station_id":"JNG","line":0,"distance":3395},{"station_name":"Pondok Jati","distance":1236,"time":2,"line":11,"station_id":"POK","i_lat":-6.209188,"transit":false,"i_long":106.861737,"is_transit":false},{"transit":false,"i_lat":-6.193792,"distance":1829,"time":2,"station_name":"Kramat","station_id":"KMT","line":11,"is_transit":false,"i_long":106.855437},{"is_transit":false,"i_lat":-6.185975,"distance":973,"station_name":"Gang Sentiong","i_long":106.850107,"time":1,"transit":false,"line":11,"station_id":"GST"},{"station_name":"Pasar Senen","i_lat":-6.174784,"i_long":106.84368,"line":11,"transit":false,"distance":1567,"time":8,"station_id":"PSE","is_transit":false},{"i_lat":-6.161728,"is_transit":false,"station_name":"Kemayoran","transit":false,"i_long":106.839204,"time":4,"station_id":"KMO","distance":1436,"line":11},{"time":5,"station_name":"Rajawali","i_lat":-6.14505,"i_long":106.836569,"station_id":"RJW","is_transit":false,"line":11,"distance":1901,"transit":false},{"station_name":"Kampung Bandan","time":3,"i_long":106.826365,"line":0,"distance":1444,"transit":true,"is_transit":true,"station_id":"KPB","i_lat":-6.132549},{"station_id":"JAKK","time":3,"i_long":106.812439,"distance":1364,"transit":true,"station_name":"Jakarta Kota","line":0,"i_lat":-6.137569,"is_transit":true},{"transit":false,"time":4,"distance":1264,"station_id":"JAY","line":7,"is_transit":false,"i_long":106.820901,"station_name":"Jayakarta","i_lat":-6.141205},{"station_name":"Manggabesar","transit":false,"station_id":"MGB","i_long":106.82482,"is_transit":false,"time":2,"line":2,"distance":1080,"i_lat":-6.149769},{"time":2,"transit":false,"i_lat":-6.160725,"line":2,"is_transit":false,"station_name":"Sawah Besar","station_id":"SW","i_long":106.827103,"distance":906},{"time":2,"transit":false,"station_id":"JUA","is_transit":false,"i_long":106.828284,"station_name":"Juanda","i_lat":-6.166716,"distance":1149,"line":2},{"is_transit":false,"distance":2015,"station_name":"Gondangdia","station_id":"GDD","time":4,"i_lat":-6.186295,"line":2,"i_long":106.832183,"transit":false}],[{"transit":false,"station_id":"CUK","distance":0,"line":0,"is_transit":false,"i_lat":-6.219053,"time":0,"i_long":106.951283,"station_name":"Cakung"},{"station_id":"KLDB","time":8,"is_transit":false,"distance":1385,"i_lat":-6.217455,"transit":false,"i_long":106.939679,"line":1,"station_name":"Klenderbaru"},{"distance":1305,"i_lat":-6.215568,"i_long":106.922662,"station_id":"BUA","transit":false,"line":0,"time":1,"station_name":"Buaran","is_transit":false},{"time":2,"transit":false,"is_transit":false,"distance":3100,"i_lat":-6.2135,"i_long":106.899548,"line":1,"station_name":"Klender","station_id":"KLD"},{"is_transit":true,"station_id":"JNG","transit":false,"i_long":106.86807400000001,"line":0,"distance":3395,"i_lat":-6.215091,"station_name":"Jatinegara","time":3},{"station_id":"MTR","transit":false,"time":2,"i_long":106.858896,"is_transit":false,"i_lat":-6.212485,"distance":1377,"line":1,"station_name":"Matraman"},{"line":0,"station_name":"Manggarai","i_long":106.84912,"transit":false,"station_id":"MRI","is_transit":true,"time":2,"distance":1275,"i_lat":-6.209883},{"distance":3186,"is_transit":false,"transit":false,"time":4,"i_long":106.822649,"station_name":"Sudirman","line":1,"i_lat":-6.202263,"station_id":"SUD"},{"i_long":106.819881,"station_id":"SUDB","distance":280,"is_transit":false,"line":1,"station_name":"Sudirman Baru","transit":false,"time":1,"i_lat":-6.201433},{"station_name":"Karet","i_long":106.816351,"line":1,"is_transit":false,"time":1,"transit":false,"i_lat":-6.20132,"distance":471,"station_id":"KAT"},{"station_id":"THB","is_transit":true,"i_long":106.811091,"distance":2029,"station_name":"Tanah Abang","i_lat":-6.185545,"time":5,"line":1,"transit":false},{"line":1,"station_name":"Duri","station_id":"DU","distance":3632,"i_lat":-6.155215,"is_transit":true,"i_long":106.800832,"time":8,"transit":true},{"transit":false,"is_transit":false,"station_name":"Angke","distance":1230,"i_lat":-6.144674,"i_long":106.79867,"time":4,"station_id":"AK","line":0},{"distance":4102,"i_lat":-6.132549,"transit":false,"station_name":"Kampung Bandan","is_transit":true,"line":0,"time":9,"i_long":106.826365,"station_id":"KPB"},{"station_id":"JAKK","time":3,"transit":true,"is_transit":true,"distance":1364,"i_lat":-6.137569,"i_long":106.812439,"line":0,"station_name":"Jakarta Kota"},{"i_lat":-6.141205,"station_id":"JAY","distance":1264,"station_name":"Jayakarta","i_long":106.820901,"line":7,"is_transit":false,"time":4,"transit":false},{"line":2,"distance":1080,"transit":false,"station_id":"MGB","i_lat":-6.149769,"time":2,"station_name":"Manggabesar","is_transit":false,"i_long":106.82482},{"station_name":"Sawah Besar","station_id":"SW","line":2,"distance":906,"i_long":106.827103,"time":2,"is_transit":false,"i_lat":-6.160725,"transit":false},{"is_transit":false,"i_lat":-6.166716,"time":2,"station_name":"Juanda","distance":1149,"transit":false,"i_long":106.828284,"station_id":"JUA","line":2},{"distance":2015,"i_lat":-6.186295,"is_transit":false,"transit":false,"line":2,"time":4,"i_long":106.832183,"station_name":"Gondangdia","station_id":"GDD"}],[{"transit":false,"is_transit":false,"station_id":"CUK","distance":0,"i_long":106.951283,"i_lat":-6.219053,"line":0,"time":0,"station_name":"Cakung"},{"transit":false,"i_lat":-6.217455,"time":8,"is_transit":false,"distance":1385,"station_name":"Klenderbaru","station_id":"KLDB","i_long":106.939679,"line":1},{"transit":false,"distance":1305,"i_long":106.922662,"line":0,"i_lat":-6.215568,"time":1,"station_id":"BUA","is_transit":false,"station_name":"Buaran"},{"station_name":"Klender","is_transit":false,"distance":3100,"transit":false,"time":2,"station_id":"KLD","line":1,"i_lat":-6.2135,"i_long":106.899548},{"transit":true,"is_transit":true,"station_id":"JNG","i_long":106.86807400000001,"line":0,"time":3,"station_name":"Jatinegara","distance":3395,"i_lat":-6.215091},{"is_transit":false,"distance":1236,"time":2,"i_lat":-6.209188,"station_name":"Pondok Jati","station_id":"POK","line":11,"i_long":106.861737,"transit":false},{"station_id":"KMT","line":11,"i_lat":-6.193792,"station_name":"Kramat","is_transit":false,"distance":1829,"i_long":106.855437,"transit":false,"time":2},{"line":11,"i_long":106.850107,"time":1,"station_name":"Gang Sentiong","station_id":"GST","i_lat":-6.185975,"transit":false,"is_transit":false,"distance":973},{"station_name":"Pasar Senen","distance":1567,"station_id":"PSE","i_lat":-6.174784,"i_long":106.84368,"line":11,"is_transit":false,"transit":false,"time":8},{"line":11,"transit":false,"station_name":"Kemayoran","is_transit":false,"distance":1436,"station_id":"KMO","time":4,"i_lat":-6.161728,"i_long":106.839204},{"distance":1901,"time":5,"station_id":"RJW","station_name":"Rajawali","is_transit":false,"i_long":106.836569,"i_lat":-6.14505,"line":11,"transit":false},{"line":0,"station_id":"KPB","time":3,"station_name":"Kampung Bandan","i_lat":-6.132549,"transit":true,"distance":1444,"i_long":106.826365,"is_transit":true},{"station_name":"Angke","is_transit":false,"i_lat":-6.144674,"distance":4102,"transit":false,"line":0,"station_id":"AK","time":9,"i_long":106.79867},{"time":4,"distance":1230,"station_name":"Duri","is_transit":true,"i_lat":-6.155215,"transit":true,"station_id":"DU","i_long":106.800832,"line":1},{"time":8,"station_name":"Tanah Abang","station_id":"THB","distance":3632,"transit":false,"i_lat":-6.185545,"line":1,"is_transit":true,"i_long":106.811091},{"is_transit":false,"station_id":"KAT","time":5,"distance":2029,"station_name":"Karet","line":1,"transit":false,"i_long":106.816351,"i_lat":-6.20132},{"i_long":106.819881,"time":1,"transit":false,"station_id":"SUDB","i_lat":-6.201433,"distance":471,"is_transit":false,"station_name":"Sudirman Baru","line":1},{"time":1,"is_transit":false,"i_long":106.822649,"distance":280,"transit":false,"i_lat":-6.202263,"line":1,"station_id":"SUD","station_name":"Sudirman"},{"station_id":"MRI","line":0,"time":4,"i_lat":-6.209883,"transit":true,"distance":3186,"i_long":106.84912,"is_transit":true,"station_name":"Manggarai"},{"transit":false,"time":4,"is_transit":false,"i_long":106.840169,"station_id":"CKI","line":0,"distance":1590,"i_lat":-6.198556,"station_name":"Cikini"},{"distance":1750,"station_id":"GDD","is_transit":false,"i_long":106.832183,"transit":false,"line":2,"station_name":"Gondangdia","time":3,"i_lat":-6.186295}]]}