{"data":[[{"distance":0,"i_lat":-6.219053,"time":0,"station_id":"CUK","line":0,"station_name":"Cakung","is_transit":false,"i_long":106.951283,"transit":false},{"is_transit":false,"station_id":"KLDB","station_name":"Klenderbaru","transit":false,"i_long":106.939679,"time":8,"line":1,"distance":1385,"i_lat":-6.217455},{"line":0,"i_lat":-6.215568,"i_long":106.922662,"station_id":"BUA","distance":1305,"station_name":"Buaran","transit":false,"time":1,"is_transit":false},{"time":2,"transit":false,"i_lat":-6.2135,"line":1,"i_long":106.899548,"station_name":"Klender","distance":3100,"station_id":"KLD","is_transit":false},{"transit":false,"is_transit":true,"distance":3395,"station_id":"JNG","station_name":"Jatinegara","i_long":106.86807400000001,"line":0,"time":3,"i_lat":-6.215091},{"i_long":106.858896,"time":2,"i_lat":-6.212485,"station_id":"MTR","distance":1377,"station_name":"Matraman","line":1,"transit":false,"is_transit":false}],[{"station_id":"CUK","distance":0,"i_long":106.951283,"is_transit":false,"time":0,"transit":false,"station_name":"Cakung","i_lat":-6.219053,"line":0},{"line":1,"distance":1385,"time":8,"station_id":"KLDB","i_lat":-6.217455,"transit":false,"is_transit":false,"station_name":"Klenderbaru","i_long":106.939679},{"transit":false,"line":0,"i_long":106.922662,"station_id":"BUA","time":1,"distance":1305,"station_name":"Buaran","i_lat":-6.215568,"is_transit":false},{"line":1,"i_lat":-6.2135,"distance":3100,"is_transit":false,"station_name":"Klender","transit":false,"station_id":"KLD","i_long":106.899548,"time":2},{"is_transit":true,"distance":3395,"i_lat":-6.215091,"line":0,"transit":true,"time":3,"station_id":"JNG","i_long":106.86807400000001,"station_name":"Jatinegara"},{"station_id":"POK","i_long":106.861737,"station_name":"Pondok Jati","is_transit":false,"time":2,"i_lat":-6.209188,"distance":1236,"transit":false,"line":11},{"station_name":"Kramat","i_long":106.855437,"distance":1829,"line":11,"time":2,"is_transit":false,"transit":false,"station_id":"KMT","i_lat":-6.193792},{"distance":973,"station_id":"GST","is_transit":false,"station_name":"Gang Sentiong","line":11,"transit":false,"i_lat":-6.185975,"time":1,"i_long":106.850107},{"time":8,"is_transit":false,"distance":1567,"station_name":"Pasar Senen","transit":false,"i_lat":-6.174784,"line":11,"i_long":106.84368,"station_id":"PSE"},{"is_transit":false,"i_lat":-6.161728,"time":4,"transit":false,"line":11,"station_id":"KMO","distance":1436,"station_name":"Kemayoran","i_long":106.839204},{"i_lat":-6.14505,"station_name":"Rajawali","i_long":106.836569,"station_id":"RJW","transit":false,"is_transit":false,"line":11,"time":5,"distance":1901},{"station_name":"Kampung Bandan","station_id":"KPB","i_long":106.826365,"time":3,"is_transit":true,"line":0,"i_lat":-6.132549,"distance":1444,"transit":true},{"time":9,"transit":false,"station_name":"Angke","line":0,"distance":4102,"i_lat":-6.144674,"station_id":"AK","is_transit":false,"i_long":106.79867},{"i_long":106.800832,"i_lat":-6.155215,"is_transit":true,"line":1,"station_name":"Duri","station_id":"DU","distance":1230,"transit":true,"time":4},{"i_long":106.811091,"i_lat":-6.185545,"is_transit":true,"distance":3632,"line":1,"transit":false,"station_id":"THB","station_name":"Tanah Abang","time":8},{"station_name":"Karet","i_lat":-6.20132,"station_id":"KAT","i_long":106.816351,"is_transit":false,"transit":false,"line":1,"time":5,"distance":2029},{"distance":471,"station_name":"Sudirman Baru","station_id":"SUDB","is_transit":false,"i_lat":-6.201433,"i_long":106.819881,"line":1,"transit":false,"time":1},{"is_transit":false,"time":1,"station_name":"Sudirman","i_long":106.822649,"line":1,"station_id":"SUD","i_lat":-6.202263,"distance":280,"transit":false},{"line":0,"is_transit":true,"station_name":"Manggarai","transit":false,"station_id":"MRI","i_long":106.84912,"distance":3186,"i_lat":-6.209883,"time":4},{"i_long":106.858896,"station_id":"MTR","line":1,"is_transit":false,"distance":1275,"station_name":"Matraman","transit":false,"i_lat":-6.212485,"time":2}],[{"station_id":"CUK","station_name":"Cakung","transit":false,"line":0,"distance":0,"i_long":106.951283,"is_transit":false,"time":0,"i_lat":-6.219053},{"station_id":"KLDB","i_long":106.939679,"time":8,"i_lat":-6.217455,"line":1,"is_transit":false,"distance":1385,"station_name":"Klenderbaru","transit":false},{"i_lat":-6.215568,"i_long":106.922662,"distance":1305,"transit":false,"line":0,"is_transit":false,"time":1,"station_id":"BUA","station_name":"Buaran"},{"time":2,"distance":3100,"station_name":"Klender","i_long":106.899548,"transit":false,"line":1,"i_lat":-6.2135,"station_id":"KLD","is_transit":false},{"distance":3395,"time":3,"i_lat":-6.215091,"transit":true,"station_id":"JNG","station_name":"Jatinegara","i_long":106.86807400000001,"is_transit":true,"line":0},{"station_id":"POK","time":2,"i_long":106.861737,"transit":false,"station_name":"Pondok Jati","i_lat":-6.209188,"line":11,"distance":1236,"is_transit":false},{"i_lat":-6.193792,"i_long":106.855437,"line":11,"distance":1829,"time":2,"is_transit":false,"transit":false,"station_id":"KMT","station_name":"Kramat"},{"i_lat":-6.185975,"transit":false,"time":1,"is_transit":false,"station_id":"GST","line":11,"distance":973,"i_long":106.850107,"station_name":"Gang Sentiong"},{"station_name":"Pasar Senen","is_transit":false,"time":8,"distance":1567,"transit":false,"i_long":106.84368,"i_lat":-6.174784,"station_id":"PSE","line":11},{"transit":false,"i_lat":-6.161728,"line":11,"station_name":"Kemayoran","is_transit":false,"time":4,"station_id":"KMO","distance":1436,"i_long":106.839204},{"i_lat":-6.14505,"station_id":"RJW","line":11,"is_transit":false,"station_name":"Rajawali","transit":false,"time":5,"distance":1901,"i_long":106.836569},{"station_id":"KPB","station_name":"Kampung Bandan","distance":1444,"time":3,"i_long":106.826365,"is_transit":true,"transit":true,"i_lat":-6.132549,"line":0},{"i_long":106.812439,"transit":true,"distance":1364,"station_id":"JAKK","is_transit":true,"station_name":"Jakarta Kota","time":3,"i_lat":-6.137569,"line":0},{"station_id":"JAY","i_lat":-6.141205,"distance":1264,"line":7,"transit":false,"i_long":106.820901,"is_transit":false,"time":4,"station_name":"Jayakarta"},{"i_lat":-6.149769,"distance":1080,"station_id":"MGB","station_name":"Manggabesar","transit":false,"i_long":106.82482,"is_transit":false,"line":2,"time":2},{"is_transit":false,"station_name":"Sawah Besar","station_id":"SW","distance":906,"i_lat":-6.160725,"time":2,"transit":false,"line":2,"i_long":106.827103},{"i_lat":-6.166716,"time":2,"station_name":"Juanda","line":2,"station_id":"JUA","transit":false,"is_transit":false,"distance":1149,"i_long":106.828284},{"distance":2015,"transit":false,"i_lat":-6.186295,"i_long":106.832183,"line":2,"station_id":"GDD","time":4,"station_name":"Gondangdia","is_transit":false},{"is_transit":false,"distance":1750,"time":3,"station_name":"Cikini","line":0,"station_id":"CKI","i_lat":-6.198556,"transit":false,"i_long":106.840169},{"line":0,"time":4,"i_lat":-6.209883,"is_transit":true,"transit":true,"station_id":"MRI","station_name":"Manggarai","i_long":106.84912,"distance":1590},{"distance":1275,"transit":false,"line":1,"time":2,"i_lat":-6.212485,"station_id":"MTR","is_transit":false,"station_name":"Matraman","i_long":106.858896}]]}