{"data":[[{"is_transit":false,"i_long":106.951283,"i_lat":-6.219053,"line":1,"station_name":"Cakung","time":0,"transit":false,"station_id":"CUK","distance":0},{"station_name":"Klenderbaru","transit":false,"i_lat":-6.217455,"station_id":"KLDB","distance":1385,"time":8,"is_transit":false,"i_long":106.939679,"line":1},{"time":1,"transit":false,"distance":1305,"line":1,"station_name":"Buaran","is_transit":false,"station_id":"BUA","i_lat":-6.215568,"i_long":106.922662},{"line":1,"station_id":"KLD","station_name":"Klender","is_transit":false,"distance":3100,"i_long":106.899548,"transit":false,"i_lat":-6.2135,"time":2},{"station_id":"JNG","line":1,"time":3,"i_lat":-6.215091,"i_long":106.86807400000001,"transit":false,"station_name":"Jatinegara","distance":3395,"is_transit":false},{"i_lat":-6.212485,"distance":1377,"station_name":"Matraman","transit":false,"i_long":106.858896,"station_id":"MTR","time":2,"line":1,"is_transit":false},{"station_id":"MRI","transit":false,"line":2,"is_transit":false,"time":2,"i_long":106.84912,"i_lat":-6.209883,"distance":1275,"station_name":"Manggarai"},{"line":1,"distance":3186,"is_transit":false,"station_name":"Sudirman","time":4,"i_lat":-6.202263,"transit":false,"station_id":"SUD","i_long":106.822649},{"i_long":106.819881,"line":1,"station_id":"SUDB","i_lat":-6.201433,"station_name":"Sudirman Baru","transit":false,"is_transit":false,"time":1,"distance":280},{"station_id":"KAT","distance":471,"i_long":106.816351,"is_transit":false,"station_name":"Karet","i_lat":-6.20132,"transit":false,"line":1,"time":1},{"i_long":106.811091,"line":1,"is_transit":true,"time":5,"station_id":"THB","transit":true,"station_name":"Tanah Abang","distance":2029,"i_lat":-6.185545},{"line":6,"transit":false,"station_id":"PLM","i_lat":-6.207404,"station_name":"Palmerah","i_long":106.79689,"distance":3191,"is_transit":false,"time":6},{"station_name":"Kebayoran","station_id":"KBY","i_lat":-6.237242,"line":6,"i_long":106.780334,"is_transit":false,"time":7,"transit":false,"distance":3737},{"time":8,"line":6,"i_long":106.74273,"transit":false,"distance":6218,"is_transit":false,"station_id":"PDJ","station_name":"Pondokranji","i_lat":-6.276362},{"time":3,"i_long":106.728916,"i_lat":-6.288927,"is_transit":false,"transit":false,"distance":2179,"station_id":"JMU","station_name":"Jurangmangu","line":6},{"is_transit":false,"distance":1994,"i_lat":-6.296963,"i_long":106.712277,"line":6,"time":4,"station_id":"SDM","transit":false,"station_name":"Sudimara"},{"distance":4566,"i_long":106.675475,"transit":false,"station_id":"RU","is_transit":false,"time":6,"line":6,"i_lat":-6.314823,"station_name":"Rawa Buntu"},{"transit":false,"is_transit":false,"station_id":"SRP","distance":2413,"i_lat":-6.319871,"time":4,"i_long":106.66566,"line":6,"station_name":"Serpong"},{"is_transit":false,"station_name":"Cisauk","time":4,"i_lat":-6.32484,"i_long":106.640411,"station_id":"CSK","distance":1784,"transit":false,"line":3},{"distance":2519,"time":4,"transit":false,"i_lat":-6.329547,"line":3,"station_id":"CC","i_long":106.617853,"is_transit":false,"station_name":"Cicayur"},{"i_long":106.568863,"line":6,"time":8,"transit":false,"station_name":"Parung Panjang","distance":5968,"is_transit":false,"i_lat":-6.3441410000000005,"station_id":"PRP"},{"transit":false,"station_name":"Cilejit","time":9,"is_transit":false,"i_lat":-6.354349,"i_long":106.508482,"distance":7025,"station_id":"CJT","line":3},{"station_name":"Daru","i_lat":-6.338021,"station_id":"DAR","i_long":106.491338,"line":0,"is_transit":false,"distance":2675,"time":6,"transit":false},{"is_transit":false,"transit":false,"i_lat":-6.327251,"station_name":"Tenjo","distance":3902,"line":6,"i_long":106.460812,"station_id":"TEJ","time":5},{"i_long":106.425991,"time":5,"station_name":"Tigaraksa","transit":false,"i_lat":-6.328533,"line":6,"distance":2974,"is_transit":false,"station_id":"TGS"}],[{"transit":false,"station_id":"CUK","line":1,"i_long":106.951283,"is_transit":false,"time":0,"station_name":"Cakung","i_lat":-6.219053,"distance":0},{"i_lat":-6.217455,"transit":false,"distance":1385,"is_transit":false,"i_long":106.939679,"station_id":"KLDB","time":8,"station_name":"Klenderbaru","line":1},{"time":1,"is_transit":false,"station_id":"BUA","transit":false,"distance":1305,"i_lat":-6.215568,"i_long":106.922662,"station_name":"Buaran","line":1},{"station_id":"KLD","time":2,"transit":false,"station_name":"Klender","is_transit":false,"i_lat":-6.2135,"i_long":106.899548,"line":1,"distance":3100},{"i_lat":-6.215091,"i_long":106.86807400000001,"transit":true,"station_name":"Jatinegara","station_id":"JNG","distance":3395,"is_transit":true,"time":3,"line":1},{"is_transit":false,"distance":1236,"line":11,"transit":false,"i_long":106.861737,"i_lat":-6.209188,"time":2,"station_id":"POK","station_name":"Pondok Jati"},{"station_id":"KMT","station_name":"Kramat","line":11,"i_lat":-6.193792,"is_transit":false,"transit":false,"time":2,"distance":1829,"i_long":106.855437},{"station_id":"GST","is_transit":false,"i_lat":-6.185975,"i_long":106.850107,"line":11,"station_name":"Gang Sentiong","distance":973,"transit":false,"time":1},{"i_long":106.84368,"transit":false,"is_transit":false,"time":8,"station_id":"PSE","line":11,"distance":1567,"station_name":"Pasar Senen","i_lat":-6.174784},{"i_lat":-6.161728,"station_id":"KMO","transit":false,"distance":1436,"time":4,"line":11,"station_name":"Kemayoran","is_transit":false,"i_long":106.839204},{"is_transit":false,"station_id":"RJW","time":5,"transit":false,"line":11,"distance":1901,"station_name":"Rajawali","i_long":106.836569,"i_lat":-6.14505},{"distance":1444,"line":4,"is_transit":true,"station_name":"Kampung Bandan","time":3,"i_lat":-6.132549,"transit":true,"station_id":"KPB","i_long":106.826365},{"time":9,"transit":false,"station_id":"AK","is_transit":false,"distance":4102,"i_lat":-6.144674,"i_long":106.79867,"line":1,"station_name":"Angke"},{"station_id":"DU","i_long":106.800832,"time":4,"i_lat":-6.155215,"distance":1230,"line":1,"station_name":"Duri","transit":false,"is_transit":false},{"station_id":"THB","is_transit":true,"distance":3632,"i_lat":-6.185545,"line":1,"station_name":"Tanah Abang","transit":true,"i_long":106.811091,"time":8},{"transit":false,"is_transit":false,"time":6,"i_lat":-6.207404,"station_name":"Palmerah","line":6,"distance":3191,"station_id":"PLM","i_long":106.79689},{"station_id":"KBY","time":7,"distance":3737,"i_lat":-6.237242,"is_transit":false,"i_long":106.780334,"line":6,"transit":false,"station_name":"Kebayoran"},{"station_name":"Pondokranji","station_id":"PDJ","i_lat":-6.276362,"is_transit":false,"distance":6218,"time":8,"i_long":106.74273,"line":6,"transit":false},{"time":3,"line":6,"is_transit":false,"distance":2179,"i_long":106.728916,"station_id":"JMU","station_name":"Jurangmangu","i_lat":-6.288927,"transit":false},{"station_name":"Sudimara","is_transit":false,"distance":1994,"station_id":"SDM","transit":false,"i_lat":-6.296963,"time":4,"line":6,"i_long":106.712277},{"i_lat":-6.314823,"transit":false,"time":6,"distance":4566,"station_name":"Rawa Buntu","i_long":106.675475,"station_id":"RU","is_transit":false,"line":6},{"station_id":"SRP","transit":false,"station_name":"Serpong","time":4,"i_lat":-6.319871,"distance":2413,"is_transit":false,"line":6,"i_long":106.66566},{"line":3,"i_long":106.640411,"is_transit":false,"time":4,"transit":false,"station_name":"Cisauk","i_lat":-6.32484,"station_id":"CSK","distance":1784},{"time":4,"distance":2519,"station_name":"Cicayur","station_id":"CC","is_transit":false,"line":3,"transit":false,"i_long":106.617853,"i_lat":-6.329547},{"station_id":"PRP","is_transit":false,"i_long":106.568863,"line":6,"station_name":"Parung Panjang","transit":false,"time":8,"i_lat":-6.3441410000000005,"distance":5968},{"time":9,"is_transit":false,"line":3,"transit":false,"station_id":"CJT","i_lat":-6.354349,"distance":7025,"station_name":"Cilejit","i_long":106.508482},{"transit":false,"station_id":"DAR","i_long":106.491338,"distance":2675,"is_transit":false,"i_lat":-6.338021,"station_name":"Daru","time":6,"line":0},{"distance":3902,"i_long":106.460812,"i_lat":-6.327251,"is_transit":false,"station_name":"Tenjo","time":5,"line":6,"transit":false,"station_id":"TEJ"},{"is_transit":false,"station_name":"Tigaraksa","station_id":"TGS","line":6,"transit":false,"time":5,"distance":2974,"i_lat":-6.328533,"i_long":106.425991}],[{"i_long":106.951283,"station_name":"Cakung","distance":0,"is_transit":false,"i_lat":-6.219053,"station_id":"CUK","transit":false,"line":1,"time":0},{"line":1,"transit":false,"station_name":"Klenderbaru","time":8,"station_id":"KLDB","i_lat":-6.217455,"is_transit":false,"distance":1385,"i_long":106.939679},{"station_name":"Buaran","is_transit":false,"time":1,"station_id":"BUA","i_lat":-6.215568,"line":1,"transit":false,"distance":1305,"i_long":106.922662},{"is_transit":false,"transit":false,"i_lat":-6.2135,"station_id":"KLD","station_name":"Klender","i_long":106.899548,"distance":3100,"line":1,"time":2},{"station_name":"Jatinegara","transit":false,"distance":3395,"station_id":"JNG","i_lat":-6.215091,"is_transit":false,"i_long":106.86807400000001,"line":1,"time":3},{"is_transit":false,"i_long":106.858896,"station_id":"MTR","transit":false,"distance":1377,"station_name":"Matraman","time":2,"i_lat":-6.212485,"line":1},{"station_id":"MRI","station_name":"Manggarai","i_long":106.84912,"time":2,"line":2,"is_transit":true,"transit":true,"distance":1275,"i_lat":-6.209883},{"is_transit":false,"line":2,"time":4,"i_long":106.840169,"distance":1590,"i_lat":-6.198556,"transit":false,"station_id":"CKI","station_name":"Cikini"},{"is_transit":false,"station_id":"GDD","transit":false,"time":3,"line":2,"station_name":"Gondangdia","distance":1750,"i_lat":-6.186295,"i_long":106.832183},{"time":4,"line":2,"is_transit":false,"transit":false,"station_name":"Juanda","distance":2015,"i_lat":-6.166716,"i_long":106.828284,"station_id":"JUA"},{"is_transit":false,"distance":1149,"i_lat":-6.160725,"line":2,"i_long":106.827103,"transit":false,"station_name":"Sawah Besar","station_id":"SW","time":2},{"distance":906,"transit":false,"station_id":"MGB","is_transit":false,"station_name":"Manggabesar","i_lat":-6.149769,"line":2,"time":2,"i_long":106.82482},{"is_transit":false,"i_long":106.820901,"i_lat":-6.141205,"line":2,"distance":1080,"station_name":"Jayakarta","transit":false,"time":2,"station_id":"JAY"},{"station_id":"JAKK","station_name":"Jakarta Kota","distance":1264,"line":2,"i_lat":-6.137569,"is_transit":true,"time":4,"i_long":106.812439,"transit":true},{"station_name":"Kampung Bandan","time":3,"i_long":106.826365,"line":4,"distance":1364,"i_lat":-6.132549,"transit":true,"station_id":"KPB","is_transit":true},{"transit":false,"station_name":"Angke","distance":4102,"is_transit":false,"time":9,"station_id":"AK","i_lat":-6.144674,"i_long":106.79867,"line":1},{"time":4,"is_transit":false,"line":1,"i_lat":-6.155215,"i_long":106.800832,"distance":1230,"station_id":"DU","station_name":"Duri","transit":false},{"is_transit":true,"time":8,"distance":3632,"station_id":"THB","i_lat":-6.185545,"transit":true,"i_long":106.811091,"station_name":"Tanah Abang","line":1},{"distance":3191,"i_long":106.79689,"station_id":"PLM","station_name":"Palmerah","time":6,"line":6,"i_lat":-6.207404,"transit":false,"is_transit":false},{"station_name":"Kebayoran","station_id":"KBY","is_transit":false,"i_lat":-6.237242,"transit":false,"time":7,"distance":3737,"line":6,"i_long":106.780334},{"i_lat":-6.276362,"line":6,"i_long":106.74273,"is_transit":false,"station_name":"Pondokranji","transit":false,"station_id":"PDJ","time":8,"distance":6218},{"station_id":"JMU","time":3,"is_transit":false,"i_lat":-6.288927,"i_long":106.728916,"line":6,"distance":2179,"station_name":"Jurangmangu","transit":false},{"line":6,"transit":false,"is_transit":false,"distance":1994,"i_long":106.712277,"station_name":"Sudimara","time":4,"station_id":"SDM","i_lat":-6.296963},{"transit":false,"line":6,"station_id":"RU","time":6,"distance":4566,"i_lat":-6.314823,"is_transit":false,"station_name":"Rawa Buntu","i_long":106.675475},{"is_transit":false,"transit":false,"time":4,"station_id":"SRP","i_lat":-6.319871,"station_name":"Serpong","distance":2413,"line":6,"i_long":106.66566},{"line":3,"i_long":106.640411,"transit":false,"station_name":"Cisauk","distance":1784,"station_id":"CSK","is_transit":false,"time":4,"i_lat":-6.32484},{"is_transit":false,"transit":false,"station_id":"CC","time":4,"i_long":106.617853,"distance":2519,"i_lat":-6.329547,"station_name":"Cicayur","line":3},{"line":6,"is_transit":false,"distance":5968,"station_name":"Parung Panjang","transit":false,"station_id":"PRP","time":8,"i_long":106.568863,"i_lat":-6.3441410000000005},{"is_transit":false,"distance":7025,"transit":false,"station_name":"Cilejit","station_id":"CJT","i_lat":-6.354349,"time":9,"i_long":106.508482,"line":3},{"transit":false,"i_long":106.491338,"station_name":"Daru","i_lat":-6.338021,"line":0,"time":6,"distance":2675,"is_transit":false,"station_id":"DAR"},{"i_long":106.460812,"station_id":"TEJ","time":5,"is_transit":false,"distance":3902,"i_lat":-6.327251,"transit":false,"line":6,"station_name":"Tenjo"},{"i_long":106.425991,"time":5,"station_id":"TGS","i_lat":-6.328533,"transit":false,"line":6,"is_transit":false,"station_name":"Tigaraksa","distance":2974}],[{"distance":0,"line":1,"is_transit":false,"time":0,"i_long":106.951283,"station_id":"CUK","station_name":"Cakung","transit":false,"i_lat":-6.219053},{"time":8,"distance":1385,"station_name":"Klenderbaru","transit":false,"line":1,"i_lat":-6.217455,"i_long":106.939679,"is_transit":false,"station_id":"KLDB"},{"is_transit":false,"i_long":106.922662,"station_id":"BUA","station_name":"Buaran","distance":1305,"i_lat":-6.215568,"line":1,"time":1,"transit":false},{"i_lat":-6.2135,"is_transit":false,"i_long":106.899548,"station_id":"KLD","time":2,"distance":3100,"station_name":"Klender","line":1,"transit":false},{"i_lat":-6.215091,"time":3,"is_transit":true,"station_id":"JNG","line":1,"transit":true,"station_name":"Jatinegara","distance":3395,"i_long":106.86807400000001},{"distance":1236,"i_lat":-6.209188,"time":2,"station_name":"Pondok Jati","station_id":"POK","i_long":106.861737,"transit":false,"line":11,"is_transit":false},{"time":2,"distance":1829,"i_lat":-6.193792,"i_long":106.855437,"line":11,"station_id":"KMT","transit":false,"station_name":"Kramat","is_transit":false},{"line":11,"i_lat":-6.185975,"time":1,"station_id":"GST","station_name":"Gang Sentiong","transit":false,"is_transit":false,"distance":973,"i_long":106.850107},{"i_lat":-6.174784,"line":11,"distance":1567,"is_transit":false,"station_id":"PSE","i_long":106.84368,"time":8,"station_name":"Pasar Senen","transit":false},{"is_transit":false,"station_id":"KMO","transit":false,"line":11,"station_name":"Kemayoran","i_lat":-6.161728,"distance":1436,"time":4,"i_long":106.839204},{"line":11,"distance":1901,"station_id":"RJW","i_lat":-6.14505,"transit":false,"time":5,"station_name":"Rajawali","is_transit":false,"i_long":106.836569},{"i_long":106.826365,"transit":true,"i_lat":-6.132549,"is_transit":true,"distance":1444,"time":3,"station_name":"Kampung Bandan","line":4,"station_id":"KPB"},{"distance":1364,"station_name":"Jakarta Kota","station_id":"JAKK","time":3,"line":2,"i_long":106.812439,"transit":true,"is_transit":true,"i_lat":-6.137569},{"station_id":"JAY","transit":false,"distance":1264,"i_lat":-6.141205,"is_transit":false,"time":4,"station_name":"Jayakarta","i_long":106.820901,"line":2},{"transit":false,"i_lat":-6.149769,"is_transit":false,"i_long":106.82482,"distance":1080,"time":2,"station_name":"Manggabesar","line":2,"station_id":"MGB"},{"i_lat":-6.160725,"i_long":106.827103,"is_transit":false,"time":2,"line":2,"station_name":"Sawah Besar","station_id":"SW","distance":906,"transit":false},{"distance":1149,"i_long":106.828284,"station_id":"JUA","line":2,"i_lat":-6.166716,"transit":false,"time":2,"station_name":"Juanda","is_transit":false},{"station_name":"Gondangdia","station_id":"GDD","is_transit":false,"i_lat":-6.186295,"i_long":106.832183,"time":4,"line":2,"distance":2015,"transit":false},{"is_transit":false,"i_lat":-6.198556,"i_long":106.840169,"station_name":"Cikini","transit":false,"line":2,"time":3,"distance":1750,"station_id":"CKI"},{"i_lat":-6.209883,"is_transit":true,"i_long":106.84912,"station_name":"Manggarai","station_id":"MRI","transit":true,"distance":1590,"time":4,"line":2},{"line":1,"i_lat":-6.202263,"distance":3186,"station_name":"Sudirman","is_transit":false,"i_long":106.822649,"station_id":"SUD","time":4,"transit":false},{"transit":false,"station_name":"Sudirman Baru","time":1,"line":1,"station_id":"SUDB","is_transit":false,"i_long":106.819881,"i_lat":-6.201433,"distance":280},{"station_name":"Karet","is_transit":false,"distance":471,"line":1,"i_lat":-6.20132,"time":1,"station_id":"KAT","transit":false,"i_long":106.816351},{"transit":true,"i_lat":-6.185545,"station_name":"Tanah Abang","station_id":"THB","is_transit":true,"distance":2029,"i_long":106.811091,"time":5,"line":1},{"i_long":106.79689,"station_name":"Palmerah","i_lat":-6.207404,"station_id":"PLM","distance":3191,"line":6,"time":6,"transit":false,"is_transit":false},{"distance":3737,"i_long":106.780334,"line":6,"station_id":"KBY","station_name":"Kebayoran","transit":false,"is_transit":false,"i_lat":-6.237242,"time":7},{"station_id":"PDJ","i_long":106.74273,"transit":false,"time":8,"distance":6218,"station_name":"Pondokranji","is_transit":false,"line":6,"i_lat":-6.276362},{"time":3,"is_transit":false,"station_name":"Jurangmangu","station_id":"JMU","transit":false,"i_long":106.728916,"i_lat":-6.288927,"distance":2179,"line":6},{"distance":1994,"transit":false,"i_lat":-6.296963,"station_name":"Sudimara","station_id":"SDM","is_transit":false,"time":4,"i_long":106.712277,"line":6},{"time":6,"i_long":106.675475,"station_name":"Rawa Buntu","line":6,"station_id":"RU","transit":false,"is_transit":false,"i_lat":-6.314823,"distance":4566},{"transit":false,"time":4,"station_id":"SRP","i_lat":-6.319871,"distance":2413,"is_transit":false,"i_long":106.66566,"line":6,"station_name":"Serpong"},{"i_lat":-6.32484,"is_transit":false,"station_name":"Cisauk","transit":false,"i_long":106.640411,"station_id":"CSK","time":4,"line":3,"distance":1784},{"i_lat":-6.329547,"station_name":"Cicayur","is_transit":false,"line":3,"i_long":106.617853,"transit":false,"distance":2519,"station_id":"CC","time":4},{"transit":false,"station_id":"PRP","i_long":106.568863,"is_transit":false,"time":8,"station_name":"Parung Panjang","distance":5968,"i_lat":-6.3441410000000005,"line":6},{"transit":false,"distance":7025,"i_long":106.508482,"time":9,"station_id":"CJT","line":3,"station_name":"Cilejit","i_lat":-6.354349,"is_transit":false},{"station_name":"Daru","distance":2675,"time":6,"station_id":"DAR","i_long":106.491338,"transit":false,"is_transit":false,"line":0,"i_lat":-6.338021},{"i_long":106.460812,"distance":3902,"i_lat":-6.327251,"transit":false,"is_transit":false,"time":5,"line":6,"station_name":"Tenjo","station_id":"TEJ"},{"station_id":"TGS","is_transit":false,"i_long":106.425991,"i_lat":-6.328533,"distance":2974,"line":6,"transit":false,"time":5,"station_name":"Tigaraksa"}]]}