{"data":[[{"time":0,"station_name":"Cakung","transit":false,"station_id":"CUK","i_long":106.951283,"distance":0,"line":1,"is_transit":false,"i_lat":-6.219053},{"time":8,"station_id":"KLDB","station_name":"Klenderbaru","distance":1385,"is_transit":false,"i_long":106.939679,"line":1,"transit":false,"i_lat":-6.217455},{"line":1,"transit":false,"i_long":106.922662,"station_id":"BUA","station_name":"Buaran","i_lat":-6.215568,"time":1,"distance":1305,"is_transit":false},{"transit":false,"station_id":"KLD","i_lat":-6.2135,"line":1,"station_name":"Klender","distance":3100,"i_long":106.899548,"is_transit":false,"time":2},{"station_id":"JNG","time":3,"distance":3395,"transit":true,"i_lat":-6.215091,"i_long":106.86807400000001,"line":1,"station_name":"Jatinegara","is_transit":true},{"station_id":"POK","station_name":"Pondok Jati","is_transit":false,"transit":false,"distance":1236,"i_lat":-6.209188,"i_long":106.861737,"time":2,"line":11},{"is_transit":false,"line":11,"i_lat":-6.193792,"station_name":"Kramat","transit":false,"i_long":106.855437,"distance":1829,"station_id":"KMT","time":2},{"time":1,"distance":973,"station_name":"Gang Sentiong","i_lat":-6.185975,"i_long":106.850107,"is_transit":false,"station_id":"GST","line":11,"transit":false}],[{"transit":false,"time":0,"distance":0,"i_long":106.951283,"line":1,"station_name":"Cakung","is_transit":false,"station_id":"CUK","i_lat":-6.219053},{"distance":1385,"i_lat":-6.217455,"station_name":"Klenderbaru","line":1,"time":8,"station_id":"KLDB","transit":false,"i_long":106.939679,"is_transit":false},{"station_name":"Buaran","is_transit":false,"station_id":"BUA","time":1,"i_long":106.922662,"transit":false,"i_lat":-6.215568,"distance":1305,"line":1},{"station_name":"Klender","time":2,"distance":3100,"i_long":106.899548,"is_transit":false,"transit":false,"station_id":"KLD","i_lat":-6.2135,"line":1},{"station_name":"Jatinegara","time":3,"i_long":106.86807400000001,"transit":false,"i_lat":-6.215091,"distance":3395,"is_transit":false,"line":1,"station_id":"JNG"},{"i_long":106.858896,"distance":1377,"station_id":"MTR","is_transit":false,"i_lat":-6.212485,"transit":false,"line":1,"time":2,"station_name":"Matraman"},{"transit":false,"i_long":106.84912,"time":2,"station_name":"Manggarai","distance":1275,"i_lat":-6.209883,"line":2,"station_id":"MRI","is_transit":false},{"transit":false,"time":4,"line":1,"i_lat":-6.202263,"i_long":106.822649,"distance":3186,"is_transit":false,"station_id":"SUD","station_name":"Sudirman"},{"time":1,"transit":false,"distance":280,"is_transit":false,"i_lat":-6.201433,"station_id":"SUDB","station_name":"Sudirman Baru","i_long":106.819881,"line":1},{"station_name":"Karet","time":1,"i_long":106.816351,"distance":471,"is_transit":false,"i_lat":-6.20132,"line":1,"station_id":"KAT","transit":false},{"time":5,"station_name":"Tanah Abang","transit":false,"i_long":106.811091,"distance":2029,"line":1,"i_lat":-6.185545,"station_id":"THB","is_transit":false},{"station_id":"DU","transit":false,"time":8,"i_lat":-6.155215,"station_name":"Duri","line":1,"i_long":106.800832,"is_transit":false,"distance":3632},{"station_name":"Angke","time":4,"distance":1230,"is_transit":false,"i_lat":-6.144674,"line":1,"i_long":106.79867,"station_id":"AK","transit":false},{"i_long":106.826365,"time":9,"line":4,"is_transit":true,"distance":4102,"station_id":"KPB","station_name":"Kampung Bandan","i_lat":-6.132549,"transit":true},{"station_id":"RJW","i_lat":-6.14505,"line":11,"time":3,"distance":1444,"transit":false,"station_name":"Rajawali","i_long":106.836569,"is_transit":false},{"is_transit":false,"transit":false,"i_lat":-6.161728,"i_long":106.839204,"distance":1901,"time":5,"station_id":"KMO","line":11,"station_name":"Kemayoran"},{"i_lat":-6.174784,"is_transit":false,"distance":1436,"i_long":106.84368,"line":11,"transit":false,"station_id":"PSE","station_name":"Pasar Senen","time":4},{"distance":1567,"line":11,"transit":false,"i_long":106.850107,"station_name":"Gang Sentiong","time":8,"is_transit":false,"station_id":"GST","i_lat":-6.185975}],[{"distance":0,"station_id":"CUK","i_long":106.951283,"station_name":"Cakung","line":1,"i_lat":-6.219053,"time":0,"is_transit":false,"transit":false},{"station_name":"Klenderbaru","i_long":106.939679,"is_transit":false,"distance":1385,"station_id":"KLDB","time":8,"i_lat":-6.217455,"transit":false,"line":1},{"i_lat":-6.215568,"i_long":106.922662,"time":1,"is_transit":false,"distance":1305,"station_name":"Buaran","line":1,"station_id":"BUA","transit":false},{"i_long":106.899548,"transit":false,"distance":3100,"i_lat":-6.2135,"station_name":"Klender","station_id":"KLD","is_transit":false,"line":1,"time":2},{"line":1,"i_lat":-6.215091,"transit":false,"station_id":"JNG","station_name":"Jatinegara","is_transit":false,"time":3,"distance":3395,"i_long":106.86807400000001},{"station_id":"MTR","is_transit":false,"distance":1377,"transit":false,"i_lat":-6.212485,"station_name":"Matraman","i_long":106.858896,"time":2,"line":1},{"time":2,"is_transit":true,"station_name":"Manggarai","i_lat":-6.209883,"distance":1275,"transit":true,"i_long":106.84912,"station_id":"MRI","line":2},{"is_transit":false,"line":2,"transit":false,"distance":1590,"i_long":106.840169,"station_name":"Cikini","i_lat":-6.198556,"station_id":"CKI","time":4},{"line":2,"distance":1750,"is_transit":false,"transit":false,"i_lat":-6.186295,"i_long":106.832183,"station_name":"Gondangdia","station_id":"GDD","time":3},{"transit":false,"i_lat":-6.166716,"line":2,"time":4,"distance":2015,"station_name":"Juanda","i_long":106.828284,"station_id":"JUA","is_transit":false},{"i_long":106.827103,"station_name":"Sawah Besar","transit":false,"i_lat":-6.160725,"line":2,"distance":1149,"time":2,"station_id":"SW","is_transit":false},{"transit":false,"time":2,"station_id":"MGB","i_long":106.82482,"is_transit":false,"distance":906,"station_name":"Manggabesar","i_lat":-6.149769,"line":2},{"time":2,"distance":1080,"station_name":"Jayakarta","transit":false,"i_lat":-6.141205,"is_transit":false,"i_long":106.820901,"line":2,"station_id":"JAY"},{"i_long":106.812439,"is_transit":true,"station_id":"JAKK","i_lat":-6.137569,"transit":true,"time":4,"station_name":"Jakarta Kota","line":2,"distance":1264},{"i_lat":-6.132549,"i_long":106.826365,"distance":1364,"station_id":"KPB","station_name":"Kampung Bandan","time":3,"line":4,"is_transit":true,"transit":true},{"time":3,"station_id":"RJW","distance":1444,"transit":false,"station_name":"Rajawali","is_transit":false,"i_long":106.836569,"i_lat":-6.14505,"line":11},{"distance":1901,"time":5,"station_id":"KMO","station_name":"Kemayoran","is_transit":false,"transit":false,"i_lat":-6.161728,"line":11,"i_long":106.839204},{"time":4,"station_id":"PSE","distance":1436,"i_long":106.84368,"transit":false,"line":11,"is_transit":false,"i_lat":-6.174784,"station_name":"Pasar Senen"},{"is_transit":false,"station_name":"Gang Sentiong","distance":1567,"i_lat":-6.185975,"i_long":106.850107,"station_id":"GST","line":11,"time":8,"transit":false}]]}