{"data":[[{"is_transit":false,"line":0,"distance":0,"station_id":"CUK","time":0,"transit":false,"station_name":"Cakung","i_lat":-6.219053,"i_long":106.951283},{"is_transit":false,"station_id":"KLDB","i_long":106.939679,"transit":false,"line":1,"time":8,"i_lat":-6.217455,"distance":1385,"station_name":"Klenderbaru"},{"station_name":"Buaran","i_lat":-6.215568,"i_long":106.922662,"distance":1305,"time":1,"station_id":"BUA","transit":false,"line":0,"is_transit":false},{"station_id":"KLD","is_transit":false,"i_lat":-6.2135,"distance":3100,"time":2,"station_name":"Klender","transit":false,"i_long":106.899548,"line":1},{"line":0,"transit":false,"station_id":"JNG","is_transit":true,"station_name":"Jatinegara","time":3,"distance":3395,"i_lat":-6.215091,"i_long":106.86807400000001},{"time":2,"station_id":"MTR","i_lat":-6.212485,"station_name":"Matraman","i_long":106.858896,"is_transit":false,"distance":1377,"transit":false,"line":1},{"transit":false,"i_long":106.84912,"line":0,"station_id":"MRI","station_name":"Manggarai","i_lat":-6.209883,"distance":1275,"is_transit":true,"time":2},{"line":1,"is_transit":false,"distance":3186,"station_id":"SUD","time":4,"station_name":"Sudirman","i_long":106.822649,"transit":false,"i_lat":-6.202263},{"is_transit":false,"i_lat":-6.201433,"i_long":106.819881,"line":1,"transit":false,"station_name":"Sudirman Baru","station_id":"SUDB","time":1,"distance":280},{"transit":false,"is_transit":false,"i_long":106.816351,"station_id":"KAT","station_name":"Karet","time":1,"distance":471,"i_lat":-6.20132,"line":1},{"i_lat":-6.185545,"station_name":"Tanah Abang","is_transit":true,"time":5,"distance":2029,"transit":true,"line":1,"station_id":"THB","i_long":106.811091},{"time":6,"station_id":"PLM","distance":3191,"is_transit":false,"line":6,"station_name":"Palmerah","transit":false,"i_lat":-6.207404,"i_long":106.79689},{"i_long":106.780334,"i_lat":-6.237242,"time":7,"line":6,"transit":false,"station_name":"Kebayoran","is_transit":false,"distance":3737,"station_id":"KBY"},{"station_name":"Pondokranji","i_lat":-6.276362,"time":8,"station_id":"PDJ","transit":false,"is_transit":false,"distance":6218,"line":6,"i_long":106.74273},{"station_id":"JMU","i_lat":-6.288927,"station_name":"Jurangmangu","transit":false,"line":6,"is_transit":false,"time":3,"distance":2179,"i_long":106.728916},{"time":4,"i_long":106.712277,"line":6,"is_transit":false,"station_id":"SDM","distance":1994,"station_name":"Sudimara","transit":false,"i_lat":-6.296963},{"i_lat":-6.314823,"line":6,"transit":false,"time":6,"station_name":"Rawa Buntu","station_id":"RU","is_transit":false,"distance":4566,"i_long":106.675475},{"transit":false,"time":4,"distance":2413,"station_name":"Serpong","i_long":106.66566,"station_id":"SRP","i_lat":-6.319871,"line":6,"is_transit":false}],[{"transit":false,"is_transit":false,"i_lat":-6.219053,"line":0,"station_id":"CUK","time":0,"i_long":106.951283,"station_name":"Cakung","distance":0},{"line":1,"is_transit":false,"time":8,"transit":false,"station_id":"KLDB","i_lat":-6.217455,"i_long":106.939679,"station_name":"Klenderbaru","distance":1385},{"is_transit":false,"station_name":"Buaran","transit":false,"station_id":"BUA","distance":1305,"i_lat":-6.215568,"i_long":106.922662,"time":1,"line":0},{"station_name":"Klender","i_long":106.899548,"transit":false,"is_transit":false,"line":1,"station_id":"KLD","time":2,"i_lat":-6.2135,"distance":3100},{"i_lat":-6.215091,"station_id":"JNG","transit":true,"is_transit":true,"time":3,"station_name":"Jatinegara","line":0,"i_long":106.86807400000001,"distance":3395},{"i_lat":-6.209188,"time":2,"transit":false,"station_id":"POK","distance":1236,"station_name":"Pondok Jati","is_transit":false,"i_long":106.861737,"line":11},{"i_long":106.855437,"line":11,"station_id":"KMT","is_transit":false,"station_name":"Kramat","time":2,"transit":false,"distance":1829,"i_lat":-6.193792},{"station_name":"Gang Sentiong","time":1,"i_long":106.850107,"transit":false,"is_transit":false,"i_lat":-6.185975,"line":11,"station_id":"GST","distance":973},{"is_transit":false,"station_name":"Pasar Senen","time":8,"station_id":"PSE","transit":false,"i_lat":-6.174784,"distance":1567,"line":11,"i_long":106.84368},{"station_name":"Kemayoran","i_long":106.839204,"time":4,"is_transit":false,"transit":false,"line":11,"distance":1436,"i_lat":-6.161728,"station_id":"KMO"},{"transit":false,"line":11,"station_id":"RJW","station_name":"Rajawali","time":5,"distance":1901,"i_long":106.836569,"i_lat":-6.14505,"is_transit":false},{"is_transit":true,"transit":true,"distance":1444,"station_id":"KPB","station_name":"Kampung Bandan","time":3,"i_lat":-6.132549,"line":0,"i_long":106.826365},{"i_lat":-6.144674,"line":0,"distance":4102,"transit":false,"station_id":"AK","time":9,"is_transit":false,"i_long":106.79867,"station_name":"Angke"},{"time":4,"line":1,"station_id":"DU","station_name":"Duri","transit":true,"i_lat":-6.155215,"is_transit":true,"i_long":106.800832,"distance":1230},{"i_lat":-6.185545,"station_name":"Tanah Abang","station_id":"THB","distance":3632,"time":8,"transit":true,"is_transit":true,"line":1,"i_long":106.811091},{"i_lat":-6.207404,"station_name":"Palmerah","time":6,"transit":false,"station_id":"PLM","is_transit":false,"i_long":106.79689,"distance":3191,"line":6},{"transit":false,"i_long":106.780334,"time":7,"distance":3737,"station_name":"Kebayoran","is_transit":false,"station_id":"KBY","i_lat":-6.237242,"line":6},{"station_name":"Pondokranji","transit":false,"station_id":"PDJ","i_long":106.74273,"i_lat":-6.276362,"is_transit":false,"distance":6218,"time":8,"line":6},{"is_transit":false,"distance":2179,"i_lat":-6.288927,"time":3,"station_name":"Jurangmangu","i_long":106.728916,"line":6,"transit":false,"station_id":"JMU"},{"is_transit":false,"line":6,"i_long":106.712277,"time":4,"distance":1994,"i_lat":-6.296963,"station_name":"Sudimara","transit":false,"station_id":"SDM"},{"i_long":106.675475,"line":6,"time":6,"distance":4566,"station_name":"Rawa Buntu","is_transit":false,"transit":false,"i_lat":-6.314823,"station_id":"RU"},{"transit":false,"i_lat":-6.319871,"time":4,"i_long":106.66566,"station_name":"Serpong","is_transit":false,"distance":2413,"station_id":"SRP","line":6}],[{"station_id":"CUK","transit":false,"distance":0,"station_name":"Cakung","i_long":106.951283,"is_transit":false,"i_lat":-6.219053,"line":0,"time":0},{"station_id":"KLDB","distance":1385,"line":1,"station_name":"Klenderbaru","is_transit":false,"time":8,"transit":false,"i_long":106.939679,"i_lat":-6.217455},{"transit":false,"station_id":"BUA","i_long":106.922662,"is_transit":false,"i_lat":-6.215568,"time":1,"station_name":"Buaran","line":0,"distance":1305},{"i_lat":-6.2135,"station_name":"Klender","i_long":106.899548,"station_id":"KLD","is_transit":false,"time":2,"distance":3100,"transit":false,"line":1},{"transit":false,"station_id":"JNG","time":3,"distance":3395,"is_transit":true,"i_lat":-6.215091,"i_long":106.86807400000001,"line":0,"station_name":"Jatinegara"},{"transit":false,"time":2,"i_long":106.858896,"station_id":"MTR","i_lat":-6.212485,"line":1,"station_name":"Matraman","distance":1377,"is_transit":false},{"station_id":"MRI","i_long":106.84912,"distance":1275,"i_lat":-6.209883,"transit":true,"line":0,"is_transit":true,"time":2,"station_name":"Manggarai"},{"is_transit":false,"i_long":106.840169,"line":0,"distance":1590,"station_id":"CKI","time":4,"station_name":"Cikini","transit":false,"i_lat":-6.198556},{"is_transit":false,"transit":false,"station_id":"GDD","time":3,"distance":1750,"i_lat":-6.186295,"station_name":"Gondangdia","i_long":106.832183,"line":2},{"i_lat":-6.166716,"distance":2015,"station_name":"Juanda","is_transit":false,"time":4,"transit":false,"i_long":106.828284,"station_id":"JUA","line":2},{"i_long":106.827103,"station_id":"SW","time":2,"distance":1149,"station_name":"Sawah Besar","line":2,"transit":false,"is_transit":false,"i_lat":-6.160725},{"i_long":106.82482,"is_transit":false,"time":2,"transit":false,"station_name":"Manggabesar","line":2,"station_id":"MGB","i_lat":-6.149769,"distance":906},{"i_lat":-6.141205,"station_name":"Jayakarta","line":7,"is_transit":false,"transit":false,"time":2,"station_id":"JAY","distance":1080,"i_long":106.820901},{"line":0,"i_lat":-6.137569,"time":4,"i_long":106.812439,"station_id":"JAKK","is_transit":true,"distance":1264,"station_name":"Jakarta Kota","transit":true},{"station_id":"KPB","station_name":"Kampung Bandan","transit":false,"i_lat":-6.132549,"i_long":106.826365,"line":0,"distance":1364,"time":3,"is_transit":true},{"time":9,"station_name":"Angke","distance":4102,"transit":false,"i_lat":-6.144674,"i_long":106.79867,"station_id":"AK","is_transit":false,"line":0},{"station_name":"Duri","distance":1230,"time":4,"station_id":"DU","transit":true,"is_transit":true,"i_long":106.800832,"line":1,"i_lat":-6.155215},{"station_id":"THB","distance":3632,"i_lat":-6.185545,"i_long":106.811091,"time":8,"line":1,"is_transit":true,"station_name":"Tanah Abang","transit":true},{"station_id":"PLM","station_name":"Palmerah","i_lat":-6.207404,"is_transit":false,"time":6,"i_long":106.79689,"line":6,"distance":3191,"transit":false},{"transit":false,"i_lat":-6.237242,"station_name":"Kebayoran","is_transit":false,"station_id":"KBY","i_long":106.780334,"line":6,"distance":3737,"time":7},{"time":8,"i_long":106.74273,"line":6,"distance":6218,"station_name":"Pondokranji","i_lat":-6.276362,"is_transit":false,"transit":false,"station_id":"PDJ"},{"distance":2179,"transit":false,"i_long":106.728916,"station_id":"JMU","time":3,"is_transit":false,"i_lat":-6.288927,"line":6,"station_name":"Jurangmangu"},{"i_lat":-6.296963,"i_long":106.712277,"time":4,"station_name":"Sudimara","transit":false,"is_transit":false,"station_id":"SDM","line":6,"distance":1994},{"i_long":106.675475,"line":6,"time":6,"station_name":"Rawa Buntu","transit":false,"station_id":"RU","i_lat":-6.314823,"is_transit":false,"distance":4566},{"is_transit":false,"time":4,"i_long":106.66566,"line":6,"i_lat":-6.319871,"transit":false,"distance":2413,"station_name":"Serpong","station_id":"SRP"}],[{"station_name":"Cakung","transit":false,"distance":0,"i_long":106.951283,"time":0,"line":0,"i_lat":-6.219053,"station_id":"CUK","is_transit":false},{"station_id":"KLDB","time":8,"i_lat":-6.217455,"line":1,"distance":1385,"i_long":106.939679,"station_name":"Klenderbaru","is_transit":false,"transit":false},{"transit":false,"line":0,"i_lat":-6.215568,"station_id":"BUA","distance":1305,"station_name":"Buaran","i_long":106.922662,"time":1,"is_transit":false},{"station_id":"KLD","station_name":"Klender","transit":false,"i_lat":-6.2135,"distance":3100,"is_transit":false,"time":2,"i_long":106.899548,"line":1},{"time":3,"transit":true,"is_transit":true,"distance":3395,"line":0,"i_lat":-6.215091,"i_long":106.86807400000001,"station_id":"JNG","station_name":"Jatinegara"},{"is_transit":false,"station_id":"POK","time":2,"station_name":"Pondok Jati","i_lat":-6.209188,"line":11,"distance":1236,"i_long":106.861737,"transit":false},{"station_id":"KMT","i_lat":-6.193792,"time":2,"transit":false,"distance":1829,"line":11,"is_transit":false,"station_name":"Kramat","i_long":106.855437},{"i_lat":-6.185975,"i_long":106.850107,"time":1,"line":11,"transit":false,"station_id":"GST","station_name":"Gang Sentiong","is_transit":false,"distance":973},{"station_id":"PSE","transit":false,"is_transit":false,"distance":1567,"station_name":"Pasar Senen","i_lat":-6.174784,"i_long":106.84368,"line":11,"time":8},{"line":11,"transit":false,"is_transit":false,"station_id":"KMO","station_name":"Kemayoran","i_long":106.839204,"time":4,"i_lat":-6.161728,"distance":1436},{"i_long":106.836569,"is_transit":false,"distance":1901,"station_id":"RJW","time":5,"transit":false,"i_lat":-6.14505,"station_name":"Rajawali","line":11},{"distance":1444,"i_lat":-6.132549,"time":3,"station_id":"KPB","i_long":106.826365,"transit":true,"station_name":"Kampung Bandan","is_transit":true,"line":0},{"line":0,"distance":1364,"time":3,"station_name":"Jakarta Kota","is_transit":true,"station_id":"JAKK","transit":true,"i_lat":-6.137569,"i_long":106.812439},{"line":7,"station_name":"Jayakarta","i_lat":-6.141205,"station_id":"JAY","time":4,"transit":false,"is_transit":false,"i_long":106.820901,"distance":1264},{"is_transit":false,"station_id":"MGB","distance":1080,"i_long":106.82482,"station_name":"Manggabesar","line":2,"transit":false,"time":2,"i_lat":-6.149769},{"station_id":"SW","is_transit":false,"time":2,"station_name":"Sawah Besar","transit":false,"distance":906,"i_lat":-6.160725,"line":2,"i_long":106.827103},{"i_lat":-6.166716,"i_long":106.828284,"time":2,"is_transit":false,"distance":1149,"line":2,"station_name":"Juanda","station_id":"JUA","transit":false},{"station_id":"GDD","is_transit":false,"time":4,"transit":false,"i_long":106.832183,"distance":2015,"station_name":"Gondangdia","i_lat":-6.186295,"line":2},{"i_long":106.840169,"is_transit":false,"time":3,"i_lat":-6.198556,"line":0,"distance":1750,"station_id":"CKI","station_name":"Cikini","transit":false},{"distance":1590,"time":4,"station_id":"MRI","transit":true,"line":0,"i_long":106.84912,"i_lat":-6.209883,"is_transit":true,"station_name":"Manggarai"},{"distance":3186,"is_transit":false,"transit":false,"i_lat":-6.202263,"line":1,"station_id":"SUD","time":4,"station_name":"Sudirman","i_long":106.822649},{"station_id":"SUDB","transit":false,"line":1,"is_transit":false,"time":1,"distance":280,"i_long":106.819881,"i_lat":-6.201433,"station_name":"Sudirman Baru"},{"distance":471,"i_long":106.816351,"station_id":"KAT","transit":false,"line":1,"time":1,"station_name":"Karet","is_transit":false,"i_lat":-6.20132},{"i_lat":-6.185545,"line":1,"time":5,"station_id":"THB","transit":true,"distance":2029,"i_long":106.811091,"station_name":"Tanah Abang","is_transit":true},{"i_lat":-6.207404,"transit":false,"time":6,"line":6,"station_id":"PLM","i_long":106.79689,"station_name":"Palmerah","distance":3191,"is_transit":false},{"distance":3737,"i_long":106.780334,"station_name":"Kebayoran","transit":false,"is_transit":false,"line":6,"i_lat":-6.237242,"station_id":"KBY","time":7},{"line":6,"i_lat":-6.276362,"i_long":106.74273,"station_name":"Pondokranji","station_id":"PDJ","is_transit":false,"distance":6218,"time":8,"transit":false},{"distance":2179,"time":3,"station_name":"Jurangmangu","transit":false,"station_id":"JMU","i_lat":-6.288927,"is_transit":false,"i_long":106.728916,"line":6},{"transit":false,"time":4,"distance":1994,"i_lat":-6.296963,"line":6,"is_transit":false,"station_name":"Sudimara","i_long":106.712277,"station_id":"SDM"},{"distance":4566,"station_id":"RU","station_name":"Rawa Buntu","i_lat":-6.314823,"time":6,"transit":false,"line":6,"is_transit":false,"i_long":106.675475},{"station_name":"Serpong","distance":2413,"time":4,"line":6,"is_transit":false,"i_lat":-6.319871,"transit":false,"station_id":"SRP","i_long":106.66566}]]}