{"data":[[{"time":0,"i_lat":-6.219053,"station_name":"Cakung","station_id":"CUK","line":1,"transit":false,"i_long":106.951283,"distance":0,"is_transit":false},{"station_name":"Klenderbaru","is_transit":false,"distance":1385,"i_lat":-6.217455,"i_long":106.939679,"time":8,"transit":false,"station_id":"KLDB","line":1},{"i_lat":-6.215568,"station_name":"Buaran","is_transit":false,"i_long":106.922662,"station_id":"BUA","line":1,"transit":false,"time":1,"distance":1305},{"transit":false,"i_lat":-6.2135,"i_long":106.899548,"line":1,"station_id":"KLD","distance":3100,"is_transit":false,"station_name":"Klender","time":2},{"transit":false,"station_name":"Jatinegara","is_transit":false,"i_lat":-6.215091,"time":3,"line":1,"station_id":"JNG","i_long":106.86807400000001,"distance":3395},{"station_name":"Matraman","time":2,"i_long":106.858896,"transit":false,"distance":1377,"i_lat":-6.212485,"line":1,"is_transit":false,"station_id":"MTR"},{"time":2,"is_transit":false,"station_name":"Manggarai","station_id":"MRI","i_long":106.84912,"line":2,"transit":false,"i_lat":-6.209883,"distance":1275},{"distance":3186,"transit":false,"time":4,"station_id":"SUD","i_lat":-6.202263,"i_long":106.822649,"is_transit":false,"line":1,"station_name":"Sudirman"},{"transit":false,"i_long":106.819881,"line":1,"station_name":"Sudirman Baru","distance":280,"time":1,"is_transit":false,"i_lat":-6.201433,"station_id":"SUDB"},{"time":1,"station_name":"Karet","is_transit":false,"line":1,"transit":false,"station_id":"KAT","distance":471,"i_lat":-6.20132,"i_long":106.816351},{"i_long":106.811091,"line":1,"station_name":"Tanah Abang","is_transit":true,"transit":true,"distance":2029,"station_id":"THB","time":5,"i_lat":-6.185545},{"line":6,"station_id":"PLM","distance":3191,"i_lat":-6.207404,"transit":false,"station_name":"Palmerah","i_long":106.79689,"is_transit":false,"time":6},{"station_id":"KBY","line":6,"i_lat":-6.237242,"is_transit":false,"time":7,"distance":3737,"transit":false,"station_name":"Kebayoran","i_long":106.780334},{"time":8,"i_long":106.74273,"line":6,"i_lat":-6.276362,"station_id":"PDJ","is_transit":false,"station_name":"Pondokranji","distance":6218,"transit":false},{"station_name":"Jurangmangu","i_long":106.728916,"is_transit":false,"station_id":"JMU","transit":false,"i_lat":-6.288927,"line":6,"distance":2179,"time":3},{"i_lat":-6.296963,"distance":1994,"is_transit":false,"station_name":"Sudimara","transit":false,"station_id":"SDM","time":4,"i_long":106.712277,"line":6},{"station_name":"Rawa Buntu","is_transit":false,"station_id":"RU","distance":4566,"transit":false,"i_lat":-6.314823,"i_long":106.675475,"time":6,"line":6},{"i_lat":-6.319871,"i_long":106.66566,"transit":false,"is_transit":false,"time":4,"line":6,"station_name":"Serpong","distance":2413,"station_id":"SRP"},{"i_long":106.640411,"station_name":"Cisauk","station_id":"CSK","is_transit":false,"i_lat":-6.32484,"time":4,"line":3,"distance":1784,"transit":false},{"distance":2519,"i_long":106.617853,"line":3,"transit":false,"station_name":"Cicayur","is_transit":false,"i_lat":-6.329547,"station_id":"CC","time":4},{"station_id":"PRP","transit":false,"i_long":106.568863,"time":8,"is_transit":false,"station_name":"Parung Panjang","distance":5968,"line":6,"i_lat":-6.3441410000000005},{"line":3,"station_id":"CJT","station_name":"Cilejit","i_lat":-6.354349,"i_long":106.508482,"transit":false,"is_transit":false,"distance":7025,"time":9}],[{"line":1,"station_id":"CUK","is_transit":false,"distance":0,"time":0,"transit":false,"i_lat":-6.219053,"station_name":"Cakung","i_long":106.951283},{"transit":false,"i_lat":-6.217455,"i_long":106.939679,"distance":1385,"line":1,"station_name":"Klenderbaru","is_transit":false,"time":8,"station_id":"KLDB"},{"i_long":106.922662,"station_name":"Buaran","transit":false,"time":1,"distance":1305,"i_lat":-6.215568,"line":1,"station_id":"BUA","is_transit":false},{"time":2,"i_long":106.899548,"is_transit":false,"line":1,"i_lat":-6.2135,"station_id":"KLD","distance":3100,"station_name":"Klender","transit":false},{"line":1,"station_name":"Jatinegara","i_lat":-6.215091,"i_long":106.86807400000001,"time":3,"transit":true,"station_id":"JNG","is_transit":true,"distance":3395},{"time":2,"distance":1236,"station_id":"POK","line":11,"transit":false,"station_name":"Pondok Jati","i_long":106.861737,"is_transit":false,"i_lat":-6.209188},{"station_id":"KMT","is_transit":false,"transit":false,"station_name":"Kramat","time":2,"i_long":106.855437,"distance":1829,"line":11,"i_lat":-6.193792},{"time":1,"i_long":106.850107,"station_name":"Gang Sentiong","transit":false,"is_transit":false,"station_id":"GST","distance":973,"i_lat":-6.185975,"line":11},{"distance":1567,"transit":false,"station_id":"PSE","station_name":"Pasar Senen","is_transit":false,"i_lat":-6.174784,"time":8,"i_long":106.84368,"line":11},{"distance":1436,"line":11,"is_transit":false,"i_lat":-6.161728,"time":4,"i_long":106.839204,"transit":false,"station_id":"KMO","station_name":"Kemayoran"},{"is_transit":false,"line":11,"transit":false,"station_name":"Rajawali","station_id":"RJW","distance":1901,"i_long":106.836569,"i_lat":-6.14505,"time":5},{"station_id":"KPB","i_lat":-6.132549,"station_name":"Kampung Bandan","transit":true,"is_transit":true,"line":4,"distance":1444,"time":3,"i_long":106.826365},{"time":9,"distance":4102,"i_lat":-6.144674,"i_long":106.79867,"line":1,"is_transit":false,"station_id":"AK","station_name":"Angke","transit":false},{"station_id":"DU","line":1,"station_name":"Duri","transit":false,"distance":1230,"i_long":106.800832,"i_lat":-6.155215,"time":4,"is_transit":false},{"station_id":"THB","i_lat":-6.185545,"is_transit":true,"distance":3632,"station_name":"Tanah Abang","line":1,"i_long":106.811091,"transit":true,"time":8},{"transit":false,"line":6,"time":6,"station_id":"PLM","i_long":106.79689,"station_name":"Palmerah","i_lat":-6.207404,"distance":3191,"is_transit":false},{"station_name":"Kebayoran","line":6,"time":7,"transit":false,"i_lat":-6.237242,"i_long":106.780334,"distance":3737,"station_id":"KBY","is_transit":false},{"i_lat":-6.276362,"i_long":106.74273,"distance":6218,"line":6,"station_id":"PDJ","is_transit":false,"station_name":"Pondokranji","transit":false,"time":8},{"station_id":"JMU","time":3,"transit":false,"is_transit":false,"distance":2179,"i_lat":-6.288927,"station_name":"Jurangmangu","line":6,"i_long":106.728916},{"distance":1994,"i_long":106.712277,"line":6,"i_lat":-6.296963,"is_transit":false,"station_id":"SDM","transit":false,"station_name":"Sudimara","time":4},{"time":6,"i_long":106.675475,"station_id":"RU","line":6,"station_name":"Rawa Buntu","distance":4566,"is_transit":false,"i_lat":-6.314823,"transit":false},{"is_transit":false,"distance":2413,"i_lat":-6.319871,"transit":false,"station_name":"Serpong","station_id":"SRP","time":4,"line":6,"i_long":106.66566},{"time":4,"line":3,"transit":false,"distance":1784,"i_lat":-6.32484,"station_id":"CSK","i_long":106.640411,"station_name":"Cisauk","is_transit":false},{"i_long":106.617853,"station_name":"Cicayur","is_transit":false,"time":4,"transit":false,"line":3,"distance":2519,"i_lat":-6.329547,"station_id":"CC"},{"distance":5968,"transit":false,"i_long":106.568863,"line":6,"i_lat":-6.3441410000000005,"time":8,"is_transit":false,"station_name":"Parung Panjang","station_id":"PRP"},{"distance":7025,"transit":false,"line":3,"station_id":"CJT","is_transit":false,"station_name":"Cilejit","time":9,"i_lat":-6.354349,"i_long":106.508482}],[{"distance":0,"station_name":"Cakung","i_long":106.951283,"transit":false,"is_transit":false,"station_id":"CUK","time":0,"i_lat":-6.219053,"line":1},{"i_lat":-6.217455,"transit":false,"station_id":"KLDB","distance":1385,"station_name":"Klenderbaru","time":8,"is_transit":false,"line":1,"i_long":106.939679},{"line":1,"time":1,"distance":1305,"station_name":"Buaran","is_transit":false,"i_long":106.922662,"station_id":"BUA","transit":false,"i_lat":-6.215568},{"station_id":"KLD","is_transit":false,"time":2,"i_lat":-6.2135,"i_long":106.899548,"distance":3100,"line":1,"transit":false,"station_name":"Klender"},{"time":3,"is_transit":false,"station_id":"JNG","distance":3395,"i_lat":-6.215091,"i_long":106.86807400000001,"line":1,"transit":false,"station_name":"Jatinegara"},{"time":2,"i_lat":-6.212485,"transit":false,"station_name":"Matraman","station_id":"MTR","is_transit":false,"distance":1377,"i_long":106.858896,"line":1},{"station_name":"Manggarai","station_id":"MRI","i_long":106.84912,"time":2,"transit":true,"is_transit":true,"distance":1275,"i_lat":-6.209883,"line":2},{"line":2,"is_transit":false,"i_long":106.840169,"station_name":"Cikini","distance":1590,"station_id":"CKI","transit":false,"time":4,"i_lat":-6.198556},{"station_id":"GDD","i_long":106.832183,"transit":false,"i_lat":-6.186295,"distance":1750,"time":3,"station_name":"Gondangdia","is_transit":false,"line":2},{"station_name":"Juanda","station_id":"JUA","line":2,"time":4,"distance":2015,"is_transit":false,"transit":false,"i_lat":-6.166716,"i_long":106.828284},{"is_transit":false,"transit":false,"station_name":"Sawah Besar","station_id":"SW","time":2,"i_long":106.827103,"line":2,"distance":1149,"i_lat":-6.160725},{"transit":false,"time":2,"distance":906,"line":2,"i_long":106.82482,"station_id":"MGB","station_name":"Manggabesar","is_transit":false,"i_lat":-6.149769},{"station_name":"Jayakarta","is_transit":false,"line":2,"station_id":"JAY","transit":false,"distance":1080,"i_lat":-6.141205,"time":2,"i_long":106.820901},{"station_id":"JAKK","transit":true,"distance":1264,"i_long":106.812439,"line":2,"time":4,"i_lat":-6.137569,"is_transit":true,"station_name":"Jakarta Kota"},{"i_lat":-6.132549,"line":4,"station_id":"KPB","is_transit":true,"transit":true,"time":3,"station_name":"Kampung Bandan","i_long":106.826365,"distance":1364},{"distance":4102,"time":9,"i_lat":-6.144674,"station_name":"Angke","is_transit":false,"i_long":106.79867,"station_id":"AK","line":1,"transit":false},{"time":4,"station_name":"Duri","is_transit":false,"transit":false,"i_lat":-6.155215,"i_long":106.800832,"distance":1230,"line":1,"station_id":"DU"},{"station_name":"Tanah Abang","is_transit":true,"i_lat":-6.185545,"i_long":106.811091,"line":1,"station_id":"THB","time":8,"distance":3632,"transit":true},{"i_lat":-6.207404,"distance":3191,"transit":false,"is_transit":false,"station_name":"Palmerah","line":6,"i_long":106.79689,"station_id":"PLM","time":6},{"time":7,"i_lat":-6.237242,"line":6,"is_transit":false,"station_id":"KBY","i_long":106.780334,"transit":false,"station_name":"Kebayoran","distance":3737},{"time":8,"i_long":106.74273,"distance":6218,"line":6,"station_id":"PDJ","transit":false,"i_lat":-6.276362,"station_name":"Pondokranji","is_transit":false},{"time":3,"station_name":"Jurangmangu","line":6,"station_id":"JMU","i_lat":-6.288927,"transit":false,"is_transit":false,"distance":2179,"i_long":106.728916},{"line":6,"time":4,"distance":1994,"i_lat":-6.296963,"i_long":106.712277,"station_name":"Sudimara","is_transit":false,"transit":false,"station_id":"SDM"},{"i_long":106.675475,"station_name":"Rawa Buntu","station_id":"RU","is_transit":false,"distance":4566,"i_lat":-6.314823,"transit":false,"line":6,"time":6},{"station_id":"SRP","i_lat":-6.319871,"i_long":106.66566,"is_transit":false,"time":4,"distance":2413,"station_name":"Serpong","line":6,"transit":false},{"station_id":"CSK","line":3,"time":4,"i_long":106.640411,"station_name":"Cisauk","distance":1784,"is_transit":false,"i_lat":-6.32484,"transit":false},{"time":4,"distance":2519,"station_id":"CC","transit":false,"i_long":106.617853,"line":3,"i_lat":-6.329547,"station_name":"Cicayur","is_transit":false},{"i_long":106.568863,"is_transit":false,"distance":5968,"transit":false,"station_name":"Parung Panjang","line":6,"i_lat":-6.3441410000000005,"station_id":"PRP","time":8},{"i_lat":-6.354349,"i_long":106.508482,"station_id":"CJT","line":3,"time":9,"distance":7025,"station_name":"Cilejit","is_transit":false,"transit":false}],[{"station_name":"Cakung","i_lat":-6.219053,"is_transit":false,"line":1,"time":0,"transit":false,"i_long":106.951283,"station_id":"CUK","distance":0},{"station_id":"KLDB","distance":1385,"i_long":106.939679,"is_transit":false,"line":1,"time":8,"transit":false,"station_name":"Klenderbaru","i_lat":-6.217455},{"station_name":"Buaran","line":1,"distance":1305,"is_transit":false,"station_id":"BUA","time":1,"transit":false,"i_lat":-6.215568,"i_long":106.922662},{"transit":false,"station_id":"KLD","i_lat":-6.2135,"distance":3100,"time":2,"is_transit":false,"station_name":"Klender","i_long":106.899548,"line":1},{"station_id":"JNG","i_long":106.86807400000001,"station_name":"Jatinegara","line":1,"is_transit":true,"transit":true,"i_lat":-6.215091,"distance":3395,"time":3},{"transit":false,"time":2,"i_lat":-6.209188,"i_long":106.861737,"station_name":"Pondok Jati","station_id":"POK","distance":1236,"line":11,"is_transit":false},{"station_name":"Kramat","transit":false,"is_transit":false,"time":2,"i_long":106.855437,"i_lat":-6.193792,"line":11,"distance":1829,"station_id":"KMT"},{"time":1,"is_transit":false,"i_lat":-6.185975,"line":11,"distance":973,"station_name":"Gang Sentiong","transit":false,"station_id":"GST","i_long":106.850107},{"time":8,"distance":1567,"i_long":106.84368,"line":11,"station_id":"PSE","is_transit":false,"station_name":"Pasar Senen","i_lat":-6.174784,"transit":false},{"distance":1436,"station_id":"KMO","transit":false,"is_transit":false,"time":4,"i_lat":-6.161728,"i_long":106.839204,"line":11,"station_name":"Kemayoran"},{"transit":false,"is_transit":false,"time":5,"distance":1901,"station_name":"Rajawali","i_lat":-6.14505,"i_long":106.836569,"station_id":"RJW","line":11},{"i_long":106.826365,"station_name":"Kampung Bandan","i_lat":-6.132549,"transit":true,"time":3,"is_transit":true,"line":4,"distance":1444,"station_id":"KPB"},{"i_lat":-6.137569,"distance":1364,"i_long":106.812439,"line":2,"time":3,"station_name":"Jakarta Kota","is_transit":true,"station_id":"JAKK","transit":true},{"line":2,"distance":1264,"station_name":"Jayakarta","transit":false,"station_id":"JAY","is_transit":false,"time":4,"i_lat":-6.141205,"i_long":106.820901},{"transit":false,"station_id":"MGB","line":2,"i_lat":-6.149769,"time":2,"distance":1080,"station_name":"Manggabesar","is_transit":false,"i_long":106.82482},{"station_id":"SW","line":2,"distance":906,"station_name":"Sawah Besar","i_long":106.827103,"is_transit":false,"time":2,"i_lat":-6.160725,"transit":false},{"transit":false,"i_long":106.828284,"distance":1149,"station_id":"JUA","line":2,"is_transit":false,"station_name":"Juanda","i_lat":-6.166716,"time":2},{"transit":false,"distance":2015,"station_name":"Gondangdia","time":4,"i_lat":-6.186295,"i_long":106.832183,"station_id":"GDD","line":2,"is_transit":false},{"station_name":"Cikini","transit":false,"line":2,"station_id":"CKI","i_lat":-6.198556,"i_long":106.840169,"is_transit":false,"time":3,"distance":1750},{"is_transit":true,"line":2,"i_lat":-6.209883,"transit":true,"station_name":"Manggarai","distance":1590,"i_long":106.84912,"station_id":"MRI","time":4},{"line":1,"is_transit":false,"i_long":106.822649,"station_id":"SUD","i_lat":-6.202263,"time":4,"transit":false,"distance":3186,"station_name":"Sudirman"},{"time":1,"i_lat":-6.201433,"station_name":"Sudirman Baru","is_transit":false,"line":1,"station_id":"SUDB","transit":false,"distance":280,"i_long":106.819881},{"i_long":106.816351,"transit":false,"distance":471,"station_id":"KAT","time":1,"is_transit":false,"i_lat":-6.20132,"line":1,"station_name":"Karet"},{"is_transit":true,"i_long":106.811091,"i_lat":-6.185545,"line":1,"distance":2029,"transit":true,"station_name":"Tanah Abang","station_id":"THB","time":5},{"time":6,"station_id":"PLM","i_long":106.79689,"i_lat":-6.207404,"station_name":"Palmerah","is_transit":false,"distance":3191,"transit":false,"line":6},{"transit":false,"time":7,"is_transit":false,"i_lat":-6.237242,"line":6,"station_id":"KBY","i_long":106.780334,"station_name":"Kebayoran","distance":3737},{"is_transit":false,"i_lat":-6.276362,"time":8,"station_id":"PDJ","line":6,"distance":6218,"i_long":106.74273,"transit":false,"station_name":"Pondokranji"},{"is_transit":false,"station_id":"JMU","i_lat":-6.288927,"transit":false,"line":6,"station_name":"Jurangmangu","time":3,"distance":2179,"i_long":106.728916},{"i_long":106.712277,"line":6,"is_transit":false,"distance":1994,"station_name":"Sudimara","transit":false,"time":4,"i_lat":-6.296963,"station_id":"SDM"},{"time":6,"station_name":"Rawa Buntu","transit":false,"is_transit":false,"i_lat":-6.314823,"i_long":106.675475,"line":6,"station_id":"RU","distance":4566},{"i_long":106.66566,"station_id":"SRP","station_name":"Serpong","is_transit":false,"i_lat":-6.319871,"distance":2413,"time":4,"line":6,"transit":false},{"distance":1784,"line":3,"i_long":106.640411,"station_id":"CSK","transit":false,"is_transit":false,"station_name":"Cisauk","i_lat":-6.32484,"time":4},{"station_id":"CC","i_long":106.617853,"transit":false,"station_name":"Cicayur","i_lat":-6.329547,"line":3,"is_transit":false,"time":4,"distance":2519},{"i_long":106.568863,"is_transit":false,"line":6,"time":8,"distance":5968,"transit":false,"station_name":"Parung Panjang","station_id":"PRP","i_lat":-6.3441410000000005},{"i_lat":-6.354349,"i_long":106.508482,"is_transit":false,"time":9,"distance":7025,"station_id":"CJT","transit":false,"line":3,"station_name":"Cilejit"}]]}