{"data":[[{"station_name":"Cakung","time":0,"transit":false,"line":1,"is_transit":false,"station_id":"CUK","i_lat":-6.219053,"i_long":106.951283,"distance":0},{"transit":false,"time":8,"is_transit":false,"station_id":"KLDB","i_lat":-6.217455,"i_long":106.939679,"station_name":"Klenderbaru","line":1,"distance":1385},{"station_id":"BUA","is_transit":false,"time":1,"i_lat":-6.215568,"transit":false,"station_name":"Buaran","distance":1305,"i_long":106.922662,"line":1},{"time":2,"is_transit":false,"i_lat":-6.2135,"station_name":"Klender","transit":false,"distance":3100,"station_id":"KLD","i_long":106.899548,"line":1},{"transit":false,"distance":3395,"time":3,"station_name":"Jatinegara","station_id":"JNG","i_long":106.86807400000001,"is_transit":false,"i_lat":-6.215091,"line":1},{"distance":1377,"i_lat":-6.212485,"is_transit":false,"station_id":"MTR","station_name":"Matraman","time":2,"line":1,"i_long":106.858896,"transit":false},{"station_id":"MRI","line":2,"transit":true,"is_transit":true,"station_name":"Manggarai","distance":1275,"i_lat":-6.209883,"i_long":106.84912,"time":2},{"is_transit":false,"i_long":106.840169,"transit":false,"station_name":"Cikini","line":2,"time":4,"i_lat":-6.198556,"station_id":"CKI","distance":1590},{"is_transit":false,"transit":false,"i_lat":-6.186295,"station_name":"Gondangdia","station_id":"GDD","time":3,"i_long":106.832183,"distance":1750,"line":2}],[{"station_id":"CUK","distance":0,"time":0,"i_lat":-6.219053,"line":1,"transit":false,"is_transit":false,"i_long":106.951283,"station_name":"Cakung"},{"station_id":"KLDB","i_lat":-6.217455,"is_transit":false,"transit":false,"distance":1385,"line":1,"station_name":"Klenderbaru","time":8,"i_long":106.939679},{"transit":false,"distance":1305,"i_long":106.922662,"station_id":"BUA","station_name":"Buaran","is_transit":false,"i_lat":-6.215568,"time":1,"line":1},{"distance":3100,"i_lat":-6.2135,"station_id":"KLD","time":2,"i_long":106.899548,"is_transit":false,"transit":false,"station_name":"Klender","line":1},{"line":1,"transit":true,"time":3,"station_name":"Jatinegara","is_transit":true,"distance":3395,"i_long":106.86807400000001,"station_id":"JNG","i_lat":-6.215091},{"i_long":106.861737,"is_transit":false,"distance":1236,"station_id":"POK","line":11,"time":2,"station_name":"Pondok Jati","transit":false,"i_lat":-6.209188},{"i_lat":-6.193792,"station_name":"Kramat","is_transit":false,"i_long":106.855437,"transit":false,"line":11,"distance":1829,"time":2,"station_id":"KMT"},{"transit":false,"line":11,"distance":973,"i_long":106.850107,"time":1,"i_lat":-6.185975,"is_transit":false,"station_id":"GST","station_name":"Gang Sentiong"},{"distance":1567,"line":11,"transit":false,"time":8,"station_id":"PSE","station_name":"Pasar Senen","is_transit":false,"i_lat":-6.174784,"i_long":106.84368},{"time":4,"station_id":"KMO","distance":1436,"station_name":"Kemayoran","transit":false,"i_lat":-6.161728,"i_long":106.839204,"line":11,"is_transit":false},{"station_id":"RJW","i_long":106.836569,"line":11,"i_lat":-6.14505,"is_transit":false,"time":5,"transit":false,"station_name":"Rajawali","distance":1901},{"station_name":"Kampung Bandan","line":4,"station_id":"KPB","is_transit":true,"distance":1444,"i_lat":-6.132549,"i_long":106.826365,"time":3,"transit":true},{"is_transit":true,"station_id":"JAKK","i_lat":-6.137569,"line":2,"i_long":106.812439,"transit":true,"time":3,"distance":1364,"station_name":"Jakarta Kota"},{"station_name":"Jayakarta","i_long":106.820901,"transit":false,"distance":1264,"line":2,"station_id":"JAY","is_transit":false,"time":4,"i_lat":-6.141205},{"i_lat":-6.149769,"time":2,"is_transit":false,"transit":false,"station_name":"Manggabesar","distance":1080,"line":2,"i_long":106.82482,"station_id":"MGB"},{"station_name":"Sawah Besar","time":2,"is_transit":false,"i_long":106.827103,"i_lat":-6.160725,"distance":906,"station_id":"SW","transit":false,"line":2},{"transit":false,"is_transit":false,"station_id":"JUA","time":2,"distance":1149,"line":2,"i_long":106.828284,"station_name":"Juanda","i_lat":-6.166716},{"time":4,"i_lat":-6.186295,"transit":false,"distance":2015,"i_long":106.832183,"line":2,"station_name":"Gondangdia","is_transit":false,"station_id":"GDD"}],[{"station_id":"CUK","time":0,"i_lat":-6.219053,"line":1,"i_long":106.951283,"distance":0,"transit":false,"is_transit":false,"station_name":"Cakung"},{"distance":1385,"i_lat":-6.217455,"station_name":"Klenderbaru","i_long":106.939679,"line":1,"transit":false,"time":8,"is_transit":false,"station_id":"KLDB"},{"i_lat":-6.215568,"time":1,"is_transit":false,"distance":1305,"station_name":"Buaran","transit":false,"line":1,"i_long":106.922662,"station_id":"BUA"},{"i_long":106.899548,"distance":3100,"station_id":"KLD","transit":false,"time":2,"station_name":"Klender","i_lat":-6.2135,"line":1,"is_transit":false},{"station_name":"Jatinegara","i_long":106.86807400000001,"time":3,"is_transit":false,"transit":false,"station_id":"JNG","distance":3395,"line":1,"i_lat":-6.215091},{"i_lat":-6.212485,"time":2,"is_transit":false,"i_long":106.858896,"station_id":"MTR","transit":false,"station_name":"Matraman","line":1,"distance":1377},{"is_transit":false,"station_id":"MRI","time":2,"distance":1275,"i_lat":-6.209883,"station_name":"Manggarai","i_long":106.84912,"transit":false,"line":2},{"i_lat":-6.202263,"station_id":"SUD","transit":false,"time":4,"line":1,"station_name":"Sudirman","i_long":106.822649,"distance":3186,"is_transit":false},{"time":1,"station_name":"Sudirman Baru","line":1,"distance":280,"i_lat":-6.201433,"is_transit":false,"station_id":"SUDB","transit":false,"i_long":106.819881},{"i_lat":-6.20132,"line":1,"distance":471,"is_transit":false,"time":1,"station_id":"KAT","i_long":106.816351,"transit":false,"station_name":"Karet"},{"time":5,"station_id":"THB","i_long":106.811091,"distance":2029,"line":1,"is_transit":false,"station_name":"Tanah Abang","transit":false,"i_lat":-6.185545},{"i_lat":-6.155215,"transit":false,"is_transit":false,"line":1,"time":8,"station_id":"DU","distance":3632,"i_long":106.800832,"station_name":"Duri"},{"time":4,"distance":1230,"i_long":106.79867,"is_transit":false,"i_lat":-6.144674,"line":1,"station_name":"Angke","transit":false,"station_id":"AK"},{"time":9,"transit":true,"is_transit":true,"station_id":"KPB","i_lat":-6.132549,"station_name":"Kampung Bandan","distance":4102,"i_long":106.826365,"line":4},{"distance":1364,"i_long":106.812439,"station_id":"JAKK","transit":true,"time":3,"line":2,"station_name":"Jakarta Kota","is_transit":true,"i_lat":-6.137569},{"transit":false,"distance":1264,"station_id":"JAY","i_long":106.820901,"line":2,"station_name":"Jayakarta","i_lat":-6.141205,"is_transit":false,"time":4},{"line":2,"station_name":"Manggabesar","transit":false,"is_transit":false,"i_lat":-6.149769,"station_id":"MGB","distance":1080,"time":2,"i_long":106.82482},{"transit":false,"station_name":"Sawah Besar","station_id":"SW","distance":906,"is_transit":false,"time":2,"i_lat":-6.160725,"line":2,"i_long":106.827103},{"is_transit":false,"distance":1149,"i_lat":-6.166716,"station_id":"JUA","time":2,"line":2,"i_long":106.828284,"transit":false,"station_name":"Juanda"},{"station_id":"GDD","distance":2015,"i_long":106.832183,"line":2,"transit":false,"is_transit":false,"station_name":"Gondangdia","time":4,"i_lat":-6.186295}],[{"station_name":"Cakung","station_id":"CUK","time":0,"is_transit":false,"distance":0,"i_lat":-6.219053,"transit":false,"line":1,"i_long":106.951283},{"transit":false,"station_name":"Klenderbaru","line":1,"is_transit":false,"distance":1385,"time":8,"i_long":106.939679,"i_lat":-6.217455,"station_id":"KLDB"},{"line":1,"time":1,"i_lat":-6.215568,"station_id":"BUA","is_transit":false,"transit":false,"i_long":106.922662,"station_name":"Buaran","distance":1305},{"station_id":"KLD","i_lat":-6.2135,"i_long":106.899548,"distance":3100,"is_transit":false,"time":2,"station_name":"Klender","line":1,"transit":false},{"station_id":"JNG","time":3,"i_lat":-6.215091,"is_transit":true,"distance":3395,"transit":true,"i_long":106.86807400000001,"line":1,"station_name":"Jatinegara"},{"distance":1236,"i_long":106.861737,"station_id":"POK","i_lat":-6.209188,"station_name":"Pondok Jati","is_transit":false,"transit":false,"time":2,"line":11},{"time":2,"station_id":"KMT","i_lat":-6.193792,"is_transit":false,"distance":1829,"i_long":106.855437,"line":11,"transit":false,"station_name":"Kramat"},{"i_lat":-6.185975,"line":11,"is_transit":false,"i_long":106.850107,"distance":973,"station_id":"GST","transit":false,"station_name":"Gang Sentiong","time":1},{"time":8,"i_long":106.84368,"station_id":"PSE","line":11,"is_transit":false,"i_lat":-6.174784,"station_name":"Pasar Senen","distance":1567,"transit":false},{"distance":1436,"i_long":106.839204,"transit":false,"station_name":"Kemayoran","line":11,"station_id":"KMO","i_lat":-6.161728,"time":4,"is_transit":false},{"station_id":"RJW","i_long":106.836569,"line":11,"i_lat":-6.14505,"is_transit":false,"time":5,"transit":false,"station_name":"Rajawali","distance":1901},{"is_transit":true,"i_long":106.826365,"station_id":"KPB","transit":true,"station_name":"Kampung Bandan","i_lat":-6.132549,"line":4,"time":3,"distance":1444},{"distance":4102,"time":9,"i_lat":-6.144674,"transit":false,"station_id":"AK","station_name":"Angke","i_long":106.79867,"line":1,"is_transit":false},{"line":1,"transit":false,"station_id":"DU","distance":1230,"i_lat":-6.155215,"i_long":106.800832,"station_name":"Duri","time":4,"is_transit":false},{"i_lat":-6.185545,"transit":false,"time":8,"station_name":"Tanah Abang","distance":3632,"i_long":106.811091,"line":1,"station_id":"THB","is_transit":false},{"is_transit":false,"station_id":"KAT","distance":2029,"i_long":106.816351,"time":5,"transit":false,"station_name":"Karet","i_lat":-6.20132,"line":1},{"station_name":"Sudirman Baru","line":1,"station_id":"SUDB","i_lat":-6.201433,"i_long":106.819881,"transit":false,"distance":471,"is_transit":false,"time":1},{"is_transit":false,"transit":false,"distance":280,"i_lat":-6.202263,"station_id":"SUD","station_name":"Sudirman","time":1,"i_long":106.822649,"line":1},{"distance":3186,"station_name":"Manggarai","is_transit":true,"time":4,"i_lat":-6.209883,"line":2,"transit":true,"i_long":106.84912,"station_id":"MRI"},{"transit":false,"is_transit":false,"i_long":106.840169,"station_id":"CKI","line":2,"i_lat":-6.198556,"distance":1590,"time":4,"station_name":"Cikini"},{"station_id":"GDD","i_lat":-6.186295,"time":3,"is_transit":false,"distance":1750,"i_long":106.832183,"station_name":"Gondangdia","transit":false,"line":2}]]}