{"data":[[{"is_transit":false,"i_lat":-6.219053,"time":0,"distance":0,"transit":false,"i_long":106.951283,"line":1,"station_name":"Cakung","station_id":"CUK"},{"station_id":"KLDB","time":8,"line":1,"i_long":106.939679,"i_lat":-6.217455,"is_transit":false,"transit":false,"station_name":"Klenderbaru","distance":1385},{"i_long":106.922662,"is_transit":false,"time":1,"line":1,"station_name":"Buaran","transit":false,"i_lat":-6.215568,"station_id":"BUA","distance":1305},{"is_transit":false,"distance":3100,"transit":false,"i_long":106.899548,"line":1,"time":2,"station_id":"KLD","i_lat":-6.2135,"station_name":"Klender"},{"i_lat":-6.215091,"i_long":106.86807400000001,"is_transit":true,"time":3,"station_name":"Jatinegara","station_id":"JNG","transit":true,"line":1,"distance":3395},{"line":11,"transit":false,"distance":1236,"is_transit":false,"time":2,"station_id":"POK","i_long":106.861737,"station_name":"Pondok Jati","i_lat":-6.209188}],[{"is_transit":false,"line":1,"distance":0,"i_long":106.951283,"station_id":"CUK","station_name":"Cakung","time":0,"i_lat":-6.219053,"transit":false},{"line":1,"i_lat":-6.217455,"is_transit":false,"distance":1385,"station_id":"KLDB","station_name":"Klenderbaru","time":8,"i_long":106.939679,"transit":false},{"distance":1305,"transit":false,"i_lat":-6.215568,"time":1,"i_long":106.922662,"is_transit":false,"line":1,"station_name":"Buaran","station_id":"BUA"},{"i_lat":-6.2135,"time":2,"station_id":"KLD","transit":false,"station_name":"Klender","distance":3100,"line":1,"is_transit":false,"i_long":106.899548},{"line":1,"station_name":"Jatinegara","i_long":106.86807400000001,"distance":3395,"time":3,"i_lat":-6.215091,"transit":false,"station_id":"JNG","is_transit":false},{"station_name":"Matraman","is_transit":false,"time":2,"i_long":106.858896,"line":1,"distance":1377,"transit":false,"station_id":"MTR","i_lat":-6.212485},{"line":2,"i_lat":-6.209883,"station_name":"Manggarai","transit":false,"station_id":"MRI","is_transit":false,"i_long":106.84912,"time":2,"distance":1275},{"transit":false,"station_name":"Sudirman","is_transit":false,"i_long":106.822649,"time":4,"station_id":"SUD","distance":3186,"i_lat":-6.202263,"line":1},{"time":1,"station_id":"SUDB","is_transit":false,"i_lat":-6.201433,"station_name":"Sudirman Baru","line":1,"i_long":106.819881,"distance":280,"transit":false},{"i_lat":-6.20132,"line":1,"station_name":"Karet","distance":471,"time":1,"is_transit":false,"transit":false,"i_long":106.816351,"station_id":"KAT"},{"station_id":"THB","distance":2029,"transit":false,"i_lat":-6.185545,"time":5,"i_long":106.811091,"station_name":"Tanah Abang","line":1,"is_transit":false},{"time":8,"distance":3632,"i_long":106.800832,"line":1,"transit":false,"i_lat":-6.155215,"station_name":"Duri","station_id":"DU","is_transit":false},{"distance":1230,"i_long":106.79867,"time":4,"is_transit":false,"i_lat":-6.144674,"station_name":"Angke","line":1,"transit":false,"station_id":"AK"},{"i_lat":-6.132549,"time":9,"line":4,"is_transit":true,"station_id":"KPB","i_long":106.826365,"transit":true,"distance":4102,"station_name":"Kampung Bandan"},{"station_name":"Rajawali","is_transit":false,"station_id":"RJW","i_lat":-6.14505,"line":11,"i_long":106.836569,"distance":1444,"transit":false,"time":3},{"distance":1901,"transit":false,"station_id":"KMO","line":11,"station_name":"Kemayoran","is_transit":false,"i_lat":-6.161728,"i_long":106.839204,"time":5},{"is_transit":false,"i_long":106.84368,"i_lat":-6.174784,"station_id":"PSE","line":11,"distance":1436,"station_name":"Pasar Senen","time":4,"transit":false},{"line":11,"i_long":106.850107,"i_lat":-6.185975,"station_name":"Gang Sentiong","time":8,"distance":1567,"transit":false,"is_transit":false,"station_id":"GST"},{"line":11,"transit":false,"i_lat":-6.193792,"i_long":106.855437,"station_name":"Kramat","is_transit":false,"distance":973,"time":1,"station_id":"KMT"},{"station_name":"Pondok Jati","i_long":106.861737,"line":11,"time":2,"station_id":"POK","distance":1829,"is_transit":false,"transit":false,"i_lat":-6.209188}],[{"time":0,"station_id":"CUK","station_name":"Cakung","is_transit":false,"transit":false,"distance":0,"i_long":106.951283,"line":1,"i_lat":-6.219053},{"i_lat":-6.217455,"distance":1385,"transit":false,"i_long":106.939679,"station_name":"Klenderbaru","station_id":"KLDB","line":1,"time":8,"is_transit":false},{"transit":false,"is_transit":false,"distance":1305,"i_lat":-6.215568,"i_long":106.922662,"time":1,"station_id":"BUA","line":1,"station_name":"Buaran"},{"station_id":"KLD","time":2,"transit":false,"line":1,"i_lat":-6.2135,"distance":3100,"i_long":106.899548,"station_name":"Klender","is_transit":false},{"i_lat":-6.215091,"is_transit":false,"station_id":"JNG","distance":3395,"transit":false,"line":1,"station_name":"Jatinegara","i_long":106.86807400000001,"time":3},{"transit":false,"is_transit":false,"line":1,"i_lat":-6.212485,"station_name":"Matraman","station_id":"MTR","i_long":106.858896,"time":2,"distance":1377},{"transit":true,"station_name":"Manggarai","distance":1275,"is_transit":true,"station_id":"MRI","i_long":106.84912,"line":2,"i_lat":-6.209883,"time":2},{"line":2,"is_transit":false,"transit":false,"distance":1590,"station_id":"CKI","time":4,"station_name":"Cikini","i_lat":-6.198556,"i_long":106.840169},{"is_transit":false,"time":3,"station_name":"Gondangdia","line":2,"i_lat":-6.186295,"i_long":106.832183,"distance":1750,"transit":false,"station_id":"GDD"},{"station_name":"Juanda","time":4,"transit":false,"is_transit":false,"i_long":106.828284,"station_id":"JUA","line":2,"distance":2015,"i_lat":-6.166716},{"time":2,"i_long":106.827103,"station_id":"SW","distance":1149,"i_lat":-6.160725,"line":2,"is_transit":false,"transit":false,"station_name":"Sawah Besar"},{"distance":906,"station_id":"MGB","i_long":106.82482,"time":2,"transit":false,"line":2,"i_lat":-6.149769,"station_name":"Manggabesar","is_transit":false},{"station_id":"JAY","line":2,"i_long":106.820901,"distance":1080,"is_transit":false,"i_lat":-6.141205,"transit":false,"time":2,"station_name":"Jayakarta"},{"transit":true,"station_name":"Jakarta Kota","distance":1264,"time":4,"line":2,"is_transit":true,"station_id":"JAKK","i_lat":-6.137569,"i_long":106.812439},{"i_long":106.826365,"i_lat":-6.132549,"station_name":"Kampung Bandan","distance":1364,"station_id":"KPB","transit":true,"is_transit":true,"time":3,"line":4},{"transit":false,"station_id":"RJW","distance":1444,"i_lat":-6.14505,"line":11,"station_name":"Rajawali","time":3,"i_long":106.836569,"is_transit":false},{"is_transit":false,"i_lat":-6.161728,"i_long":106.839204,"distance":1901,"station_name":"Kemayoran","line":11,"time":5,"station_id":"KMO","transit":false},{"i_lat":-6.174784,"station_id":"PSE","line":11,"distance":1436,"station_name":"Pasar Senen","transit":false,"time":4,"is_transit":false,"i_long":106.84368},{"station_name":"Gang Sentiong","transit":false,"is_transit":false,"i_lat":-6.185975,"i_long":106.850107,"line":11,"station_id":"GST","distance":1567,"time":8},{"transit":false,"i_long":106.855437,"is_transit":false,"time":1,"distance":973,"station_name":"Kramat","station_id":"KMT","i_lat":-6.193792,"line":11},{"i_lat":-6.209188,"distance":1829,"time":2,"station_id":"POK","line":11,"transit":false,"i_long":106.861737,"station_name":"Pondok Jati","is_transit":false}]]}