{"data":[[{"line":1,"i_lat":-6.219053,"station_id":"CUK","station_name":"Cakung","is_transit":false,"transit":false,"distance":0,"time":0,"i_long":106.951283},{"i_long":106.939679,"transit":false,"i_lat":-6.217455,"is_transit":false,"line":1,"time":8,"station_id":"KLDB","station_name":"Klenderbaru","distance":1385},{"line":1,"station_id":"BUA","is_transit":false,"distance":1305,"i_long":106.922662,"station_name":"Buaran","transit":false,"time":1,"i_lat":-6.215568},{"i_lat":-6.2135,"i_long":106.899548,"distance":3100,"line":1,"station_id":"KLD","is_transit":false,"station_name":"Klender","transit":false,"time":2},{"station_id":"JNG","time":3,"transit":false,"is_transit":false,"distance":3395,"i_lat":-6.215091,"station_name":"Jatinegara","line":1,"i_long":106.86807400000001},{"distance":1377,"i_long":106.858896,"line":1,"i_lat":-6.212485,"is_transit":false,"station_id":"MTR","transit":false,"station_name":"Matraman","time":2},{"time":2,"i_long":106.84912,"station_id":"MRI","line":2,"station_name":"Manggarai","distance":1275,"is_transit":false,"i_lat":-6.209883,"transit":false},{"is_transit":false,"distance":3186,"i_lat":-6.202263,"transit":false,"station_name":"Sudirman","station_id":"SUD","time":4,"line":1,"i_long":106.822649},{"time":1,"line":1,"transit":false,"distance":280,"i_lat":-6.201433,"station_id":"SUDB","i_long":106.819881,"station_name":"Sudirman Baru","is_transit":false},{"i_long":106.816351,"station_name":"Karet","is_transit":false,"time":1,"transit":false,"line":1,"distance":471,"i_lat":-6.20132,"station_id":"KAT"},{"distance":2029,"transit":false,"i_long":106.811091,"line":1,"i_lat":-6.185545,"time":5,"is_transit":false,"station_name":"Tanah Abang","station_id":"THB"},{"distance":3632,"transit":true,"line":1,"station_id":"DU","is_transit":true,"station_name":"Duri","time":8,"i_lat":-6.155215,"i_long":106.800832},{"distance":1700,"station_name":"Grogol","i_long":106.788277,"transit":false,"is_transit":false,"station_id":"GGL","time":3,"i_lat":-6.162021,"line":5},{"i_lat":-6.161433,"transit":false,"station_id":"PSG","distance":2036,"station_name":"Pesing","time":2,"is_transit":false,"line":5,"i_long":106.771379},{"line":5,"time":2,"distance":1614,"station_name":"Taman Kota","is_transit":false,"i_long":106.756522,"station_id":"TKO","transit":false,"i_lat":-6.1587309999999995},{"station_id":"BOI","is_transit":false,"time":2,"i_lat":-6.159876,"i_long":106.737035,"distance":2334,"line":5,"transit":false,"station_name":"Bojongindah"},{"time":4,"is_transit":false,"station_id":"RW","distance":1152,"i_lat":-6.162758,"i_long":106.723064,"line":5,"transit":false,"station_name":"Rawa Buaya"},{"is_transit":false,"time":3,"i_long":106.701612,"line":5,"station_id":"KDS","distance":2504,"transit":false,"station_name":"Kalideres","i_lat":-6.166068},{"time":3,"line":5,"transit":false,"i_long":106.679458,"station_name":"Poris","is_transit":false,"distance":2548,"i_lat":-6.169933,"station_id":"PI"}],[{"time":0,"station_id":"CUK","i_lat":-6.219053,"i_long":106.951283,"line":1,"station_name":"Cakung","transit":false,"is_transit":false,"distance":0},{"distance":1385,"i_lat":-6.217455,"i_long":106.939679,"is_transit":false,"line":1,"transit":false,"station_id":"KLDB","station_name":"Klenderbaru","time":8},{"station_id":"BUA","is_transit":false,"distance":1305,"line":1,"i_lat":-6.215568,"station_name":"Buaran","time":1,"i_long":106.922662,"transit":false},{"station_name":"Klender","i_lat":-6.2135,"is_transit":false,"line":1,"distance":3100,"i_long":106.899548,"station_id":"KLD","transit":false,"time":2},{"transit":true,"time":3,"station_id":"JNG","line":1,"station_name":"Jatinegara","is_transit":true,"distance":3395,"i_lat":-6.215091,"i_long":106.86807400000001},{"i_long":106.861737,"time":2,"station_name":"Pondok Jati","distance":1236,"i_lat":-6.209188,"line":11,"station_id":"POK","transit":false,"is_transit":false},{"line":11,"is_transit":false,"station_id":"KMT","station_name":"Kramat","distance":1829,"transit":false,"i_lat":-6.193792,"i_long":106.855437,"time":2},{"transit":false,"i_long":106.850107,"distance":973,"line":11,"station_id":"GST","is_transit":false,"time":1,"i_lat":-6.185975,"station_name":"Gang Sentiong"},{"i_lat":-6.174784,"line":11,"transit":false,"station_name":"Pasar Senen","time":8,"i_long":106.84368,"station_id":"PSE","is_transit":false,"distance":1567},{"time":4,"i_long":106.839204,"line":11,"distance":1436,"i_lat":-6.161728,"station_name":"Kemayoran","is_transit":false,"station_id":"KMO","transit":false},{"station_name":"Rajawali","is_transit":false,"i_lat":-6.14505,"i_long":106.836569,"line":11,"station_id":"RJW","time":5,"distance":1901,"transit":false},{"i_lat":-6.132549,"distance":1444,"transit":true,"is_transit":true,"station_name":"Kampung Bandan","line":4,"i_long":106.826365,"station_id":"KPB","time":3},{"time":9,"i_lat":-6.144674,"line":1,"is_transit":false,"station_id":"AK","i_long":106.79867,"transit":false,"station_name":"Angke","distance":4102},{"time":4,"i_long":106.800832,"distance":1230,"line":1,"station_id":"DU","transit":true,"i_lat":-6.155215,"station_name":"Duri","is_transit":true},{"time":3,"station_name":"Grogol","line":5,"station_id":"GGL","i_lat":-6.162021,"transit":false,"is_transit":false,"distance":1700,"i_long":106.788277},{"line":5,"time":2,"distance":2036,"i_lat":-6.161433,"i_long":106.771379,"station_name":"Pesing","is_transit":false,"transit":false,"station_id":"PSG"},{"i_long":106.756522,"station_name":"Taman Kota","station_id":"TKO","is_transit":false,"distance":1614,"i_lat":-6.1587309999999995,"transit":false,"line":5,"time":2},{"distance":2334,"i_long":106.737035,"station_name":"Bojongindah","station_id":"BOI","is_transit":false,"time":2,"transit":false,"i_lat":-6.159876,"line":5},{"i_long":106.723064,"is_transit":false,"distance":1152,"station_id":"RW","i_lat":-6.162758,"station_name":"Rawa Buaya","line":5,"transit":false,"time":4},{"distance":2504,"i_long":106.701612,"station_name":"Kalideres","transit":false,"i_lat":-6.166068,"is_transit":false,"time":3,"line":5,"station_id":"KDS"},{"i_lat":-6.169933,"i_long":106.679458,"is_transit":false,"time":3,"distance":2548,"line":5,"transit":false,"station_name":"Poris","station_id":"PI"}],[{"line":1,"station_name":"Cakung","is_transit":false,"distance":0,"station_id":"CUK","i_lat":-6.219053,"time":0,"transit":false,"i_long":106.951283},{"i_lat":-6.217455,"is_transit":false,"i_long":106.939679,"transit":false,"distance":1385,"time":8,"station_name":"Klenderbaru","line":1,"station_id":"KLDB"},{"is_transit":false,"transit":false,"time":1,"i_lat":-6.215568,"line":1,"station_name":"Buaran","station_id":"BUA","distance":1305,"i_long":106.922662},{"station_name":"Klender","station_id":"KLD","transit":false,"line":1,"distance":3100,"time":2,"i_lat":-6.2135,"is_transit":false,"i_long":106.899548},{"station_name":"Jatinegara","transit":false,"i_lat":-6.215091,"line":1,"station_id":"JNG","distance":3395,"time":3,"is_transit":false,"i_long":106.86807400000001},{"is_transit":false,"time":2,"line":1,"i_lat":-6.212485,"distance":1377,"station_id":"MTR","station_name":"Matraman","transit":false,"i_long":106.858896},{"i_long":106.84912,"station_id":"MRI","i_lat":-6.209883,"is_transit":true,"time":2,"line":2,"distance":1275,"transit":true,"station_name":"Manggarai"},{"transit":false,"time":4,"line":2,"distance":1590,"station_id":"CKI","station_name":"Cikini","i_lat":-6.198556,"is_transit":false,"i_long":106.840169},{"i_long":106.832183,"station_name":"Gondangdia","station_id":"GDD","transit":false,"time":3,"line":2,"distance":1750,"i_lat":-6.186295,"is_transit":false},{"is_transit":false,"distance":2015,"line":2,"time":4,"i_long":106.828284,"station_id":"JUA","transit":false,"station_name":"Juanda","i_lat":-6.166716},{"line":2,"station_id":"SW","i_lat":-6.160725,"i_long":106.827103,"distance":1149,"station_name":"Sawah Besar","transit":false,"is_transit":false,"time":2},{"station_name":"Manggabesar","station_id":"MGB","i_lat":-6.149769,"distance":906,"line":2,"i_long":106.82482,"transit":false,"is_transit":false,"time":2},{"i_lat":-6.141205,"distance":1080,"station_id":"JAY","time":2,"station_name":"Jayakarta","transit":false,"is_transit":false,"i_long":106.820901,"line":2},{"line":2,"station_name":"Jakarta Kota","transit":true,"distance":1264,"is_transit":true,"station_id":"JAKK","time":4,"i_long":106.812439,"i_lat":-6.137569},{"line":4,"transit":true,"station_name":"Kampung Bandan","time":3,"is_transit":true,"i_long":106.826365,"i_lat":-6.132549,"distance":1364,"station_id":"KPB"},{"station_name":"Angke","station_id":"AK","i_lat":-6.144674,"is_transit":false,"distance":4102,"line":1,"time":9,"transit":false,"i_long":106.79867},{"distance":1230,"time":4,"is_transit":true,"station_id":"DU","i_lat":-6.155215,"transit":true,"line":1,"station_name":"Duri","i_long":106.800832},{"line":5,"i_lat":-6.162021,"is_transit":false,"distance":1700,"time":3,"i_long":106.788277,"transit":false,"station_name":"Grogol","station_id":"GGL"},{"transit":false,"i_lat":-6.161433,"is_transit":false,"station_name":"Pesing","time":2,"distance":2036,"i_long":106.771379,"station_id":"PSG","line":5},{"time":2,"station_name":"Taman Kota","line":5,"is_transit":false,"transit":false,"i_lat":-6.1587309999999995,"distance":1614,"station_id":"TKO","i_long":106.756522},{"time":2,"transit":false,"is_transit":false,"i_lat":-6.159876,"distance":2334,"i_long":106.737035,"line":5,"station_id":"BOI","station_name":"Bojongindah"},{"i_lat":-6.162758,"time":4,"i_long":106.723064,"is_transit":false,"transit":false,"line":5,"distance":1152,"station_id":"RW","station_name":"Rawa Buaya"},{"station_id":"KDS","station_name":"Kalideres","i_lat":-6.166068,"transit":false,"is_transit":false,"i_long":106.701612,"line":5,"distance":2504,"time":3},{"station_id":"PI","i_long":106.679458,"distance":2548,"i_lat":-6.169933,"station_name":"Poris","transit":false,"line":5,"time":3,"is_transit":false}],[{"line":1,"transit":false,"i_lat":-6.219053,"station_id":"CUK","station_name":"Cakung","is_transit":false,"distance":0,"time":0,"i_long":106.951283},{"i_lat":-6.217455,"is_transit":false,"line":1,"station_id":"KLDB","i_long":106.939679,"distance":1385,"station_name":"Klenderbaru","transit":false,"time":8},{"i_lat":-6.215568,"distance":1305,"station_name":"Buaran","station_id":"BUA","time":1,"i_long":106.922662,"transit":false,"is_transit":false,"line":1},{"time":2,"line":1,"station_id":"KLD","station_name":"Klender","is_transit":false,"transit":false,"distance":3100,"i_long":106.899548,"i_lat":-6.2135},{"transit":true,"line":1,"is_transit":true,"distance":3395,"i_long":106.86807400000001,"station_id":"JNG","time":3,"i_lat":-6.215091,"station_name":"Jatinegara"},{"station_id":"POK","i_lat":-6.209188,"distance":1236,"time":2,"station_name":"Pondok Jati","transit":false,"is_transit":false,"i_long":106.861737,"line":11},{"transit":false,"station_name":"Kramat","i_long":106.855437,"i_lat":-6.193792,"is_transit":false,"station_id":"KMT","time":2,"distance":1829,"line":11},{"distance":973,"transit":false,"station_id":"GST","station_name":"Gang Sentiong","i_lat":-6.185975,"i_long":106.850107,"line":11,"is_transit":false,"time":1},{"station_name":"Pasar Senen","time":8,"is_transit":false,"station_id":"PSE","i_long":106.84368,"line":11,"transit":false,"i_lat":-6.174784,"distance":1567},{"distance":1436,"i_lat":-6.161728,"i_long":106.839204,"is_transit":false,"line":11,"station_name":"Kemayoran","transit":false,"station_id":"KMO","time":4},{"i_long":106.836569,"i_lat":-6.14505,"station_name":"Rajawali","is_transit":false,"time":5,"distance":1901,"station_id":"RJW","line":11,"transit":false},{"transit":true,"station_id":"KPB","station_name":"Kampung Bandan","i_lat":-6.132549,"line":4,"i_long":106.826365,"distance":1444,"time":3,"is_transit":true},{"line":2,"transit":true,"i_lat":-6.137569,"station_id":"JAKK","i_long":106.812439,"station_name":"Jakarta Kota","distance":1364,"is_transit":true,"time":3},{"distance":1264,"station_name":"Jayakarta","station_id":"JAY","transit":false,"line":2,"is_transit":false,"time":4,"i_lat":-6.141205,"i_long":106.820901},{"distance":1080,"i_long":106.82482,"is_transit":false,"line":2,"station_id":"MGB","transit":false,"i_lat":-6.149769,"station_name":"Manggabesar","time":2},{"transit":false,"line":2,"distance":906,"i_lat":-6.160725,"is_transit":false,"station_name":"Sawah Besar","time":2,"station_id":"SW","i_long":106.827103},{"is_transit":false,"time":2,"transit":false,"distance":1149,"i_lat":-6.166716,"i_long":106.828284,"line":2,"station_id":"JUA","station_name":"Juanda"},{"is_transit":false,"time":4,"station_name":"Gondangdia","i_lat":-6.186295,"i_long":106.832183,"distance":2015,"transit":false,"line":2,"station_id":"GDD"},{"is_transit":false,"i_lat":-6.198556,"station_name":"Cikini","time":3,"transit":false,"i_long":106.840169,"line":2,"distance":1750,"station_id":"CKI"},{"station_name":"Manggarai","i_lat":-6.209883,"transit":true,"time":4,"is_transit":true,"line":2,"distance":1590,"station_id":"MRI","i_long":106.84912},{"transit":false,"is_transit":false,"time":4,"line":1,"station_name":"Sudirman","station_id":"SUD","i_lat":-6.202263,"i_long":106.822649,"distance":3186},{"transit":false,"is_transit":false,"i_long":106.819881,"line":1,"station_id":"SUDB","station_name":"Sudirman Baru","time":1,"i_lat":-6.201433,"distance":280},{"i_long":106.816351,"station_name":"Karet","is_transit":false,"transit":false,"line":1,"distance":471,"time":1,"i_lat":-6.20132,"station_id":"KAT"},{"i_long":106.811091,"station_id":"THB","line":1,"station_name":"Tanah Abang","time":5,"transit":false,"distance":2029,"is_transit":false,"i_lat":-6.185545},{"time":8,"is_transit":true,"line":1,"i_long":106.800832,"distance":3632,"i_lat":-6.155215,"station_name":"Duri","transit":true,"station_id":"DU"},{"station_name":"Grogol","time":3,"transit":false,"distance":1700,"station_id":"GGL","line":5,"is_transit":false,"i_lat":-6.162021,"i_long":106.788277},{"time":2,"i_lat":-6.161433,"line":5,"distance":2036,"transit":false,"station_name":"Pesing","is_transit":false,"i_long":106.771379,"station_id":"PSG"},{"i_long":106.756522,"station_name":"Taman Kota","station_id":"TKO","distance":1614,"transit":false,"time":2,"i_lat":-6.1587309999999995,"line":5,"is_transit":false},{"time":2,"station_name":"Bojongindah","is_transit":false,"station_id":"BOI","line":5,"distance":2334,"i_long":106.737035,"transit":false,"i_lat":-6.159876},{"station_name":"Rawa Buaya","distance":1152,"transit":false,"time":4,"line":5,"i_long":106.723064,"is_transit":false,"station_id":"RW","i_lat":-6.162758},{"distance":2504,"time":3,"is_transit":false,"station_id":"KDS","i_lat":-6.166068,"i_long":106.701612,"transit":false,"line":5,"station_name":"Kalideres"},{"transit":false,"time":3,"i_lat":-6.169933,"station_id":"PI","i_long":106.679458,"is_transit":false,"distance":2548,"line":5,"station_name":"Poris"}]]}