{"data":[[{"transit":false,"station_name":"Cakung","is_transit":false,"line":1,"station_id":"CUK","distance":0,"i_long":106.951283,"i_lat":-6.219053,"time":0},{"transit":false,"is_transit":false,"i_long":106.939679,"line":1,"distance":1385,"station_id":"KLDB","station_name":"Klenderbaru","i_lat":-6.217455,"time":8},{"station_name":"Buaran","line":1,"transit":false,"time":1,"distance":1305,"i_lat":-6.215568,"is_transit":false,"station_id":"BUA","i_long":106.922662},{"line":1,"time":2,"i_lat":-6.2135,"distance":3100,"is_transit":false,"i_long":106.899548,"station_id":"KLD","transit":false,"station_name":"Klender"},{"station_name":"Jatinegara","distance":3395,"is_transit":true,"i_lat":-6.215091,"transit":true,"line":1,"time":3,"i_long":106.86807400000001,"station_id":"JNG"},{"line":11,"i_long":106.861737,"i_lat":-6.209188,"time":2,"station_name":"Pondok Jati","station_id":"POK","is_transit":false,"distance":1236,"transit":false}],[{"station_name":"Cakung","time":0,"i_long":106.951283,"line":1,"distance":0,"is_transit":false,"i_lat":-6.219053,"station_id":"CUK","transit":false},{"station_id":"KLDB","time":8,"distance":1385,"station_name":"Klenderbaru","is_transit":false,"i_long":106.939679,"i_lat":-6.217455,"line":1,"transit":false},{"time":1,"station_id":"BUA","is_transit":false,"i_long":106.922662,"distance":1305,"line":1,"station_name":"Buaran","i_lat":-6.215568,"transit":false},{"transit":false,"station_name":"Klender","i_lat":-6.2135,"line":1,"i_long":106.899548,"time":2,"is_transit":false,"station_id":"KLD","distance":3100},{"i_long":106.86807400000001,"time":3,"transit":false,"i_lat":-6.215091,"station_id":"JNG","station_name":"Jatinegara","distance":3395,"is_transit":false,"line":1},{"i_long":106.858896,"time":2,"i_lat":-6.212485,"transit":false,"distance":1377,"line":1,"station_id":"MTR","is_transit":false,"station_name":"Matraman"},{"time":2,"i_lat":-6.209883,"line":2,"i_long":106.84912,"station_name":"Manggarai","distance":1275,"transit":false,"station_id":"MRI","is_transit":false},{"i_lat":-6.202263,"station_id":"SUD","is_transit":false,"line":1,"i_long":106.822649,"distance":3186,"time":4,"station_name":"Sudirman","transit":false},{"time":1,"distance":280,"station_id":"SUDB","station_name":"Sudirman Baru","is_transit":false,"i_lat":-6.201433,"line":1,"i_long":106.819881,"transit":false},{"transit":false,"is_transit":false,"i_long":106.816351,"line":1,"time":1,"station_name":"Karet","distance":471,"station_id":"KAT","i_lat":-6.20132},{"is_transit":false,"transit":false,"i_lat":-6.185545,"distance":2029,"i_long":106.811091,"station_id":"THB","station_name":"Tanah Abang","time":5,"line":1},{"line":1,"i_lat":-6.155215,"is_transit":false,"i_long":106.800832,"distance":3632,"time":8,"transit":false,"station_id":"DU","station_name":"Duri"},{"time":4,"i_lat":-6.144674,"station_name":"Angke","station_id":"AK","is_transit":false,"line":1,"transit":false,"i_long":106.79867,"distance":1230},{"is_transit":true,"line":4,"distance":4102,"transit":true,"time":9,"i_long":106.826365,"i_lat":-6.132549,"station_name":"Kampung Bandan","station_id":"KPB"},{"station_id":"RJW","distance":1444,"time":3,"is_transit":false,"i_lat":-6.14505,"station_name":"Rajawali","i_long":106.836569,"line":11,"transit":false},{"station_id":"KMO","transit":false,"i_lat":-6.161728,"station_name":"Kemayoran","time":5,"i_long":106.839204,"line":11,"distance":1901,"is_transit":false},{"station_name":"Pasar Senen","line":11,"distance":1436,"station_id":"PSE","transit":false,"is_transit":false,"i_lat":-6.174784,"time":4,"i_long":106.84368},{"time":8,"transit":false,"i_lat":-6.185975,"distance":1567,"station_name":"Gang Sentiong","is_transit":false,"station_id":"GST","i_long":106.850107,"line":11},{"distance":973,"transit":false,"is_transit":false,"station_name":"Kramat","station_id":"KMT","time":1,"i_long":106.855437,"line":11,"i_lat":-6.193792},{"time":2,"is_transit":false,"transit":false,"station_id":"POK","i_lat":-6.209188,"station_name":"Pondok Jati","distance":1829,"line":11,"i_long":106.861737}],[{"station_name":"Cakung","i_lat":-6.219053,"station_id":"CUK","line":1,"time":0,"i_long":106.951283,"transit":false,"distance":0,"is_transit":false},{"time":8,"line":1,"distance":1385,"i_lat":-6.217455,"is_transit":false,"i_long":106.939679,"station_id":"KLDB","transit":false,"station_name":"Klenderbaru"},{"station_name":"Buaran","i_long":106.922662,"is_transit":false,"station_id":"BUA","time":1,"line":1,"distance":1305,"transit":false,"i_lat":-6.215568},{"i_long":106.899548,"time":2,"i_lat":-6.2135,"transit":false,"is_transit":false,"distance":3100,"station_id":"KLD","line":1,"station_name":"Klender"},{"i_lat":-6.215091,"station_name":"Jatinegara","is_transit":false,"station_id":"JNG","time":3,"i_long":106.86807400000001,"distance":3395,"transit":false,"line":1},{"distance":1377,"station_name":"Matraman","transit":false,"i_lat":-6.212485,"is_transit":false,"time":2,"line":1,"i_long":106.858896,"station_id":"MTR"},{"i_long":106.84912,"is_transit":true,"time":2,"station_name":"Manggarai","distance":1275,"station_id":"MRI","transit":true,"i_lat":-6.209883,"line":2},{"distance":1590,"station_id":"CKI","i_lat":-6.198556,"transit":false,"time":4,"station_name":"Cikini","is_transit":false,"i_long":106.840169,"line":2},{"line":2,"i_lat":-6.186295,"is_transit":false,"time":3,"station_name":"Gondangdia","distance":1750,"transit":false,"station_id":"GDD","i_long":106.832183},{"time":4,"line":2,"station_name":"Juanda","station_id":"JUA","distance":2015,"i_lat":-6.166716,"transit":false,"is_transit":false,"i_long":106.828284},{"i_lat":-6.160725,"time":2,"line":2,"station_name":"Sawah Besar","station_id":"SW","i_long":106.827103,"transit":false,"is_transit":false,"distance":1149},{"i_lat":-6.149769,"distance":906,"transit":false,"station_id":"MGB","is_transit":false,"time":2,"line":2,"i_long":106.82482,"station_name":"Manggabesar"},{"is_transit":false,"station_id":"JAY","i_long":106.820901,"station_name":"Jayakarta","transit":false,"i_lat":-6.141205,"time":2,"distance":1080,"line":2},{"transit":true,"line":2,"distance":1264,"i_lat":-6.137569,"time":4,"is_transit":true,"i_long":106.812439,"station_name":"Jakarta Kota","station_id":"JAKK"},{"transit":true,"station_id":"KPB","station_name":"Kampung Bandan","distance":1364,"is_transit":true,"time":3,"i_lat":-6.132549,"i_long":106.826365,"line":4},{"station_name":"Rajawali","is_transit":false,"distance":1444,"i_long":106.836569,"station_id":"RJW","line":11,"i_lat":-6.14505,"time":3,"transit":false},{"line":11,"is_transit":false,"station_name":"Kemayoran","station_id":"KMO","i_lat":-6.161728,"i_long":106.839204,"transit":false,"distance":1901,"time":5},{"distance":1436,"transit":false,"i_long":106.84368,"is_transit":false,"line":11,"station_id":"PSE","station_name":"Pasar Senen","time":4,"i_lat":-6.174784},{"i_long":106.850107,"transit":false,"line":11,"station_id":"GST","distance":1567,"is_transit":false,"station_name":"Gang Sentiong","time":8,"i_lat":-6.185975},{"time":1,"transit":false,"distance":973,"station_name":"Kramat","line":11,"is_transit":false,"i_lat":-6.193792,"station_id":"KMT","i_long":106.855437},{"transit":false,"is_transit":false,"i_long":106.861737,"time":2,"line":11,"i_lat":-6.209188,"distance":1829,"station_id":"POK","station_name":"Pondok Jati"}]]}