{"data":[[{"line":1,"distance":0,"station_name":"Cakung","i_long":106.951283,"time":0,"is_transit":false,"i_lat":-6.219053,"station_id":"CUK","transit":false},{"distance":1385,"i_lat":-6.217455,"time":8,"line":1,"i_long":106.939679,"is_transit":false,"transit":false,"station_id":"KLDB","station_name":"Klenderbaru"},{"is_transit":false,"i_lat":-6.215568,"i_long":106.922662,"line":1,"station_name":"Buaran","transit":false,"distance":1305,"station_id":"BUA","time":1},{"transit":false,"is_transit":false,"time":2,"distance":3100,"i_long":106.899548,"station_name":"Klender","line":1,"i_lat":-6.2135,"station_id":"KLD"},{"is_transit":false,"i_long":106.86807400000001,"station_name":"Jatinegara","line":1,"i_lat":-6.215091,"station_id":"JNG","time":3,"distance":3395,"transit":false},{"transit":false,"station_name":"Matraman","distance":1377,"station_id":"MTR","time":2,"is_transit":false,"line":1,"i_lat":-6.212485,"i_long":106.858896},{"transit":true,"is_transit":true,"station_name":"Manggarai","station_id":"MRI","i_lat":-6.209883,"i_long":106.84912,"distance":1275,"line":2,"time":2},{"i_long":106.857948,"line":2,"station_id":"TEB","transit":false,"station_name":"Tebet","is_transit":false,"i_lat":-6.226659,"time":4,"distance":2610},{"line":2,"time":2,"transit":false,"distance":1230,"station_id":"CW","station_name":"Cawang","is_transit":false,"i_lat":-6.242512,"i_long":106.856607},{"station_id":"DRN","time":3,"distance":1546,"i_long":106.85449,"is_transit":false,"i_lat":-6.255332,"line":2,"transit":false,"station_name":"Duren Kalibata"},{"is_transit":false,"station_name":"Pasar Minggu Baru","station_id":"PSMB","i_long":106.851577,"transit":false,"distance":824,"i_lat":-6.263214,"time":2,"line":2},{"station_name":"Pasar Minggu","distance":2380,"time":2,"is_transit":false,"i_lat":-6.2842400000000005,"line":2,"i_long":106.843999,"transit":false,"station_id":"PSM"},{"distance":2820,"station_name":"Tanjung Barat","i_long":106.838896,"line":2,"time":4,"transit":false,"station_id":"TNT","i_lat":-6.3080680000000005,"is_transit":false},{"transit":false,"i_lat":-6.330363,"is_transit":false,"i_long":106.832616,"station_id":"LNA","time":3,"line":2,"station_name":"Lenteng Agung","distance":2671},{"line":2,"i_long":106.834175,"station_name":"Univ. Pancasila","is_transit":false,"station_id":"UP","transit":false,"time":2,"distance":1029,"i_lat":-6.339291},{"i_lat":-6.360749,"distance":2264,"transit":false,"is_transit":false,"station_name":"Univ. Indonesia","station_id":"UI","line":2,"time":3,"i_long":106.831474},{"is_transit":false,"time":2,"transit":false,"station_name":"Pondok Cina","i_lat":-6.369073,"i_long":106.831114,"line":2,"distance":1109,"station_id":"POC"},{"station_name":"Depokbaru","station_id":"DPB","i_long":106.819451,"distance":2727,"is_transit":false,"time":4,"i_lat":-6.391065,"line":2,"transit":false},{"station_name":"Depok","transit":false,"station_id":"DP","time":3,"i_long":106.816926,"distance":1584,"is_transit":false,"i_lat":-6.405256,"line":2},{"transit":false,"time":6,"is_transit":false,"distance":5084,"station_name":"Citayam","i_lat":-6.448811,"line":2,"station_id":"CTA","i_long":106.800298},{"distance":5197,"time":5,"transit":false,"station_name":"Bojonggede","is_transit":false,"station_id":"BJD","i_long":106.792719,"i_lat":-6.493243,"line":2},{"line":2,"is_transit":false,"time":5,"distance":4331,"station_id":"CLT","i_lat":-6.530544,"station_name":"Cilebut","i_long":106.800016,"transit":false},{"distance":7514,"line":2,"i_lat":-6.594596,"station_name":"Bogor","transit":false,"time":9,"is_transit":false,"station_id":"BOO","i_long":106.790574}],[{"i_lat":-6.219053,"station_id":"CUK","line":1,"i_long":106.951283,"time":0,"transit":false,"station_name":"Cakung","distance":0,"is_transit":false},{"i_lat":-6.217455,"transit":false,"i_long":106.939679,"line":1,"time":8,"station_name":"Klenderbaru","distance":1385,"is_transit":false,"station_id":"KLDB"},{"station_id":"BUA","distance":1305,"i_long":106.922662,"time":1,"transit":false,"is_transit":false,"line":1,"station_name":"Buaran","i_lat":-6.215568},{"transit":false,"time":2,"station_id":"KLD","i_lat":-6.2135,"distance":3100,"i_long":106.899548,"line":1,"is_transit":false,"station_name":"Klender"},{"station_name":"Jatinegara","time":3,"is_transit":true,"station_id":"JNG","line":1,"i_long":106.86807400000001,"distance":3395,"i_lat":-6.215091,"transit":true},{"i_lat":-6.209188,"time":2,"station_id":"POK","transit":false,"station_name":"Pondok Jati","is_transit":false,"i_long":106.861737,"distance":1236,"line":11},{"is_transit":false,"station_name":"Kramat","i_long":106.855437,"line":11,"station_id":"KMT","time":2,"transit":false,"distance":1829,"i_lat":-6.193792},{"is_transit":false,"i_lat":-6.185975,"i_long":106.850107,"line":11,"distance":973,"station_id":"GST","time":1,"transit":false,"station_name":"Gang Sentiong"},{"transit":false,"is_transit":false,"i_lat":-6.174784,"i_long":106.84368,"line":11,"station_name":"Pasar Senen","distance":1567,"station_id":"PSE","time":8},{"i_lat":-6.161728,"transit":false,"is_transit":false,"station_id":"KMO","time":4,"distance":1436,"station_name":"Kemayoran","line":11,"i_long":106.839204},{"transit":false,"time":5,"is_transit":false,"line":11,"station_name":"Rajawali","i_lat":-6.14505,"distance":1901,"station_id":"RJW","i_long":106.836569},{"is_transit":true,"distance":1444,"i_long":106.826365,"station_id":"KPB","transit":true,"line":4,"station_name":"Kampung Bandan","time":3,"i_lat":-6.132549},{"line":1,"station_id":"AK","i_long":106.79867,"is_transit":false,"time":9,"distance":4102,"transit":false,"station_name":"Angke","i_lat":-6.144674},{"is_transit":false,"transit":false,"i_long":106.800832,"time":4,"station_name":"Duri","distance":1230,"station_id":"DU","i_lat":-6.155215,"line":1},{"time":8,"station_id":"THB","i_long":106.811091,"is_transit":false,"distance":3632,"line":1,"station_name":"Tanah Abang","i_lat":-6.185545,"transit":false},{"station_id":"KAT","time":5,"transit":false,"distance":2029,"i_long":106.816351,"line":1,"i_lat":-6.20132,"is_transit":false,"station_name":"Karet"},{"is_transit":false,"station_name":"Sudirman Baru","line":1,"distance":471,"time":1,"transit":false,"station_id":"SUDB","i_lat":-6.201433,"i_long":106.819881},{"transit":false,"distance":280,"line":1,"time":1,"station_name":"Sudirman","station_id":"SUD","i_lat":-6.202263,"is_transit":false,"i_long":106.822649},{"i_long":106.84912,"i_lat":-6.209883,"time":4,"distance":3186,"is_transit":true,"line":2,"transit":true,"station_name":"Manggarai","station_id":"MRI"},{"station_name":"Tebet","is_transit":false,"station_id":"TEB","i_lat":-6.226659,"distance":2610,"i_long":106.857948,"line":2,"transit":false,"time":4},{"time":2,"line":2,"station_name":"Cawang","transit":false,"i_long":106.856607,"is_transit":false,"station_id":"CW","distance":1230,"i_lat":-6.242512},{"is_transit":false,"station_name":"Duren Kalibata","time":3,"i_long":106.85449,"distance":1546,"transit":false,"station_id":"DRN","line":2,"i_lat":-6.255332},{"is_transit":false,"i_long":106.851577,"line":2,"time":2,"distance":824,"station_id":"PSMB","station_name":"Pasar Minggu Baru","transit":false,"i_lat":-6.263214},{"transit":false,"distance":2380,"line":2,"i_long":106.843999,"is_transit":false,"time":2,"station_name":"Pasar Minggu","station_id":"PSM","i_lat":-6.2842400000000005},{"time":4,"transit":false,"i_lat":-6.3080680000000005,"i_long":106.838896,"distance":2820,"is_transit":false,"station_name":"Tanjung Barat","line":2,"station_id":"TNT"},{"is_transit":false,"station_id":"LNA","i_lat":-6.330363,"line":2,"distance":2671,"i_long":106.832616,"time":3,"station_name":"Lenteng Agung","transit":false},{"station_id":"UP","line":2,"distance":1029,"i_lat":-6.339291,"time":2,"is_transit":false,"station_name":"Univ. Pancasila","i_long":106.834175,"transit":false},{"distance":2264,"i_long":106.831474,"transit":false,"line":2,"is_transit":false,"time":3,"station_name":"Univ. Indonesia","station_id":"UI","i_lat":-6.360749},{"i_lat":-6.369073,"station_id":"POC","is_transit":false,"distance":1109,"time":2,"station_name":"Pondok Cina","i_long":106.831114,"line":2,"transit":false},{"time":4,"line":2,"i_lat":-6.391065,"transit":false,"is_transit":false,"station_name":"Depokbaru","station_id":"DPB","distance":2727,"i_long":106.819451},{"station_id":"DP","transit":false,"is_transit":false,"time":3,"i_lat":-6.405256,"distance":1584,"i_long":106.816926,"station_name":"Depok","line":2},{"station_id":"CTA","distance":5084,"is_transit":false,"station_name":"Citayam","i_lat":-6.448811,"transit":false,"line":2,"i_long":106.800298,"time":6},{"station_name":"Bojonggede","time":5,"is_transit":false,"i_lat":-6.493243,"i_long":106.792719,"transit":false,"line":2,"station_id":"BJD","distance":5197},{"is_transit":false,"station_id":"CLT","time":5,"distance":4331,"station_name":"Cilebut","i_lat":-6.530544,"i_long":106.800016,"line":2,"transit":false},{"station_id":"BOO","distance":7514,"i_lat":-6.594596,"is_transit":false,"station_name":"Bogor","i_long":106.790574,"time":9,"line":2,"transit":false}],[{"i_lat":-6.219053,"transit":false,"is_transit":false,"station_id":"CUK","time":0,"station_name":"Cakung","distance":0,"i_long":106.951283,"line":1},{"distance":1385,"i_lat":-6.217455,"line":1,"is_transit":false,"time":8,"station_name":"Klenderbaru","station_id":"KLDB","transit":false,"i_long":106.939679},{"distance":1305,"station_id":"BUA","station_name":"Buaran","i_lat":-6.215568,"line":1,"is_transit":false,"i_long":106.922662,"time":1,"transit":false},{"distance":3100,"i_long":106.899548,"is_transit":false,"line":1,"station_id":"KLD","time":2,"station_name":"Klender","transit":false,"i_lat":-6.2135},{"time":3,"transit":true,"station_name":"Jatinegara","i_long":106.86807400000001,"distance":3395,"station_id":"JNG","i_lat":-6.215091,"is_transit":true,"line":1},{"distance":1236,"i_long":106.861737,"line":11,"is_transit":false,"station_id":"POK","i_lat":-6.209188,"time":2,"transit":false,"station_name":"Pondok Jati"},{"transit":false,"time":2,"station_name":"Kramat","i_lat":-6.193792,"i_long":106.855437,"distance":1829,"line":11,"station_id":"KMT","is_transit":false},{"i_lat":-6.185975,"transit":false,"is_transit":false,"distance":973,"station_id":"GST","station_name":"Gang Sentiong","line":11,"i_long":106.850107,"time":1},{"line":11,"i_lat":-6.174784,"station_name":"Pasar Senen","time":8,"station_id":"PSE","is_transit":false,"transit":false,"distance":1567,"i_long":106.84368},{"i_long":106.839204,"line":11,"time":4,"distance":1436,"transit":false,"station_id":"KMO","i_lat":-6.161728,"is_transit":false,"station_name":"Kemayoran"},{"station_name":"Rajawali","i_lat":-6.14505,"station_id":"RJW","time":5,"transit":false,"is_transit":false,"distance":1901,"line":11,"i_long":106.836569},{"i_lat":-6.132549,"time":3,"distance":1444,"station_name":"Kampung Bandan","station_id":"KPB","line":4,"is_transit":true,"transit":true,"i_long":106.826365},{"distance":1364,"transit":true,"i_long":106.812439,"line":2,"time":3,"i_lat":-6.137569,"station_id":"JAKK","is_transit":true,"station_name":"Jakarta Kota"},{"station_name":"Jayakarta","i_long":106.820901,"line":2,"transit":false,"i_lat":-6.141205,"distance":1264,"is_transit":false,"station_id":"JAY","time":4},{"station_name":"Manggabesar","transit":false,"distance":1080,"is_transit":false,"i_lat":-6.149769,"i_long":106.82482,"line":2,"station_id":"MGB","time":2},{"station_name":"Sawah Besar","line":2,"i_lat":-6.160725,"time":2,"transit":false,"i_long":106.827103,"distance":906,"station_id":"SW","is_transit":false},{"is_transit":false,"station_name":"Juanda","i_lat":-6.166716,"i_long":106.828284,"line":2,"station_id":"JUA","transit":false,"distance":1149,"time":2},{"distance":2015,"transit":false,"is_transit":false,"i_long":106.832183,"station_id":"GDD","station_name":"Gondangdia","line":2,"time":4,"i_lat":-6.186295},{"i_long":106.840169,"station_name":"Cikini","transit":false,"is_transit":false,"i_lat":-6.198556,"line":2,"station_id":"CKI","distance":1750,"time":3},{"line":2,"i_lat":-6.209883,"station_name":"Manggarai","distance":1590,"i_long":106.84912,"time":4,"is_transit":false,"station_id":"MRI","transit":false},{"distance":2610,"line":2,"i_lat":-6.226659,"station_name":"Tebet","station_id":"TEB","time":4,"is_transit":false,"transit":false,"i_long":106.857948},{"time":2,"transit":false,"station_name":"Cawang","distance":1230,"i_lat":-6.242512,"is_transit":false,"i_long":106.856607,"station_id":"CW","line":2},{"is_transit":false,"station_name":"Duren Kalibata","i_lat":-6.255332,"i_long":106.85449,"transit":false,"station_id":"DRN","distance":1546,"line":2,"time":3},{"line":2,"time":2,"distance":824,"transit":false,"i_lat":-6.263214,"station_id":"PSMB","is_transit":false,"station_name":"Pasar Minggu Baru","i_long":106.851577},{"distance":2380,"time":2,"station_name":"Pasar Minggu","i_long":106.843999,"line":2,"station_id":"PSM","i_lat":-6.2842400000000005,"is_transit":false,"transit":false},{"station_name":"Tanjung Barat","time":4,"transit":false,"i_long":106.838896,"line":2,"station_id":"TNT","i_lat":-6.3080680000000005,"distance":2820,"is_transit":false},{"time":3,"is_transit":false,"station_name":"Lenteng Agung","transit":false,"i_lat":-6.330363,"station_id":"LNA","i_long":106.832616,"line":2,"distance":2671},{"transit":false,"station_id":"UP","distance":1029,"is_transit":false,"i_long":106.834175,"line":2,"station_name":"Univ. Pancasila","i_lat":-6.339291,"time":2},{"station_id":"UI","i_long":106.831474,"line":2,"i_lat":-6.360749,"station_name":"Univ. Indonesia","is_transit":false,"transit":false,"time":3,"distance":2264},{"time":2,"is_transit":false,"transit":false,"station_name":"Pondok Cina","i_lat":-6.369073,"i_long":106.831114,"line":2,"distance":1109,"station_id":"POC"},{"distance":2727,"station_id":"DPB","transit":false,"station_name":"Depokbaru","i_lat":-6.391065,"i_long":106.819451,"line":2,"time":4,"is_transit":false},{"i_long":106.816926,"time":3,"distance":1584,"station_name":"Depok","station_id":"DP","is_transit":false,"i_lat":-6.405256,"line":2,"transit":false},{"time":6,"transit":false,"station_name":"Citayam","distance":5084,"line":2,"station_id":"CTA","i_long":106.800298,"i_lat":-6.448811,"is_transit":false},{"i_long":106.792719,"line":2,"is_transit":false,"station_name":"Bojonggede","i_lat":-6.493243,"time":5,"transit":false,"distance":5197,"station_id":"BJD"},{"is_transit":false,"station_name":"Cilebut","time":5,"distance":4331,"transit":false,"i_lat":-6.530544,"station_id":"CLT","i_long":106.800016,"line":2},{"station_id":"BOO","transit":false,"distance":7514,"i_lat":-6.594596,"line":2,"station_name":"Bogor","i_long":106.790574,"time":9,"is_transit":false}]]}