{"data":[[{"transit":false,"i_long":106.951283,"line":1,"station_id":"CUK","distance":0,"i_lat":-6.219053,"station_name":"Cakung","time":0,"is_transit":false},{"transit":false,"is_transit":false,"i_lat":-6.217455,"distance":1385,"time":8,"station_id":"KLDB","line":1,"station_name":"Klenderbaru","i_long":106.939679},{"is_transit":false,"station_name":"Buaran","line":1,"transit":false,"i_long":106.922662,"station_id":"BUA","time":1,"distance":1305,"i_lat":-6.215568},{"station_id":"KLD","time":2,"is_transit":false,"line":1,"transit":false,"distance":3100,"i_long":106.899548,"station_name":"Klender","i_lat":-6.2135},{"i_lat":-6.215091,"line":1,"transit":false,"i_long":106.86807400000001,"time":3,"distance":3395,"is_transit":false,"station_name":"Jatinegara","station_id":"JNG"},{"transit":false,"is_transit":false,"line":1,"station_id":"MTR","time":2,"i_long":106.858896,"i_lat":-6.212485,"distance":1377,"station_name":"Matraman"},{"distance":1275,"line":2,"station_id":"MRI","transit":false,"time":2,"i_long":106.84912,"i_lat":-6.209883,"station_name":"Manggarai","is_transit":false},{"time":4,"transit":false,"line":1,"distance":3186,"i_long":106.822649,"station_name":"Sudirman","i_lat":-6.202263,"is_transit":false,"station_id":"SUD"},{"station_id":"SUDB","time":1,"i_lat":-6.201433,"i_long":106.819881,"line":1,"station_name":"Sudirman Baru","transit":false,"is_transit":false,"distance":280},{"transit":false,"station_id":"KAT","time":1,"station_name":"Karet","i_lat":-6.20132,"i_long":106.816351,"is_transit":false,"distance":471,"line":1},{"distance":2029,"transit":true,"station_id":"THB","time":5,"is_transit":true,"i_long":106.811091,"i_lat":-6.185545,"line":1,"station_name":"Tanah Abang"},{"distance":3191,"line":6,"i_lat":-6.207404,"transit":false,"station_name":"Palmerah","is_transit":false,"i_long":106.79689,"station_id":"PLM","time":6},{"line":6,"distance":3737,"station_name":"Kebayoran","transit":false,"time":7,"station_id":"KBY","is_transit":false,"i_lat":-6.237242,"i_long":106.780334},{"time":8,"is_transit":false,"line":6,"station_id":"PDJ","station_name":"Pondokranji","transit":false,"i_lat":-6.276362,"i_long":106.74273,"distance":6218}],[{"station_name":"Cakung","line":1,"i_lat":-6.219053,"transit":false,"is_transit":false,"station_id":"CUK","time":0,"i_long":106.951283,"distance":0},{"i_lat":-6.217455,"transit":false,"station_name":"Klenderbaru","station_id":"KLDB","is_transit":false,"time":8,"distance":1385,"i_long":106.939679,"line":1},{"line":1,"station_id":"BUA","station_name":"Buaran","is_transit":false,"i_lat":-6.215568,"i_long":106.922662,"time":1,"distance":1305,"transit":false},{"i_lat":-6.2135,"i_long":106.899548,"line":1,"station_name":"Klender","station_id":"KLD","distance":3100,"transit":false,"is_transit":false,"time":2},{"time":3,"distance":3395,"transit":true,"i_lat":-6.215091,"is_transit":true,"station_name":"Jatinegara","i_long":106.86807400000001,"station_id":"JNG","line":1},{"station_id":"POK","time":2,"distance":1236,"i_long":106.861737,"i_lat":-6.209188,"is_transit":false,"transit":false,"station_name":"Pondok Jati","line":11},{"time":2,"distance":1829,"i_lat":-6.193792,"is_transit":false,"station_name":"Kramat","transit":false,"station_id":"KMT","line":11,"i_long":106.855437},{"time":1,"is_transit":false,"station_name":"Gang Sentiong","distance":973,"transit":false,"i_lat":-6.185975,"station_id":"GST","i_long":106.850107,"line":11},{"station_id":"PSE","station_name":"Pasar Senen","distance":1567,"i_long":106.84368,"line":11,"is_transit":false,"transit":false,"i_lat":-6.174784,"time":8},{"station_id":"KMO","transit":false,"is_transit":false,"distance":1436,"time":4,"i_lat":-6.161728,"line":11,"i_long":106.839204,"station_name":"Kemayoran"},{"time":5,"i_long":106.836569,"transit":false,"distance":1901,"i_lat":-6.14505,"line":11,"station_name":"Rajawali","is_transit":false,"station_id":"RJW"},{"transit":true,"line":4,"station_name":"Kampung Bandan","distance":1444,"i_lat":-6.132549,"i_long":106.826365,"time":3,"station_id":"KPB","is_transit":true},{"station_id":"AK","transit":false,"is_transit":false,"station_name":"Angke","distance":4102,"i_lat":-6.144674,"i_long":106.79867,"line":1,"time":9},{"station_name":"Duri","i_lat":-6.155215,"time":4,"is_transit":false,"transit":false,"station_id":"DU","distance":1230,"line":1,"i_long":106.800832},{"station_id":"THB","distance":3632,"line":1,"is_transit":true,"transit":true,"i_lat":-6.185545,"i_long":106.811091,"time":8,"station_name":"Tanah Abang"},{"transit":false,"station_id":"PLM","is_transit":false,"i_long":106.79689,"station_name":"Palmerah","distance":3191,"line":6,"i_lat":-6.207404,"time":6},{"station_name":"Kebayoran","line":6,"distance":3737,"station_id":"KBY","time":7,"transit":false,"is_transit":false,"i_lat":-6.237242,"i_long":106.780334},{"transit":false,"line":6,"is_transit":false,"station_id":"PDJ","time":8,"station_name":"Pondokranji","i_lat":-6.276362,"distance":6218,"i_long":106.74273}],[{"i_long":106.951283,"line":1,"distance":0,"i_lat":-6.219053,"transit":false,"station_id":"CUK","is_transit":false,"station_name":"Cakung","time":0},{"transit":false,"distance":1385,"station_id":"KLDB","i_long":106.939679,"line":1,"station_name":"Klenderbaru","time":8,"is_transit":false,"i_lat":-6.217455},{"station_id":"BUA","i_lat":-6.215568,"time":1,"distance":1305,"transit":false,"station_name":"Buaran","is_transit":false,"i_long":106.922662,"line":1},{"i_lat":-6.2135,"transit":false,"line":1,"is_transit":false,"distance":3100,"station_id":"KLD","time":2,"i_long":106.899548,"station_name":"Klender"},{"line":1,"is_transit":false,"station_name":"Jatinegara","i_lat":-6.215091,"transit":false,"distance":3395,"station_id":"JNG","time":3,"i_long":106.86807400000001},{"is_transit":false,"station_name":"Matraman","line":1,"transit":false,"i_long":106.858896,"i_lat":-6.212485,"distance":1377,"station_id":"MTR","time":2},{"i_lat":-6.209883,"is_transit":true,"line":2,"station_name":"Manggarai","i_long":106.84912,"transit":true,"station_id":"MRI","time":2,"distance":1275},{"line":2,"time":4,"station_id":"CKI","station_name":"Cikini","is_transit":false,"distance":1590,"i_long":106.840169,"transit":false,"i_lat":-6.198556},{"i_lat":-6.186295,"is_transit":false,"i_long":106.832183,"line":2,"distance":1750,"transit":false,"station_id":"GDD","station_name":"Gondangdia","time":3},{"station_id":"JUA","i_long":106.828284,"line":2,"i_lat":-6.166716,"transit":false,"distance":2015,"time":4,"station_name":"Juanda","is_transit":false},{"is_transit":false,"i_lat":-6.160725,"line":2,"time":2,"i_long":106.827103,"transit":false,"station_name":"Sawah Besar","station_id":"SW","distance":1149},{"transit":false,"is_transit":false,"station_id":"MGB","time":2,"station_name":"Manggabesar","distance":906,"line":2,"i_lat":-6.149769,"i_long":106.82482},{"i_lat":-6.141205,"station_name":"Jayakarta","line":2,"distance":1080,"time":2,"transit":false,"is_transit":false,"i_long":106.820901,"station_id":"JAY"},{"station_name":"Jakarta Kota","is_transit":true,"i_lat":-6.137569,"station_id":"JAKK","line":2,"time":4,"i_long":106.812439,"transit":true,"distance":1264},{"is_transit":true,"i_long":106.826365,"line":4,"station_name":"Kampung Bandan","station_id":"KPB","transit":true,"time":3,"distance":1364,"i_lat":-6.132549},{"time":9,"station_id":"AK","distance":4102,"i_lat":-6.144674,"i_long":106.79867,"line":1,"is_transit":false,"transit":false,"station_name":"Angke"},{"transit":false,"i_lat":-6.155215,"station_name":"Duri","station_id":"DU","i_long":106.800832,"distance":1230,"is_transit":false,"line":1,"time":4},{"transit":true,"station_name":"Tanah Abang","i_lat":-6.185545,"i_long":106.811091,"distance":3632,"station_id":"THB","time":8,"line":1,"is_transit":true},{"transit":false,"time":6,"distance":3191,"i_long":106.79689,"line":6,"is_transit":false,"station_name":"Palmerah","i_lat":-6.207404,"station_id":"PLM"},{"station_id":"KBY","i_long":106.780334,"time":7,"is_transit":false,"line":6,"distance":3737,"transit":false,"i_lat":-6.237242,"station_name":"Kebayoran"},{"station_id":"PDJ","line":6,"i_lat":-6.276362,"station_name":"Pondokranji","is_transit":false,"distance":6218,"time":8,"transit":false,"i_long":106.74273}],[{"i_lat":-6.219053,"distance":0,"time":0,"i_long":106.951283,"transit":false,"is_transit":false,"line":1,"station_id":"CUK","station_name":"Cakung"},{"station_id":"KLDB","is_transit":false,"i_lat":-6.217455,"time":8,"i_long":106.939679,"line":1,"station_name":"Klenderbaru","distance":1385,"transit":false},{"time":1,"transit":false,"station_id":"BUA","distance":1305,"i_long":106.922662,"is_transit":false,"i_lat":-6.215568,"line":1,"station_name":"Buaran"},{"i_long":106.899548,"distance":3100,"line":1,"station_name":"Klender","time":2,"transit":false,"station_id":"KLD","is_transit":false,"i_lat":-6.2135},{"distance":3395,"i_long":106.86807400000001,"time":3,"line":1,"station_id":"JNG","i_lat":-6.215091,"station_name":"Jatinegara","transit":true,"is_transit":true},{"station_name":"Pondok Jati","distance":1236,"station_id":"POK","i_lat":-6.209188,"transit":false,"time":2,"is_transit":false,"i_long":106.861737,"line":11},{"line":11,"i_lat":-6.193792,"transit":false,"i_long":106.855437,"is_transit":false,"distance":1829,"station_id":"KMT","time":2,"station_name":"Kramat"},{"distance":973,"transit":false,"is_transit":false,"time":1,"station_id":"GST","i_long":106.850107,"i_lat":-6.185975,"line":11,"station_name":"Gang Sentiong"},{"station_name":"Pasar Senen","time":8,"station_id":"PSE","is_transit":false,"transit":false,"distance":1567,"i_lat":-6.174784,"i_long":106.84368,"line":11},{"transit":false,"station_name":"Kemayoran","distance":1436,"i_lat":-6.161728,"line":11,"is_transit":false,"station_id":"KMO","time":4,"i_long":106.839204},{"time":5,"is_transit":false,"station_name":"Rajawali","transit":false,"station_id":"RJW","i_lat":-6.14505,"distance":1901,"i_long":106.836569,"line":11},{"transit":true,"i_long":106.826365,"distance":1444,"is_transit":true,"i_lat":-6.132549,"time":3,"station_id":"KPB","line":4,"station_name":"Kampung Bandan"},{"station_id":"JAKK","distance":1364,"time":3,"transit":true,"i_lat":-6.137569,"is_transit":true,"line":2,"station_name":"Jakarta Kota","i_long":106.812439},{"i_long":106.820901,"station_id":"JAY","i_lat":-6.141205,"distance":1264,"line":2,"time":4,"station_name":"Jayakarta","transit":false,"is_transit":false},{"distance":1080,"time":2,"i_lat":-6.149769,"line":2,"i_long":106.82482,"is_transit":false,"transit":false,"station_name":"Manggabesar","station_id":"MGB"},{"i_lat":-6.160725,"station_id":"SW","is_transit":false,"station_name":"Sawah Besar","line":2,"transit":false,"i_long":106.827103,"distance":906,"time":2},{"distance":1149,"line":2,"station_name":"Juanda","station_id":"JUA","i_long":106.828284,"is_transit":false,"i_lat":-6.166716,"transit":false,"time":2},{"transit":false,"time":4,"line":2,"i_lat":-6.186295,"station_name":"Gondangdia","station_id":"GDD","is_transit":false,"distance":2015,"i_long":106.832183},{"is_transit":false,"transit":false,"i_long":106.840169,"time":3,"station_name":"Cikini","distance":1750,"i_lat":-6.198556,"station_id":"CKI","line":2},{"station_name":"Manggarai","station_id":"MRI","distance":1590,"time":4,"transit":true,"is_transit":true,"line":2,"i_long":106.84912,"i_lat":-6.209883},{"time":4,"distance":3186,"line":1,"is_transit":false,"station_id":"SUD","i_long":106.822649,"station_name":"Sudirman","transit":false,"i_lat":-6.202263},{"i_lat":-6.201433,"is_transit":false,"line":1,"i_long":106.819881,"station_name":"Sudirman Baru","station_id":"SUDB","distance":280,"transit":false,"time":1},{"transit":false,"is_transit":false,"station_name":"Karet","line":1,"distance":471,"i_lat":-6.20132,"i_long":106.816351,"station_id":"KAT","time":1},{"station_name":"Tanah Abang","distance":2029,"i_lat":-6.185545,"line":1,"transit":true,"time":5,"is_transit":true,"station_id":"THB","i_long":106.811091},{"station_id":"PLM","time":6,"i_long":106.79689,"is_transit":false,"i_lat":-6.207404,"transit":false,"distance":3191,"station_name":"Palmerah","line":6},{"time":7,"distance":3737,"station_name":"Kebayoran","i_long":106.780334,"line":6,"station_id":"KBY","transit":false,"i_lat":-6.237242,"is_transit":false},{"is_transit":false,"station_id":"PDJ","station_name":"Pondokranji","line":6,"i_long":106.74273,"time":8,"i_lat":-6.276362,"transit":false,"distance":6218}]]}