{"data":[[{"station_id":"CUK","distance":0,"i_lat":-6.219053,"time":0,"station_name":"Cakung","line":0,"is_transit":false,"transit":false,"i_long":106.951283},{"i_long":106.939679,"i_lat":-6.217455,"time":8,"distance":1385,"station_name":"Klenderbaru","line":1,"transit":false,"is_transit":false,"station_id":"KLDB"},{"i_lat":-6.215568,"is_transit":false,"distance":1305,"line":0,"transit":false,"station_name":"Buaran","time":1,"i_long":106.922662,"station_id":"BUA"},{"is_transit":false,"i_long":106.899548,"distance":3100,"time":2,"transit":false,"station_name":"Klender","i_lat":-6.2135,"line":1,"station_id":"KLD"},{"line":0,"distance":3395,"station_name":"Jatinegara","is_transit":true,"i_long":106.86807400000001,"i_lat":-6.215091,"station_id":"JNG","transit":true,"time":3},{"station_id":"POK","is_transit":false,"line":11,"transit":false,"station_name":"Pondok Jati","i_long":106.861737,"distance":1236,"time":2,"i_lat":-6.209188}],[{"station_id":"CUK","is_transit":false,"time":0,"distance":0,"station_name":"Cakung","transit":false,"i_lat":-6.219053,"i_long":106.951283,"line":0},{"transit":false,"i_long":106.939679,"is_transit":false,"station_name":"Klenderbaru","i_lat":-6.217455,"time":8,"line":1,"station_id":"KLDB","distance":1385},{"i_long":106.922662,"distance":1305,"transit":false,"is_transit":false,"time":1,"i_lat":-6.215568,"station_name":"Buaran","line":0,"station_id":"BUA"},{"line":1,"transit":false,"i_lat":-6.2135,"is_transit":false,"i_long":106.899548,"time":2,"distance":3100,"station_name":"Klender","station_id":"KLD"},{"time":3,"station_name":"Jatinegara","transit":false,"i_lat":-6.215091,"distance":3395,"station_id":"JNG","is_transit":true,"line":0,"i_long":106.86807400000001},{"station_name":"Matraman","is_transit":false,"time":2,"distance":1377,"line":1,"i_long":106.858896,"station_id":"MTR","i_lat":-6.212485,"transit":false},{"transit":false,"line":0,"time":2,"distance":1275,"i_lat":-6.209883,"station_name":"Manggarai","i_long":106.84912,"station_id":"MRI","is_transit":true},{"transit":false,"station_id":"SUD","i_long":106.822649,"time":4,"station_name":"Sudirman","line":1,"i_lat":-6.202263,"distance":3186,"is_transit":false},{"i_long":106.819881,"time":1,"station_name":"Sudirman Baru","line":1,"station_id":"SUDB","distance":280,"is_transit":false,"transit":false,"i_lat":-6.201433},{"transit":false,"line":1,"distance":471,"station_id":"KAT","time":1,"station_name":"Karet","i_lat":-6.20132,"i_long":106.816351,"is_transit":false},{"line":1,"transit":false,"i_lat":-6.185545,"i_long":106.811091,"is_transit":true,"distance":2029,"station_name":"Tanah Abang","time":5,"station_id":"THB"},{"line":1,"is_transit":true,"transit":true,"station_id":"DU","i_lat":-6.155215,"i_long":106.800832,"time":8,"distance":3632,"station_name":"Duri"},{"station_id":"AK","distance":1230,"time":4,"is_transit":false,"transit":false,"i_lat":-6.144674,"line":0,"station_name":"Angke","i_long":106.79867},{"distance":4102,"is_transit":true,"time":9,"i_lat":-6.132549,"line":0,"station_id":"KPB","i_long":106.826365,"transit":true,"station_name":"Kampung Bandan"},{"station_id":"RJW","line":11,"time":3,"distance":1444,"is_transit":false,"transit":false,"i_lat":-6.14505,"i_long":106.836569,"station_name":"Rajawali"},{"i_long":106.839204,"station_id":"KMO","station_name":"Kemayoran","time":5,"is_transit":false,"i_lat":-6.161728,"line":11,"distance":1901,"transit":false},{"line":11,"station_name":"Pasar Senen","station_id":"PSE","time":4,"distance":1436,"i_long":106.84368,"transit":false,"is_transit":false,"i_lat":-6.174784},{"time":8,"is_transit":false,"line":11,"i_lat":-6.185975,"distance":1567,"i_long":106.850107,"station_id":"GST","transit":false,"station_name":"Gang Sentiong"},{"station_id":"KMT","transit":false,"i_lat":-6.193792,"line":11,"time":1,"is_transit":false,"distance":973,"station_name":"Kramat","i_long":106.855437},{"station_id":"POK","i_long":106.861737,"station_name":"Pondok Jati","distance":1829,"time":2,"transit":false,"is_transit":false,"i_lat":-6.209188,"line":11}],[{"line":0,"is_transit":false,"time":0,"i_lat":-6.219053,"transit":false,"distance":0,"i_long":106.951283,"station_name":"Cakung","station_id":"CUK"},{"is_transit":false,"time":8,"station_name":"Klenderbaru","i_lat":-6.217455,"transit":false,"distance":1385,"i_long":106.939679,"line":1,"station_id":"KLDB"},{"line":0,"time":1,"station_name":"Buaran","transit":false,"distance":1305,"station_id":"BUA","is_transit":false,"i_long":106.922662,"i_lat":-6.215568},{"transit":false,"time":2,"station_id":"KLD","station_name":"Klender","line":1,"distance":3100,"i_long":106.899548,"is_transit":false,"i_lat":-6.2135},{"is_transit":true,"i_long":106.86807400000001,"station_name":"Jatinegara","time":3,"i_lat":-6.215091,"distance":3395,"line":0,"station_id":"JNG","transit":false},{"is_transit":false,"line":1,"i_lat":-6.212485,"time":2,"i_long":106.858896,"station_id":"MTR","distance":1377,"transit":false,"station_name":"Matraman"},{"line":0,"distance":1275,"station_id":"MRI","transit":true,"i_lat":-6.209883,"i_long":106.84912,"time":2,"is_transit":true,"station_name":"Manggarai"},{"is_transit":false,"line":0,"station_id":"CKI","station_name":"Cikini","i_lat":-6.198556,"i_long":106.840169,"distance":1590,"transit":false,"time":4},{"station_name":"Gondangdia","time":3,"transit":false,"i_long":106.832183,"is_transit":false,"i_lat":-6.186295,"station_id":"GDD","line":2,"distance":1750},{"distance":2015,"station_id":"JUA","station_name":"Juanda","i_long":106.828284,"i_lat":-6.166716,"time":4,"line":2,"transit":false,"is_transit":false},{"i_long":106.827103,"transit":false,"line":2,"distance":1149,"is_transit":false,"station_id":"SW","station_name":"Sawah Besar","i_lat":-6.160725,"time":2},{"time":2,"station_id":"MGB","i_lat":-6.149769,"station_name":"Manggabesar","transit":false,"i_long":106.82482,"line":2,"is_transit":false,"distance":906},{"station_id":"JAY","i_lat":-6.141205,"distance":1080,"station_name":"Jayakarta","transit":false,"line":7,"i_long":106.820901,"is_transit":false,"time":2},{"time":4,"i_lat":-6.137569,"transit":true,"i_long":106.812439,"is_transit":true,"line":0,"distance":1264,"station_name":"Jakarta Kota","station_id":"JAKK"},{"distance":1364,"is_transit":true,"time":3,"station_id":"KPB","i_lat":-6.132549,"line":0,"station_name":"Kampung Bandan","transit":true,"i_long":106.826365},{"is_transit":false,"station_id":"RJW","station_name":"Rajawali","time":3,"distance":1444,"i_long":106.836569,"i_lat":-6.14505,"transit":false,"line":11},{"transit":false,"is_transit":false,"station_id":"KMO","i_long":106.839204,"station_name":"Kemayoran","time":5,"distance":1901,"line":11,"i_lat":-6.161728},{"distance":1436,"i_lat":-6.174784,"line":11,"transit":false,"time":4,"station_name":"Pasar Senen","i_long":106.84368,"is_transit":false,"station_id":"PSE"},{"line":11,"time":8,"station_name":"Gang Sentiong","station_id":"GST","i_lat":-6.185975,"distance":1567,"transit":false,"is_transit":false,"i_long":106.850107},{"is_transit":false,"i_long":106.855437,"station_id":"KMT","time":1,"distance":973,"station_name":"Kramat","transit":false,"line":11,"i_lat":-6.193792},{"i_lat":-6.209188,"i_long":106.861737,"station_id":"POK","transit":false,"time":2,"line":11,"is_transit":false,"distance":1829,"station_name":"Pondok Jati"}]]}