{"data":[[{"distance":0,"station_name":"Cakung","line":1,"i_lat":-6.219053,"is_transit":false,"i_long":106.951283,"transit":false,"station_id":"CUK","time":0},{"distance":1385,"time":8,"station_id":"KLDB","i_long":106.939679,"is_transit":false,"line":1,"station_name":"Klenderbaru","transit":false,"i_lat":-6.217455},{"transit":false,"distance":1305,"station_id":"BUA","station_name":"Buaran","i_lat":-6.215568,"i_long":106.922662,"time":1,"is_transit":false,"line":1},{"distance":3100,"i_long":106.899548,"station_name":"Klender","line":1,"transit":false,"time":2,"is_transit":false,"station_id":"KLD","i_lat":-6.2135},{"transit":true,"time":3,"is_transit":true,"i_lat":-6.215091,"i_long":106.86807400000001,"line":1,"station_name":"Jatinegara","station_id":"JNG","distance":3395},{"station_id":"POK","i_lat":-6.209188,"line":11,"is_transit":false,"i_long":106.861737,"distance":1236,"transit":false,"time":2,"station_name":"Pondok Jati"},{"time":2,"i_long":106.855437,"distance":1829,"i_lat":-6.193792,"station_name":"Kramat","is_transit":false,"transit":false,"station_id":"KMT","line":11},{"transit":false,"line":11,"i_lat":-6.185975,"time":1,"distance":973,"station_name":"Gang Sentiong","station_id":"GST","is_transit":false,"i_long":106.850107}],[{"distance":0,"station_name":"Cakung","is_transit":false,"line":1,"i_lat":-6.219053,"transit":false,"station_id":"CUK","time":0,"i_long":106.951283},{"distance":1385,"station_id":"KLDB","i_lat":-6.217455,"i_long":106.939679,"transit":false,"is_transit":false,"line":1,"time":8,"station_name":"Klenderbaru"},{"transit":false,"time":1,"station_name":"Buaran","line":1,"is_transit":false,"station_id":"BUA","i_lat":-6.215568,"i_long":106.922662,"distance":1305},{"i_lat":-6.2135,"time":2,"transit":false,"i_long":106.899548,"line":1,"station_id":"KLD","is_transit":false,"station_name":"Klender","distance":3100},{"i_lat":-6.215091,"distance":3395,"line":1,"i_long":106.86807400000001,"time":3,"is_transit":false,"transit":false,"station_name":"Jatinegara","station_id":"JNG"},{"station_name":"Matraman","i_lat":-6.212485,"time":2,"is_transit":false,"distance":1377,"station_id":"MTR","i_long":106.858896,"line":1,"transit":false},{"station_name":"Manggarai","i_lat":-6.209883,"station_id":"MRI","i_long":106.84912,"time":2,"transit":false,"distance":1275,"line":2,"is_transit":false},{"i_long":106.822649,"line":1,"time":4,"distance":3186,"transit":false,"is_transit":false,"station_name":"Sudirman","i_lat":-6.202263,"station_id":"SUD"},{"station_name":"Sudirman Baru","i_lat":-6.201433,"time":1,"distance":280,"station_id":"SUDB","i_long":106.819881,"is_transit":false,"line":1,"transit":false},{"time":1,"station_name":"Karet","is_transit":false,"line":1,"station_id":"KAT","distance":471,"i_long":106.816351,"i_lat":-6.20132,"transit":false},{"time":5,"station_name":"Tanah Abang","line":1,"distance":2029,"is_transit":false,"station_id":"THB","i_lat":-6.185545,"transit":false,"i_long":106.811091},{"station_name":"Duri","station_id":"DU","is_transit":false,"time":8,"distance":3632,"i_lat":-6.155215,"i_long":106.800832,"transit":false,"line":1},{"i_lat":-6.144674,"line":1,"is_transit":false,"transit":false,"i_long":106.79867,"station_id":"AK","time":4,"station_name":"Angke","distance":1230},{"transit":true,"station_id":"KPB","distance":4102,"time":9,"station_name":"Kampung Bandan","is_transit":true,"i_long":106.826365,"line":4,"i_lat":-6.132549},{"i_long":106.836569,"time":3,"line":11,"transit":false,"station_name":"Rajawali","is_transit":false,"distance":1444,"station_id":"RJW","i_lat":-6.14505},{"station_name":"Kemayoran","is_transit":false,"station_id":"KMO","time":5,"transit":false,"distance":1901,"line":11,"i_long":106.839204,"i_lat":-6.161728},{"transit":false,"station_name":"Pasar Senen","distance":1436,"station_id":"PSE","i_lat":-6.174784,"i_long":106.84368,"is_transit":false,"line":11,"time":4},{"station_name":"Gang Sentiong","time":8,"distance":1567,"station_id":"GST","i_lat":-6.185975,"i_long":106.850107,"transit":false,"line":11,"is_transit":false}],[{"station_name":"Cakung","time":0,"distance":0,"station_id":"CUK","line":1,"i_lat":-6.219053,"i_long":106.951283,"transit":false,"is_transit":false},{"is_transit":false,"i_lat":-6.217455,"distance":1385,"time":8,"station_id":"KLDB","line":1,"transit":false,"station_name":"Klenderbaru","i_long":106.939679},{"transit":false,"station_name":"Buaran","distance":1305,"station_id":"BUA","line":1,"time":1,"is_transit":false,"i_long":106.922662,"i_lat":-6.215568},{"time":2,"is_transit":false,"transit":false,"i_long":106.899548,"station_id":"KLD","distance":3100,"i_lat":-6.2135,"station_name":"Klender","line":1},{"distance":3395,"i_lat":-6.215091,"transit":false,"is_transit":false,"i_long":106.86807400000001,"station_id":"JNG","line":1,"time":3,"station_name":"Jatinegara"},{"i_long":106.858896,"line":1,"transit":false,"distance":1377,"is_transit":false,"i_lat":-6.212485,"station_name":"Matraman","station_id":"MTR","time":2},{"i_long":106.84912,"transit":true,"i_lat":-6.209883,"time":2,"line":2,"distance":1275,"is_transit":true,"station_name":"Manggarai","station_id":"MRI"},{"transit":false,"is_transit":false,"distance":1590,"i_lat":-6.198556,"line":2,"time":4,"station_id":"CKI","i_long":106.840169,"station_name":"Cikini"},{"i_long":106.832183,"station_name":"Gondangdia","distance":1750,"station_id":"GDD","i_lat":-6.186295,"time":3,"transit":false,"is_transit":false,"line":2},{"distance":2015,"time":4,"transit":false,"station_id":"JUA","station_name":"Juanda","is_transit":false,"i_lat":-6.166716,"i_long":106.828284,"line":2},{"distance":1149,"station_id":"SW","i_lat":-6.160725,"line":2,"station_name":"Sawah Besar","i_long":106.827103,"is_transit":false,"transit":false,"time":2},{"line":2,"i_lat":-6.149769,"time":2,"distance":906,"station_name":"Manggabesar","i_long":106.82482,"is_transit":false,"transit":false,"station_id":"MGB"},{"transit":false,"time":2,"i_lat":-6.141205,"i_long":106.820901,"distance":1080,"station_id":"JAY","station_name":"Jayakarta","line":2,"is_transit":false},{"line":2,"transit":true,"distance":1264,"station_id":"JAKK","station_name":"Jakarta Kota","time":4,"i_lat":-6.137569,"i_long":106.812439,"is_transit":true},{"station_id":"KPB","line":4,"time":3,"station_name":"Kampung Bandan","i_lat":-6.132549,"is_transit":true,"distance":1364,"i_long":106.826365,"transit":true},{"line":11,"distance":1444,"is_transit":false,"station_name":"Rajawali","station_id":"RJW","transit":false,"time":3,"i_lat":-6.14505,"i_long":106.836569},{"i_lat":-6.161728,"i_long":106.839204,"is_transit":false,"transit":false,"line":11,"time":5,"distance":1901,"station_name":"Kemayoran","station_id":"KMO"},{"station_id":"PSE","line":11,"time":4,"is_transit":false,"station_name":"Pasar Senen","distance":1436,"transit":false,"i_long":106.84368,"i_lat":-6.174784},{"line":11,"station_id":"GST","station_name":"Gang Sentiong","i_long":106.850107,"i_lat":-6.185975,"transit":false,"time":8,"is_transit":false,"distance":1567}]]}