{"data":[[{"station_name":"Cakung","time":0,"distance":0,"i_lat":-6.219053,"transit":false,"station_id":"CUK","i_long":106.951283,"line":1,"is_transit":false},{"time":8,"transit":false,"station_name":"Klenderbaru","is_transit":false,"station_id":"KLDB","i_lat":-6.217455,"distance":1385,"i_long":106.939679,"line":1},{"line":1,"station_id":"BUA","station_name":"Buaran","is_transit":false,"time":1,"distance":1305,"i_long":106.922662,"transit":false,"i_lat":-6.215568},{"is_transit":false,"i_lat":-6.2135,"i_long":106.899548,"station_name":"Klender","distance":3100,"transit":false,"station_id":"KLD","time":2,"line":1},{"station_id":"JNG","station_name":"Jatinegara","line":1,"is_transit":false,"time":3,"i_long":106.86807400000001,"distance":3395,"i_lat":-6.215091,"transit":false},{"transit":false,"station_id":"MTR","i_lat":-6.212485,"line":1,"i_long":106.858896,"station_name":"Matraman","time":2,"is_transit":false,"distance":1377},{"station_name":"Manggarai","is_transit":false,"station_id":"MRI","i_long":106.84912,"transit":false,"i_lat":-6.209883,"time":2,"line":2,"distance":1275},{"i_lat":-6.202263,"line":1,"transit":false,"station_id":"SUD","i_long":106.822649,"distance":3186,"is_transit":false,"station_name":"Sudirman","time":4},{"is_transit":false,"transit":false,"i_lat":-6.201433,"station_id":"SUDB","time":1,"line":1,"distance":280,"station_name":"Sudirman Baru","i_long":106.819881},{"distance":471,"time":1,"station_name":"Karet","station_id":"KAT","line":1,"is_transit":false,"i_lat":-6.20132,"transit":false,"i_long":106.816351},{"transit":true,"i_long":106.811091,"time":5,"station_name":"Tanah Abang","distance":2029,"station_id":"THB","i_lat":-6.185545,"line":1,"is_transit":true},{"i_long":106.79689,"time":6,"station_id":"PLM","station_name":"Palmerah","transit":false,"is_transit":false,"line":6,"distance":3191,"i_lat":-6.207404},{"station_name":"Kebayoran","is_transit":false,"distance":3737,"i_lat":-6.237242,"time":7,"station_id":"KBY","i_long":106.780334,"line":6,"transit":false},{"i_lat":-6.276362,"transit":false,"line":6,"station_id":"PDJ","i_long":106.74273,"is_transit":false,"time":8,"station_name":"Pondokranji","distance":6218},{"transit":false,"distance":2179,"i_lat":-6.288927,"i_long":106.728916,"line":6,"station_name":"Jurangmangu","time":3,"is_transit":false,"station_id":"JMU"},{"i_lat":-6.296963,"station_id":"SDM","station_name":"Sudimara","is_transit":false,"transit":false,"time":4,"i_long":106.712277,"line":6,"distance":1994},{"line":6,"station_name":"Rawa Buntu","time":6,"distance":4566,"i_long":106.675475,"transit":false,"station_id":"RU","is_transit":false,"i_lat":-6.314823},{"station_id":"SRP","station_name":"Serpong","i_long":106.66566,"transit":false,"distance":2413,"is_transit":false,"i_lat":-6.319871,"time":4,"line":6}],[{"line":1,"transit":false,"station_id":"CUK","i_lat":-6.219053,"time":0,"distance":0,"is_transit":false,"station_name":"Cakung","i_long":106.951283},{"i_long":106.939679,"is_transit":false,"i_lat":-6.217455,"station_id":"KLDB","distance":1385,"line":1,"transit":false,"time":8,"station_name":"Klenderbaru"},{"i_lat":-6.215568,"station_name":"Buaran","station_id":"BUA","is_transit":false,"time":1,"i_long":106.922662,"line":1,"transit":false,"distance":1305},{"time":2,"transit":false,"is_transit":false,"station_id":"KLD","distance":3100,"station_name":"Klender","i_long":106.899548,"i_lat":-6.2135,"line":1},{"is_transit":true,"time":3,"distance":3395,"transit":true,"station_id":"JNG","i_long":106.86807400000001,"line":1,"station_name":"Jatinegara","i_lat":-6.215091},{"time":2,"transit":false,"i_long":106.861737,"i_lat":-6.209188,"line":11,"station_name":"Pondok Jati","is_transit":false,"station_id":"POK","distance":1236},{"i_lat":-6.193792,"station_name":"Kramat","line":11,"i_long":106.855437,"transit":false,"time":2,"is_transit":false,"distance":1829,"station_id":"KMT"},{"line":11,"station_name":"Gang Sentiong","distance":973,"station_id":"GST","time":1,"i_lat":-6.185975,"is_transit":false,"i_long":106.850107,"transit":false},{"is_transit":false,"station_id":"PSE","line":11,"i_long":106.84368,"transit":false,"time":8,"distance":1567,"i_lat":-6.174784,"station_name":"Pasar Senen"},{"time":4,"station_name":"Kemayoran","distance":1436,"i_lat":-6.161728,"transit":false,"is_transit":false,"i_long":106.839204,"line":11,"station_id":"KMO"},{"distance":1901,"i_lat":-6.14505,"transit":false,"time":5,"i_long":106.836569,"line":11,"station_name":"Rajawali","is_transit":false,"station_id":"RJW"},{"time":3,"is_transit":true,"distance":1444,"i_lat":-6.132549,"station_id":"KPB","station_name":"Kampung Bandan","line":4,"transit":true,"i_long":106.826365},{"line":1,"i_lat":-6.144674,"station_name":"Angke","is_transit":false,"station_id":"AK","i_long":106.79867,"distance":4102,"time":9,"transit":false},{"line":1,"is_transit":false,"station_id":"DU","distance":1230,"transit":false,"time":4,"i_lat":-6.155215,"station_name":"Duri","i_long":106.800832},{"transit":true,"line":1,"i_long":106.811091,"i_lat":-6.185545,"is_transit":true,"distance":3632,"station_name":"Tanah Abang","time":8,"station_id":"THB"},{"i_long":106.79689,"line":6,"station_name":"Palmerah","is_transit":false,"time":6,"transit":false,"distance":3191,"station_id":"PLM","i_lat":-6.207404},{"transit":false,"distance":3737,"station_name":"Kebayoran","time":7,"station_id":"KBY","is_transit":false,"i_lat":-6.237242,"i_long":106.780334,"line":6},{"time":8,"is_transit":false,"line":6,"transit":false,"distance":6218,"station_name":"Pondokranji","i_long":106.74273,"station_id":"PDJ","i_lat":-6.276362},{"station_id":"JMU","i_lat":-6.288927,"station_name":"Jurangmangu","is_transit":false,"i_long":106.728916,"line":6,"time":3,"distance":2179,"transit":false},{"station_id":"SDM","i_lat":-6.296963,"time":4,"distance":1994,"line":6,"transit":false,"station_name":"Sudimara","is_transit":false,"i_long":106.712277},{"time":6,"line":6,"distance":4566,"transit":false,"station_name":"Rawa Buntu","i_long":106.675475,"station_id":"RU","i_lat":-6.314823,"is_transit":false},{"line":6,"distance":2413,"is_transit":false,"time":4,"station_name":"Serpong","i_lat":-6.319871,"station_id":"SRP","i_long":106.66566,"transit":false}],[{"is_transit":false,"i_lat":-6.219053,"transit":false,"time":0,"distance":0,"station_id":"CUK","i_long":106.951283,"station_name":"Cakung","line":1},{"station_name":"Klenderbaru","distance":1385,"i_long":106.939679,"line":1,"i_lat":-6.217455,"station_id":"KLDB","transit":false,"time":8,"is_transit":false},{"line":1,"i_lat":-6.215568,"time":1,"distance":1305,"is_transit":false,"station_id":"BUA","i_long":106.922662,"transit":false,"station_name":"Buaran"},{"station_name":"Klender","line":1,"is_transit":false,"i_long":106.899548,"time":2,"station_id":"KLD","transit":false,"distance":3100,"i_lat":-6.2135},{"distance":3395,"is_transit":false,"i_long":106.86807400000001,"i_lat":-6.215091,"time":3,"transit":false,"line":1,"station_id":"JNG","station_name":"Jatinegara"},{"distance":1377,"line":1,"transit":false,"station_name":"Matraman","time":2,"i_long":106.858896,"i_lat":-6.212485,"station_id":"MTR","is_transit":false},{"station_id":"MRI","distance":1275,"i_lat":-6.209883,"transit":true,"i_long":106.84912,"station_name":"Manggarai","is_transit":true,"line":2,"time":2},{"station_id":"CKI","station_name":"Cikini","distance":1590,"time":4,"i_lat":-6.198556,"i_long":106.840169,"is_transit":false,"line":2,"transit":false},{"time":3,"station_name":"Gondangdia","is_transit":false,"station_id":"GDD","i_lat":-6.186295,"i_long":106.832183,"distance":1750,"line":2,"transit":false},{"line":2,"is_transit":false,"i_lat":-6.166716,"distance":2015,"station_name":"Juanda","transit":false,"station_id":"JUA","time":4,"i_long":106.828284},{"is_transit":false,"transit":false,"station_name":"Sawah Besar","time":2,"distance":1149,"i_lat":-6.160725,"station_id":"SW","i_long":106.827103,"line":2},{"station_name":"Manggabesar","i_long":106.82482,"time":2,"distance":906,"station_id":"MGB","line":2,"transit":false,"i_lat":-6.149769,"is_transit":false},{"station_id":"JAY","transit":false,"i_long":106.820901,"distance":1080,"line":2,"time":2,"is_transit":false,"i_lat":-6.141205,"station_name":"Jayakarta"},{"is_transit":true,"transit":true,"i_long":106.812439,"line":2,"time":4,"station_name":"Jakarta Kota","distance":1264,"station_id":"JAKK","i_lat":-6.137569},{"i_lat":-6.132549,"transit":true,"station_name":"Kampung Bandan","time":3,"distance":1364,"i_long":106.826365,"is_transit":true,"station_id":"KPB","line":4},{"distance":4102,"station_name":"Angke","i_lat":-6.144674,"time":9,"i_long":106.79867,"station_id":"AK","line":1,"transit":false,"is_transit":false},{"i_long":106.800832,"station_name":"Duri","i_lat":-6.155215,"transit":false,"is_transit":false,"time":4,"line":1,"distance":1230,"station_id":"DU"},{"time":8,"station_id":"THB","transit":true,"station_name":"Tanah Abang","i_long":106.811091,"distance":3632,"is_transit":true,"i_lat":-6.185545,"line":1},{"station_name":"Palmerah","station_id":"PLM","transit":false,"i_long":106.79689,"is_transit":false,"line":6,"time":6,"i_lat":-6.207404,"distance":3191},{"transit":false,"i_long":106.780334,"station_id":"KBY","line":6,"is_transit":false,"station_name":"Kebayoran","time":7,"i_lat":-6.237242,"distance":3737},{"distance":6218,"i_long":106.74273,"is_transit":false,"station_name":"Pondokranji","transit":false,"line":6,"time":8,"station_id":"PDJ","i_lat":-6.276362},{"station_name":"Jurangmangu","station_id":"JMU","i_lat":-6.288927,"is_transit":false,"transit":false,"line":6,"i_long":106.728916,"time":3,"distance":2179},{"i_lat":-6.296963,"station_name":"Sudimara","is_transit":false,"distance":1994,"station_id":"SDM","i_long":106.712277,"time":4,"line":6,"transit":false},{"time":6,"is_transit":false,"i_lat":-6.314823,"line":6,"station_id":"RU","station_name":"Rawa Buntu","transit":false,"i_long":106.675475,"distance":4566},{"station_name":"Serpong","transit":false,"is_transit":false,"distance":2413,"line":6,"time":4,"station_id":"SRP","i_lat":-6.319871,"i_long":106.66566}],[{"time":0,"is_transit":false,"i_long":106.951283,"distance":0,"transit":false,"station_id":"CUK","station_name":"Cakung","line":1,"i_lat":-6.219053},{"distance":1385,"is_transit":false,"time":8,"i_lat":-6.217455,"i_long":106.939679,"station_name":"Klenderbaru","transit":false,"line":1,"station_id":"KLDB"},{"i_long":106.922662,"time":1,"distance":1305,"is_transit":false,"transit":false,"i_lat":-6.215568,"line":1,"station_name":"Buaran","station_id":"BUA"},{"is_transit":false,"i_long":106.899548,"time":2,"station_id":"KLD","line":1,"i_lat":-6.2135,"transit":false,"station_name":"Klender","distance":3100},{"line":1,"distance":3395,"i_lat":-6.215091,"station_name":"Jatinegara","i_long":106.86807400000001,"is_transit":true,"time":3,"transit":true,"station_id":"JNG"},{"distance":1236,"transit":false,"station_name":"Pondok Jati","is_transit":false,"i_long":106.861737,"i_lat":-6.209188,"time":2,"station_id":"POK","line":11},{"distance":1829,"line":11,"station_id":"KMT","transit":false,"i_lat":-6.193792,"station_name":"Kramat","i_long":106.855437,"is_transit":false,"time":2},{"i_long":106.850107,"station_name":"Gang Sentiong","distance":973,"i_lat":-6.185975,"line":11,"transit":false,"is_transit":false,"time":1,"station_id":"GST"},{"transit":false,"station_id":"PSE","station_name":"Pasar Senen","i_lat":-6.174784,"i_long":106.84368,"time":8,"line":11,"distance":1567,"is_transit":false},{"i_long":106.839204,"time":4,"transit":false,"i_lat":-6.161728,"is_transit":false,"line":11,"station_id":"KMO","distance":1436,"station_name":"Kemayoran"},{"station_name":"Rajawali","station_id":"RJW","i_lat":-6.14505,"is_transit":false,"time":5,"distance":1901,"transit":false,"line":11,"i_long":106.836569},{"distance":1444,"is_transit":true,"transit":true,"station_name":"Kampung Bandan","time":3,"station_id":"KPB","line":4,"i_lat":-6.132549,"i_long":106.826365},{"line":2,"time":3,"distance":1364,"station_id":"JAKK","i_lat":-6.137569,"transit":true,"is_transit":true,"station_name":"Jakarta Kota","i_long":106.812439},{"i_lat":-6.141205,"station_name":"Jayakarta","time":4,"is_transit":false,"i_long":106.820901,"distance":1264,"line":2,"station_id":"JAY","transit":false},{"is_transit":false,"line":2,"station_name":"Manggabesar","transit":false,"i_long":106.82482,"distance":1080,"time":2,"i_lat":-6.149769,"station_id":"MGB"},{"station_name":"Sawah Besar","time":2,"is_transit":false,"transit":false,"i_long":106.827103,"station_id":"SW","distance":906,"i_lat":-6.160725,"line":2},{"station_name":"Juanda","i_long":106.828284,"time":2,"transit":false,"distance":1149,"line":2,"station_id":"JUA","is_transit":false,"i_lat":-6.166716},{"transit":false,"station_id":"GDD","distance":2015,"is_transit":false,"time":4,"i_long":106.832183,"i_lat":-6.186295,"line":2,"station_name":"Gondangdia"},{"distance":1750,"time":3,"transit":false,"i_long":106.840169,"station_id":"CKI","station_name":"Cikini","i_lat":-6.198556,"is_transit":false,"line":2},{"distance":1590,"is_transit":true,"i_lat":-6.209883,"time":4,"station_id":"MRI","station_name":"Manggarai","i_long":106.84912,"transit":true,"line":2},{"is_transit":false,"station_id":"SUD","station_name":"Sudirman","transit":false,"i_lat":-6.202263,"time":4,"line":1,"i_long":106.822649,"distance":3186},{"transit":false,"is_transit":false,"line":1,"station_name":"Sudirman Baru","station_id":"SUDB","time":1,"i_lat":-6.201433,"i_long":106.819881,"distance":280},{"time":1,"transit":false,"distance":471,"i_lat":-6.20132,"line":1,"i_long":106.816351,"station_name":"Karet","is_transit":false,"station_id":"KAT"},{"line":1,"station_name":"Tanah Abang","station_id":"THB","transit":true,"distance":2029,"time":5,"is_transit":true,"i_long":106.811091,"i_lat":-6.185545},{"time":6,"station_name":"Palmerah","transit":false,"is_transit":false,"distance":3191,"station_id":"PLM","i_lat":-6.207404,"i_long":106.79689,"line":6},{"i_long":106.780334,"station_name":"Kebayoran","distance":3737,"is_transit":false,"time":7,"station_id":"KBY","transit":false,"i_lat":-6.237242,"line":6},{"line":6,"is_transit":false,"distance":6218,"i_long":106.74273,"station_name":"Pondokranji","transit":false,"station_id":"PDJ","i_lat":-6.276362,"time":8},{"time":3,"i_lat":-6.288927,"i_long":106.728916,"line":6,"station_id":"JMU","station_name":"Jurangmangu","transit":false,"is_transit":false,"distance":2179},{"time":4,"i_long":106.712277,"is_transit":false,"station_id":"SDM","distance":1994,"transit":false,"line":6,"i_lat":-6.296963,"station_name":"Sudimara"},{"i_long":106.675475,"time":6,"distance":4566,"station_id":"RU","i_lat":-6.314823,"line":6,"is_transit":false,"transit":false,"station_name":"Rawa Buntu"},{"transit":false,"station_id":"SRP","line":6,"is_transit":false,"i_lat":-6.319871,"station_name":"Serpong","time":4,"i_long":106.66566,"distance":2413}]]}