{"data":[[{"station_name":"Cakung","i_long":106.951283,"station_id":"CUK","distance":0,"line":1,"transit":false,"is_transit":false,"time":0,"i_lat":-6.219053},{"i_long":106.939679,"station_id":"KLDB","line":1,"distance":1385,"i_lat":-6.217455,"is_transit":false,"station_name":"Klenderbaru","transit":false,"time":8},{"is_transit":false,"station_name":"Buaran","station_id":"BUA","distance":1305,"i_long":106.922662,"line":1,"transit":false,"time":1,"i_lat":-6.215568},{"line":1,"station_name":"Klender","distance":3100,"i_lat":-6.2135,"i_long":106.899548,"transit":false,"time":2,"station_id":"KLD","is_transit":false},{"distance":3395,"station_name":"Jatinegara","time":3,"line":1,"i_lat":-6.215091,"i_long":106.86807400000001,"is_transit":false,"station_id":"JNG","transit":false},{"is_transit":false,"time":2,"i_long":106.858896,"station_name":"Matraman","station_id":"MTR","transit":false,"i_lat":-6.212485,"line":1,"distance":1377}],[{"distance":0,"i_long":106.951283,"line":1,"station_id":"CUK","is_transit":false,"time":0,"i_lat":-6.219053,"station_name":"Cakung","transit":false},{"distance":1385,"station_id":"KLDB","i_long":106.939679,"station_name":"Klenderbaru","line":1,"time":8,"transit":false,"is_transit":false,"i_lat":-6.217455},{"transit":false,"station_name":"Buaran","is_transit":false,"station_id":"BUA","distance":1305,"i_lat":-6.215568,"i_long":106.922662,"time":1,"line":1},{"station_id":"KLD","time":2,"distance":3100,"transit":false,"station_name":"Klender","i_lat":-6.2135,"is_transit":false,"i_long":106.899548,"line":1},{"time":3,"line":1,"station_name":"Jatinegara","station_id":"JNG","distance":3395,"i_lat":-6.215091,"i_long":106.86807400000001,"transit":true,"is_transit":true},{"distance":1236,"i_lat":-6.209188,"transit":false,"line":11,"time":2,"station_id":"POK","station_name":"Pondok Jati","i_long":106.861737,"is_transit":false},{"distance":1829,"time":2,"i_lat":-6.193792,"station_id":"KMT","transit":false,"line":11,"station_name":"Kramat","is_transit":false,"i_long":106.855437},{"i_lat":-6.185975,"is_transit":false,"line":11,"distance":973,"i_long":106.850107,"station_id":"GST","station_name":"Gang Sentiong","transit":false,"time":1},{"station_id":"PSE","station_name":"Pasar Senen","time":8,"i_lat":-6.174784,"line":11,"transit":false,"i_long":106.84368,"distance":1567,"is_transit":false},{"i_long":106.839204,"distance":1436,"station_name":"Kemayoran","is_transit":false,"transit":false,"time":4,"i_lat":-6.161728,"line":11,"station_id":"KMO"},{"is_transit":false,"line":11,"transit":false,"i_lat":-6.14505,"i_long":106.836569,"distance":1901,"station_name":"Rajawali","time":5,"station_id":"RJW"},{"station_name":"Kampung Bandan","distance":1444,"i_lat":-6.132549,"time":3,"transit":true,"is_transit":true,"i_long":106.826365,"line":4,"station_id":"KPB"},{"station_id":"AK","is_transit":false,"transit":false,"time":9,"station_name":"Angke","distance":4102,"i_lat":-6.144674,"line":1,"i_long":106.79867},{"time":4,"line":1,"is_transit":false,"i_lat":-6.155215,"distance":1230,"station_id":"DU","station_name":"Duri","transit":false,"i_long":106.800832},{"transit":false,"line":1,"time":8,"station_id":"THB","i_long":106.811091,"is_transit":false,"station_name":"Tanah Abang","distance":3632,"i_lat":-6.185545},{"time":5,"is_transit":false,"station_id":"KAT","distance":2029,"i_lat":-6.20132,"transit":false,"line":1,"i_long":106.816351,"station_name":"Karet"},{"transit":false,"station_name":"Sudirman Baru","i_lat":-6.201433,"line":1,"is_transit":false,"time":1,"station_id":"SUDB","distance":471,"i_long":106.819881},{"line":1,"i_lat":-6.202263,"i_long":106.822649,"distance":280,"time":1,"is_transit":false,"station_name":"Sudirman","station_id":"SUD","transit":false},{"transit":false,"distance":3186,"i_lat":-6.209883,"station_id":"MRI","station_name":"Manggarai","time":4,"i_long":106.84912,"is_transit":false,"line":2},{"transit":false,"i_lat":-6.212485,"station_name":"Matraman","time":2,"is_transit":false,"distance":1275,"line":1,"i_long":106.858896,"station_id":"MTR"}],[{"i_long":106.951283,"time":0,"line":1,"transit":false,"station_name":"Cakung","is_transit":false,"i_lat":-6.219053,"distance":0,"station_id":"CUK"},{"station_id":"KLDB","time":8,"is_transit":false,"i_long":106.939679,"station_name":"Klenderbaru","i_lat":-6.217455,"transit":false,"distance":1385,"line":1},{"is_transit":false,"time":1,"distance":1305,"i_long":106.922662,"station_name":"Buaran","line":1,"station_id":"BUA","i_lat":-6.215568,"transit":false},{"transit":false,"i_long":106.899548,"time":2,"station_name":"Klender","i_lat":-6.2135,"is_transit":false,"distance":3100,"station_id":"KLD","line":1},{"is_transit":true,"i_long":106.86807400000001,"station_id":"JNG","station_name":"Jatinegara","time":3,"transit":true,"i_lat":-6.215091,"line":1,"distance":3395},{"i_long":106.861737,"line":11,"is_transit":false,"distance":1236,"station_id":"POK","station_name":"Pondok Jati","time":2,"transit":false,"i_lat":-6.209188},{"station_id":"KMT","transit":false,"line":11,"distance":1829,"time":2,"is_transit":false,"station_name":"Kramat","i_lat":-6.193792,"i_long":106.855437},{"transit":false,"i_lat":-6.185975,"i_long":106.850107,"time":1,"line":11,"station_id":"GST","is_transit":false,"station_name":"Gang Sentiong","distance":973},{"distance":1567,"transit":false,"i_long":106.84368,"line":11,"station_id":"PSE","station_name":"Pasar Senen","is_transit":false,"time":8,"i_lat":-6.174784},{"station_name":"Kemayoran","is_transit":false,"i_long":106.839204,"distance":1436,"line":11,"station_id":"KMO","time":4,"transit":false,"i_lat":-6.161728},{"station_id":"RJW","time":5,"station_name":"Rajawali","distance":1901,"line":11,"i_lat":-6.14505,"is_transit":false,"transit":false,"i_long":106.836569},{"line":4,"i_long":106.826365,"i_lat":-6.132549,"station_id":"KPB","is_transit":true,"station_name":"Kampung Bandan","transit":true,"distance":1444,"time":3},{"transit":true,"distance":1364,"time":3,"i_lat":-6.137569,"i_long":106.812439,"line":2,"is_transit":true,"station_id":"JAKK","station_name":"Jakarta Kota"},{"i_lat":-6.141205,"line":2,"transit":false,"distance":1264,"station_name":"Jayakarta","i_long":106.820901,"is_transit":false,"station_id":"JAY","time":4},{"line":2,"is_transit":false,"i_lat":-6.149769,"time":2,"station_id":"MGB","station_name":"Manggabesar","distance":1080,"i_long":106.82482,"transit":false},{"line":2,"station_id":"SW","transit":false,"i_lat":-6.160725,"distance":906,"i_long":106.827103,"is_transit":false,"station_name":"Sawah Besar","time":2},{"i_lat":-6.166716,"station_name":"Juanda","is_transit":false,"transit":false,"i_long":106.828284,"time":2,"distance":1149,"station_id":"JUA","line":2},{"i_long":106.832183,"time":4,"i_lat":-6.186295,"is_transit":false,"station_name":"Gondangdia","station_id":"GDD","transit":false,"distance":2015,"line":2},{"i_long":106.840169,"station_name":"Cikini","distance":1750,"is_transit":false,"station_id":"CKI","transit":false,"time":3,"line":2,"i_lat":-6.198556},{"line":2,"transit":true,"distance":1590,"is_transit":true,"i_lat":-6.209883,"station_name":"Manggarai","station_id":"MRI","time":4,"i_long":106.84912},{"line":1,"is_transit":false,"i_lat":-6.212485,"transit":false,"station_id":"MTR","station_name":"Matraman","i_long":106.858896,"distance":1275,"time":2}]]}