{"data":[[{"distance":0,"transit":false,"station_id":"CUK","i_long":106.951283,"time":0,"i_lat":-6.219053,"line":0,"is_transit":false,"station_name":"Cakung"},{"transit":false,"i_long":106.939679,"time":8,"station_id":"KLDB","is_transit":false,"distance":1385,"line":1,"station_name":"Klenderbaru","i_lat":-6.217455},{"is_transit":false,"time":1,"station_name":"Buaran","distance":1305,"transit":false,"i_lat":-6.215568,"line":0,"station_id":"BUA","i_long":106.922662},{"i_long":106.899548,"distance":3100,"line":1,"is_transit":false,"time":2,"i_lat":-6.2135,"transit":false,"station_name":"Klender","station_id":"KLD"},{"time":3,"station_name":"Jatinegara","is_transit":true,"distance":3395,"transit":false,"station_id":"JNG","i_lat":-6.215091,"i_long":106.86807400000001,"line":0},{"is_transit":false,"distance":1377,"i_long":106.858896,"line":1,"station_name":"Matraman","station_id":"MTR","time":2,"i_lat":-6.212485,"transit":false},{"i_lat":-6.209883,"station_name":"Manggarai","distance":1275,"transit":false,"line":0,"station_id":"MRI","time":2,"i_long":106.84912,"is_transit":true},{"i_long":106.822649,"line":1,"distance":3186,"station_id":"SUD","transit":false,"is_transit":false,"time":4,"station_name":"Sudirman","i_lat":-6.202263},{"i_lat":-6.201433,"distance":280,"line":1,"i_long":106.819881,"time":1,"transit":false,"station_id":"SUDB","is_transit":false,"station_name":"Sudirman Baru"},{"is_transit":false,"distance":471,"line":1,"time":1,"station_name":"Karet","station_id":"KAT","transit":false,"i_lat":-6.20132,"i_long":106.816351},{"i_lat":-6.185545,"station_name":"Tanah Abang","line":1,"station_id":"THB","transit":true,"i_long":106.811091,"is_transit":true,"time":5,"distance":2029},{"line":6,"i_lat":-6.207404,"time":6,"is_transit":false,"distance":3191,"station_name":"Palmerah","station_id":"PLM","i_long":106.79689,"transit":false},{"line":6,"transit":false,"i_long":106.780334,"distance":3737,"i_lat":-6.237242,"time":7,"station_name":"Kebayoran","is_transit":false,"station_id":"KBY"},{"distance":6218,"time":8,"station_id":"PDJ","i_lat":-6.276362,"line":6,"is_transit":false,"station_name":"Pondokranji","transit":false,"i_long":106.74273},{"station_name":"Jurangmangu","is_transit":false,"i_lat":-6.288927,"i_long":106.728916,"time":3,"distance":2179,"transit":false,"station_id":"JMU","line":6},{"station_name":"Sudimara","station_id":"SDM","distance":1994,"transit":false,"line":6,"i_long":106.712277,"time":4,"is_transit":false,"i_lat":-6.296963}],[{"station_name":"Cakung","is_transit":false,"distance":0,"transit":false,"i_long":106.951283,"station_id":"CUK","time":0,"line":0,"i_lat":-6.219053},{"station_id":"KLDB","is_transit":false,"time":8,"i_lat":-6.217455,"transit":false,"i_long":106.939679,"distance":1385,"station_name":"Klenderbaru","line":1},{"line":0,"transit":false,"distance":1305,"is_transit":false,"station_name":"Buaran","i_long":106.922662,"time":1,"station_id":"BUA","i_lat":-6.215568},{"station_id":"KLD","time":2,"is_transit":false,"station_name":"Klender","i_long":106.899548,"line":1,"transit":false,"i_lat":-6.2135,"distance":3100},{"transit":true,"time":3,"station_id":"JNG","i_lat":-6.215091,"distance":3395,"station_name":"Jatinegara","i_long":106.86807400000001,"is_transit":true,"line":0},{"distance":1236,"i_lat":-6.209188,"is_transit":false,"i_long":106.861737,"station_id":"POK","station_name":"Pondok Jati","transit":false,"time":2,"line":11},{"is_transit":false,"i_long":106.855437,"station_name":"Kramat","line":11,"transit":false,"station_id":"KMT","distance":1829,"i_lat":-6.193792,"time":2},{"time":1,"station_name":"Gang Sentiong","i_long":106.850107,"transit":false,"i_lat":-6.185975,"line":11,"is_transit":false,"distance":973,"station_id":"GST"},{"i_lat":-6.174784,"station_name":"Pasar Senen","transit":false,"distance":1567,"time":8,"line":11,"station_id":"PSE","is_transit":false,"i_long":106.84368},{"transit":false,"time":4,"station_id":"KMO","i_lat":-6.161728,"i_long":106.839204,"station_name":"Kemayoran","distance":1436,"line":11,"is_transit":false},{"station_id":"RJW","line":11,"i_lat":-6.14505,"time":5,"i_long":106.836569,"transit":false,"is_transit":false,"distance":1901,"station_name":"Rajawali"},{"i_long":106.826365,"station_id":"KPB","transit":true,"is_transit":true,"distance":1444,"time":3,"station_name":"Kampung Bandan","i_lat":-6.132549,"line":0},{"distance":4102,"station_id":"AK","transit":false,"station_name":"Angke","line":0,"time":9,"i_lat":-6.144674,"is_transit":false,"i_long":106.79867},{"station_id":"DU","transit":true,"i_long":106.800832,"line":1,"i_lat":-6.155215,"time":4,"is_transit":true,"distance":1230,"station_name":"Duri"},{"line":1,"i_lat":-6.185545,"station_id":"THB","is_transit":true,"time":8,"distance":3632,"i_long":106.811091,"station_name":"Tanah Abang","transit":true},{"station_name":"Palmerah","time":6,"i_long":106.79689,"line":6,"station_id":"PLM","i_lat":-6.207404,"transit":false,"distance":3191,"is_transit":false},{"station_id":"KBY","distance":3737,"time":7,"line":6,"station_name":"Kebayoran","i_lat":-6.237242,"transit":false,"i_long":106.780334,"is_transit":false},{"transit":false,"station_name":"Pondokranji","distance":6218,"line":6,"station_id":"PDJ","is_transit":false,"i_long":106.74273,"i_lat":-6.276362,"time":8},{"is_transit":false,"time":3,"distance":2179,"transit":false,"station_name":"Jurangmangu","line":6,"i_long":106.728916,"station_id":"JMU","i_lat":-6.288927},{"i_long":106.712277,"station_id":"SDM","line":6,"is_transit":false,"distance":1994,"station_name":"Sudimara","time":4,"transit":false,"i_lat":-6.296963}],[{"i_long":106.951283,"time":0,"transit":false,"line":0,"station_id":"CUK","is_transit":false,"station_name":"Cakung","distance":0,"i_lat":-6.219053},{"i_long":106.939679,"station_name":"Klenderbaru","line":1,"station_id":"KLDB","is_transit":false,"time":8,"distance":1385,"i_lat":-6.217455,"transit":false},{"time":1,"station_name":"Buaran","transit":false,"i_lat":-6.215568,"station_id":"BUA","distance":1305,"line":0,"i_long":106.922662,"is_transit":false},{"station_name":"Klender","line":1,"is_transit":false,"i_lat":-6.2135,"i_long":106.899548,"distance":3100,"transit":false,"station_id":"KLD","time":2},{"line":0,"is_transit":true,"station_name":"Jatinegara","time":3,"station_id":"JNG","distance":3395,"transit":false,"i_lat":-6.215091,"i_long":106.86807400000001},{"distance":1377,"line":1,"i_lat":-6.212485,"time":2,"station_id":"MTR","is_transit":false,"transit":false,"station_name":"Matraman","i_long":106.858896},{"station_name":"Manggarai","line":0,"time":2,"i_lat":-6.209883,"station_id":"MRI","distance":1275,"transit":true,"is_transit":true,"i_long":106.84912},{"i_lat":-6.198556,"station_id":"CKI","time":4,"distance":1590,"transit":false,"i_long":106.840169,"line":0,"is_transit":false,"station_name":"Cikini"},{"transit":false,"is_transit":false,"station_id":"GDD","line":2,"station_name":"Gondangdia","distance":1750,"i_lat":-6.186295,"time":3,"i_long":106.832183},{"i_long":106.828284,"i_lat":-6.166716,"is_transit":false,"station_id":"JUA","time":4,"station_name":"Juanda","line":2,"distance":2015,"transit":false},{"i_lat":-6.160725,"time":2,"station_name":"Sawah Besar","line":2,"i_long":106.827103,"is_transit":false,"transit":false,"station_id":"SW","distance":1149},{"station_id":"MGB","transit":false,"i_lat":-6.149769,"time":2,"line":2,"is_transit":false,"i_long":106.82482,"distance":906,"station_name":"Manggabesar"},{"time":2,"line":7,"station_id":"JAY","station_name":"Jayakarta","transit":false,"i_lat":-6.141205,"i_long":106.820901,"is_transit":false,"distance":1080},{"distance":1264,"station_name":"Jakarta Kota","i_lat":-6.137569,"i_long":106.812439,"station_id":"JAKK","transit":true,"is_transit":true,"line":0,"time":4},{"line":0,"station_name":"Kampung Bandan","time":3,"transit":false,"i_long":106.826365,"station_id":"KPB","distance":1364,"is_transit":true,"i_lat":-6.132549},{"transit":false,"i_lat":-6.144674,"line":0,"i_long":106.79867,"station_id":"AK","time":9,"station_name":"Angke","is_transit":false,"distance":4102},{"time":4,"station_name":"Duri","line":1,"distance":1230,"transit":true,"station_id":"DU","is_transit":true,"i_long":106.800832,"i_lat":-6.155215},{"is_transit":true,"station_id":"THB","distance":3632,"i_long":106.811091,"station_name":"Tanah Abang","i_lat":-6.185545,"line":1,"time":8,"transit":true},{"station_name":"Palmerah","i_long":106.79689,"distance":3191,"transit":false,"is_transit":false,"time":6,"station_id":"PLM","line":6,"i_lat":-6.207404},{"is_transit":false,"time":7,"distance":3737,"i_lat":-6.237242,"station_id":"KBY","transit":false,"i_long":106.780334,"station_name":"Kebayoran","line":6},{"station_id":"PDJ","time":8,"i_lat":-6.276362,"transit":false,"i_long":106.74273,"station_name":"Pondokranji","line":6,"is_transit":false,"distance":6218},{"transit":false,"distance":2179,"station_name":"Jurangmangu","i_lat":-6.288927,"line":6,"is_transit":false,"station_id":"JMU","i_long":106.728916,"time":3},{"station_name":"Sudimara","line":6,"station_id":"SDM","is_transit":false,"transit":false,"distance":1994,"i_lat":-6.296963,"time":4,"i_long":106.712277}],[{"station_name":"Cakung","i_long":106.951283,"station_id":"CUK","line":0,"time":0,"is_transit":false,"distance":0,"transit":false,"i_lat":-6.219053},{"distance":1385,"i_lat":-6.217455,"line":1,"i_long":106.939679,"station_name":"Klenderbaru","transit":false,"is_transit":false,"time":8,"station_id":"KLDB"},{"time":1,"station_name":"Buaran","station_id":"BUA","distance":1305,"line":0,"i_long":106.922662,"transit":false,"is_transit":false,"i_lat":-6.215568},{"i_long":106.899548,"line":1,"station_name":"Klender","station_id":"KLD","transit":false,"i_lat":-6.2135,"is_transit":false,"distance":3100,"time":2},{"distance":3395,"is_transit":true,"station_name":"Jatinegara","time":3,"station_id":"JNG","transit":true,"i_long":106.86807400000001,"line":0,"i_lat":-6.215091},{"transit":false,"line":11,"is_transit":false,"station_name":"Pondok Jati","time":2,"station_id":"POK","i_lat":-6.209188,"i_long":106.861737,"distance":1236},{"i_lat":-6.193792,"line":11,"transit":false,"time":2,"station_id":"KMT","station_name":"Kramat","i_long":106.855437,"distance":1829,"is_transit":false},{"line":11,"station_id":"GST","transit":false,"is_transit":false,"distance":973,"i_lat":-6.185975,"time":1,"i_long":106.850107,"station_name":"Gang Sentiong"},{"station_id":"PSE","i_long":106.84368,"time":8,"line":11,"is_transit":false,"station_name":"Pasar Senen","transit":false,"i_lat":-6.174784,"distance":1567},{"i_lat":-6.161728,"station_id":"KMO","distance":1436,"is_transit":false,"station_name":"Kemayoran","time":4,"transit":false,"i_long":106.839204,"line":11},{"distance":1901,"line":11,"i_long":106.836569,"i_lat":-6.14505,"station_name":"Rajawali","station_id":"RJW","time":5,"transit":false,"is_transit":false},{"i_lat":-6.132549,"i_long":106.826365,"is_transit":true,"time":3,"distance":1444,"station_name":"Kampung Bandan","station_id":"KPB","line":0,"transit":true},{"transit":true,"distance":1364,"i_long":106.812439,"line":0,"station_id":"JAKK","is_transit":true,"time":3,"i_lat":-6.137569,"station_name":"Jakarta Kota"},{"is_transit":false,"transit":false,"i_long":106.820901,"line":7,"i_lat":-6.141205,"station_id":"JAY","station_name":"Jayakarta","time":4,"distance":1264},{"i_long":106.82482,"time":2,"line":2,"station_name":"Manggabesar","i_lat":-6.149769,"distance":1080,"station_id":"MGB","is_transit":false,"transit":false},{"transit":false,"station_id":"SW","i_long":106.827103,"is_transit":false,"station_name":"Sawah Besar","time":2,"i_lat":-6.160725,"line":2,"distance":906},{"i_lat":-6.166716,"is_transit":false,"line":2,"i_long":106.828284,"station_name":"Juanda","transit":false,"station_id":"JUA","time":2,"distance":1149},{"line":2,"station_id":"GDD","station_name":"Gondangdia","is_transit":false,"distance":2015,"transit":false,"i_lat":-6.186295,"time":4,"i_long":106.832183},{"is_transit":false,"transit":false,"i_long":106.840169,"line":0,"distance":1750,"time":3,"i_lat":-6.198556,"station_id":"CKI","station_name":"Cikini"},{"i_lat":-6.209883,"line":0,"distance":1590,"is_transit":true,"time":4,"i_long":106.84912,"station_name":"Manggarai","transit":true,"station_id":"MRI"},{"i_long":106.822649,"station_id":"SUD","time":4,"distance":3186,"is_transit":false,"station_name":"Sudirman","i_lat":-6.202263,"line":1,"transit":false},{"i_lat":-6.201433,"time":1,"transit":false,"distance":280,"station_id":"SUDB","station_name":"Sudirman Baru","is_transit":false,"i_long":106.819881,"line":1},{"time":1,"transit":false,"i_long":106.816351,"line":1,"distance":471,"is_transit":false,"station_name":"Karet","station_id":"KAT","i_lat":-6.20132},{"time":5,"distance":2029,"i_long":106.811091,"station_name":"Tanah Abang","station_id":"THB","line":1,"is_transit":true,"i_lat":-6.185545,"transit":true},{"i_long":106.79689,"i_lat":-6.207404,"is_transit":false,"station_name":"Palmerah","distance":3191,"transit":false,"time":6,"line":6,"station_id":"PLM"},{"line":6,"time":7,"transit":false,"is_transit":false,"distance":3737,"i_long":106.780334,"station_name":"Kebayoran","i_lat":-6.237242,"station_id":"KBY"},{"station_name":"Pondokranji","station_id":"PDJ","time":8,"i_lat":-6.276362,"i_long":106.74273,"line":6,"is_transit":false,"distance":6218,"transit":false},{"is_transit":false,"station_name":"Jurangmangu","station_id":"JMU","line":6,"distance":2179,"i_long":106.728916,"transit":false,"i_lat":-6.288927,"time":3},{"i_lat":-6.296963,"is_transit":false,"i_long":106.712277,"station_name":"Sudimara","time":4,"transit":false,"station_id":"SDM","line":6,"distance":1994}]]}