{"data":[[{"i_long":106.951283,"line":0,"time":0,"distance":0,"station_name":"Cakung","station_id":"CUK","transit":false,"is_transit":false,"i_lat":-6.219053},{"time":8,"transit":false,"line":1,"distance":1385,"is_transit":false,"station_name":"Klenderbaru","i_long":106.939679,"i_lat":-6.217455,"station_id":"KLDB"},{"transit":false,"line":0,"is_transit":false,"station_name":"Buaran","time":1,"station_id":"BUA","distance":1305,"i_lat":-6.215568,"i_long":106.922662},{"station_id":"KLD","distance":3100,"transit":false,"is_transit":false,"i_long":106.899548,"line":1,"station_name":"Klender","time":2,"i_lat":-6.2135},{"is_transit":true,"i_long":106.86807400000001,"distance":3395,"i_lat":-6.215091,"station_id":"JNG","transit":true,"time":3,"line":0,"station_name":"Jatinegara"},{"line":11,"transit":false,"distance":1236,"station_name":"Pondok Jati","time":2,"is_transit":false,"station_id":"POK","i_lat":-6.209188,"i_long":106.861737},{"is_transit":false,"station_name":"Kramat","transit":false,"distance":1829,"time":2,"i_lat":-6.193792,"i_long":106.855437,"station_id":"KMT","line":11},{"station_id":"GST","station_name":"Gang Sentiong","i_lat":-6.185975,"transit":false,"distance":973,"time":1,"is_transit":false,"i_long":106.850107,"line":11},{"station_name":"Pasar Senen","transit":false,"line":11,"time":8,"distance":1567,"i_long":106.84368,"station_id":"PSE","is_transit":false,"i_lat":-6.174784},{"i_long":106.839204,"station_name":"Kemayoran","distance":1436,"station_id":"KMO","is_transit":false,"i_lat":-6.161728,"time":4,"transit":false,"line":11},{"transit":false,"distance":1901,"line":11,"station_name":"Rajawali","i_lat":-6.14505,"time":5,"station_id":"RJW","is_transit":false,"i_long":106.836569},{"time":3,"line":0,"i_long":106.826365,"station_id":"KPB","transit":true,"station_name":"Kampung Bandan","is_transit":true,"distance":1444,"i_lat":-6.132549},{"distance":4102,"is_transit":false,"i_long":106.79867,"time":9,"i_lat":-6.144674,"station_id":"AK","station_name":"Angke","line":0,"transit":false}],[{"station_id":"CUK","time":0,"station_name":"Cakung","line":0,"transit":false,"distance":0,"i_lat":-6.219053,"is_transit":false,"i_long":106.951283},{"i_lat":-6.217455,"i_long":106.939679,"transit":false,"time":8,"distance":1385,"station_id":"KLDB","station_name":"Klenderbaru","line":1,"is_transit":false},{"i_long":106.922662,"time":1,"station_name":"Buaran","line":0,"station_id":"BUA","i_lat":-6.215568,"transit":false,"is_transit":false,"distance":1305},{"i_long":106.899548,"time":2,"distance":3100,"is_transit":false,"i_lat":-6.2135,"station_id":"KLD","station_name":"Klender","transit":false,"line":1},{"is_transit":true,"time":3,"i_long":106.86807400000001,"transit":false,"distance":3395,"i_lat":-6.215091,"line":0,"station_id":"JNG","station_name":"Jatinegara"},{"station_name":"Matraman","time":2,"distance":1377,"station_id":"MTR","i_lat":-6.212485,"i_long":106.858896,"line":1,"is_transit":false,"transit":false},{"i_lat":-6.209883,"distance":1275,"time":2,"i_long":106.84912,"transit":false,"is_transit":true,"line":0,"station_id":"MRI","station_name":"Manggarai"},{"is_transit":false,"distance":3186,"i_long":106.822649,"line":1,"station_id":"SUD","time":4,"i_lat":-6.202263,"transit":false,"station_name":"Sudirman"},{"line":1,"i_long":106.819881,"is_transit":false,"distance":280,"station_id":"SUDB","transit":false,"station_name":"Sudirman Baru","i_lat":-6.201433,"time":1},{"is_transit":false,"time":1,"i_long":106.816351,"station_name":"Karet","transit":false,"distance":471,"station_id":"KAT","i_lat":-6.20132,"line":1},{"line":1,"is_transit":true,"station_id":"THB","distance":2029,"transit":false,"station_name":"Tanah Abang","i_long":106.811091,"time":5,"i_lat":-6.185545},{"station_name":"Duri","station_id":"DU","distance":3632,"i_long":106.800832,"transit":true,"time":8,"i_lat":-6.155215,"line":1,"is_transit":true},{"i_lat":-6.144674,"transit":false,"station_name":"Angke","distance":1230,"station_id":"AK","line":0,"time":4,"i_long":106.79867,"is_transit":false}],[{"transit":false,"line":0,"station_id":"CUK","time":0,"is_transit":false,"i_lat":-6.219053,"station_name":"Cakung","i_long":106.951283,"distance":0},{"line":1,"station_name":"Klenderbaru","transit":false,"is_transit":false,"distance":1385,"i_lat":-6.217455,"i_long":106.939679,"time":8,"station_id":"KLDB"},{"distance":1305,"station_id":"BUA","i_lat":-6.215568,"transit":false,"is_transit":false,"time":1,"station_name":"Buaran","i_long":106.922662,"line":0},{"is_transit":false,"line":1,"station_name":"Klender","transit":false,"distance":3100,"time":2,"i_lat":-6.2135,"station_id":"KLD","i_long":106.899548},{"i_lat":-6.215091,"station_id":"JNG","i_long":106.86807400000001,"transit":false,"is_transit":true,"station_name":"Jatinegara","time":3,"line":0,"distance":3395},{"station_name":"Matraman","i_long":106.858896,"transit":false,"i_lat":-6.212485,"is_transit":false,"distance":1377,"line":1,"station_id":"MTR","time":2},{"station_id":"MRI","station_name":"Manggarai","i_long":106.84912,"is_transit":true,"i_lat":-6.209883,"transit":true,"distance":1275,"time":2,"line":0},{"is_transit":false,"time":4,"station_name":"Cikini","transit":false,"distance":1590,"i_lat":-6.198556,"i_long":106.840169,"line":0,"station_id":"CKI"},{"station_name":"Gondangdia","distance":1750,"is_transit":false,"transit":false,"station_id":"GDD","time":3,"i_long":106.832183,"i_lat":-6.186295,"line":2},{"i_long":106.828284,"station_name":"Juanda","i_lat":-6.166716,"line":2,"distance":2015,"time":4,"station_id":"JUA","transit":false,"is_transit":false},{"i_lat":-6.160725,"station_name":"Sawah Besar","transit":false,"line":2,"i_long":106.827103,"time":2,"station_id":"SW","is_transit":false,"distance":1149},{"time":2,"transit":false,"station_id":"MGB","distance":906,"line":2,"i_long":106.82482,"i_lat":-6.149769,"is_transit":false,"station_name":"Manggabesar"},{"i_long":106.820901,"station_id":"JAY","is_transit":false,"line":7,"time":2,"station_name":"Jayakarta","i_lat":-6.141205,"transit":false,"distance":1080},{"i_lat":-6.137569,"transit":true,"station_name":"Jakarta Kota","is_transit":true,"distance":1264,"i_long":106.812439,"line":0,"time":4,"station_id":"JAKK"},{"station_id":"KPB","transit":false,"time":3,"is_transit":true,"station_name":"Kampung Bandan","line":0,"distance":1364,"i_long":106.826365,"i_lat":-6.132549},{"transit":false,"station_name":"Angke","station_id":"AK","line":0,"time":9,"i_long":106.79867,"distance":4102,"is_transit":false,"i_lat":-6.144674}],[{"transit":false,"distance":0,"time":0,"station_id":"CUK","is_transit":false,"line":0,"i_lat":-6.219053,"i_long":106.951283,"station_name":"Cakung"},{"is_transit":false,"station_name":"Klenderbaru","distance":1385,"station_id":"KLDB","i_lat":-6.217455,"line":1,"time":8,"transit":false,"i_long":106.939679},{"is_transit":false,"time":1,"i_lat":-6.215568,"station_id":"BUA","station_name":"Buaran","i_long":106.922662,"line":0,"transit":false,"distance":1305},{"time":2,"distance":3100,"is_transit":false,"i_long":106.899548,"line":1,"transit":false,"i_lat":-6.2135,"station_name":"Klender","station_id":"KLD"},{"time":3,"i_long":106.86807400000001,"transit":true,"line":0,"i_lat":-6.215091,"distance":3395,"is_transit":true,"station_name":"Jatinegara","station_id":"JNG"},{"station_id":"POK","transit":false,"is_transit":false,"station_name":"Pondok Jati","i_long":106.861737,"time":2,"i_lat":-6.209188,"distance":1236,"line":11},{"i_long":106.855437,"i_lat":-6.193792,"transit":false,"distance":1829,"is_transit":false,"station_name":"Kramat","station_id":"KMT","line":11,"time":2},{"station_name":"Gang Sentiong","i_lat":-6.185975,"line":11,"is_transit":false,"distance":973,"station_id":"GST","transit":false,"time":1,"i_long":106.850107},{"distance":1567,"is_transit":false,"station_id":"PSE","i_long":106.84368,"i_lat":-6.174784,"station_name":"Pasar Senen","transit":false,"time":8,"line":11},{"i_long":106.839204,"is_transit":false,"time":4,"line":11,"station_id":"KMO","transit":false,"station_name":"Kemayoran","i_lat":-6.161728,"distance":1436},{"line":11,"station_name":"Rajawali","distance":1901,"is_transit":false,"transit":false,"time":5,"i_lat":-6.14505,"i_long":106.836569,"station_id":"RJW"},{"time":3,"distance":1444,"i_long":106.826365,"is_transit":true,"station_id":"KPB","station_name":"Kampung Bandan","i_lat":-6.132549,"transit":true,"line":0},{"station_id":"JAKK","distance":1364,"station_name":"Jakarta Kota","i_long":106.812439,"line":0,"time":3,"transit":true,"is_transit":true,"i_lat":-6.137569},{"distance":1264,"i_long":106.820901,"is_transit":false,"transit":false,"line":7,"i_lat":-6.141205,"station_name":"Jayakarta","station_id":"JAY","time":4},{"station_id":"MGB","station_name":"Manggabesar","line":2,"distance":1080,"i_long":106.82482,"time":2,"is_transit":false,"i_lat":-6.149769,"transit":false},{"is_transit":false,"i_lat":-6.160725,"time":2,"distance":906,"station_name":"Sawah Besar","transit":false,"i_long":106.827103,"station_id":"SW","line":2},{"distance":1149,"i_lat":-6.166716,"is_transit":false,"transit":false,"line":2,"time":2,"i_long":106.828284,"station_name":"Juanda","station_id":"JUA"},{"time":4,"distance":2015,"i_lat":-6.186295,"i_long":106.832183,"transit":false,"station_name":"Gondangdia","line":2,"station_id":"GDD","is_transit":false},{"line":0,"time":3,"i_long":106.840169,"i_lat":-6.198556,"distance":1750,"station_name":"Cikini","is_transit":false,"station_id":"CKI","transit":false},{"transit":true,"time":4,"line":0,"distance":1590,"is_transit":true,"i_long":106.84912,"i_lat":-6.209883,"station_name":"Manggarai","station_id":"MRI"},{"time":4,"station_id":"SUD","distance":3186,"line":1,"i_lat":-6.202263,"is_transit":false,"station_name":"Sudirman","i_long":106.822649,"transit":false},{"station_id":"SUDB","station_name":"Sudirman Baru","i_long":106.819881,"transit":false,"distance":280,"i_lat":-6.201433,"time":1,"is_transit":false,"line":1},{"line":1,"i_lat":-6.20132,"is_transit":false,"station_id":"KAT","transit":false,"time":1,"distance":471,"station_name":"Karet","i_long":106.816351},{"distance":2029,"i_lat":-6.185545,"is_transit":true,"station_name":"Tanah Abang","time":5,"station_id":"THB","i_long":106.811091,"line":1,"transit":false},{"station_id":"DU","line":1,"is_transit":true,"transit":true,"time":8,"station_name":"Duri","i_long":106.800832,"i_lat":-6.155215,"distance":3632},{"i_lat":-6.144674,"station_id":"AK","distance":1230,"i_long":106.79867,"time":4,"is_transit":false,"transit":false,"line":0,"station_name":"Angke"}]]}