{"data":[[{"station_id":"CUK","i_lat":-6.219053,"transit":false,"is_transit":false,"i_long":106.951283,"line":0,"time":0,"distance":0,"station_name":"Cakung"},{"is_transit":false,"line":1,"i_lat":-6.217455,"time":8,"distance":1385,"i_long":106.939679,"station_id":"KLDB","transit":false,"station_name":"Klenderbaru"},{"transit":false,"is_transit":false,"line":0,"i_long":106.922662,"station_name":"Buaran","station_id":"BUA","distance":1305,"time":1,"i_lat":-6.215568},{"station_id":"KLD","time":2,"distance":3100,"transit":false,"station_name":"Klender","line":1,"is_transit":false,"i_lat":-6.2135,"i_long":106.899548},{"is_transit":true,"station_id":"JNG","transit":false,"i_long":106.86807400000001,"station_name":"Jatinegara","i_lat":-6.215091,"time":3,"line":0,"distance":3395},{"distance":1377,"station_id":"MTR","transit":false,"time":2,"i_long":106.858896,"station_name":"Matraman","line":1,"i_lat":-6.212485,"is_transit":false},{"time":2,"transit":true,"is_transit":true,"line":0,"i_long":106.84912,"station_id":"MRI","distance":1275,"i_lat":-6.209883,"station_name":"Manggarai"},{"is_transit":false,"transit":false,"i_long":106.840169,"station_name":"Cikini","line":0,"distance":1590,"station_id":"CKI","time":4,"i_lat":-6.198556},{"time":3,"distance":1750,"line":2,"station_id":"GDD","station_name":"Gondangdia","is_transit":false,"transit":false,"i_lat":-6.186295,"i_long":106.832183},{"station_id":"JUA","station_name":"Juanda","transit":false,"line":2,"distance":2015,"i_lat":-6.166716,"time":4,"is_transit":false,"i_long":106.828284},{"station_name":"Sawah Besar","i_long":106.827103,"time":2,"distance":1149,"transit":false,"station_id":"SW","is_transit":false,"i_lat":-6.160725,"line":2},{"time":2,"distance":906,"line":2,"is_transit":false,"i_long":106.82482,"transit":false,"i_lat":-6.149769,"station_id":"MGB","station_name":"Manggabesar"},{"transit":false,"line":7,"station_name":"Jayakarta","time":2,"is_transit":false,"i_lat":-6.141205,"station_id":"JAY","i_long":106.820901,"distance":1080}],[{"distance":0,"is_transit":false,"station_id":"CUK","transit":false,"time":0,"i_lat":-6.219053,"line":0,"station_name":"Cakung","i_long":106.951283},{"station_name":"Klenderbaru","distance":1385,"station_id":"KLDB","i_long":106.939679,"is_transit":false,"time":8,"i_lat":-6.217455,"line":1,"transit":false},{"distance":1305,"time":1,"i_long":106.922662,"station_id":"BUA","is_transit":false,"i_lat":-6.215568,"transit":false,"line":0,"station_name":"Buaran"},{"line":1,"distance":3100,"station_name":"Klender","i_long":106.899548,"station_id":"KLD","is_transit":false,"i_lat":-6.2135,"transit":false,"time":2},{"station_id":"JNG","time":3,"transit":true,"line":0,"station_name":"Jatinegara","is_transit":true,"i_long":106.86807400000001,"distance":3395,"i_lat":-6.215091},{"distance":1236,"transit":false,"is_transit":false,"station_id":"POK","time":2,"i_lat":-6.209188,"line":11,"station_name":"Pondok Jati","i_long":106.861737},{"station_id":"KMT","i_lat":-6.193792,"distance":1829,"time":2,"line":11,"is_transit":false,"transit":false,"station_name":"Kramat","i_long":106.855437},{"time":1,"distance":973,"line":11,"station_id":"GST","is_transit":false,"transit":false,"i_long":106.850107,"i_lat":-6.185975,"station_name":"Gang Sentiong"},{"station_name":"Pasar Senen","time":8,"line":11,"i_long":106.84368,"station_id":"PSE","distance":1567,"is_transit":false,"i_lat":-6.174784,"transit":false},{"is_transit":false,"transit":false,"time":4,"station_name":"Kemayoran","distance":1436,"i_lat":-6.161728,"i_long":106.839204,"line":11,"station_id":"KMO"},{"transit":false,"distance":1901,"i_lat":-6.14505,"line":11,"station_id":"RJW","station_name":"Rajawali","is_transit":false,"time":5,"i_long":106.836569},{"transit":true,"is_transit":true,"distance":1444,"i_lat":-6.132549,"station_id":"KPB","time":3,"station_name":"Kampung Bandan","i_long":106.826365,"line":0},{"station_name":"Jakarta Kota","station_id":"JAKK","time":3,"transit":true,"i_lat":-6.137569,"i_long":106.812439,"is_transit":true,"distance":1364,"line":0},{"i_lat":-6.141205,"station_name":"Jayakarta","transit":false,"i_long":106.820901,"line":7,"time":4,"distance":1264,"station_id":"JAY","is_transit":false}],[{"station_id":"CUK","time":0,"distance":0,"transit":false,"line":0,"station_name":"Cakung","i_long":106.951283,"is_transit":false,"i_lat":-6.219053},{"station_id":"KLDB","time":8,"i_lat":-6.217455,"distance":1385,"transit":false,"is_transit":false,"i_long":106.939679,"station_name":"Klenderbaru","line":1},{"station_id":"BUA","is_transit":false,"distance":1305,"transit":false,"i_long":106.922662,"time":1,"i_lat":-6.215568,"line":0,"station_name":"Buaran"},{"transit":false,"line":1,"time":2,"i_lat":-6.2135,"is_transit":false,"station_name":"Klender","station_id":"KLD","distance":3100,"i_long":106.899548},{"line":0,"transit":false,"time":3,"station_id":"JNG","i_long":106.86807400000001,"i_lat":-6.215091,"distance":3395,"is_transit":true,"station_name":"Jatinegara"},{"station_name":"Matraman","is_transit":false,"i_long":106.858896,"transit":false,"line":1,"station_id":"MTR","time":2,"distance":1377,"i_lat":-6.212485},{"is_transit":true,"transit":false,"station_id":"MRI","station_name":"Manggarai","time":2,"i_long":106.84912,"line":0,"distance":1275,"i_lat":-6.209883},{"i_long":106.822649,"line":1,"station_id":"SUD","is_transit":false,"distance":3186,"station_name":"Sudirman","time":4,"i_lat":-6.202263,"transit":false},{"station_id":"SUDB","time":1,"is_transit":false,"i_lat":-6.201433,"i_long":106.819881,"transit":false,"line":1,"distance":280,"station_name":"Sudirman Baru"},{"i_lat":-6.20132,"time":1,"distance":471,"transit":false,"is_transit":false,"station_id":"KAT","station_name":"Karet","i_long":106.816351,"line":1},{"station_id":"THB","is_transit":true,"transit":false,"i_lat":-6.185545,"distance":2029,"time":5,"line":1,"station_name":"Tanah Abang","i_long":106.811091},{"i_long":106.800832,"is_transit":true,"station_id":"DU","time":8,"distance":3632,"transit":true,"station_name":"Duri","i_lat":-6.155215,"line":1},{"line":0,"time":4,"station_id":"AK","distance":1230,"transit":false,"i_long":106.79867,"is_transit":false,"i_lat":-6.144674,"station_name":"Angke"},{"station_id":"KPB","i_lat":-6.132549,"i_long":106.826365,"line":0,"is_transit":true,"time":9,"transit":false,"station_name":"Kampung Bandan","distance":4102},{"time":3,"station_id":"JAKK","i_long":106.812439,"line":0,"station_name":"Jakarta Kota","transit":true,"is_transit":true,"distance":1364,"i_lat":-6.137569},{"is_transit":false,"i_lat":-6.141205,"line":7,"time":4,"station_id":"JAY","transit":false,"i_long":106.820901,"station_name":"Jayakarta","distance":1264}],[{"station_id":"CUK","line":0,"station_name":"Cakung","i_lat":-6.219053,"i_long":106.951283,"distance":0,"transit":false,"time":0,"is_transit":false},{"time":8,"distance":1385,"is_transit":false,"line":1,"i_lat":-6.217455,"station_name":"Klenderbaru","station_id":"KLDB","i_long":106.939679,"transit":false},{"distance":1305,"line":0,"i_long":106.922662,"i_lat":-6.215568,"is_transit":false,"station_id":"BUA","station_name":"Buaran","transit":false,"time":1},{"distance":3100,"time":2,"station_id":"KLD","station_name":"Klender","i_lat":-6.2135,"is_transit":false,"transit":false,"i_long":106.899548,"line":1},{"transit":true,"is_transit":true,"time":3,"i_long":106.86807400000001,"distance":3395,"i_lat":-6.215091,"line":0,"station_name":"Jatinegara","station_id":"JNG"},{"is_transit":false,"time":2,"i_long":106.861737,"station_name":"Pondok Jati","i_lat":-6.209188,"line":11,"distance":1236,"transit":false,"station_id":"POK"},{"line":11,"i_long":106.855437,"i_lat":-6.193792,"station_id":"KMT","time":2,"transit":false,"station_name":"Kramat","is_transit":false,"distance":1829},{"time":1,"line":11,"i_lat":-6.185975,"distance":973,"station_id":"GST","is_transit":false,"transit":false,"i_long":106.850107,"station_name":"Gang Sentiong"},{"transit":false,"distance":1567,"is_transit":false,"i_long":106.84368,"i_lat":-6.174784,"station_name":"Pasar Senen","line":11,"station_id":"PSE","time":8},{"i_long":106.839204,"transit":false,"line":11,"time":4,"distance":1436,"station_name":"Kemayoran","station_id":"KMO","is_transit":false,"i_lat":-6.161728},{"station_id":"RJW","station_name":"Rajawali","is_transit":false,"distance":1901,"transit":false,"i_long":106.836569,"line":11,"time":5,"i_lat":-6.14505},{"distance":1444,"station_name":"Kampung Bandan","transit":true,"station_id":"KPB","is_transit":true,"i_lat":-6.132549,"i_long":106.826365,"line":0,"time":3},{"time":9,"transit":false,"i_long":106.79867,"station_name":"Angke","distance":4102,"line":0,"i_lat":-6.144674,"is_transit":false,"station_id":"AK"},{"transit":true,"time":4,"line":1,"station_name":"Duri","is_transit":true,"i_lat":-6.155215,"i_long":106.800832,"station_id":"DU","distance":1230},{"transit":false,"is_transit":true,"i_lat":-6.185545,"station_name":"Tanah Abang","i_long":106.811091,"time":8,"line":1,"distance":3632,"station_id":"THB"},{"distance":2029,"transit":false,"i_lat":-6.20132,"i_long":106.816351,"is_transit":false,"line":1,"station_id":"KAT","station_name":"Karet","time":5},{"distance":471,"i_long":106.819881,"transit":false,"station_name":"Sudirman Baru","line":1,"i_lat":-6.201433,"time":1,"station_id":"SUDB","is_transit":false},{"i_long":106.822649,"line":1,"is_transit":false,"time":1,"station_name":"Sudirman","transit":false,"distance":280,"station_id":"SUD","i_lat":-6.202263},{"line":0,"transit":true,"station_id":"MRI","station_name":"Manggarai","distance":3186,"is_transit":true,"time":4,"i_long":106.84912,"i_lat":-6.209883},{"transit":false,"station_id":"CKI","line":0,"i_long":106.840169,"is_transit":false,"distance":1590,"station_name":"Cikini","time":4,"i_lat":-6.198556},{"distance":1750,"i_long":106.832183,"time":3,"line":2,"is_transit":false,"station_id":"GDD","transit":false,"i_lat":-6.186295,"station_name":"Gondangdia"},{"is_transit":false,"line":2,"station_id":"JUA","i_long":106.828284,"time":4,"i_lat":-6.166716,"station_name":"Juanda","distance":2015,"transit":false},{"i_lat":-6.160725,"i_long":106.827103,"line":2,"station_name":"Sawah Besar","transit":false,"time":2,"distance":1149,"station_id":"SW","is_transit":false},{"time":2,"i_lat":-6.149769,"i_long":106.82482,"station_id":"MGB","station_name":"Manggabesar","distance":906,"is_transit":false,"transit":false,"line":2},{"line":7,"station_name":"Jayakarta","transit":false,"i_long":106.820901,"distance":1080,"is_transit":false,"station_id":"JAY","i_lat":-6.141205,"time":2}]]}