{"data":[[{"i_long":106.951283,"distance":0,"transit":false,"is_transit":false,"time":0,"i_lat":-6.219053,"station_id":"CUK","station_name":"Cakung","line":1},{"time":3,"station_id":"KRI","distance":3097,"transit":false,"i_lat":-6.224515,"station_name":"Kranji","is_transit":false,"i_long":106.977657,"line":1},{"time":4,"distance":2520,"transit":false,"i_long":106.997013,"is_transit":false,"i_lat":-6.236616,"station_id":"BKS","station_name":"Bekasi","line":1},{"distance":2368,"line":1,"transit":false,"time":2,"station_name":"Bekasi Timur","station_id":"BKST","is_transit":false,"i_lat":-6.248029,"i_long":107.016735},{"station_id":"TB","transit":false,"station_name":"Tambun","i_lat":-6.258864,"i_long":107.055722,"time":7,"is_transit":false,"distance":4460,"line":1},{"station_name":"Cibitung","station_id":"CIT","time":3,"is_transit":false,"transit":false,"i_long":107.083084,"distance":3420,"line":1,"i_lat":-6.261877}]]}