{"data":[[{"station_id":"CUK","line":0,"is_transit":false,"i_lat":-6.219053,"transit":false,"distance":0,"station_name":"Cakung","time":0,"i_long":106.951283},{"station_name":"Klenderbaru","station_id":"KLDB","distance":1385,"time":8,"i_lat":-6.217455,"transit":false,"line":1,"is_transit":false,"i_long":106.939679},{"i_long":106.922662,"i_lat":-6.215568,"line":0,"station_name":"Buaran","station_id":"BUA","transit":false,"distance":1305,"time":1,"is_transit":false},{"i_long":106.899548,"station_name":"Klender","line":1,"distance":3100,"transit":false,"time":2,"is_transit":false,"station_id":"KLD","i_lat":-6.2135},{"distance":3395,"transit":false,"i_lat":-6.215091,"is_transit":true,"i_long":106.86807400000001,"line":0,"time":3,"station_id":"JNG","station_name":"Jatinegara"},{"line":1,"i_lat":-6.212485,"transit":false,"distance":1377,"is_transit":false,"i_long":106.858896,"time":2,"station_id":"MTR","station_name":"Matraman"},{"is_transit":true,"line":0,"time":2,"station_id":"MRI","i_long":106.84912,"i_lat":-6.209883,"transit":false,"station_name":"Manggarai","distance":1275},{"i_lat":-6.202263,"distance":3186,"i_long":106.822649,"station_name":"Sudirman","time":4,"is_transit":false,"station_id":"SUD","transit":false,"line":1},{"line":1,"station_name":"Sudirman Baru","distance":280,"station_id":"SUDB","i_lat":-6.201433,"transit":false,"i_long":106.819881,"is_transit":false,"time":1},{"transit":false,"time":1,"station_id":"KAT","station_name":"Karet","is_transit":false,"i_long":106.816351,"line":1,"distance":471,"i_lat":-6.20132},{"line":1,"i_long":106.811091,"distance":2029,"transit":true,"station_id":"THB","is_transit":true,"station_name":"Tanah Abang","time":5,"i_lat":-6.185545},{"is_transit":false,"time":6,"i_lat":-6.207404,"station_name":"Palmerah","i_long":106.79689,"transit":false,"station_id":"PLM","distance":3191,"line":6},{"distance":3737,"time":7,"station_name":"Kebayoran","transit":false,"station_id":"KBY","i_lat":-6.237242,"line":6,"is_transit":false,"i_long":106.780334},{"i_long":106.74273,"line":6,"time":8,"station_name":"Pondokranji","distance":6218,"is_transit":false,"i_lat":-6.276362,"station_id":"PDJ","transit":false},{"line":6,"i_long":106.728916,"transit":false,"station_id":"JMU","is_transit":false,"i_lat":-6.288927,"time":3,"station_name":"Jurangmangu","distance":2179},{"line":6,"is_transit":false,"distance":1994,"station_name":"Sudimara","time":4,"station_id":"SDM","i_long":106.712277,"i_lat":-6.296963,"transit":false},{"line":6,"time":6,"is_transit":false,"distance":4566,"i_long":106.675475,"transit":false,"station_id":"RU","i_lat":-6.314823,"station_name":"Rawa Buntu"},{"line":6,"is_transit":false,"station_id":"SRP","distance":2413,"transit":false,"station_name":"Serpong","i_long":106.66566,"time":4,"i_lat":-6.319871},{"station_name":"Cisauk","station_id":"CSK","distance":1784,"i_long":106.640411,"transit":false,"time":4,"i_lat":-6.32484,"line":0,"is_transit":false},{"i_lat":-6.329547,"transit":false,"station_name":"Cicayur","distance":2519,"station_id":"CC","line":0,"time":4,"i_long":106.617853,"is_transit":false},{"transit":false,"line":6,"station_id":"PRP","time":8,"is_transit":false,"i_lat":-6.3441410000000005,"station_name":"Parung Panjang","i_long":106.568863,"distance":5968},{"line":0,"station_name":"Cilejit","transit":false,"is_transit":false,"distance":7025,"i_lat":-6.354349,"i_long":106.508482,"time":9,"station_id":"CJT"}],[{"distance":0,"station_id":"CUK","i_lat":-6.219053,"transit":false,"is_transit":false,"time":0,"station_name":"Cakung","i_long":106.951283,"line":0},{"is_transit":false,"line":1,"station_name":"Klenderbaru","transit":false,"distance":1385,"time":8,"i_lat":-6.217455,"station_id":"KLDB","i_long":106.939679},{"i_lat":-6.215568,"station_id":"BUA","i_long":106.922662,"transit":false,"is_transit":false,"station_name":"Buaran","time":1,"line":0,"distance":1305},{"station_name":"Klender","i_long":106.899548,"transit":false,"i_lat":-6.2135,"is_transit":false,"distance":3100,"line":1,"station_id":"KLD","time":2},{"station_id":"JNG","station_name":"Jatinegara","i_long":106.86807400000001,"is_transit":true,"i_lat":-6.215091,"transit":true,"distance":3395,"time":3,"line":0},{"is_transit":false,"time":2,"station_name":"Pondok Jati","transit":false,"distance":1236,"i_lat":-6.209188,"i_long":106.861737,"line":11,"station_id":"POK"},{"station_name":"Kramat","is_transit":false,"distance":1829,"transit":false,"station_id":"KMT","time":2,"i_long":106.855437,"i_lat":-6.193792,"line":11},{"i_long":106.850107,"station_name":"Gang Sentiong","i_lat":-6.185975,"line":11,"distance":973,"time":1,"station_id":"GST","transit":false,"is_transit":false},{"i_lat":-6.174784,"station_name":"Pasar Senen","transit":false,"line":11,"i_long":106.84368,"time":8,"station_id":"PSE","is_transit":false,"distance":1567},{"time":4,"transit":false,"station_id":"KMO","distance":1436,"line":11,"i_long":106.839204,"i_lat":-6.161728,"is_transit":false,"station_name":"Kemayoran"},{"i_long":106.836569,"station_id":"RJW","is_transit":false,"line":11,"time":5,"station_name":"Rajawali","i_lat":-6.14505,"transit":false,"distance":1901},{"i_lat":-6.132549,"transit":true,"station_name":"Kampung Bandan","is_transit":true,"distance":1444,"i_long":106.826365,"line":0,"time":3,"station_id":"KPB"},{"station_id":"AK","transit":false,"time":9,"is_transit":false,"station_name":"Angke","line":0,"distance":4102,"i_long":106.79867,"i_lat":-6.144674},{"transit":true,"station_name":"Duri","station_id":"DU","line":1,"time":4,"i_long":106.800832,"distance":1230,"is_transit":true,"i_lat":-6.155215},{"transit":true,"distance":3632,"time":8,"station_id":"THB","is_transit":true,"line":1,"i_lat":-6.185545,"i_long":106.811091,"station_name":"Tanah Abang"},{"is_transit":false,"station_name":"Palmerah","station_id":"PLM","distance":3191,"i_lat":-6.207404,"line":6,"transit":false,"time":6,"i_long":106.79689},{"distance":3737,"time":7,"i_lat":-6.237242,"station_id":"KBY","station_name":"Kebayoran","i_long":106.780334,"line":6,"transit":false,"is_transit":false},{"line":6,"transit":false,"distance":6218,"station_id":"PDJ","is_transit":false,"i_long":106.74273,"station_name":"Pondokranji","time":8,"i_lat":-6.276362},{"time":3,"station_id":"JMU","distance":2179,"i_lat":-6.288927,"i_long":106.728916,"line":6,"transit":false,"station_name":"Jurangmangu","is_transit":false},{"i_long":106.712277,"time":4,"transit":false,"is_transit":false,"station_name":"Sudimara","line":6,"station_id":"SDM","distance":1994,"i_lat":-6.296963},{"station_id":"RU","is_transit":false,"time":6,"station_name":"Rawa Buntu","i_lat":-6.314823,"i_long":106.675475,"line":6,"distance":4566,"transit":false},{"station_name":"Serpong","station_id":"SRP","time":4,"distance":2413,"is_transit":false,"i_long":106.66566,"transit":false,"i_lat":-6.319871,"line":6},{"time":4,"is_transit":false,"i_lat":-6.32484,"station_id":"CSK","station_name":"Cisauk","distance":1784,"line":0,"i_long":106.640411,"transit":false},{"line":0,"distance":2519,"time":4,"station_name":"Cicayur","i_long":106.617853,"transit":false,"is_transit":false,"station_id":"CC","i_lat":-6.329547},{"i_lat":-6.3441410000000005,"i_long":106.568863,"line":6,"transit":false,"station_name":"Parung Panjang","distance":5968,"time":8,"station_id":"PRP","is_transit":false},{"is_transit":false,"station_id":"CJT","distance":7025,"time":9,"station_name":"Cilejit","transit":false,"line":0,"i_long":106.508482,"i_lat":-6.354349}],[{"station_id":"CUK","time":0,"is_transit":false,"transit":false,"i_lat":-6.219053,"station_name":"Cakung","i_long":106.951283,"line":0,"distance":0},{"station_name":"Klenderbaru","time":8,"i_lat":-6.217455,"i_long":106.939679,"station_id":"KLDB","transit":false,"line":1,"is_transit":false,"distance":1385},{"i_long":106.922662,"station_id":"BUA","transit":false,"station_name":"Buaran","i_lat":-6.215568,"distance":1305,"line":0,"is_transit":false,"time":1},{"station_name":"Klender","i_long":106.899548,"is_transit":false,"transit":false,"time":2,"i_lat":-6.2135,"line":1,"station_id":"KLD","distance":3100},{"station_name":"Jatinegara","i_long":106.86807400000001,"i_lat":-6.215091,"is_transit":true,"line":0,"transit":false,"time":3,"station_id":"JNG","distance":3395},{"station_id":"MTR","transit":false,"is_transit":false,"distance":1377,"line":1,"time":2,"i_long":106.858896,"i_lat":-6.212485,"station_name":"Matraman"},{"station_name":"Manggarai","station_id":"MRI","transit":true,"is_transit":true,"distance":1275,"i_long":106.84912,"line":0,"i_lat":-6.209883,"time":2},{"station_name":"Cikini","transit":false,"line":0,"i_long":106.840169,"i_lat":-6.198556,"station_id":"CKI","time":4,"is_transit":false,"distance":1590},{"distance":1750,"time":3,"i_lat":-6.186295,"station_name":"Gondangdia","line":2,"transit":false,"is_transit":false,"station_id":"GDD","i_long":106.832183},{"station_name":"Juanda","station_id":"JUA","i_long":106.828284,"time":4,"is_transit":false,"distance":2015,"line":2,"i_lat":-6.166716,"transit":false},{"i_lat":-6.160725,"is_transit":false,"line":2,"station_name":"Sawah Besar","distance":1149,"time":2,"i_long":106.827103,"station_id":"SW","transit":false},{"is_transit":false,"transit":false,"distance":906,"line":2,"i_lat":-6.149769,"station_id":"MGB","i_long":106.82482,"station_name":"Manggabesar","time":2},{"is_transit":false,"time":2,"line":7,"transit":false,"i_long":106.820901,"i_lat":-6.141205,"distance":1080,"station_id":"JAY","station_name":"Jayakarta"},{"station_id":"JAKK","distance":1264,"line":0,"is_transit":true,"time":4,"i_lat":-6.137569,"transit":true,"i_long":106.812439,"station_name":"Jakarta Kota"},{"i_lat":-6.132549,"distance":1364,"time":3,"i_long":106.826365,"is_transit":true,"line":0,"transit":false,"station_name":"Kampung Bandan","station_id":"KPB"},{"station_id":"AK","station_name":"Angke","line":0,"distance":4102,"is_transit":false,"i_lat":-6.144674,"i_long":106.79867,"transit":false,"time":9},{"line":1,"distance":1230,"station_name":"Duri","time":4,"i_lat":-6.155215,"transit":true,"i_long":106.800832,"station_id":"DU","is_transit":true},{"transit":true,"i_long":106.811091,"station_id":"THB","line":1,"is_transit":true,"station_name":"Tanah Abang","distance":3632,"time":8,"i_lat":-6.185545},{"station_id":"PLM","distance":3191,"line":6,"time":6,"transit":false,"station_name":"Palmerah","is_transit":false,"i_lat":-6.207404,"i_long":106.79689},{"station_name":"Kebayoran","time":7,"line":6,"station_id":"KBY","distance":3737,"i_lat":-6.237242,"i_long":106.780334,"is_transit":false,"transit":false},{"time":8,"distance":6218,"is_transit":false,"line":6,"i_lat":-6.276362,"station_name":"Pondokranji","transit":false,"i_long":106.74273,"station_id":"PDJ"},{"transit":false,"i_long":106.728916,"line":6,"i_lat":-6.288927,"time":3,"station_id":"JMU","is_transit":false,"distance":2179,"station_name":"Jurangmangu"},{"is_transit":false,"distance":1994,"line":6,"time":4,"station_name":"Sudimara","station_id":"SDM","i_lat":-6.296963,"i_long":106.712277,"transit":false},{"transit":false,"station_id":"RU","distance":4566,"i_long":106.675475,"i_lat":-6.314823,"line":6,"station_name":"Rawa Buntu","time":6,"is_transit":false},{"is_transit":false,"time":4,"distance":2413,"station_id":"SRP","i_lat":-6.319871,"transit":false,"i_long":106.66566,"line":6,"station_name":"Serpong"},{"station_id":"CSK","time":4,"is_transit":false,"transit":false,"i_long":106.640411,"station_name":"Cisauk","i_lat":-6.32484,"distance":1784,"line":0},{"station_id":"CC","transit":false,"line":0,"is_transit":false,"distance":2519,"station_name":"Cicayur","i_lat":-6.329547,"i_long":106.617853,"time":4},{"transit":false,"i_lat":-6.3441410000000005,"is_transit":false,"station_name":"Parung Panjang","time":8,"distance":5968,"station_id":"PRP","i_long":106.568863,"line":6},{"i_lat":-6.354349,"line":0,"station_id":"CJT","distance":7025,"is_transit":false,"time":9,"station_name":"Cilejit","transit":false,"i_long":106.508482}],[{"distance":0,"transit":false,"is_transit":false,"station_name":"Cakung","time":0,"i_lat":-6.219053,"i_long":106.951283,"line":0,"station_id":"CUK"},{"station_id":"KLDB","distance":1385,"transit":false,"time":8,"is_transit":false,"station_name":"Klenderbaru","i_long":106.939679,"line":1,"i_lat":-6.217455},{"line":0,"transit":false,"is_transit":false,"station_name":"Buaran","station_id":"BUA","time":1,"distance":1305,"i_lat":-6.215568,"i_long":106.922662},{"station_name":"Klender","line":1,"transit":false,"is_transit":false,"i_lat":-6.2135,"distance":3100,"time":2,"station_id":"KLD","i_long":106.899548},{"station_id":"JNG","i_lat":-6.215091,"i_long":106.86807400000001,"time":3,"station_name":"Jatinegara","is_transit":true,"transit":true,"line":0,"distance":3395},{"transit":false,"i_lat":-6.209188,"is_transit":false,"i_long":106.861737,"station_name":"Pondok Jati","time":2,"station_id":"POK","line":11,"distance":1236},{"i_lat":-6.193792,"station_name":"Kramat","transit":false,"distance":1829,"time":2,"station_id":"KMT","is_transit":false,"i_long":106.855437,"line":11},{"i_lat":-6.185975,"station_id":"GST","line":11,"is_transit":false,"transit":false,"station_name":"Gang Sentiong","distance":973,"i_long":106.850107,"time":1},{"i_lat":-6.174784,"i_long":106.84368,"is_transit":false,"station_id":"PSE","line":11,"distance":1567,"time":8,"transit":false,"station_name":"Pasar Senen"},{"station_name":"Kemayoran","is_transit":false,"line":11,"station_id":"KMO","transit":false,"i_long":106.839204,"time":4,"distance":1436,"i_lat":-6.161728},{"station_name":"Rajawali","i_long":106.836569,"time":5,"line":11,"distance":1901,"station_id":"RJW","is_transit":false,"i_lat":-6.14505,"transit":false},{"i_long":106.826365,"is_transit":true,"station_name":"Kampung Bandan","distance":1444,"i_lat":-6.132549,"time":3,"line":0,"station_id":"KPB","transit":true},{"distance":1364,"station_id":"JAKK","transit":true,"i_lat":-6.137569,"line":0,"time":3,"i_long":106.812439,"is_transit":true,"station_name":"Jakarta Kota"},{"i_long":106.820901,"station_id":"JAY","i_lat":-6.141205,"transit":false,"line":7,"time":4,"station_name":"Jayakarta","distance":1264,"is_transit":false},{"transit":false,"i_lat":-6.149769,"i_long":106.82482,"line":2,"station_id":"MGB","station_name":"Manggabesar","is_transit":false,"time":2,"distance":1080},{"time":2,"i_lat":-6.160725,"line":2,"distance":906,"station_id":"SW","i_long":106.827103,"station_name":"Sawah Besar","transit":false,"is_transit":false},{"station_name":"Juanda","station_id":"JUA","is_transit":false,"transit":false,"distance":1149,"time":2,"i_lat":-6.166716,"i_long":106.828284,"line":2},{"station_id":"GDD","is_transit":false,"i_lat":-6.186295,"station_name":"Gondangdia","distance":2015,"time":4,"line":2,"i_long":106.832183,"transit":false},{"station_id":"CKI","time":3,"station_name":"Cikini","is_transit":false,"distance":1750,"transit":false,"i_lat":-6.198556,"i_long":106.840169,"line":0},{"transit":true,"station_name":"Manggarai","i_long":106.84912,"is_transit":true,"station_id":"MRI","line":0,"i_lat":-6.209883,"distance":1590,"time":4},{"transit":false,"station_id":"SUD","is_transit":false,"station_name":"Sudirman","i_lat":-6.202263,"distance":3186,"i_long":106.822649,"line":1,"time":4},{"station_name":"Sudirman Baru","time":1,"transit":false,"station_id":"SUDB","i_long":106.819881,"distance":280,"line":1,"is_transit":false,"i_lat":-6.201433},{"station_id":"KAT","is_transit":false,"time":1,"station_name":"Karet","transit":false,"distance":471,"i_long":106.816351,"line":1,"i_lat":-6.20132},{"i_long":106.811091,"time":5,"i_lat":-6.185545,"is_transit":true,"line":1,"transit":true,"station_name":"Tanah Abang","distance":2029,"station_id":"THB"},{"distance":3191,"station_name":"Palmerah","is_transit":false,"line":6,"i_long":106.79689,"station_id":"PLM","transit":false,"time":6,"i_lat":-6.207404},{"is_transit":false,"i_lat":-6.237242,"line":6,"station_name":"Kebayoran","distance":3737,"i_long":106.780334,"time":7,"transit":false,"station_id":"KBY"},{"distance":6218,"i_lat":-6.276362,"line":6,"time":8,"is_transit":false,"station_id":"PDJ","transit":false,"i_long":106.74273,"station_name":"Pondokranji"},{"is_transit":false,"distance":2179,"time":3,"transit":false,"i_lat":-6.288927,"station_name":"Jurangmangu","i_long":106.728916,"line":6,"station_id":"JMU"},{"station_id":"SDM","time":4,"distance":1994,"line":6,"station_name":"Sudimara","is_transit":false,"transit":false,"i_long":106.712277,"i_lat":-6.296963},{"time":6,"transit":false,"distance":4566,"station_id":"RU","station_name":"Rawa Buntu","is_transit":false,"i_lat":-6.314823,"i_long":106.675475,"line":6},{"transit":false,"station_name":"Serpong","distance":2413,"time":4,"is_transit":false,"i_long":106.66566,"line":6,"station_id":"SRP","i_lat":-6.319871},{"i_long":106.640411,"station_name":"Cisauk","transit":false,"line":0,"time":4,"is_transit":false,"station_id":"CSK","distance":1784,"i_lat":-6.32484},{"distance":2519,"i_lat":-6.329547,"line":0,"i_long":106.617853,"station_id":"CC","transit":false,"is_transit":false,"time":4,"station_name":"Cicayur"},{"is_transit":false,"time":8,"transit":false,"i_lat":-6.3441410000000005,"i_long":106.568863,"line":6,"station_name":"Parung Panjang","distance":5968,"station_id":"PRP"},{"station_id":"CJT","transit":false,"station_name":"Cilejit","is_transit":false,"time":9,"i_lat":-6.354349,"distance":7025,"i_long":106.508482,"line":0}]]}