{"data":[[{"i_lat":-6.219053,"i_long":106.951283,"time":0,"station_name":"Cakung","transit":false,"is_transit":false,"distance":0,"line":1,"station_id":"CUK"},{"time":8,"is_transit":false,"distance":1385,"station_name":"Klenderbaru","i_long":106.939679,"i_lat":-6.217455,"line":1,"transit":false,"station_id":"KLDB"},{"station_id":"BUA","line":1,"transit":false,"time":1,"distance":1305,"i_long":106.922662,"is_transit":false,"i_lat":-6.215568,"station_name":"Buaran"},{"i_long":106.899548,"transit":false,"time":2,"distance":3100,"line":1,"station_id":"KLD","i_lat":-6.2135,"station_name":"Klender","is_transit":false},{"time":3,"i_long":106.86807400000001,"station_name":"Jatinegara","i_lat":-6.215091,"distance":3395,"is_transit":false,"transit":false,"line":1,"station_id":"JNG"},{"station_id":"MTR","i_lat":-6.212485,"is_transit":false,"transit":false,"station_name":"Matraman","time":2,"line":1,"i_long":106.858896,"distance":1377},{"line":2,"station_name":"Manggarai","station_id":"MRI","is_transit":false,"i_lat":-6.209883,"i_long":106.84912,"time":2,"transit":false,"distance":1275},{"is_transit":false,"station_name":"Sudirman","i_lat":-6.202263,"i_long":106.822649,"transit":false,"line":1,"distance":3186,"station_id":"SUD","time":4},{"transit":false,"time":1,"i_lat":-6.201433,"i_long":106.819881,"station_id":"SUDB","distance":280,"line":1,"is_transit":false,"station_name":"Sudirman Baru"},{"time":1,"station_id":"KAT","is_transit":false,"i_long":106.816351,"transit":false,"station_name":"Karet","line":1,"distance":471,"i_lat":-6.20132},{"transit":true,"i_lat":-6.185545,"station_id":"THB","i_long":106.811091,"is_transit":true,"line":1,"distance":2029,"station_name":"Tanah Abang","time":5},{"station_id":"PLM","station_name":"Palmerah","time":6,"is_transit":false,"i_long":106.79689,"transit":false,"i_lat":-6.207404,"distance":3191,"line":6},{"station_name":"Kebayoran","i_long":106.780334,"distance":3737,"is_transit":false,"time":7,"i_lat":-6.237242,"transit":false,"station_id":"KBY","line":6},{"distance":6218,"is_transit":false,"time":8,"station_name":"Pondokranji","transit":false,"i_lat":-6.276362,"line":6,"station_id":"PDJ","i_long":106.74273},{"i_lat":-6.288927,"transit":false,"is_transit":false,"station_name":"Jurangmangu","station_id":"JMU","time":3,"distance":2179,"line":6,"i_long":106.728916},{"station_id":"SDM","is_transit":false,"station_name":"Sudimara","line":6,"transit":false,"distance":1994,"time":4,"i_lat":-6.296963,"i_long":106.712277},{"i_lat":-6.314823,"transit":false,"is_transit":false,"station_id":"RU","i_long":106.675475,"line":6,"station_name":"Rawa Buntu","distance":4566,"time":6},{"transit":false,"is_transit":false,"station_id":"SRP","distance":2413,"i_lat":-6.319871,"station_name":"Serpong","time":4,"line":6,"i_long":106.66566},{"i_long":106.640411,"time":4,"line":3,"is_transit":false,"station_name":"Cisauk","transit":false,"station_id":"CSK","distance":1784,"i_lat":-6.32484},{"transit":false,"time":4,"station_name":"Cicayur","station_id":"CC","distance":2519,"i_lat":-6.329547,"is_transit":false,"line":3,"i_long":106.617853},{"i_long":106.568863,"station_name":"Parung Panjang","station_id":"PRP","transit":false,"line":6,"is_transit":false,"time":8,"distance":5968,"i_lat":-6.3441410000000005}],[{"transit":false,"line":1,"time":0,"is_transit":false,"distance":0,"station_name":"Cakung","i_lat":-6.219053,"i_long":106.951283,"station_id":"CUK"},{"i_lat":-6.217455,"station_name":"Klenderbaru","station_id":"KLDB","time":8,"distance":1385,"i_long":106.939679,"is_transit":false,"line":1,"transit":false},{"line":1,"is_transit":false,"i_lat":-6.215568,"transit":false,"station_name":"Buaran","time":1,"distance":1305,"i_long":106.922662,"station_id":"BUA"},{"station_id":"KLD","is_transit":false,"distance":3100,"transit":false,"time":2,"i_long":106.899548,"station_name":"Klender","i_lat":-6.2135,"line":1},{"transit":true,"i_long":106.86807400000001,"is_transit":true,"station_name":"Jatinegara","station_id":"JNG","line":1,"distance":3395,"i_lat":-6.215091,"time":3},{"i_lat":-6.209188,"station_id":"POK","station_name":"Pondok Jati","distance":1236,"line":11,"transit":false,"i_long":106.861737,"is_transit":false,"time":2},{"distance":1829,"line":11,"station_name":"Kramat","time":2,"station_id":"KMT","is_transit":false,"transit":false,"i_lat":-6.193792,"i_long":106.855437},{"station_name":"Gang Sentiong","time":1,"i_long":106.850107,"line":11,"transit":false,"is_transit":false,"station_id":"GST","distance":973,"i_lat":-6.185975},{"station_id":"PSE","distance":1567,"i_lat":-6.174784,"station_name":"Pasar Senen","line":11,"i_long":106.84368,"time":8,"is_transit":false,"transit":false},{"i_lat":-6.161728,"i_long":106.839204,"distance":1436,"time":4,"line":11,"station_id":"KMO","transit":false,"is_transit":false,"station_name":"Kemayoran"},{"station_name":"Rajawali","time":5,"line":11,"transit":false,"distance":1901,"is_transit":false,"i_long":106.836569,"i_lat":-6.14505,"station_id":"RJW"},{"is_transit":true,"station_name":"Kampung Bandan","time":3,"distance":1444,"i_long":106.826365,"station_id":"KPB","i_lat":-6.132549,"line":4,"transit":true},{"distance":4102,"is_transit":false,"station_name":"Angke","i_lat":-6.144674,"i_long":106.79867,"station_id":"AK","transit":false,"line":1,"time":9},{"i_long":106.800832,"station_id":"DU","distance":1230,"i_lat":-6.155215,"is_transit":false,"station_name":"Duri","time":4,"line":1,"transit":false},{"station_id":"THB","distance":3632,"i_lat":-6.185545,"time":8,"is_transit":true,"transit":true,"i_long":106.811091,"line":1,"station_name":"Tanah Abang"},{"transit":false,"is_transit":false,"i_lat":-6.207404,"line":6,"station_id":"PLM","time":6,"distance":3191,"station_name":"Palmerah","i_long":106.79689},{"transit":false,"station_name":"Kebayoran","i_lat":-6.237242,"distance":3737,"line":6,"is_transit":false,"station_id":"KBY","i_long":106.780334,"time":7},{"station_id":"PDJ","time":8,"i_long":106.74273,"station_name":"Pondokranji","line":6,"is_transit":false,"i_lat":-6.276362,"distance":6218,"transit":false},{"time":3,"i_long":106.728916,"station_name":"Jurangmangu","station_id":"JMU","distance":2179,"line":6,"i_lat":-6.288927,"is_transit":false,"transit":false},{"i_lat":-6.296963,"is_transit":false,"station_name":"Sudimara","time":4,"transit":false,"distance":1994,"station_id":"SDM","line":6,"i_long":106.712277},{"transit":false,"i_long":106.675475,"time":6,"distance":4566,"is_transit":false,"station_name":"Rawa Buntu","station_id":"RU","i_lat":-6.314823,"line":6},{"line":6,"i_long":106.66566,"distance":2413,"transit":false,"is_transit":false,"station_id":"SRP","time":4,"i_lat":-6.319871,"station_name":"Serpong"},{"is_transit":false,"i_lat":-6.32484,"i_long":106.640411,"distance":1784,"time":4,"line":3,"transit":false,"station_name":"Cisauk","station_id":"CSK"},{"transit":false,"time":4,"i_lat":-6.329547,"is_transit":false,"distance":2519,"station_name":"Cicayur","station_id":"CC","i_long":106.617853,"line":3},{"transit":false,"time":8,"station_name":"Parung Panjang","distance":5968,"i_lat":-6.3441410000000005,"i_long":106.568863,"line":6,"is_transit":false,"station_id":"PRP"}],[{"i_long":106.951283,"time":0,"station_id":"CUK","is_transit":false,"station_name":"Cakung","transit":false,"i_lat":-6.219053,"line":1,"distance":0},{"i_lat":-6.217455,"time":8,"line":1,"is_transit":false,"station_name":"Klenderbaru","station_id":"KLDB","i_long":106.939679,"transit":false,"distance":1385},{"station_name":"Buaran","time":1,"line":1,"transit":false,"is_transit":false,"station_id":"BUA","i_lat":-6.215568,"distance":1305,"i_long":106.922662},{"station_name":"Klender","is_transit":false,"transit":false,"i_lat":-6.2135,"station_id":"KLD","i_long":106.899548,"time":2,"distance":3100,"line":1},{"transit":false,"station_id":"JNG","line":1,"i_lat":-6.215091,"time":3,"i_long":106.86807400000001,"is_transit":false,"station_name":"Jatinegara","distance":3395},{"station_id":"MTR","station_name":"Matraman","distance":1377,"line":1,"i_long":106.858896,"transit":false,"time":2,"i_lat":-6.212485,"is_transit":false},{"station_name":"Manggarai","station_id":"MRI","is_transit":true,"distance":1275,"transit":true,"i_lat":-6.209883,"i_long":106.84912,"line":2,"time":2},{"station_name":"Cikini","station_id":"CKI","is_transit":false,"i_lat":-6.198556,"line":2,"transit":false,"i_long":106.840169,"time":4,"distance":1590},{"station_name":"Gondangdia","transit":false,"i_long":106.832183,"station_id":"GDD","is_transit":false,"time":3,"distance":1750,"line":2,"i_lat":-6.186295},{"transit":false,"station_name":"Juanda","line":2,"time":4,"distance":2015,"i_lat":-6.166716,"station_id":"JUA","i_long":106.828284,"is_transit":false},{"station_id":"SW","line":2,"transit":false,"time":2,"distance":1149,"is_transit":false,"i_lat":-6.160725,"i_long":106.827103,"station_name":"Sawah Besar"},{"i_long":106.82482,"transit":false,"line":2,"time":2,"is_transit":false,"station_name":"Manggabesar","distance":906,"station_id":"MGB","i_lat":-6.149769},{"line":2,"station_id":"JAY","i_lat":-6.141205,"time":2,"transit":false,"station_name":"Jayakarta","distance":1080,"is_transit":false,"i_long":106.820901},{"transit":true,"station_id":"JAKK","station_name":"Jakarta Kota","line":2,"i_long":106.812439,"is_transit":true,"distance":1264,"time":4,"i_lat":-6.137569},{"line":4,"time":3,"station_name":"Kampung Bandan","is_transit":true,"station_id":"KPB","distance":1364,"i_long":106.826365,"transit":true,"i_lat":-6.132549},{"i_long":106.79867,"station_id":"AK","i_lat":-6.144674,"station_name":"Angke","is_transit":false,"line":1,"time":9,"transit":false,"distance":4102},{"i_lat":-6.155215,"transit":false,"time":4,"station_id":"DU","station_name":"Duri","distance":1230,"line":1,"is_transit":false,"i_long":106.800832},{"distance":3632,"i_long":106.811091,"station_name":"Tanah Abang","is_transit":true,"station_id":"THB","time":8,"line":1,"i_lat":-6.185545,"transit":true},{"station_id":"PLM","time":6,"i_long":106.79689,"i_lat":-6.207404,"line":6,"distance":3191,"station_name":"Palmerah","transit":false,"is_transit":false},{"i_lat":-6.237242,"i_long":106.780334,"station_name":"Kebayoran","station_id":"KBY","transit":false,"time":7,"line":6,"is_transit":false,"distance":3737},{"station_name":"Pondokranji","is_transit":false,"transit":false,"time":8,"station_id":"PDJ","distance":6218,"i_long":106.74273,"line":6,"i_lat":-6.276362},{"distance":2179,"is_transit":false,"station_id":"JMU","time":3,"i_long":106.728916,"transit":false,"i_lat":-6.288927,"line":6,"station_name":"Jurangmangu"},{"i_lat":-6.296963,"time":4,"station_name":"Sudimara","line":6,"i_long":106.712277,"distance":1994,"station_id":"SDM","transit":false,"is_transit":false},{"station_id":"RU","distance":4566,"time":6,"is_transit":false,"line":6,"i_lat":-6.314823,"transit":false,"station_name":"Rawa Buntu","i_long":106.675475},{"line":6,"i_long":106.66566,"is_transit":false,"transit":false,"i_lat":-6.319871,"station_name":"Serpong","time":4,"distance":2413,"station_id":"SRP"},{"i_lat":-6.32484,"station_id":"CSK","time":4,"transit":false,"distance":1784,"i_long":106.640411,"is_transit":false,"station_name":"Cisauk","line":3},{"time":4,"i_long":106.617853,"station_name":"Cicayur","distance":2519,"transit":false,"i_lat":-6.329547,"is_transit":false,"line":3,"station_id":"CC"},{"is_transit":false,"transit":false,"time":8,"i_long":106.568863,"i_lat":-6.3441410000000005,"line":6,"station_name":"Parung Panjang","station_id":"PRP","distance":5968}],[{"station_id":"CUK","time":0,"transit":false,"i_lat":-6.219053,"station_name":"Cakung","line":1,"is_transit":false,"i_long":106.951283,"distance":0},{"distance":1385,"station_id":"KLDB","station_name":"Klenderbaru","transit":false,"line":1,"is_transit":false,"i_lat":-6.217455,"i_long":106.939679,"time":8},{"distance":1305,"i_long":106.922662,"station_id":"BUA","station_name":"Buaran","transit":false,"i_lat":-6.215568,"time":1,"is_transit":false,"line":1},{"station_id":"KLD","line":1,"station_name":"Klender","time":2,"is_transit":false,"distance":3100,"transit":false,"i_lat":-6.2135,"i_long":106.899548},{"is_transit":true,"i_long":106.86807400000001,"line":1,"station_id":"JNG","transit":true,"i_lat":-6.215091,"distance":3395,"station_name":"Jatinegara","time":3},{"station_name":"Pondok Jati","is_transit":false,"time":2,"i_lat":-6.209188,"station_id":"POK","i_long":106.861737,"line":11,"transit":false,"distance":1236},{"is_transit":false,"transit":false,"i_lat":-6.193792,"line":11,"distance":1829,"i_long":106.855437,"time":2,"station_name":"Kramat","station_id":"KMT"},{"is_transit":false,"i_lat":-6.185975,"line":11,"station_name":"Gang Sentiong","transit":false,"time":1,"i_long":106.850107,"distance":973,"station_id":"GST"},{"station_name":"Pasar Senen","distance":1567,"time":8,"station_id":"PSE","line":11,"i_long":106.84368,"i_lat":-6.174784,"transit":false,"is_transit":false},{"line":11,"distance":1436,"station_id":"KMO","i_lat":-6.161728,"transit":false,"is_transit":false,"station_name":"Kemayoran","time":4,"i_long":106.839204},{"station_id":"RJW","transit":false,"i_lat":-6.14505,"station_name":"Rajawali","is_transit":false,"time":5,"distance":1901,"i_long":106.836569,"line":11},{"i_lat":-6.132549,"line":4,"is_transit":true,"station_id":"KPB","transit":true,"time":3,"station_name":"Kampung Bandan","i_long":106.826365,"distance":1444},{"i_lat":-6.137569,"line":2,"transit":true,"station_name":"Jakarta Kota","distance":1364,"is_transit":true,"i_long":106.812439,"time":3,"station_id":"JAKK"},{"line":2,"distance":1264,"i_long":106.820901,"i_lat":-6.141205,"time":4,"station_id":"JAY","is_transit":false,"station_name":"Jayakarta","transit":false},{"time":2,"i_long":106.82482,"distance":1080,"i_lat":-6.149769,"station_name":"Manggabesar","line":2,"station_id":"MGB","transit":false,"is_transit":false},{"station_id":"SW","transit":false,"distance":906,"i_lat":-6.160725,"station_name":"Sawah Besar","is_transit":false,"i_long":106.827103,"time":2,"line":2},{"transit":false,"line":2,"i_lat":-6.166716,"station_name":"Juanda","i_long":106.828284,"distance":1149,"is_transit":false,"station_id":"JUA","time":2},{"time":4,"is_transit":false,"distance":2015,"station_name":"Gondangdia","station_id":"GDD","i_long":106.832183,"i_lat":-6.186295,"line":2,"transit":false},{"line":2,"station_name":"Cikini","station_id":"CKI","is_transit":false,"distance":1750,"time":3,"i_long":106.840169,"i_lat":-6.198556,"transit":false},{"i_long":106.84912,"transit":true,"time":4,"station_name":"Manggarai","distance":1590,"station_id":"MRI","is_transit":true,"i_lat":-6.209883,"line":2},{"i_long":106.822649,"distance":3186,"time":4,"i_lat":-6.202263,"transit":false,"is_transit":false,"station_id":"SUD","line":1,"station_name":"Sudirman"},{"time":1,"is_transit":false,"station_id":"SUDB","line":1,"transit":false,"distance":280,"i_long":106.819881,"i_lat":-6.201433,"station_name":"Sudirman Baru"},{"station_name":"Karet","time":1,"distance":471,"station_id":"KAT","line":1,"i_lat":-6.20132,"is_transit":false,"i_long":106.816351,"transit":false},{"transit":true,"station_name":"Tanah Abang","distance":2029,"time":5,"is_transit":true,"i_lat":-6.185545,"station_id":"THB","i_long":106.811091,"line":1},{"time":6,"station_name":"Palmerah","distance":3191,"i_lat":-6.207404,"transit":false,"line":6,"is_transit":false,"station_id":"PLM","i_long":106.79689},{"i_long":106.780334,"distance":3737,"station_id":"KBY","time":7,"transit":false,"is_transit":false,"line":6,"i_lat":-6.237242,"station_name":"Kebayoran"},{"station_name":"Pondokranji","is_transit":false,"time":8,"i_lat":-6.276362,"i_long":106.74273,"station_id":"PDJ","transit":false,"line":6,"distance":6218},{"i_long":106.728916,"distance":2179,"station_name":"Jurangmangu","transit":false,"line":6,"time":3,"is_transit":false,"station_id":"JMU","i_lat":-6.288927},{"line":6,"i_long":106.712277,"station_name":"Sudimara","time":4,"is_transit":false,"transit":false,"i_lat":-6.296963,"station_id":"SDM","distance":1994},{"is_transit":false,"time":6,"station_id":"RU","distance":4566,"transit":false,"station_name":"Rawa Buntu","line":6,"i_long":106.675475,"i_lat":-6.314823},{"transit":false,"i_lat":-6.319871,"distance":2413,"station_id":"SRP","time":4,"is_transit":false,"i_long":106.66566,"line":6,"station_name":"Serpong"},{"i_long":106.640411,"line":3,"transit":false,"station_id":"CSK","i_lat":-6.32484,"time":4,"is_transit":false,"distance":1784,"station_name":"Cisauk"},{"station_id":"CC","station_name":"Cicayur","i_long":106.617853,"line":3,"is_transit":false,"time":4,"distance":2519,"transit":false,"i_lat":-6.329547},{"i_lat":-6.3441410000000005,"station_id":"PRP","time":8,"distance":5968,"line":6,"is_transit":false,"transit":false,"i_long":106.568863,"station_name":"Parung Panjang"}]]}