{"data":[[{"i_lat":-6.219053,"station_id":"CUK","i_long":106.951283,"distance":0,"is_transit":false,"line":1,"transit":false,"time":0,"station_name":"Cakung"},{"time":8,"i_lat":-6.217455,"distance":1385,"line":1,"i_long":106.939679,"is_transit":false,"station_name":"Klenderbaru","transit":false,"station_id":"KLDB"},{"station_name":"Buaran","i_lat":-6.215568,"i_long":106.922662,"line":1,"transit":false,"is_transit":false,"time":1,"distance":1305,"station_id":"BUA"},{"station_id":"KLD","distance":3100,"time":2,"station_name":"Klender","is_transit":false,"i_lat":-6.2135,"i_long":106.899548,"line":1,"transit":false},{"transit":false,"distance":3395,"station_id":"JNG","i_lat":-6.215091,"station_name":"Jatinegara","i_long":106.86807400000001,"time":3,"is_transit":false,"line":1},{"is_transit":false,"transit":false,"i_lat":-6.212485,"line":1,"time":2,"station_id":"MTR","i_long":106.858896,"station_name":"Matraman","distance":1377},{"distance":1275,"line":2,"is_transit":true,"station_id":"MRI","station_name":"Manggarai","i_long":106.84912,"transit":true,"time":2,"i_lat":-6.209883},{"time":4,"distance":2610,"station_id":"TEB","i_long":106.857948,"station_name":"Tebet","is_transit":false,"i_lat":-6.226659,"transit":false,"line":2},{"transit":false,"line":2,"station_id":"CW","time":2,"i_lat":-6.242512,"i_long":106.856607,"station_name":"Cawang","distance":1230,"is_transit":false},{"i_lat":-6.255332,"i_long":106.85449,"line":2,"station_name":"Duren Kalibata","time":3,"transit":false,"distance":1546,"is_transit":false,"station_id":"DRN"},{"station_id":"PSMB","time":2,"is_transit":false,"i_long":106.851577,"line":2,"distance":824,"i_lat":-6.263214,"station_name":"Pasar Minggu Baru","transit":false},{"time":2,"distance":2380,"transit":false,"line":2,"is_transit":false,"station_id":"PSM","i_long":106.843999,"station_name":"Pasar Minggu","i_lat":-6.2842400000000005},{"distance":2820,"transit":false,"is_transit":false,"line":2,"time":4,"station_name":"Tanjung Barat","i_lat":-6.3080680000000005,"station_id":"TNT","i_long":106.838896},{"time":3,"station_id":"LNA","i_lat":-6.330363,"distance":2671,"transit":false,"station_name":"Lenteng Agung","is_transit":false,"i_long":106.832616,"line":2},{"time":2,"i_long":106.834175,"station_id":"UP","line":2,"station_name":"Univ. Pancasila","transit":false,"distance":1029,"is_transit":false,"i_lat":-6.339291}],[{"station_name":"Cakung","station_id":"CUK","is_transit":false,"line":1,"transit":false,"time":0,"i_long":106.951283,"distance":0,"i_lat":-6.219053},{"station_name":"Klenderbaru","is_transit":false,"line":1,"station_id":"KLDB","i_lat":-6.217455,"transit":false,"time":8,"distance":1385,"i_long":106.939679},{"distance":1305,"station_name":"Buaran","station_id":"BUA","transit":false,"i_lat":-6.215568,"i_long":106.922662,"is_transit":false,"time":1,"line":1},{"i_long":106.899548,"station_name":"Klender","transit":false,"is_transit":false,"i_lat":-6.2135,"line":1,"time":2,"distance":3100,"station_id":"KLD"},{"station_id":"JNG","i_long":106.86807400000001,"is_transit":true,"distance":3395,"transit":true,"time":3,"i_lat":-6.215091,"line":1,"station_name":"Jatinegara"},{"station_id":"POK","transit":false,"time":2,"distance":1236,"i_lat":-6.209188,"is_transit":false,"line":11,"station_name":"Pondok Jati","i_long":106.861737},{"transit":false,"is_transit":false,"station_name":"Kramat","line":11,"i_lat":-6.193792,"i_long":106.855437,"distance":1829,"time":2,"station_id":"KMT"},{"i_lat":-6.185975,"line":11,"transit":false,"station_id":"GST","i_long":106.850107,"time":1,"station_name":"Gang Sentiong","is_transit":false,"distance":973},{"i_lat":-6.174784,"is_transit":false,"i_long":106.84368,"time":8,"line":11,"distance":1567,"transit":false,"station_id":"PSE","station_name":"Pasar Senen"},{"is_transit":false,"line":11,"station_name":"Kemayoran","station_id":"KMO","i_lat":-6.161728,"i_long":106.839204,"distance":1436,"transit":false,"time":4},{"station_name":"Rajawali","station_id":"RJW","i_long":106.836569,"time":5,"i_lat":-6.14505,"distance":1901,"transit":false,"is_transit":false,"line":11},{"is_transit":true,"transit":true,"station_name":"Kampung Bandan","station_id":"KPB","time":3,"line":4,"i_long":106.826365,"i_lat":-6.132549,"distance":1444},{"i_lat":-6.144674,"distance":4102,"i_long":106.79867,"is_transit":false,"time":9,"station_name":"Angke","line":1,"transit":false,"station_id":"AK"},{"i_lat":-6.155215,"i_long":106.800832,"time":4,"line":1,"distance":1230,"station_id":"DU","is_transit":false,"transit":false,"station_name":"Duri"},{"i_lat":-6.185545,"line":1,"i_long":106.811091,"station_name":"Tanah Abang","distance":3632,"station_id":"THB","time":8,"is_transit":false,"transit":false},{"station_name":"Karet","time":5,"station_id":"KAT","distance":2029,"i_lat":-6.20132,"transit":false,"is_transit":false,"line":1,"i_long":106.816351},{"is_transit":false,"transit":false,"i_lat":-6.201433,"station_name":"Sudirman Baru","i_long":106.819881,"distance":471,"time":1,"line":1,"station_id":"SUDB"},{"i_long":106.822649,"is_transit":false,"station_name":"Sudirman","station_id":"SUD","i_lat":-6.202263,"time":1,"distance":280,"line":1,"transit":false},{"line":2,"station_id":"MRI","time":4,"transit":true,"is_transit":true,"distance":3186,"station_name":"Manggarai","i_lat":-6.209883,"i_long":106.84912},{"i_lat":-6.226659,"transit":false,"i_long":106.857948,"station_name":"Tebet","station_id":"TEB","time":4,"distance":2610,"is_transit":false,"line":2},{"station_name":"Cawang","time":2,"station_id":"CW","is_transit":false,"transit":false,"distance":1230,"i_lat":-6.242512,"i_long":106.856607,"line":2},{"station_id":"DRN","i_long":106.85449,"time":3,"transit":false,"line":2,"station_name":"Duren Kalibata","distance":1546,"is_transit":false,"i_lat":-6.255332},{"is_transit":false,"time":2,"station_name":"Pasar Minggu Baru","i_long":106.851577,"line":2,"distance":824,"i_lat":-6.263214,"station_id":"PSMB","transit":false},{"station_name":"Pasar Minggu","distance":2380,"i_lat":-6.2842400000000005,"station_id":"PSM","line":2,"i_long":106.843999,"is_transit":false,"time":2,"transit":false},{"distance":2820,"i_long":106.838896,"station_id":"TNT","time":4,"is_transit":false,"transit":false,"i_lat":-6.3080680000000005,"station_name":"Tanjung Barat","line":2},{"distance":2671,"line":2,"i_long":106.832616,"is_transit":false,"station_name":"Lenteng Agung","station_id":"LNA","time":3,"transit":false,"i_lat":-6.330363},{"station_name":"Univ. Pancasila","i_long":106.834175,"distance":1029,"line":2,"time":2,"transit":false,"station_id":"UP","is_transit":false,"i_lat":-6.339291}],[{"line":1,"station_name":"Cakung","is_transit":false,"i_lat":-6.219053,"station_id":"CUK","transit":false,"i_long":106.951283,"time":0,"distance":0},{"time":8,"station_id":"KLDB","transit":false,"i_lat":-6.217455,"i_long":106.939679,"station_name":"Klenderbaru","line":1,"is_transit":false,"distance":1385},{"transit":false,"is_transit":false,"line":1,"time":1,"station_name":"Buaran","station_id":"BUA","i_lat":-6.215568,"i_long":106.922662,"distance":1305},{"is_transit":false,"line":1,"time":2,"transit":false,"i_long":106.899548,"distance":3100,"station_name":"Klender","station_id":"KLD","i_lat":-6.2135},{"station_name":"Jatinegara","transit":true,"station_id":"JNG","time":3,"distance":3395,"i_lat":-6.215091,"i_long":106.86807400000001,"line":1,"is_transit":true},{"station_id":"POK","transit":false,"i_lat":-6.209188,"i_long":106.861737,"line":11,"station_name":"Pondok Jati","distance":1236,"time":2,"is_transit":false},{"line":11,"distance":1829,"station_id":"KMT","time":2,"transit":false,"is_transit":false,"i_long":106.855437,"station_name":"Kramat","i_lat":-6.193792},{"i_long":106.850107,"station_name":"Gang Sentiong","i_lat":-6.185975,"is_transit":false,"distance":973,"line":11,"time":1,"transit":false,"station_id":"GST"},{"line":11,"distance":1567,"transit":false,"station_name":"Pasar Senen","i_long":106.84368,"station_id":"PSE","time":8,"i_lat":-6.174784,"is_transit":false},{"line":11,"transit":false,"time":4,"is_transit":false,"i_lat":-6.161728,"station_id":"KMO","distance":1436,"station_name":"Kemayoran","i_long":106.839204},{"distance":1901,"is_transit":false,"station_name":"Rajawali","i_lat":-6.14505,"line":11,"transit":false,"time":5,"i_long":106.836569,"station_id":"RJW"},{"transit":true,"line":4,"distance":1444,"i_long":106.826365,"station_id":"KPB","is_transit":true,"time":3,"i_lat":-6.132549,"station_name":"Kampung Bandan"},{"station_id":"JAKK","is_transit":true,"line":2,"station_name":"Jakarta Kota","time":3,"distance":1364,"transit":true,"i_lat":-6.137569,"i_long":106.812439},{"i_lat":-6.141205,"transit":false,"is_transit":false,"line":2,"i_long":106.820901,"station_id":"JAY","distance":1264,"time":4,"station_name":"Jayakarta"},{"time":2,"is_transit":false,"distance":1080,"line":2,"station_name":"Manggabesar","station_id":"MGB","transit":false,"i_long":106.82482,"i_lat":-6.149769},{"is_transit":false,"transit":false,"station_id":"SW","time":2,"i_lat":-6.160725,"distance":906,"i_long":106.827103,"line":2,"station_name":"Sawah Besar"},{"is_transit":false,"transit":false,"i_lat":-6.166716,"line":2,"time":2,"i_long":106.828284,"distance":1149,"station_name":"Juanda","station_id":"JUA"},{"station_name":"Gondangdia","is_transit":false,"line":2,"i_lat":-6.186295,"i_long":106.832183,"time":4,"transit":false,"station_id":"GDD","distance":2015},{"station_id":"CKI","is_transit":false,"station_name":"Cikini","i_lat":-6.198556,"distance":1750,"i_long":106.840169,"line":2,"time":3,"transit":false},{"station_id":"MRI","is_transit":false,"time":4,"i_long":106.84912,"transit":false,"distance":1590,"i_lat":-6.209883,"station_name":"Manggarai","line":2},{"station_id":"TEB","station_name":"Tebet","distance":2610,"is_transit":false,"i_lat":-6.226659,"i_long":106.857948,"line":2,"transit":false,"time":4},{"i_long":106.856607,"distance":1230,"time":2,"transit":false,"is_transit":false,"station_id":"CW","i_lat":-6.242512,"line":2,"station_name":"Cawang"},{"transit":false,"distance":1546,"time":3,"station_id":"DRN","i_long":106.85449,"line":2,"is_transit":false,"i_lat":-6.255332,"station_name":"Duren Kalibata"},{"i_lat":-6.263214,"i_long":106.851577,"station_id":"PSMB","station_name":"Pasar Minggu Baru","time":2,"transit":false,"line":2,"distance":824,"is_transit":false},{"line":2,"distance":2380,"station_name":"Pasar Minggu","station_id":"PSM","time":2,"is_transit":false,"i_lat":-6.2842400000000005,"i_long":106.843999,"transit":false},{"station_id":"TNT","line":2,"i_long":106.838896,"i_lat":-6.3080680000000005,"transit":false,"station_name":"Tanjung Barat","is_transit":false,"distance":2820,"time":4},{"transit":false,"i_lat":-6.330363,"line":2,"is_transit":false,"time":3,"station_id":"LNA","i_long":106.832616,"distance":2671,"station_name":"Lenteng Agung"},{"line":2,"distance":1029,"station_name":"Univ. Pancasila","station_id":"UP","is_transit":false,"i_long":106.834175,"transit":false,"i_lat":-6.339291,"time":2}]]}