{"data":[[{"is_transit":false,"distance":0,"station_id":"CUK","i_long":106.951283,"transit":false,"line":1,"time":0,"i_lat":-6.219053,"station_name":"Cakung"},{"i_long":106.939679,"distance":1385,"station_name":"Klenderbaru","station_id":"KLDB","time":8,"i_lat":-6.217455,"line":1,"is_transit":false,"transit":false},{"station_id":"BUA","line":1,"time":1,"station_name":"Buaran","is_transit":false,"distance":1305,"transit":false,"i_lat":-6.215568,"i_long":106.922662},{"i_long":106.899548,"is_transit":false,"distance":3100,"station_name":"Klender","i_lat":-6.2135,"station_id":"KLD","transit":false,"line":1,"time":2},{"i_lat":-6.215091,"is_transit":false,"line":1,"station_id":"JNG","time":3,"station_name":"Jatinegara","distance":3395,"i_long":106.86807400000001,"transit":false},{"line":1,"station_id":"MTR","is_transit":false,"transit":false,"i_long":106.858896,"distance":1377,"station_name":"Matraman","time":2,"i_lat":-6.212485},{"station_name":"Manggarai","time":2,"i_long":106.84912,"line":2,"transit":false,"distance":1275,"station_id":"MRI","is_transit":false,"i_lat":-6.209883},{"distance":3186,"transit":false,"station_name":"Sudirman","time":4,"i_long":106.822649,"line":1,"station_id":"SUD","is_transit":false,"i_lat":-6.202263},{"i_lat":-6.201433,"transit":false,"is_transit":false,"i_long":106.819881,"line":1,"time":1,"distance":280,"station_name":"Sudirman Baru","station_id":"SUDB"},{"i_long":106.816351,"station_name":"Karet","is_transit":false,"line":1,"time":1,"distance":471,"transit":false,"station_id":"KAT","i_lat":-6.20132},{"is_transit":true,"distance":2029,"i_lat":-6.185545,"line":1,"time":5,"transit":true,"i_long":106.811091,"station_name":"Tanah Abang","station_id":"THB"},{"is_transit":false,"station_id":"PLM","i_long":106.79689,"i_lat":-6.207404,"transit":false,"line":6,"distance":3191,"time":6,"station_name":"Palmerah"},{"station_id":"KBY","i_long":106.780334,"transit":false,"station_name":"Kebayoran","is_transit":false,"time":7,"distance":3737,"i_lat":-6.237242,"line":6},{"station_id":"PDJ","is_transit":false,"time":8,"i_lat":-6.276362,"i_long":106.74273,"distance":6218,"transit":false,"line":6,"station_name":"Pondokranji"},{"i_lat":-6.288927,"i_long":106.728916,"line":6,"transit":false,"station_id":"JMU","is_transit":false,"distance":2179,"time":3,"station_name":"Jurangmangu"},{"is_transit":false,"time":4,"station_id":"SDM","station_name":"Sudimara","i_lat":-6.296963,"transit":false,"i_long":106.712277,"line":6,"distance":1994},{"station_id":"RU","i_lat":-6.314823,"is_transit":false,"time":6,"i_long":106.675475,"transit":false,"line":6,"station_name":"Rawa Buntu","distance":4566},{"i_lat":-6.319871,"transit":false,"time":4,"station_name":"Serpong","distance":2413,"is_transit":false,"i_long":106.66566,"line":6,"station_id":"SRP"},{"transit":false,"i_lat":-6.32484,"line":3,"is_transit":false,"station_id":"CSK","distance":1784,"station_name":"Cisauk","i_long":106.640411,"time":4},{"is_transit":false,"transit":false,"time":4,"station_id":"CC","i_lat":-6.329547,"i_long":106.617853,"line":3,"station_name":"Cicayur","distance":2519},{"i_lat":-6.3441410000000005,"is_transit":false,"i_long":106.568863,"time":8,"station_name":"Parung Panjang","line":6,"station_id":"PRP","transit":false,"distance":5968},{"distance":7025,"transit":false,"station_name":"Cilejit","i_lat":-6.354349,"i_long":106.508482,"line":3,"station_id":"CJT","time":9,"is_transit":false},{"line":0,"is_transit":false,"station_id":"DAR","distance":2675,"i_lat":-6.338021,"i_long":106.491338,"time":6,"transit":false,"station_name":"Daru"},{"distance":3902,"station_name":"Tenjo","station_id":"TEJ","time":5,"line":6,"i_long":106.460812,"transit":false,"is_transit":false,"i_lat":-6.327251},{"transit":false,"station_name":"Tigaraksa","is_transit":false,"distance":2974,"time":5,"i_lat":-6.328533,"station_id":"TGS","i_long":106.425991,"line":6}],[{"line":1,"distance":0,"time":0,"is_transit":false,"i_long":106.951283,"station_name":"Cakung","station_id":"CUK","i_lat":-6.219053,"transit":false},{"distance":1385,"i_lat":-6.217455,"time":8,"transit":false,"station_name":"Klenderbaru","station_id":"KLDB","is_transit":false,"i_long":106.939679,"line":1},{"distance":1305,"is_transit":false,"station_name":"Buaran","line":1,"time":1,"station_id":"BUA","i_lat":-6.215568,"i_long":106.922662,"transit":false},{"i_lat":-6.2135,"line":1,"station_id":"KLD","distance":3100,"transit":false,"station_name":"Klender","is_transit":false,"i_long":106.899548,"time":2},{"distance":3395,"is_transit":true,"i_lat":-6.215091,"transit":true,"time":3,"line":1,"i_long":106.86807400000001,"station_id":"JNG","station_name":"Jatinegara"},{"time":2,"distance":1236,"station_name":"Pondok Jati","line":11,"i_long":106.861737,"is_transit":false,"station_id":"POK","i_lat":-6.209188,"transit":false},{"is_transit":false,"i_lat":-6.193792,"station_name":"Kramat","distance":1829,"time":2,"transit":false,"station_id":"KMT","i_long":106.855437,"line":11},{"time":1,"station_name":"Gang Sentiong","station_id":"GST","i_long":106.850107,"transit":false,"distance":973,"i_lat":-6.185975,"is_transit":false,"line":11},{"time":8,"line":11,"station_name":"Pasar Senen","transit":false,"distance":1567,"station_id":"PSE","i_lat":-6.174784,"is_transit":false,"i_long":106.84368},{"station_name":"Kemayoran","i_long":106.839204,"station_id":"KMO","line":11,"is_transit":false,"i_lat":-6.161728,"transit":false,"distance":1436,"time":4},{"distance":1901,"is_transit":false,"time":5,"i_long":106.836569,"i_lat":-6.14505,"transit":false,"line":11,"station_name":"Rajawali","station_id":"RJW"},{"i_long":106.826365,"time":3,"line":4,"station_name":"Kampung Bandan","is_transit":true,"station_id":"KPB","i_lat":-6.132549,"distance":1444,"transit":true},{"station_name":"Angke","i_long":106.79867,"line":1,"time":9,"transit":false,"station_id":"AK","distance":4102,"is_transit":false,"i_lat":-6.144674},{"distance":1230,"i_lat":-6.155215,"i_long":106.800832,"line":1,"transit":false,"time":4,"station_id":"DU","is_transit":false,"station_name":"Duri"},{"transit":true,"line":1,"i_long":106.811091,"station_id":"THB","station_name":"Tanah Abang","i_lat":-6.185545,"is_transit":true,"distance":3632,"time":8},{"line":6,"station_name":"Palmerah","station_id":"PLM","i_long":106.79689,"i_lat":-6.207404,"distance":3191,"time":6,"transit":false,"is_transit":false},{"distance":3737,"station_name":"Kebayoran","time":7,"i_long":106.780334,"station_id":"KBY","is_transit":false,"line":6,"transit":false,"i_lat":-6.237242},{"is_transit":false,"station_id":"PDJ","i_long":106.74273,"i_lat":-6.276362,"time":8,"distance":6218,"transit":false,"station_name":"Pondokranji","line":6},{"line":6,"time":3,"i_long":106.728916,"distance":2179,"transit":false,"station_name":"Jurangmangu","is_transit":false,"station_id":"JMU","i_lat":-6.288927},{"transit":false,"time":4,"is_transit":false,"line":6,"station_id":"SDM","station_name":"Sudimara","distance":1994,"i_lat":-6.296963,"i_long":106.712277},{"i_long":106.675475,"time":6,"transit":false,"is_transit":false,"station_id":"RU","i_lat":-6.314823,"line":6,"distance":4566,"station_name":"Rawa Buntu"},{"station_name":"Serpong","time":4,"station_id":"SRP","is_transit":false,"i_lat":-6.319871,"line":6,"transit":false,"i_long":106.66566,"distance":2413},{"i_long":106.640411,"distance":1784,"station_id":"CSK","i_lat":-6.32484,"line":3,"time":4,"transit":false,"station_name":"Cisauk","is_transit":false},{"line":3,"transit":false,"is_transit":false,"station_name":"Cicayur","i_lat":-6.329547,"time":4,"distance":2519,"station_id":"CC","i_long":106.617853},{"station_name":"Parung Panjang","is_transit":false,"distance":5968,"transit":false,"i_lat":-6.3441410000000005,"station_id":"PRP","i_long":106.568863,"time":8,"line":6},{"station_name":"Cilejit","distance":7025,"transit":false,"is_transit":false,"station_id":"CJT","i_lat":-6.354349,"i_long":106.508482,"line":3,"time":9},{"i_lat":-6.338021,"is_transit":false,"time":6,"line":0,"station_name":"Daru","station_id":"DAR","i_long":106.491338,"transit":false,"distance":2675},{"i_long":106.460812,"line":6,"transit":false,"station_name":"Tenjo","time":5,"station_id":"TEJ","i_lat":-6.327251,"is_transit":false,"distance":3902},{"station_name":"Tigaraksa","distance":2974,"i_lat":-6.328533,"i_long":106.425991,"line":6,"station_id":"TGS","is_transit":false,"time":5,"transit":false}],[{"is_transit":false,"distance":0,"transit":false,"i_long":106.951283,"station_id":"CUK","station_name":"Cakung","time":0,"line":1,"i_lat":-6.219053},{"distance":1385,"time":8,"line":1,"i_long":106.939679,"i_lat":-6.217455,"station_name":"Klenderbaru","station_id":"KLDB","transit":false,"is_transit":false},{"station_id":"BUA","station_name":"Buaran","is_transit":false,"distance":1305,"i_long":106.922662,"i_lat":-6.215568,"line":1,"time":1,"transit":false},{"is_transit":false,"time":2,"station_name":"Klender","i_long":106.899548,"line":1,"transit":false,"distance":3100,"station_id":"KLD","i_lat":-6.2135},{"station_name":"Jatinegara","transit":false,"time":3,"distance":3395,"is_transit":false,"station_id":"JNG","line":1,"i_long":106.86807400000001,"i_lat":-6.215091},{"time":2,"station_id":"MTR","distance":1377,"i_long":106.858896,"is_transit":false,"station_name":"Matraman","line":1,"i_lat":-6.212485,"transit":false},{"station_id":"MRI","station_name":"Manggarai","time":2,"i_lat":-6.209883,"i_long":106.84912,"distance":1275,"line":2,"transit":true,"is_transit":true},{"transit":false,"i_long":106.840169,"is_transit":false,"line":2,"station_name":"Cikini","i_lat":-6.198556,"distance":1590,"station_id":"CKI","time":4},{"line":2,"is_transit":false,"station_id":"GDD","i_lat":-6.186295,"transit":false,"distance":1750,"station_name":"Gondangdia","i_long":106.832183,"time":3},{"line":2,"is_transit":false,"station_id":"JUA","i_long":106.828284,"time":4,"station_name":"Juanda","transit":false,"distance":2015,"i_lat":-6.166716},{"time":2,"station_id":"SW","is_transit":false,"station_name":"Sawah Besar","i_lat":-6.160725,"i_long":106.827103,"distance":1149,"line":2,"transit":false},{"i_lat":-6.149769,"transit":false,"time":2,"distance":906,"station_id":"MGB","station_name":"Manggabesar","i_long":106.82482,"line":2,"is_transit":false},{"transit":false,"i_lat":-6.141205,"distance":1080,"i_long":106.820901,"line":2,"station_name":"Jayakarta","is_transit":false,"time":2,"station_id":"JAY"},{"transit":true,"is_transit":true,"i_long":106.812439,"distance":1264,"i_lat":-6.137569,"line":2,"station_name":"Jakarta Kota","time":4,"station_id":"JAKK"},{"distance":1364,"i_lat":-6.132549,"station_name":"Kampung Bandan","is_transit":true,"station_id":"KPB","transit":true,"i_long":106.826365,"line":4,"time":3},{"time":9,"station_name":"Angke","i_lat":-6.144674,"distance":4102,"i_long":106.79867,"transit":false,"line":1,"station_id":"AK","is_transit":false},{"distance":1230,"i_lat":-6.155215,"is_transit":false,"station_name":"Duri","i_long":106.800832,"station_id":"DU","transit":false,"line":1,"time":4},{"is_transit":true,"i_lat":-6.185545,"transit":true,"station_id":"THB","i_long":106.811091,"line":1,"distance":3632,"station_name":"Tanah Abang","time":8},{"time":6,"transit":false,"station_name":"Palmerah","i_lat":-6.207404,"station_id":"PLM","is_transit":false,"line":6,"distance":3191,"i_long":106.79689},{"line":6,"distance":3737,"transit":false,"station_id":"KBY","i_lat":-6.237242,"is_transit":false,"station_name":"Kebayoran","time":7,"i_long":106.780334},{"distance":6218,"station_name":"Pondokranji","time":8,"is_transit":false,"station_id":"PDJ","i_long":106.74273,"i_lat":-6.276362,"transit":false,"line":6},{"i_long":106.728916,"transit":false,"time":3,"station_id":"JMU","station_name":"Jurangmangu","distance":2179,"is_transit":false,"i_lat":-6.288927,"line":6},{"station_id":"SDM","is_transit":false,"i_lat":-6.296963,"transit":false,"i_long":106.712277,"distance":1994,"station_name":"Sudimara","line":6,"time":4},{"i_long":106.675475,"line":6,"distance":4566,"i_lat":-6.314823,"station_id":"RU","is_transit":false,"time":6,"transit":false,"station_name":"Rawa Buntu"},{"transit":false,"station_name":"Serpong","is_transit":false,"distance":2413,"i_long":106.66566,"line":6,"station_id":"SRP","i_lat":-6.319871,"time":4},{"distance":1784,"is_transit":false,"i_long":106.640411,"line":3,"time":4,"transit":false,"station_name":"Cisauk","station_id":"CSK","i_lat":-6.32484},{"transit":false,"i_long":106.617853,"distance":2519,"station_name":"Cicayur","line":3,"is_transit":false,"station_id":"CC","i_lat":-6.329547,"time":4},{"distance":5968,"line":6,"transit":false,"station_id":"PRP","i_lat":-6.3441410000000005,"i_long":106.568863,"is_transit":false,"station_name":"Parung Panjang","time":8},{"i_long":106.508482,"line":3,"distance":7025,"transit":false,"time":9,"station_name":"Cilejit","is_transit":false,"station_id":"CJT","i_lat":-6.354349},{"distance":2675,"line":0,"time":6,"station_id":"DAR","station_name":"Daru","i_lat":-6.338021,"is_transit":false,"i_long":106.491338,"transit":false},{"is_transit":false,"station_id":"TEJ","transit":false,"i_long":106.460812,"station_name":"Tenjo","time":5,"line":6,"i_lat":-6.327251,"distance":3902},{"station_name":"Tigaraksa","is_transit":false,"transit":false,"distance":2974,"station_id":"TGS","i_lat":-6.328533,"i_long":106.425991,"line":6,"time":5}],[{"distance":0,"i_long":106.951283,"station_name":"Cakung","station_id":"CUK","i_lat":-6.219053,"time":0,"is_transit":false,"transit":false,"line":1},{"distance":1385,"i_lat":-6.217455,"station_name":"Klenderbaru","is_transit":false,"line":1,"transit":false,"i_long":106.939679,"time":8,"station_id":"KLDB"},{"i_long":106.922662,"line":1,"time":1,"station_id":"BUA","distance":1305,"is_transit":false,"i_lat":-6.215568,"transit":false,"station_name":"Buaran"},{"time":2,"transit":false,"station_id":"KLD","station_name":"Klender","i_long":106.899548,"is_transit":false,"i_lat":-6.2135,"distance":3100,"line":1},{"i_long":106.86807400000001,"time":3,"station_id":"JNG","i_lat":-6.215091,"transit":true,"station_name":"Jatinegara","is_transit":true,"line":1,"distance":3395},{"distance":1236,"i_lat":-6.209188,"line":11,"i_long":106.861737,"station_id":"POK","transit":false,"time":2,"station_name":"Pondok Jati","is_transit":false},{"time":2,"station_name":"Kramat","line":11,"i_lat":-6.193792,"i_long":106.855437,"is_transit":false,"distance":1829,"transit":false,"station_id":"KMT"},{"station_name":"Gang Sentiong","distance":973,"i_long":106.850107,"transit":false,"i_lat":-6.185975,"line":11,"is_transit":false,"time":1,"station_id":"GST"},{"time":8,"distance":1567,"is_transit":false,"line":11,"i_long":106.84368,"i_lat":-6.174784,"station_id":"PSE","transit":false,"station_name":"Pasar Senen"},{"transit":false,"distance":1436,"time":4,"is_transit":false,"i_long":106.839204,"station_id":"KMO","station_name":"Kemayoran","line":11,"i_lat":-6.161728},{"time":5,"station_name":"Rajawali","is_transit":false,"station_id":"RJW","distance":1901,"i_long":106.836569,"line":11,"transit":false,"i_lat":-6.14505},{"i_lat":-6.132549,"line":4,"distance":1444,"transit":true,"station_name":"Kampung Bandan","is_transit":true,"station_id":"KPB","i_long":106.826365,"time":3},{"transit":true,"is_transit":true,"station_id":"JAKK","i_lat":-6.137569,"i_long":106.812439,"line":2,"time":3,"distance":1364,"station_name":"Jakarta Kota"},{"transit":false,"is_transit":false,"station_id":"JAY","time":4,"station_name":"Jayakarta","i_lat":-6.141205,"distance":1264,"i_long":106.820901,"line":2},{"time":2,"station_id":"MGB","is_transit":false,"station_name":"Manggabesar","i_lat":-6.149769,"transit":false,"i_long":106.82482,"distance":1080,"line":2},{"time":2,"line":2,"distance":906,"station_name":"Sawah Besar","transit":false,"i_long":106.827103,"is_transit":false,"station_id":"SW","i_lat":-6.160725},{"distance":1149,"is_transit":false,"line":2,"transit":false,"i_lat":-6.166716,"time":2,"station_name":"Juanda","station_id":"JUA","i_long":106.828284},{"station_name":"Gondangdia","is_transit":false,"i_lat":-6.186295,"time":4,"station_id":"GDD","distance":2015,"i_long":106.832183,"transit":false,"line":2},{"is_transit":false,"i_lat":-6.198556,"i_long":106.840169,"time":3,"distance":1750,"transit":false,"station_id":"CKI","line":2,"station_name":"Cikini"},{"is_transit":true,"transit":true,"station_id":"MRI","i_lat":-6.209883,"station_name":"Manggarai","line":2,"time":4,"distance":1590,"i_long":106.84912},{"time":4,"i_long":106.822649,"i_lat":-6.202263,"line":1,"station_id":"SUD","is_transit":false,"distance":3186,"transit":false,"station_name":"Sudirman"},{"line":1,"transit":false,"is_transit":false,"distance":280,"time":1,"i_long":106.819881,"station_id":"SUDB","station_name":"Sudirman Baru","i_lat":-6.201433},{"i_lat":-6.20132,"station_name":"Karet","station_id":"KAT","distance":471,"transit":false,"time":1,"i_long":106.816351,"line":1,"is_transit":false},{"i_lat":-6.185545,"line":1,"station_id":"THB","transit":true,"is_transit":true,"i_long":106.811091,"distance":2029,"station_name":"Tanah Abang","time":5},{"line":6,"station_id":"PLM","i_lat":-6.207404,"distance":3191,"station_name":"Palmerah","is_transit":false,"time":6,"transit":false,"i_long":106.79689},{"line":6,"station_id":"KBY","time":7,"i_long":106.780334,"i_lat":-6.237242,"is_transit":false,"distance":3737,"station_name":"Kebayoran","transit":false},{"is_transit":false,"i_long":106.74273,"line":6,"transit":false,"distance":6218,"time":8,"i_lat":-6.276362,"station_id":"PDJ","station_name":"Pondokranji"},{"time":3,"station_name":"Jurangmangu","station_id":"JMU","i_long":106.728916,"transit":false,"line":6,"i_lat":-6.288927,"distance":2179,"is_transit":false},{"is_transit":false,"i_long":106.712277,"station_name":"Sudimara","time":4,"distance":1994,"station_id":"SDM","i_lat":-6.296963,"transit":false,"line":6},{"i_lat":-6.314823,"station_name":"Rawa Buntu","is_transit":false,"i_long":106.675475,"time":6,"line":6,"station_id":"RU","transit":false,"distance":4566},{"i_lat":-6.319871,"station_name":"Serpong","line":6,"time":4,"distance":2413,"transit":false,"station_id":"SRP","i_long":106.66566,"is_transit":false},{"time":4,"distance":1784,"station_name":"Cisauk","i_lat":-6.32484,"line":3,"station_id":"CSK","i_long":106.640411,"transit":false,"is_transit":false},{"i_long":106.617853,"distance":2519,"transit":false,"station_name":"Cicayur","time":4,"line":3,"is_transit":false,"station_id":"CC","i_lat":-6.329547},{"distance":5968,"time":8,"i_lat":-6.3441410000000005,"is_transit":false,"i_long":106.568863,"station_id":"PRP","station_name":"Parung Panjang","transit":false,"line":6},{"i_lat":-6.354349,"line":3,"station_id":"CJT","station_name":"Cilejit","distance":7025,"is_transit":false,"time":9,"transit":false,"i_long":106.508482},{"i_lat":-6.338021,"i_long":106.491338,"distance":2675,"station_id":"DAR","line":0,"station_name":"Daru","is_transit":false,"transit":false,"time":6},{"time":5,"transit":false,"distance":3902,"is_transit":false,"station_id":"TEJ","station_name":"Tenjo","line":6,"i_lat":-6.327251,"i_long":106.460812},{"station_name":"Tigaraksa","i_lat":-6.328533,"distance":2974,"is_transit":false,"time":5,"station_id":"TGS","i_long":106.425991,"transit":false,"line":6}]]}