{"data":[[{"station_name":"Cakung","station_id":"CUK","is_transit":false,"transit":false,"distance":0,"i_lat":-6.219053,"line":1,"time":0,"i_long":106.951283},{"is_transit":false,"transit":false,"station_id":"KLDB","distance":1385,"i_long":106.939679,"line":1,"i_lat":-6.217455,"time":8,"station_name":"Klenderbaru"},{"line":1,"time":1,"transit":false,"i_long":106.922662,"station_name":"Buaran","distance":1305,"station_id":"BUA","i_lat":-6.215568,"is_transit":false},{"line":1,"station_id":"KLD","station_name":"Klender","distance":3100,"time":2,"is_transit":false,"transit":false,"i_lat":-6.2135,"i_long":106.899548},{"distance":3395,"i_long":106.86807400000001,"transit":false,"i_lat":-6.215091,"time":3,"is_transit":false,"station_id":"JNG","station_name":"Jatinegara","line":1},{"is_transit":false,"time":2,"station_id":"MTR","station_name":"Matraman","i_lat":-6.212485,"i_long":106.858896,"distance":1377,"line":1,"transit":false},{"distance":1275,"time":2,"station_id":"MRI","station_name":"Manggarai","transit":true,"is_transit":true,"i_long":106.84912,"i_lat":-6.209883,"line":2},{"distance":1590,"station_id":"CKI","station_name":"Cikini","is_transit":false,"i_lat":-6.198556,"i_long":106.840169,"line":2,"time":4,"transit":false},{"line":2,"is_transit":false,"distance":1750,"station_id":"GDD","station_name":"Gondangdia","transit":false,"i_lat":-6.186295,"time":3,"i_long":106.832183}],[{"time":0,"station_name":"Cakung","distance":0,"i_lat":-6.219053,"station_id":"CUK","line":1,"transit":false,"i_long":106.951283,"is_transit":false},{"station_name":"Klenderbaru","distance":1385,"i_long":106.939679,"time":8,"is_transit":false,"i_lat":-6.217455,"line":1,"station_id":"KLDB","transit":false},{"transit":false,"station_name":"Buaran","is_transit":false,"i_lat":-6.215568,"time":1,"i_long":106.922662,"line":1,"distance":1305,"station_id":"BUA"},{"distance":3100,"transit":false,"station_id":"KLD","is_transit":false,"i_lat":-6.2135,"line":1,"i_long":106.899548,"time":2,"station_name":"Klender"},{"i_lat":-6.215091,"transit":true,"is_transit":true,"distance":3395,"station_id":"JNG","station_name":"Jatinegara","line":1,"i_long":106.86807400000001,"time":3},{"distance":1236,"is_transit":false,"station_name":"Pondok Jati","line":11,"i_lat":-6.209188,"time":2,"transit":false,"i_long":106.861737,"station_id":"POK"},{"time":2,"station_id":"KMT","is_transit":false,"i_lat":-6.193792,"distance":1829,"i_long":106.855437,"transit":false,"station_name":"Kramat","line":11},{"station_id":"GST","station_name":"Gang Sentiong","is_transit":false,"transit":false,"i_lat":-6.185975,"i_long":106.850107,"time":1,"distance":973,"line":11},{"time":8,"transit":false,"station_name":"Pasar Senen","is_transit":false,"station_id":"PSE","i_long":106.84368,"line":11,"distance":1567,"i_lat":-6.174784},{"station_name":"Kemayoran","i_lat":-6.161728,"line":11,"transit":false,"is_transit":false,"time":4,"i_long":106.839204,"distance":1436,"station_id":"KMO"},{"line":11,"transit":false,"time":5,"distance":1901,"station_name":"Rajawali","is_transit":false,"i_long":106.836569,"station_id":"RJW","i_lat":-6.14505},{"time":3,"transit":true,"i_long":106.826365,"is_transit":true,"station_id":"KPB","line":4,"station_name":"Kampung Bandan","distance":1444,"i_lat":-6.132549},{"i_long":106.812439,"station_name":"Jakarta Kota","is_transit":true,"station_id":"JAKK","distance":1364,"i_lat":-6.137569,"time":3,"line":2,"transit":true},{"is_transit":false,"i_long":106.820901,"line":2,"distance":1264,"time":4,"station_name":"Jayakarta","station_id":"JAY","transit":false,"i_lat":-6.141205},{"i_long":106.82482,"transit":false,"i_lat":-6.149769,"station_id":"MGB","is_transit":false,"distance":1080,"station_name":"Manggabesar","time":2,"line":2},{"transit":false,"i_long":106.827103,"station_id":"SW","distance":906,"i_lat":-6.160725,"line":2,"time":2,"station_name":"Sawah Besar","is_transit":false},{"transit":false,"line":2,"station_name":"Juanda","i_long":106.828284,"is_transit":false,"time":2,"distance":1149,"station_id":"JUA","i_lat":-6.166716},{"i_long":106.832183,"transit":false,"i_lat":-6.186295,"distance":2015,"line":2,"station_id":"GDD","station_name":"Gondangdia","time":4,"is_transit":false}],[{"line":1,"i_lat":-6.219053,"station_id":"CUK","i_long":106.951283,"station_name":"Cakung","distance":0,"time":0,"is_transit":false,"transit":false},{"station_id":"KLDB","station_name":"Klenderbaru","i_lat":-6.217455,"line":1,"i_long":106.939679,"time":8,"transit":false,"is_transit":false,"distance":1385},{"i_lat":-6.215568,"is_transit":false,"station_name":"Buaran","line":1,"time":1,"transit":false,"distance":1305,"station_id":"BUA","i_long":106.922662},{"is_transit":false,"time":2,"transit":false,"line":1,"station_name":"Klender","station_id":"KLD","distance":3100,"i_lat":-6.2135,"i_long":106.899548},{"distance":3395,"i_long":106.86807400000001,"i_lat":-6.215091,"transit":false,"line":1,"time":3,"station_name":"Jatinegara","is_transit":false,"station_id":"JNG"},{"transit":false,"station_name":"Matraman","time":2,"is_transit":false,"line":1,"station_id":"MTR","i_long":106.858896,"distance":1377,"i_lat":-6.212485},{"station_name":"Manggarai","line":2,"time":2,"station_id":"MRI","distance":1275,"transit":false,"i_lat":-6.209883,"is_transit":false,"i_long":106.84912},{"transit":false,"station_id":"SUD","station_name":"Sudirman","time":4,"distance":3186,"i_lat":-6.202263,"is_transit":false,"line":1,"i_long":106.822649},{"i_lat":-6.201433,"distance":280,"station_name":"Sudirman Baru","is_transit":false,"line":1,"time":1,"i_long":106.819881,"transit":false,"station_id":"SUDB"},{"line":1,"station_name":"Karet","is_transit":false,"i_long":106.816351,"station_id":"KAT","time":1,"transit":false,"distance":471,"i_lat":-6.20132},{"i_long":106.811091,"distance":2029,"time":5,"transit":false,"station_name":"Tanah Abang","i_lat":-6.185545,"line":1,"station_id":"THB","is_transit":false},{"station_name":"Duri","is_transit":false,"transit":false,"i_long":106.800832,"line":1,"time":8,"distance":3632,"station_id":"DU","i_lat":-6.155215},{"is_transit":false,"transit":false,"i_lat":-6.144674,"line":1,"station_name":"Angke","time":4,"station_id":"AK","i_long":106.79867,"distance":1230},{"is_transit":true,"station_id":"KPB","transit":true,"i_lat":-6.132549,"line":4,"distance":4102,"time":9,"i_long":106.826365,"station_name":"Kampung Bandan"},{"distance":1364,"station_id":"JAKK","time":3,"is_transit":true,"i_long":106.812439,"line":2,"i_lat":-6.137569,"transit":true,"station_name":"Jakarta Kota"},{"i_long":106.820901,"time":4,"line":2,"station_name":"Jayakarta","distance":1264,"transit":false,"is_transit":false,"i_lat":-6.141205,"station_id":"JAY"},{"station_name":"Manggabesar","station_id":"MGB","transit":false,"distance":1080,"i_long":106.82482,"i_lat":-6.149769,"is_transit":false,"line":2,"time":2},{"line":2,"is_transit":false,"station_id":"SW","time":2,"i_lat":-6.160725,"station_name":"Sawah Besar","distance":906,"transit":false,"i_long":106.827103},{"is_transit":false,"line":2,"transit":false,"time":2,"distance":1149,"i_lat":-6.166716,"station_name":"Juanda","i_long":106.828284,"station_id":"JUA"},{"station_name":"Gondangdia","time":4,"distance":2015,"i_long":106.832183,"transit":false,"line":2,"i_lat":-6.186295,"station_id":"GDD","is_transit":false}],[{"station_id":"CUK","station_name":"Cakung","time":0,"transit":false,"is_transit":false,"i_long":106.951283,"line":1,"i_lat":-6.219053,"distance":0},{"time":8,"transit":false,"i_long":106.939679,"line":1,"station_name":"Klenderbaru","is_transit":false,"i_lat":-6.217455,"distance":1385,"station_id":"KLDB"},{"station_id":"BUA","station_name":"Buaran","line":1,"transit":false,"is_transit":false,"distance":1305,"i_lat":-6.215568,"time":1,"i_long":106.922662},{"line":1,"distance":3100,"i_long":106.899548,"is_transit":false,"i_lat":-6.2135,"station_id":"KLD","time":2,"transit":false,"station_name":"Klender"},{"i_lat":-6.215091,"is_transit":true,"transit":true,"i_long":106.86807400000001,"time":3,"distance":3395,"line":1,"station_id":"JNG","station_name":"Jatinegara"},{"station_name":"Pondok Jati","distance":1236,"transit":false,"i_long":106.861737,"i_lat":-6.209188,"station_id":"POK","line":11,"time":2,"is_transit":false},{"is_transit":false,"station_id":"KMT","time":2,"transit":false,"line":11,"distance":1829,"station_name":"Kramat","i_lat":-6.193792,"i_long":106.855437},{"station_name":"Gang Sentiong","distance":973,"i_lat":-6.185975,"station_id":"GST","i_long":106.850107,"line":11,"time":1,"is_transit":false,"transit":false},{"i_long":106.84368,"station_id":"PSE","transit":false,"time":8,"is_transit":false,"distance":1567,"i_lat":-6.174784,"station_name":"Pasar Senen","line":11},{"time":4,"i_lat":-6.161728,"line":11,"station_name":"Kemayoran","distance":1436,"is_transit":false,"station_id":"KMO","i_long":106.839204,"transit":false},{"i_long":106.836569,"transit":false,"distance":1901,"i_lat":-6.14505,"station_id":"RJW","time":5,"station_name":"Rajawali","line":11,"is_transit":false},{"station_name":"Kampung Bandan","distance":1444,"time":3,"transit":true,"i_long":106.826365,"line":4,"station_id":"KPB","is_transit":true,"i_lat":-6.132549},{"i_long":106.79867,"distance":4102,"line":1,"transit":false,"time":9,"is_transit":false,"station_id":"AK","i_lat":-6.144674,"station_name":"Angke"},{"station_id":"DU","transit":false,"time":4,"distance":1230,"i_long":106.800832,"line":1,"station_name":"Duri","i_lat":-6.155215,"is_transit":false},{"distance":3632,"station_id":"THB","station_name":"Tanah Abang","i_long":106.811091,"is_transit":false,"i_lat":-6.185545,"transit":false,"time":8,"line":1},{"distance":2029,"i_lat":-6.20132,"time":5,"is_transit":false,"station_name":"Karet","transit":false,"station_id":"KAT","i_long":106.816351,"line":1},{"line":1,"station_name":"Sudirman Baru","i_long":106.819881,"distance":471,"i_lat":-6.201433,"is_transit":false,"station_id":"SUDB","time":1,"transit":false},{"distance":280,"i_long":106.822649,"time":1,"station_id":"SUD","is_transit":false,"transit":false,"station_name":"Sudirman","i_lat":-6.202263,"line":1},{"time":4,"is_transit":true,"station_name":"Manggarai","i_lat":-6.209883,"station_id":"MRI","distance":3186,"i_long":106.84912,"transit":true,"line":2},{"i_lat":-6.198556,"time":4,"i_long":106.840169,"station_id":"CKI","distance":1590,"station_name":"Cikini","is_transit":false,"line":2,"transit":false},{"line":2,"station_id":"GDD","i_lat":-6.186295,"transit":false,"station_name":"Gondangdia","distance":1750,"i_long":106.832183,"is_transit":false,"time":3}]]}