{"data":[[{"distance":0,"time":0,"i_long":106.951283,"station_name":"Cakung","line":1,"i_lat":-6.219053,"is_transit":false,"station_id":"CUK","transit":false},{"transit":false,"line":1,"station_name":"Kranji","distance":3097,"station_id":"KRI","i_long":106.977657,"is_transit":false,"time":3,"i_lat":-6.224515},{"station_id":"BKS","i_long":106.997013,"transit":false,"is_transit":false,"line":1,"station_name":"Bekasi","time":4,"distance":2520,"i_lat":-6.236616},{"i_long":107.016735,"station_name":"Bekasi Timur","is_transit":false,"transit":false,"line":1,"station_id":"BKST","distance":2368,"time":2,"i_lat":-6.248029},{"i_lat":-6.258864,"time":7,"station_name":"Tambun","line":1,"station_id":"TB","distance":4460,"transit":false,"i_long":107.055722,"is_transit":false},{"time":3,"i_long":107.083084,"transit":false,"station_name":"Cibitung","station_id":"CIT","distance":3420,"line":1,"is_transit":false,"i_lat":-6.261877}]]}