{"data":[[{"station_name":"Cakung","is_transit":false,"line":1,"station_id":"CUK","i_long":106.951283,"i_lat":-6.219053,"time":0,"distance":0,"transit":false},{"line":1,"station_name":"Klenderbaru","i_lat":-6.217455,"station_id":"KLDB","transit":false,"distance":1385,"i_long":106.939679,"time":8,"is_transit":false},{"time":1,"distance":1305,"station_id":"BUA","i_long":106.922662,"transit":false,"station_name":"Buaran","is_transit":false,"line":1,"i_lat":-6.215568},{"time":2,"station_id":"KLD","transit":false,"i_long":106.899548,"i_lat":-6.2135,"line":1,"station_name":"Klender","distance":3100,"is_transit":false},{"station_name":"Jatinegara","is_transit":false,"time":3,"i_lat":-6.215091,"distance":3395,"station_id":"JNG","i_long":106.86807400000001,"transit":false,"line":1},{"distance":1377,"station_name":"Matraman","i_lat":-6.212485,"time":2,"i_long":106.858896,"line":1,"station_id":"MTR","is_transit":false,"transit":false},{"line":2,"time":2,"distance":1275,"station_id":"MRI","is_transit":false,"i_long":106.84912,"transit":false,"station_name":"Manggarai","i_lat":-6.209883},{"station_id":"SUD","is_transit":false,"i_long":106.822649,"station_name":"Sudirman","i_lat":-6.202263,"transit":false,"line":1,"distance":3186,"time":4},{"i_lat":-6.201433,"distance":280,"station_id":"SUDB","transit":false,"line":1,"i_long":106.819881,"is_transit":false,"station_name":"Sudirman Baru","time":1},{"i_lat":-6.20132,"distance":471,"is_transit":false,"station_id":"KAT","i_long":106.816351,"transit":false,"line":1,"time":1,"station_name":"Karet"},{"station_id":"THB","transit":false,"i_long":106.811091,"distance":2029,"line":1,"time":5,"station_name":"Tanah Abang","is_transit":false,"i_lat":-6.185545},{"time":8,"is_transit":true,"station_name":"Duri","station_id":"DU","distance":3632,"transit":true,"line":1,"i_lat":-6.155215,"i_long":106.800832},{"i_lat":-6.162021,"distance":1700,"line":5,"station_name":"Grogol","is_transit":false,"station_id":"GGL","transit":false,"i_long":106.788277,"time":3},{"transit":false,"station_id":"PSG","station_name":"Pesing","is_transit":false,"time":2,"distance":2036,"i_long":106.771379,"i_lat":-6.161433,"line":5},{"time":2,"station_name":"Taman Kota","distance":1614,"transit":false,"station_id":"TKO","is_transit":false,"i_long":106.756522,"line":5,"i_lat":-6.1587309999999995},{"transit":false,"i_long":106.737035,"station_id":"BOI","distance":2334,"station_name":"Bojongindah","time":2,"line":5,"is_transit":false,"i_lat":-6.159876},{"distance":1152,"i_lat":-6.162758,"i_long":106.723064,"station_id":"RW","transit":false,"is_transit":false,"line":5,"time":4,"station_name":"Rawa Buaya"},{"line":5,"station_name":"Kalideres","is_transit":false,"time":3,"transit":false,"i_lat":-6.166068,"distance":2504,"i_long":106.701612,"station_id":"KDS"},{"time":3,"i_lat":-6.169933,"station_name":"Poris","station_id":"PI","transit":false,"is_transit":false,"distance":2548,"i_long":106.679458,"line":5}],[{"is_transit":false,"station_name":"Cakung","line":1,"transit":false,"time":0,"distance":0,"station_id":"CUK","i_long":106.951283,"i_lat":-6.219053},{"time":8,"station_id":"KLDB","transit":false,"i_long":106.939679,"line":1,"distance":1385,"is_transit":false,"i_lat":-6.217455,"station_name":"Klenderbaru"},{"is_transit":false,"time":1,"transit":false,"i_lat":-6.215568,"station_name":"Buaran","distance":1305,"line":1,"i_long":106.922662,"station_id":"BUA"},{"time":2,"i_long":106.899548,"distance":3100,"station_name":"Klender","station_id":"KLD","is_transit":false,"i_lat":-6.2135,"transit":false,"line":1},{"station_id":"JNG","transit":true,"is_transit":true,"station_name":"Jatinegara","i_long":106.86807400000001,"line":1,"distance":3395,"i_lat":-6.215091,"time":3},{"station_name":"Pondok Jati","i_lat":-6.209188,"i_long":106.861737,"line":11,"transit":false,"distance":1236,"is_transit":false,"station_id":"POK","time":2},{"time":2,"i_lat":-6.193792,"distance":1829,"station_name":"Kramat","i_long":106.855437,"station_id":"KMT","transit":false,"line":11,"is_transit":false},{"is_transit":false,"time":1,"transit":false,"distance":973,"i_lat":-6.185975,"station_id":"GST","station_name":"Gang Sentiong","line":11,"i_long":106.850107},{"distance":1567,"station_id":"PSE","i_long":106.84368,"is_transit":false,"line":11,"station_name":"Pasar Senen","i_lat":-6.174784,"time":8,"transit":false},{"distance":1436,"time":4,"station_id":"KMO","i_long":106.839204,"line":11,"transit":false,"is_transit":false,"i_lat":-6.161728,"station_name":"Kemayoran"},{"i_long":106.836569,"time":5,"i_lat":-6.14505,"line":11,"is_transit":false,"distance":1901,"station_id":"RJW","station_name":"Rajawali","transit":false},{"distance":1444,"time":3,"i_lat":-6.132549,"is_transit":true,"station_id":"KPB","transit":true,"line":4,"i_long":106.826365,"station_name":"Kampung Bandan"},{"station_name":"Angke","station_id":"AK","i_lat":-6.144674,"transit":false,"time":9,"distance":4102,"is_transit":false,"line":1,"i_long":106.79867},{"i_long":106.800832,"distance":1230,"transit":true,"station_id":"DU","station_name":"Duri","line":1,"is_transit":true,"i_lat":-6.155215,"time":4},{"i_lat":-6.162021,"station_id":"GGL","i_long":106.788277,"distance":1700,"is_transit":false,"line":5,"transit":false,"time":3,"station_name":"Grogol"},{"time":2,"i_lat":-6.161433,"distance":2036,"line":5,"i_long":106.771379,"is_transit":false,"station_name":"Pesing","transit":false,"station_id":"PSG"},{"station_name":"Taman Kota","i_lat":-6.1587309999999995,"i_long":106.756522,"line":5,"transit":false,"is_transit":false,"time":2,"distance":1614,"station_id":"TKO"},{"distance":2334,"is_transit":false,"i_lat":-6.159876,"station_id":"BOI","line":5,"transit":false,"station_name":"Bojongindah","time":2,"i_long":106.737035},{"i_lat":-6.162758,"station_id":"RW","transit":false,"distance":1152,"line":5,"i_long":106.723064,"time":4,"is_transit":false,"station_name":"Rawa Buaya"},{"station_name":"Kalideres","time":3,"is_transit":false,"i_lat":-6.166068,"distance":2504,"station_id":"KDS","i_long":106.701612,"line":5,"transit":false},{"station_name":"Poris","is_transit":false,"station_id":"PI","i_long":106.679458,"i_lat":-6.169933,"transit":false,"line":5,"time":3,"distance":2548}],[{"station_id":"CUK","transit":false,"station_name":"Cakung","is_transit":false,"i_lat":-6.219053,"line":1,"time":0,"distance":0,"i_long":106.951283},{"is_transit":false,"distance":1385,"time":8,"transit":false,"station_id":"KLDB","station_name":"Klenderbaru","i_lat":-6.217455,"i_long":106.939679,"line":1},{"transit":false,"station_name":"Buaran","i_long":106.922662,"station_id":"BUA","line":1,"distance":1305,"time":1,"is_transit":false,"i_lat":-6.215568},{"transit":false,"station_id":"KLD","station_name":"Klender","is_transit":false,"i_lat":-6.2135,"time":2,"distance":3100,"line":1,"i_long":106.899548},{"is_transit":false,"time":3,"distance":3395,"transit":false,"line":1,"i_long":106.86807400000001,"station_id":"JNG","i_lat":-6.215091,"station_name":"Jatinegara"},{"i_long":106.858896,"transit":false,"i_lat":-6.212485,"station_id":"MTR","time":2,"distance":1377,"is_transit":false,"station_name":"Matraman","line":1},{"distance":1275,"i_long":106.84912,"time":2,"is_transit":true,"station_id":"MRI","station_name":"Manggarai","line":2,"i_lat":-6.209883,"transit":true},{"is_transit":false,"transit":false,"station_id":"CKI","i_long":106.840169,"station_name":"Cikini","i_lat":-6.198556,"line":2,"distance":1590,"time":4},{"distance":1750,"station_name":"Gondangdia","time":3,"is_transit":false,"i_long":106.832183,"i_lat":-6.186295,"transit":false,"line":2,"station_id":"GDD"},{"is_transit":false,"i_lat":-6.166716,"transit":false,"i_long":106.828284,"station_id":"JUA","distance":2015,"station_name":"Juanda","time":4,"line":2},{"distance":1149,"station_name":"Sawah Besar","is_transit":false,"station_id":"SW","transit":false,"i_long":106.827103,"time":2,"i_lat":-6.160725,"line":2},{"station_id":"MGB","transit":false,"station_name":"Manggabesar","distance":906,"i_lat":-6.149769,"i_long":106.82482,"time":2,"line":2,"is_transit":false},{"distance":1080,"transit":false,"time":2,"i_lat":-6.141205,"i_long":106.820901,"station_name":"Jayakarta","is_transit":false,"station_id":"JAY","line":2},{"i_long":106.812439,"station_name":"Jakarta Kota","time":4,"transit":true,"i_lat":-6.137569,"distance":1264,"station_id":"JAKK","line":2,"is_transit":true},{"i_lat":-6.132549,"station_name":"Kampung Bandan","line":4,"distance":1364,"is_transit":true,"time":3,"transit":true,"station_id":"KPB","i_long":106.826365},{"time":9,"line":1,"i_long":106.79867,"is_transit":false,"distance":4102,"transit":false,"station_name":"Angke","station_id":"AK","i_lat":-6.144674},{"time":4,"i_lat":-6.155215,"transit":true,"i_long":106.800832,"station_name":"Duri","line":1,"distance":1230,"is_transit":true,"station_id":"DU"},{"time":3,"line":5,"i_lat":-6.162021,"transit":false,"is_transit":false,"i_long":106.788277,"station_name":"Grogol","station_id":"GGL","distance":1700},{"time":2,"line":5,"i_long":106.771379,"station_id":"PSG","i_lat":-6.161433,"distance":2036,"station_name":"Pesing","is_transit":false,"transit":false},{"line":5,"time":2,"i_long":106.756522,"station_id":"TKO","transit":false,"distance":1614,"station_name":"Taman Kota","is_transit":false,"i_lat":-6.1587309999999995},{"transit":false,"i_long":106.737035,"line":5,"time":2,"station_id":"BOI","station_name":"Bojongindah","is_transit":false,"distance":2334,"i_lat":-6.159876},{"i_lat":-6.162758,"time":4,"i_long":106.723064,"distance":1152,"line":5,"station_id":"RW","is_transit":false,"station_name":"Rawa Buaya","transit":false},{"transit":false,"distance":2504,"is_transit":false,"station_id":"KDS","i_lat":-6.166068,"line":5,"time":3,"i_long":106.701612,"station_name":"Kalideres"},{"line":5,"distance":2548,"station_id":"PI","time":3,"i_lat":-6.169933,"is_transit":false,"transit":false,"station_name":"Poris","i_long":106.679458}],[{"i_lat":-6.219053,"is_transit":false,"time":0,"distance":0,"line":1,"station_name":"Cakung","transit":false,"i_long":106.951283,"station_id":"CUK"},{"station_id":"KLDB","time":8,"i_lat":-6.217455,"station_name":"Klenderbaru","line":1,"distance":1385,"i_long":106.939679,"transit":false,"is_transit":false},{"is_transit":false,"station_id":"BUA","distance":1305,"transit":false,"i_lat":-6.215568,"i_long":106.922662,"time":1,"station_name":"Buaran","line":1},{"transit":false,"distance":3100,"station_name":"Klender","line":1,"is_transit":false,"station_id":"KLD","time":2,"i_lat":-6.2135,"i_long":106.899548},{"station_name":"Jatinegara","i_lat":-6.215091,"time":3,"distance":3395,"station_id":"JNG","transit":true,"is_transit":true,"i_long":106.86807400000001,"line":1},{"is_transit":false,"transit":false,"i_lat":-6.209188,"station_id":"POK","station_name":"Pondok Jati","distance":1236,"time":2,"i_long":106.861737,"line":11},{"i_lat":-6.193792,"station_id":"KMT","time":2,"i_long":106.855437,"line":11,"is_transit":false,"distance":1829,"station_name":"Kramat","transit":false},{"is_transit":false,"i_lat":-6.185975,"i_long":106.850107,"distance":973,"station_id":"GST","transit":false,"time":1,"station_name":"Gang Sentiong","line":11},{"i_lat":-6.174784,"i_long":106.84368,"station_id":"PSE","station_name":"Pasar Senen","line":11,"distance":1567,"is_transit":false,"time":8,"transit":false},{"station_id":"KMO","time":4,"distance":1436,"transit":false,"is_transit":false,"line":11,"station_name":"Kemayoran","i_lat":-6.161728,"i_long":106.839204},{"is_transit":false,"i_lat":-6.14505,"station_id":"RJW","station_name":"Rajawali","line":11,"transit":false,"distance":1901,"i_long":106.836569,"time":5},{"transit":true,"station_name":"Kampung Bandan","i_lat":-6.132549,"i_long":106.826365,"line":4,"is_transit":true,"distance":1444,"time":3,"station_id":"KPB"},{"i_lat":-6.137569,"transit":true,"station_name":"Jakarta Kota","i_long":106.812439,"time":3,"line":2,"station_id":"JAKK","is_transit":true,"distance":1364},{"station_name":"Jayakarta","station_id":"JAY","distance":1264,"i_lat":-6.141205,"i_long":106.820901,"transit":false,"time":4,"is_transit":false,"line":2},{"transit":false,"time":2,"i_lat":-6.149769,"distance":1080,"is_transit":false,"i_long":106.82482,"station_name":"Manggabesar","line":2,"station_id":"MGB"},{"transit":false,"line":2,"distance":906,"i_lat":-6.160725,"station_name":"Sawah Besar","is_transit":false,"station_id":"SW","i_long":106.827103,"time":2},{"station_name":"Juanda","transit":false,"is_transit":false,"time":2,"i_lat":-6.166716,"station_id":"JUA","i_long":106.828284,"distance":1149,"line":2},{"line":2,"is_transit":false,"transit":false,"station_name":"Gondangdia","i_long":106.832183,"time":4,"i_lat":-6.186295,"distance":2015,"station_id":"GDD"},{"i_long":106.840169,"distance":1750,"station_name":"Cikini","station_id":"CKI","line":2,"is_transit":false,"time":3,"transit":false,"i_lat":-6.198556},{"line":2,"station_name":"Manggarai","is_transit":true,"i_long":106.84912,"time":4,"transit":true,"distance":1590,"station_id":"MRI","i_lat":-6.209883},{"distance":3186,"i_long":106.822649,"time":4,"station_name":"Sudirman","line":1,"transit":false,"station_id":"SUD","is_transit":false,"i_lat":-6.202263},{"transit":false,"i_long":106.819881,"distance":280,"station_name":"Sudirman Baru","station_id":"SUDB","is_transit":false,"time":1,"i_lat":-6.201433,"line":1},{"distance":471,"time":1,"is_transit":false,"i_long":106.816351,"station_id":"KAT","i_lat":-6.20132,"transit":false,"station_name":"Karet","line":1},{"line":1,"i_lat":-6.185545,"time":5,"i_long":106.811091,"station_id":"THB","is_transit":false,"transit":false,"distance":2029,"station_name":"Tanah Abang"},{"distance":3632,"station_id":"DU","transit":true,"i_lat":-6.155215,"time":8,"station_name":"Duri","line":1,"is_transit":true,"i_long":106.800832},{"is_transit":false,"time":3,"i_long":106.788277,"line":5,"distance":1700,"i_lat":-6.162021,"transit":false,"station_name":"Grogol","station_id":"GGL"},{"line":5,"station_id":"PSG","time":2,"is_transit":false,"i_lat":-6.161433,"transit":false,"station_name":"Pesing","i_long":106.771379,"distance":2036},{"i_lat":-6.1587309999999995,"is_transit":false,"time":2,"distance":1614,"transit":false,"station_id":"TKO","i_long":106.756522,"line":5,"station_name":"Taman Kota"},{"transit":false,"station_name":"Bojongindah","time":2,"distance":2334,"i_lat":-6.159876,"station_id":"BOI","i_long":106.737035,"line":5,"is_transit":false},{"line":5,"time":4,"transit":false,"distance":1152,"i_long":106.723064,"i_lat":-6.162758,"station_name":"Rawa Buaya","is_transit":false,"station_id":"RW"},{"station_id":"KDS","transit":false,"station_name":"Kalideres","is_transit":false,"i_long":106.701612,"distance":2504,"line":5,"i_lat":-6.166068,"time":3},{"station_id":"PI","distance":2548,"time":3,"transit":false,"is_transit":false,"station_name":"Poris","i_lat":-6.169933,"i_long":106.679458,"line":5}]]}