{"data":[[{"is_transit":false,"station_name":"Cakung","line":1,"time":0,"station_id":"CUK","transit":false,"i_lat":-6.219053,"i_long":106.951283,"distance":0},{"station_id":"KLDB","i_long":106.939679,"line":1,"station_name":"Klenderbaru","i_lat":-6.217455,"distance":1385,"is_transit":false,"time":8,"transit":false},{"time":1,"transit":false,"station_name":"Buaran","i_long":106.922662,"i_lat":-6.215568,"distance":1305,"station_id":"BUA","line":1,"is_transit":false},{"time":2,"distance":3100,"station_id":"KLD","station_name":"Klender","i_lat":-6.2135,"line":1,"is_transit":false,"i_long":106.899548,"transit":false},{"is_transit":true,"station_name":"Jatinegara","distance":3395,"transit":true,"line":1,"time":3,"i_lat":-6.215091,"station_id":"JNG","i_long":106.86807400000001},{"line":11,"i_long":106.861737,"station_name":"Pondok Jati","time":2,"is_transit":false,"transit":false,"distance":1236,"i_lat":-6.209188,"station_id":"POK"},{"time":2,"station_name":"Kramat","station_id":"KMT","i_lat":-6.193792,"distance":1829,"i_long":106.855437,"transit":false,"line":11,"is_transit":false},{"i_long":106.850107,"distance":973,"i_lat":-6.185975,"station_id":"GST","time":1,"line":11,"station_name":"Gang Sentiong","is_transit":false,"transit":false},{"i_lat":-6.174784,"station_id":"PSE","station_name":"Pasar Senen","time":8,"is_transit":false,"line":11,"distance":1567,"i_long":106.84368,"transit":false}],[{"line":1,"i_lat":-6.219053,"station_id":"CUK","transit":false,"time":0,"i_long":106.951283,"station_name":"Cakung","distance":0,"is_transit":false},{"distance":1385,"is_transit":false,"i_lat":-6.217455,"station_id":"KLDB","line":1,"transit":false,"station_name":"Klenderbaru","time":8,"i_long":106.939679},{"transit":false,"distance":1305,"time":1,"is_transit":false,"station_id":"BUA","i_long":106.922662,"i_lat":-6.215568,"station_name":"Buaran","line":1},{"i_lat":-6.2135,"line":1,"is_transit":false,"i_long":106.899548,"station_name":"Klender","time":2,"station_id":"KLD","distance":3100,"transit":false},{"station_id":"JNG","time":3,"transit":false,"i_lat":-6.215091,"is_transit":false,"i_long":106.86807400000001,"line":1,"distance":3395,"station_name":"Jatinegara"},{"i_lat":-6.212485,"distance":1377,"station_name":"Matraman","line":1,"is_transit":false,"time":2,"i_long":106.858896,"station_id":"MTR","transit":false},{"i_long":106.84912,"station_id":"MRI","is_transit":false,"distance":1275,"station_name":"Manggarai","transit":false,"line":2,"i_lat":-6.209883,"time":2},{"i_lat":-6.202263,"station_id":"SUD","station_name":"Sudirman","time":4,"distance":3186,"transit":false,"i_long":106.822649,"line":1,"is_transit":false},{"is_transit":false,"line":1,"i_long":106.819881,"i_lat":-6.201433,"distance":280,"station_name":"Sudirman Baru","time":1,"transit":false,"station_id":"SUDB"},{"distance":471,"transit":false,"i_lat":-6.20132,"line":1,"time":1,"station_id":"KAT","station_name":"Karet","is_transit":false,"i_long":106.816351},{"distance":2029,"time":5,"is_transit":false,"line":1,"i_lat":-6.185545,"station_id":"THB","station_name":"Tanah Abang","transit":false,"i_long":106.811091},{"is_transit":false,"line":1,"station_id":"DU","time":8,"distance":3632,"station_name":"Duri","i_long":106.800832,"transit":false,"i_lat":-6.155215},{"i_long":106.79867,"i_lat":-6.144674,"transit":false,"time":4,"is_transit":false,"distance":1230,"line":1,"station_id":"AK","station_name":"Angke"},{"distance":4102,"time":9,"i_long":106.826365,"station_id":"KPB","is_transit":true,"station_name":"Kampung Bandan","i_lat":-6.132549,"line":4,"transit":true},{"i_long":106.836569,"line":11,"time":3,"i_lat":-6.14505,"is_transit":false,"distance":1444,"station_id":"RJW","station_name":"Rajawali","transit":false},{"station_id":"KMO","i_long":106.839204,"distance":1901,"station_name":"Kemayoran","i_lat":-6.161728,"line":11,"transit":false,"time":5,"is_transit":false},{"time":4,"distance":1436,"is_transit":false,"station_id":"PSE","transit":false,"i_lat":-6.174784,"station_name":"Pasar Senen","i_long":106.84368,"line":11}],[{"i_long":106.951283,"is_transit":false,"time":0,"line":1,"transit":false,"distance":0,"i_lat":-6.219053,"station_name":"Cakung","station_id":"CUK"},{"i_long":106.939679,"transit":false,"is_transit":false,"distance":1385,"line":1,"time":8,"station_id":"KLDB","i_lat":-6.217455,"station_name":"Klenderbaru"},{"is_transit":false,"time":1,"line":1,"station_id":"BUA","i_long":106.922662,"distance":1305,"i_lat":-6.215568,"station_name":"Buaran","transit":false},{"station_name":"Klender","distance":3100,"transit":false,"is_transit":false,"station_id":"KLD","time":2,"i_lat":-6.2135,"i_long":106.899548,"line":1},{"distance":3395,"time":3,"i_lat":-6.215091,"line":1,"is_transit":false,"i_long":106.86807400000001,"transit":false,"station_id":"JNG","station_name":"Jatinegara"},{"i_lat":-6.212485,"line":1,"station_name":"Matraman","is_transit":false,"distance":1377,"i_long":106.858896,"transit":false,"time":2,"station_id":"MTR"},{"distance":1275,"transit":true,"time":2,"line":2,"is_transit":true,"station_id":"MRI","i_long":106.84912,"i_lat":-6.209883,"station_name":"Manggarai"},{"distance":1590,"time":4,"station_name":"Cikini","transit":false,"i_long":106.840169,"line":2,"i_lat":-6.198556,"is_transit":false,"station_id":"CKI"},{"station_id":"GDD","i_lat":-6.186295,"is_transit":false,"distance":1750,"transit":false,"station_name":"Gondangdia","line":2,"i_long":106.832183,"time":3},{"is_transit":false,"transit":false,"distance":2015,"line":2,"station_name":"Juanda","time":4,"i_long":106.828284,"i_lat":-6.166716,"station_id":"JUA"},{"i_lat":-6.160725,"station_name":"Sawah Besar","is_transit":false,"station_id":"SW","line":2,"time":2,"transit":false,"i_long":106.827103,"distance":1149},{"station_id":"MGB","station_name":"Manggabesar","is_transit":false,"transit":false,"time":2,"line":2,"distance":906,"i_long":106.82482,"i_lat":-6.149769},{"distance":1080,"line":2,"is_transit":false,"transit":false,"time":2,"i_long":106.820901,"i_lat":-6.141205,"station_name":"Jayakarta","station_id":"JAY"},{"distance":1264,"station_name":"Jakarta Kota","station_id":"JAKK","line":2,"i_lat":-6.137569,"i_long":106.812439,"transit":true,"is_transit":true,"time":4},{"distance":1364,"i_long":106.826365,"transit":true,"i_lat":-6.132549,"is_transit":true,"time":3,"line":4,"station_name":"Kampung Bandan","station_id":"KPB"},{"is_transit":false,"distance":1444,"i_lat":-6.14505,"i_long":106.836569,"station_name":"Rajawali","time":3,"line":11,"transit":false,"station_id":"RJW"},{"transit":false,"distance":1901,"is_transit":false,"time":5,"i_long":106.839204,"station_name":"Kemayoran","i_lat":-6.161728,"line":11,"station_id":"KMO"},{"station_name":"Pasar Senen","distance":1436,"i_long":106.84368,"transit":false,"i_lat":-6.174784,"line":11,"time":4,"is_transit":false,"station_id":"PSE"}]]}