{"data":[[{"i_lat":-6.219053,"station_id":"CUK","line":1,"transit":false,"i_long":106.951283,"distance":0,"time":0,"station_name":"Cakung","is_transit":false},{"station_id":"KLDB","transit":false,"station_name":"Klenderbaru","time":8,"distance":1385,"i_lat":-6.217455,"i_long":106.939679,"is_transit":false,"line":1},{"i_long":106.922662,"station_name":"Buaran","station_id":"BUA","line":1,"distance":1305,"i_lat":-6.215568,"transit":false,"is_transit":false,"time":1},{"transit":false,"station_id":"KLD","time":2,"distance":3100,"i_lat":-6.2135,"station_name":"Klender","line":1,"is_transit":false,"i_long":106.899548},{"distance":3395,"station_id":"JNG","i_lat":-6.215091,"i_long":106.86807400000001,"transit":false,"line":1,"station_name":"Jatinegara","time":3,"is_transit":false},{"i_lat":-6.212485,"station_name":"Matraman","distance":1377,"time":2,"i_long":106.858896,"line":1,"is_transit":false,"station_id":"MTR","transit":false},{"time":2,"i_long":106.84912,"transit":false,"is_transit":false,"station_id":"MRI","station_name":"Manggarai","line":2,"distance":1275,"i_lat":-6.209883},{"is_transit":false,"station_id":"SUD","line":1,"station_name":"Sudirman","i_lat":-6.202263,"i_long":106.822649,"distance":3186,"transit":false,"time":4},{"time":1,"transit":false,"is_transit":false,"i_long":106.819881,"distance":280,"i_lat":-6.201433,"line":1,"station_id":"SUDB","station_name":"Sudirman Baru"},{"i_lat":-6.20132,"line":1,"station_id":"KAT","distance":471,"station_name":"Karet","time":1,"i_long":106.816351,"transit":false,"is_transit":false},{"transit":true,"distance":2029,"station_name":"Tanah Abang","time":5,"i_long":106.811091,"is_transit":true,"i_lat":-6.185545,"line":1,"station_id":"THB"},{"distance":3191,"station_id":"PLM","time":6,"i_lat":-6.207404,"i_long":106.79689,"transit":false,"line":6,"station_name":"Palmerah","is_transit":false},{"transit":false,"i_long":106.780334,"line":6,"i_lat":-6.237242,"is_transit":false,"station_name":"Kebayoran","time":7,"distance":3737,"station_id":"KBY"},{"station_name":"Pondokranji","distance":6218,"i_long":106.74273,"time":8,"i_lat":-6.276362,"is_transit":false,"station_id":"PDJ","transit":false,"line":6}],[{"is_transit":false,"i_long":106.951283,"distance":0,"i_lat":-6.219053,"station_id":"CUK","station_name":"Cakung","transit":false,"time":0,"line":1},{"is_transit":false,"time":8,"i_long":106.939679,"i_lat":-6.217455,"line":1,"transit":false,"distance":1385,"station_name":"Klenderbaru","station_id":"KLDB"},{"station_name":"Buaran","i_lat":-6.215568,"is_transit":false,"station_id":"BUA","i_long":106.922662,"transit":false,"line":1,"time":1,"distance":1305},{"station_name":"Klender","line":1,"is_transit":false,"distance":3100,"time":2,"transit":false,"station_id":"KLD","i_lat":-6.2135,"i_long":106.899548},{"line":1,"i_lat":-6.215091,"is_transit":true,"i_long":106.86807400000001,"station_id":"JNG","distance":3395,"station_name":"Jatinegara","time":3,"transit":true},{"station_id":"POK","line":11,"i_lat":-6.209188,"distance":1236,"time":2,"i_long":106.861737,"transit":false,"is_transit":false,"station_name":"Pondok Jati"},{"time":2,"distance":1829,"station_name":"Kramat","station_id":"KMT","i_lat":-6.193792,"i_long":106.855437,"transit":false,"is_transit":false,"line":11},{"station_name":"Gang Sentiong","distance":973,"station_id":"GST","time":1,"i_lat":-6.185975,"i_long":106.850107,"line":11,"is_transit":false,"transit":false},{"is_transit":false,"distance":1567,"transit":false,"time":8,"station_id":"PSE","station_name":"Pasar Senen","i_lat":-6.174784,"i_long":106.84368,"line":11},{"i_long":106.839204,"distance":1436,"transit":false,"is_transit":false,"time":4,"i_lat":-6.161728,"line":11,"station_id":"KMO","station_name":"Kemayoran"},{"line":11,"station_name":"Rajawali","is_transit":false,"station_id":"RJW","distance":1901,"transit":false,"i_long":106.836569,"i_lat":-6.14505,"time":5},{"i_long":106.826365,"i_lat":-6.132549,"is_transit":true,"line":4,"station_id":"KPB","station_name":"Kampung Bandan","distance":1444,"transit":true,"time":3},{"station_name":"Angke","time":9,"i_long":106.79867,"transit":false,"is_transit":false,"i_lat":-6.144674,"distance":4102,"station_id":"AK","line":1},{"time":4,"distance":1230,"transit":false,"station_name":"Duri","is_transit":false,"station_id":"DU","line":1,"i_lat":-6.155215,"i_long":106.800832},{"is_transit":true,"station_name":"Tanah Abang","distance":3632,"time":8,"i_lat":-6.185545,"station_id":"THB","i_long":106.811091,"line":1,"transit":true},{"i_lat":-6.207404,"transit":false,"line":6,"station_name":"Palmerah","time":6,"is_transit":false,"station_id":"PLM","distance":3191,"i_long":106.79689},{"station_name":"Kebayoran","line":6,"i_long":106.780334,"distance":3737,"i_lat":-6.237242,"is_transit":false,"station_id":"KBY","transit":false,"time":7},{"station_id":"PDJ","line":6,"is_transit":false,"transit":false,"station_name":"Pondokranji","i_long":106.74273,"i_lat":-6.276362,"distance":6218,"time":8}],[{"is_transit":false,"station_name":"Cakung","line":1,"distance":0,"station_id":"CUK","i_lat":-6.219053,"transit":false,"time":0,"i_long":106.951283},{"time":8,"is_transit":false,"line":1,"distance":1385,"station_id":"KLDB","transit":false,"station_name":"Klenderbaru","i_lat":-6.217455,"i_long":106.939679},{"line":1,"station_id":"BUA","distance":1305,"transit":false,"station_name":"Buaran","time":1,"is_transit":false,"i_lat":-6.215568,"i_long":106.922662},{"transit":false,"station_id":"KLD","i_lat":-6.2135,"is_transit":false,"distance":3100,"station_name":"Klender","time":2,"i_long":106.899548,"line":1},{"i_long":106.86807400000001,"time":3,"i_lat":-6.215091,"line":1,"station_id":"JNG","transit":false,"distance":3395,"station_name":"Jatinegara","is_transit":false},{"transit":false,"i_lat":-6.212485,"station_id":"MTR","time":2,"station_name":"Matraman","i_long":106.858896,"distance":1377,"line":1,"is_transit":false},{"station_name":"Manggarai","station_id":"MRI","time":2,"i_lat":-6.209883,"is_transit":true,"i_long":106.84912,"transit":true,"distance":1275,"line":2},{"station_id":"CKI","transit":false,"i_long":106.840169,"line":2,"is_transit":false,"i_lat":-6.198556,"time":4,"station_name":"Cikini","distance":1590},{"station_name":"Gondangdia","i_lat":-6.186295,"station_id":"GDD","i_long":106.832183,"is_transit":false,"transit":false,"distance":1750,"time":3,"line":2},{"is_transit":false,"i_long":106.828284,"line":2,"transit":false,"station_id":"JUA","distance":2015,"time":4,"i_lat":-6.166716,"station_name":"Juanda"},{"line":2,"i_long":106.827103,"transit":false,"is_transit":false,"station_id":"SW","distance":1149,"station_name":"Sawah Besar","time":2,"i_lat":-6.160725},{"i_long":106.82482,"time":2,"station_id":"MGB","station_name":"Manggabesar","line":2,"distance":906,"is_transit":false,"transit":false,"i_lat":-6.149769},{"i_lat":-6.141205,"i_long":106.820901,"line":2,"station_id":"JAY","time":2,"distance":1080,"transit":false,"station_name":"Jayakarta","is_transit":false},{"distance":1264,"time":4,"transit":true,"station_id":"JAKK","is_transit":true,"line":2,"i_long":106.812439,"i_lat":-6.137569,"station_name":"Jakarta Kota"},{"station_name":"Kampung Bandan","station_id":"KPB","transit":true,"i_long":106.826365,"line":4,"is_transit":true,"i_lat":-6.132549,"time":3,"distance":1364},{"line":1,"i_long":106.79867,"transit":false,"station_id":"AK","distance":4102,"time":9,"is_transit":false,"station_name":"Angke","i_lat":-6.144674},{"station_name":"Duri","i_lat":-6.155215,"distance":1230,"line":1,"i_long":106.800832,"is_transit":false,"time":4,"station_id":"DU","transit":false},{"station_id":"THB","transit":true,"station_name":"Tanah Abang","time":8,"i_long":106.811091,"distance":3632,"i_lat":-6.185545,"line":1,"is_transit":true},{"is_transit":false,"distance":3191,"transit":false,"time":6,"i_long":106.79689,"station_id":"PLM","station_name":"Palmerah","line":6,"i_lat":-6.207404},{"distance":3737,"i_lat":-6.237242,"is_transit":false,"station_id":"KBY","line":6,"transit":false,"i_long":106.780334,"station_name":"Kebayoran","time":7},{"transit":false,"line":6,"i_long":106.74273,"i_lat":-6.276362,"is_transit":false,"time":8,"station_id":"PDJ","distance":6218,"station_name":"Pondokranji"}],[{"distance":0,"is_transit":false,"station_id":"CUK","station_name":"Cakung","i_long":106.951283,"line":1,"time":0,"i_lat":-6.219053,"transit":false},{"line":1,"station_id":"KLDB","i_lat":-6.217455,"distance":1385,"station_name":"Klenderbaru","transit":false,"is_transit":false,"i_long":106.939679,"time":8},{"line":1,"i_lat":-6.215568,"station_name":"Buaran","distance":1305,"is_transit":false,"i_long":106.922662,"time":1,"transit":false,"station_id":"BUA"},{"station_name":"Klender","line":1,"transit":false,"is_transit":false,"i_lat":-6.2135,"i_long":106.899548,"station_id":"KLD","distance":3100,"time":2},{"line":1,"station_id":"JNG","station_name":"Jatinegara","i_long":106.86807400000001,"is_transit":true,"distance":3395,"time":3,"i_lat":-6.215091,"transit":true},{"time":2,"is_transit":false,"station_name":"Pondok Jati","transit":false,"distance":1236,"i_long":106.861737,"line":11,"station_id":"POK","i_lat":-6.209188},{"line":11,"distance":1829,"station_id":"KMT","transit":false,"i_lat":-6.193792,"station_name":"Kramat","is_transit":false,"time":2,"i_long":106.855437},{"i_long":106.850107,"transit":false,"is_transit":false,"station_name":"Gang Sentiong","line":11,"i_lat":-6.185975,"station_id":"GST","time":1,"distance":973},{"station_id":"PSE","i_lat":-6.174784,"transit":false,"distance":1567,"station_name":"Pasar Senen","time":8,"i_long":106.84368,"line":11,"is_transit":false},{"station_id":"KMO","time":4,"line":11,"is_transit":false,"i_long":106.839204,"transit":false,"station_name":"Kemayoran","i_lat":-6.161728,"distance":1436},{"is_transit":false,"station_id":"RJW","i_long":106.836569,"station_name":"Rajawali","distance":1901,"line":11,"transit":false,"time":5,"i_lat":-6.14505},{"station_name":"Kampung Bandan","is_transit":true,"time":3,"i_lat":-6.132549,"i_long":106.826365,"transit":true,"line":4,"station_id":"KPB","distance":1444},{"i_lat":-6.137569,"distance":1364,"station_name":"Jakarta Kota","transit":true,"is_transit":true,"i_long":106.812439,"time":3,"station_id":"JAKK","line":2},{"i_long":106.820901,"line":2,"is_transit":false,"transit":false,"time":4,"station_name":"Jayakarta","i_lat":-6.141205,"station_id":"JAY","distance":1264},{"time":2,"station_name":"Manggabesar","is_transit":false,"transit":false,"line":2,"station_id":"MGB","distance":1080,"i_lat":-6.149769,"i_long":106.82482},{"is_transit":false,"distance":906,"station_id":"SW","transit":false,"line":2,"station_name":"Sawah Besar","time":2,"i_lat":-6.160725,"i_long":106.827103},{"station_id":"JUA","time":2,"i_lat":-6.166716,"distance":1149,"i_long":106.828284,"station_name":"Juanda","is_transit":false,"line":2,"transit":false},{"transit":false,"time":4,"i_long":106.832183,"station_id":"GDD","station_name":"Gondangdia","is_transit":false,"i_lat":-6.186295,"line":2,"distance":2015},{"transit":false,"station_id":"CKI","distance":1750,"time":3,"i_long":106.840169,"station_name":"Cikini","line":2,"is_transit":false,"i_lat":-6.198556},{"is_transit":true,"i_lat":-6.209883,"station_name":"Manggarai","station_id":"MRI","transit":true,"line":2,"time":4,"distance":1590,"i_long":106.84912},{"line":1,"i_lat":-6.202263,"station_id":"SUD","transit":false,"time":4,"i_long":106.822649,"station_name":"Sudirman","is_transit":false,"distance":3186},{"i_long":106.819881,"time":1,"i_lat":-6.201433,"transit":false,"distance":280,"station_name":"Sudirman Baru","line":1,"station_id":"SUDB","is_transit":false},{"station_name":"Karet","transit":false,"time":1,"distance":471,"i_lat":-6.20132,"i_long":106.816351,"is_transit":false,"line":1,"station_id":"KAT"},{"transit":true,"time":5,"distance":2029,"station_id":"THB","station_name":"Tanah Abang","i_lat":-6.185545,"i_long":106.811091,"is_transit":true,"line":1},{"station_name":"Palmerah","time":6,"i_long":106.79689,"transit":false,"line":6,"distance":3191,"is_transit":false,"station_id":"PLM","i_lat":-6.207404},{"i_lat":-6.237242,"i_long":106.780334,"time":7,"station_id":"KBY","transit":false,"station_name":"Kebayoran","is_transit":false,"line":6,"distance":3737},{"i_lat":-6.276362,"distance":6218,"i_long":106.74273,"is_transit":false,"time":8,"station_id":"PDJ","transit":false,"station_name":"Pondokranji","line":6}]]}