{"data":[[{"station_name":"Cakung","line":0,"is_transit":false,"station_id":"CUK","i_lat":-6.219053,"distance":0,"time":0,"i_long":106.951283,"transit":false},{"station_id":"KLDB","line":1,"i_long":106.939679,"time":8,"transit":false,"distance":1385,"is_transit":false,"station_name":"Klenderbaru","i_lat":-6.217455},{"i_long":106.922662,"is_transit":false,"time":1,"station_name":"Buaran","line":0,"distance":1305,"station_id":"BUA","transit":false,"i_lat":-6.215568},{"time":2,"station_name":"Klender","is_transit":false,"station_id":"KLD","distance":3100,"transit":false,"i_long":106.899548,"line":1,"i_lat":-6.2135},{"i_long":106.86807400000001,"station_name":"Jatinegara","line":0,"station_id":"JNG","time":3,"distance":3395,"i_lat":-6.215091,"is_transit":true,"transit":false},{"station_name":"Matraman","time":2,"station_id":"MTR","transit":false,"is_transit":false,"i_lat":-6.212485,"distance":1377,"i_long":106.858896,"line":1},{"transit":false,"i_lat":-6.209883,"distance":1275,"station_id":"MRI","i_long":106.84912,"station_name":"Manggarai","is_transit":true,"time":2,"line":0},{"is_transit":false,"station_name":"Sudirman","time":4,"station_id":"SUD","i_lat":-6.202263,"transit":false,"distance":3186,"i_long":106.822649,"line":1},{"i_long":106.819881,"station_id":"SUDB","station_name":"Sudirman Baru","line":1,"i_lat":-6.201433,"is_transit":false,"transit":false,"time":1,"distance":280},{"distance":471,"i_long":106.816351,"station_name":"Karet","transit":false,"is_transit":false,"time":1,"station_id":"KAT","line":1,"i_lat":-6.20132},{"transit":true,"station_id":"THB","i_long":106.811091,"time":5,"i_lat":-6.185545,"distance":2029,"line":1,"is_transit":true,"station_name":"Tanah Abang"},{"i_lat":-6.207404,"line":6,"distance":3191,"i_long":106.79689,"transit":false,"station_name":"Palmerah","station_id":"PLM","is_transit":false,"time":6},{"i_long":106.780334,"line":6,"i_lat":-6.237242,"is_transit":false,"station_id":"KBY","station_name":"Kebayoran","distance":3737,"transit":false,"time":7},{"line":6,"time":8,"station_name":"Pondokranji","is_transit":false,"station_id":"PDJ","transit":false,"distance":6218,"i_lat":-6.276362,"i_long":106.74273}],[{"station_id":"CUK","i_long":106.951283,"line":0,"time":0,"i_lat":-6.219053,"station_name":"Cakung","distance":0,"transit":false,"is_transit":false},{"transit":false,"distance":1385,"is_transit":false,"station_name":"Klenderbaru","line":1,"station_id":"KLDB","time":8,"i_lat":-6.217455,"i_long":106.939679},{"line":0,"distance":1305,"station_id":"BUA","i_lat":-6.215568,"transit":false,"time":1,"is_transit":false,"station_name":"Buaran","i_long":106.922662},{"i_lat":-6.2135,"station_name":"Klender","i_long":106.899548,"is_transit":false,"station_id":"KLD","distance":3100,"time":2,"transit":false,"line":1},{"station_name":"Jatinegara","i_lat":-6.215091,"line":0,"station_id":"JNG","i_long":106.86807400000001,"is_transit":true,"time":3,"distance":3395,"transit":true},{"i_long":106.861737,"station_id":"POK","line":11,"station_name":"Pondok Jati","is_transit":false,"transit":false,"i_lat":-6.209188,"distance":1236,"time":2},{"time":2,"station_name":"Kramat","i_long":106.855437,"is_transit":false,"line":11,"station_id":"KMT","i_lat":-6.193792,"distance":1829,"transit":false},{"i_lat":-6.185975,"station_id":"GST","distance":973,"is_transit":false,"transit":false,"line":11,"station_name":"Gang Sentiong","i_long":106.850107,"time":1},{"station_name":"Pasar Senen","distance":1567,"is_transit":false,"line":11,"station_id":"PSE","i_lat":-6.174784,"i_long":106.84368,"transit":false,"time":8},{"station_id":"KMO","distance":1436,"transit":false,"time":4,"i_lat":-6.161728,"is_transit":false,"i_long":106.839204,"station_name":"Kemayoran","line":11},{"is_transit":false,"time":5,"line":11,"station_id":"RJW","station_name":"Rajawali","transit":false,"i_lat":-6.14505,"distance":1901,"i_long":106.836569},{"transit":true,"is_transit":true,"i_lat":-6.132549,"station_id":"KPB","line":0,"distance":1444,"time":3,"i_long":106.826365,"station_name":"Kampung Bandan"},{"time":9,"transit":false,"i_long":106.79867,"line":0,"is_transit":false,"station_id":"AK","station_name":"Angke","distance":4102,"i_lat":-6.144674},{"transit":true,"i_long":106.800832,"i_lat":-6.155215,"line":1,"is_transit":true,"station_id":"DU","time":4,"station_name":"Duri","distance":1230},{"station_id":"THB","time":8,"station_name":"Tanah Abang","line":1,"distance":3632,"i_lat":-6.185545,"i_long":106.811091,"transit":true,"is_transit":true},{"station_name":"Palmerah","i_lat":-6.207404,"transit":false,"i_long":106.79689,"line":6,"station_id":"PLM","time":6,"distance":3191,"is_transit":false},{"station_name":"Kebayoran","time":7,"transit":false,"i_long":106.780334,"line":6,"is_transit":false,"station_id":"KBY","i_lat":-6.237242,"distance":3737},{"time":8,"transit":false,"line":6,"distance":6218,"i_lat":-6.276362,"is_transit":false,"station_name":"Pondokranji","i_long":106.74273,"station_id":"PDJ"}],[{"i_long":106.951283,"line":0,"time":0,"station_name":"Cakung","distance":0,"transit":false,"station_id":"CUK","is_transit":false,"i_lat":-6.219053},{"is_transit":false,"station_id":"KLDB","transit":false,"i_long":106.939679,"time":8,"i_lat":-6.217455,"station_name":"Klenderbaru","line":1,"distance":1385},{"transit":false,"distance":1305,"station_id":"BUA","i_lat":-6.215568,"i_long":106.922662,"line":0,"time":1,"is_transit":false,"station_name":"Buaran"},{"i_long":106.899548,"line":1,"time":2,"is_transit":false,"distance":3100,"station_id":"KLD","station_name":"Klender","transit":false,"i_lat":-6.2135},{"i_lat":-6.215091,"station_id":"JNG","line":0,"distance":3395,"transit":false,"time":3,"i_long":106.86807400000001,"is_transit":true,"station_name":"Jatinegara"},{"line":1,"transit":false,"time":2,"i_lat":-6.212485,"i_long":106.858896,"distance":1377,"station_id":"MTR","is_transit":false,"station_name":"Matraman"},{"station_name":"Manggarai","is_transit":true,"station_id":"MRI","i_long":106.84912,"time":2,"line":0,"transit":true,"i_lat":-6.209883,"distance":1275},{"time":4,"distance":1590,"transit":false,"i_lat":-6.198556,"line":0,"station_id":"CKI","is_transit":false,"i_long":106.840169,"station_name":"Cikini"},{"line":2,"is_transit":false,"distance":1750,"time":3,"i_long":106.832183,"station_id":"GDD","i_lat":-6.186295,"station_name":"Gondangdia","transit":false},{"distance":2015,"station_id":"JUA","is_transit":false,"time":4,"i_lat":-6.166716,"line":2,"i_long":106.828284,"transit":false,"station_name":"Juanda"},{"station_name":"Sawah Besar","time":2,"i_long":106.827103,"distance":1149,"transit":false,"is_transit":false,"i_lat":-6.160725,"line":2,"station_id":"SW"},{"is_transit":false,"station_id":"MGB","i_long":106.82482,"time":2,"line":2,"distance":906,"station_name":"Manggabesar","i_lat":-6.149769,"transit":false},{"i_long":106.820901,"line":7,"time":2,"is_transit":false,"distance":1080,"i_lat":-6.141205,"station_id":"JAY","station_name":"Jayakarta","transit":false},{"station_id":"JAKK","i_long":106.812439,"i_lat":-6.137569,"time":4,"is_transit":true,"distance":1264,"line":0,"station_name":"Jakarta Kota","transit":true},{"time":3,"distance":1364,"station_name":"Kampung Bandan","i_lat":-6.132549,"is_transit":true,"transit":false,"line":0,"station_id":"KPB","i_long":106.826365},{"i_lat":-6.144674,"i_long":106.79867,"distance":4102,"time":9,"station_id":"AK","transit":false,"is_transit":false,"station_name":"Angke","line":0},{"transit":true,"i_lat":-6.155215,"station_id":"DU","station_name":"Duri","i_long":106.800832,"time":4,"is_transit":true,"line":1,"distance":1230},{"line":1,"station_name":"Tanah Abang","time":8,"is_transit":true,"i_lat":-6.185545,"i_long":106.811091,"distance":3632,"station_id":"THB","transit":true},{"transit":false,"station_name":"Palmerah","i_lat":-6.207404,"is_transit":false,"distance":3191,"i_long":106.79689,"line":6,"time":6,"station_id":"PLM"},{"time":7,"i_long":106.780334,"i_lat":-6.237242,"distance":3737,"station_id":"KBY","transit":false,"line":6,"station_name":"Kebayoran","is_transit":false},{"distance":6218,"i_lat":-6.276362,"station_name":"Pondokranji","transit":false,"station_id":"PDJ","line":6,"time":8,"is_transit":false,"i_long":106.74273}],[{"time":0,"i_lat":-6.219053,"i_long":106.951283,"station_name":"Cakung","is_transit":false,"transit":false,"station_id":"CUK","line":0,"distance":0},{"i_long":106.939679,"distance":1385,"transit":false,"line":1,"station_name":"Klenderbaru","is_transit":false,"station_id":"KLDB","time":8,"i_lat":-6.217455},{"station_name":"Buaran","time":1,"distance":1305,"i_lat":-6.215568,"i_long":106.922662,"station_id":"BUA","is_transit":false,"line":0,"transit":false},{"transit":false,"i_long":106.899548,"i_lat":-6.2135,"station_name":"Klender","is_transit":false,"station_id":"KLD","distance":3100,"line":1,"time":2},{"i_long":106.86807400000001,"transit":true,"time":3,"station_name":"Jatinegara","distance":3395,"line":0,"station_id":"JNG","is_transit":true,"i_lat":-6.215091},{"time":2,"distance":1236,"line":11,"is_transit":false,"station_name":"Pondok Jati","station_id":"POK","i_long":106.861737,"i_lat":-6.209188,"transit":false},{"station_name":"Kramat","time":2,"transit":false,"is_transit":false,"i_lat":-6.193792,"i_long":106.855437,"line":11,"station_id":"KMT","distance":1829},{"station_id":"GST","time":1,"i_lat":-6.185975,"station_name":"Gang Sentiong","transit":false,"is_transit":false,"i_long":106.850107,"line":11,"distance":973},{"station_id":"PSE","station_name":"Pasar Senen","is_transit":false,"distance":1567,"line":11,"i_long":106.84368,"transit":false,"i_lat":-6.174784,"time":8},{"i_long":106.839204,"transit":false,"i_lat":-6.161728,"line":11,"station_name":"Kemayoran","is_transit":false,"station_id":"KMO","time":4,"distance":1436},{"transit":false,"is_transit":false,"station_name":"Rajawali","i_lat":-6.14505,"distance":1901,"time":5,"line":11,"station_id":"RJW","i_long":106.836569},{"transit":true,"i_lat":-6.132549,"is_transit":true,"time":3,"station_name":"Kampung Bandan","station_id":"KPB","i_long":106.826365,"line":0,"distance":1444},{"station_name":"Jakarta Kota","i_lat":-6.137569,"line":0,"station_id":"JAKK","is_transit":true,"i_long":106.812439,"distance":1364,"time":3,"transit":true},{"station_name":"Jayakarta","transit":false,"i_long":106.820901,"time":4,"line":7,"station_id":"JAY","i_lat":-6.141205,"is_transit":false,"distance":1264},{"time":2,"is_transit":false,"station_id":"MGB","station_name":"Manggabesar","distance":1080,"transit":false,"i_lat":-6.149769,"i_long":106.82482,"line":2},{"i_lat":-6.160725,"is_transit":false,"station_id":"SW","time":2,"transit":false,"distance":906,"i_long":106.827103,"line":2,"station_name":"Sawah Besar"},{"time":2,"station_name":"Juanda","distance":1149,"transit":false,"i_long":106.828284,"station_id":"JUA","i_lat":-6.166716,"is_transit":false,"line":2},{"i_long":106.832183,"is_transit":false,"distance":2015,"time":4,"station_name":"Gondangdia","transit":false,"line":2,"station_id":"GDD","i_lat":-6.186295},{"transit":false,"distance":1750,"line":0,"station_name":"Cikini","time":3,"i_long":106.840169,"station_id":"CKI","is_transit":false,"i_lat":-6.198556},{"line":0,"time":4,"is_transit":true,"transit":true,"i_lat":-6.209883,"i_long":106.84912,"station_id":"MRI","station_name":"Manggarai","distance":1590},{"line":1,"i_lat":-6.202263,"distance":3186,"i_long":106.822649,"station_id":"SUD","time":4,"station_name":"Sudirman","is_transit":false,"transit":false},{"i_long":106.819881,"station_id":"SUDB","time":1,"i_lat":-6.201433,"station_name":"Sudirman Baru","is_transit":false,"line":1,"distance":280,"transit":false},{"station_id":"KAT","distance":471,"i_lat":-6.20132,"time":1,"is_transit":false,"line":1,"station_name":"Karet","transit":false,"i_long":106.816351},{"line":1,"station_id":"THB","is_transit":true,"transit":true,"i_lat":-6.185545,"distance":2029,"i_long":106.811091,"station_name":"Tanah Abang","time":5},{"is_transit":false,"i_long":106.79689,"i_lat":-6.207404,"station_name":"Palmerah","transit":false,"time":6,"station_id":"PLM","distance":3191,"line":6},{"transit":false,"station_name":"Kebayoran","distance":3737,"line":6,"time":7,"station_id":"KBY","is_transit":false,"i_lat":-6.237242,"i_long":106.780334},{"is_transit":false,"time":8,"station_id":"PDJ","i_lat":-6.276362,"i_long":106.74273,"line":6,"transit":false,"station_name":"Pondokranji","distance":6218}]]}