{"data":[[{"station_name":"Cakung","line":1,"time":0,"distance":0,"i_long":106.951283,"station_id":"CUK","transit":false,"i_lat":-6.219053,"is_transit":false},{"line":1,"i_long":106.939679,"transit":false,"station_name":"Klenderbaru","i_lat":-6.217455,"time":8,"station_id":"KLDB","distance":1385,"is_transit":false},{"station_name":"Buaran","transit":false,"station_id":"BUA","i_lat":-6.215568,"i_long":106.922662,"time":1,"is_transit":false,"distance":1305,"line":1},{"i_lat":-6.2135,"station_id":"KLD","distance":3100,"transit":false,"is_transit":false,"line":1,"i_long":106.899548,"time":2,"station_name":"Klender"},{"station_id":"JNG","distance":3395,"station_name":"Jatinegara","i_lat":-6.215091,"line":1,"time":3,"is_transit":false,"i_long":106.86807400000001,"transit":false},{"station_name":"Matraman","i_long":106.858896,"distance":1377,"station_id":"MTR","is_transit":false,"i_lat":-6.212485,"transit":false,"line":1,"time":2},{"is_transit":true,"station_id":"MRI","time":2,"line":2,"distance":1275,"transit":true,"station_name":"Manggarai","i_lat":-6.209883,"i_long":106.84912},{"station_name":"Tebet","transit":false,"distance":2610,"line":2,"station_id":"TEB","is_transit":false,"i_long":106.857948,"i_lat":-6.226659,"time":4},{"time":2,"station_id":"CW","line":2,"distance":1230,"is_transit":false,"station_name":"Cawang","i_long":106.856607,"transit":false,"i_lat":-6.242512},{"station_name":"Duren Kalibata","i_long":106.85449,"station_id":"DRN","distance":1546,"is_transit":false,"line":2,"transit":false,"time":3,"i_lat":-6.255332},{"transit":false,"i_long":106.851577,"is_transit":false,"line":2,"station_id":"PSMB","distance":824,"station_name":"Pasar Minggu Baru","i_lat":-6.263214,"time":2},{"transit":false,"station_id":"PSM","i_long":106.843999,"time":2,"station_name":"Pasar Minggu","is_transit":false,"i_lat":-6.2842400000000005,"line":2,"distance":2380},{"station_id":"TNT","transit":false,"station_name":"Tanjung Barat","i_long":106.838896,"is_transit":false,"line":2,"distance":2820,"i_lat":-6.3080680000000005,"time":4},{"time":3,"i_long":106.832616,"i_lat":-6.330363,"station_name":"Lenteng Agung","station_id":"LNA","transit":false,"line":2,"is_transit":false,"distance":2671},{"distance":1029,"is_transit":false,"line":2,"station_id":"UP","i_lat":-6.339291,"transit":false,"time":2,"station_name":"Univ. Pancasila","i_long":106.834175},{"distance":2264,"is_transit":false,"i_lat":-6.360749,"line":2,"station_id":"UI","station_name":"Univ. Indonesia","time":3,"transit":false,"i_long":106.831474},{"i_long":106.831114,"line":2,"distance":1109,"transit":false,"time":2,"station_name":"Pondok Cina","is_transit":false,"i_lat":-6.369073,"station_id":"POC"},{"station_id":"DPB","line":2,"transit":false,"station_name":"Depokbaru","i_lat":-6.391065,"i_long":106.819451,"is_transit":false,"distance":2727,"time":4},{"time":3,"i_lat":-6.405256,"line":2,"transit":false,"station_name":"Depok","i_long":106.816926,"distance":1584,"is_transit":false,"station_id":"DP"},{"station_id":"CTA","is_transit":false,"line":2,"distance":5084,"transit":false,"i_long":106.800298,"station_name":"Citayam","i_lat":-6.448811,"time":6},{"is_transit":false,"i_lat":-6.493243,"station_name":"Bojonggede","station_id":"BJD","time":5,"i_long":106.792719,"transit":false,"distance":5197,"line":2},{"transit":false,"i_long":106.800016,"station_id":"CLT","station_name":"Cilebut","i_lat":-6.530544,"is_transit":false,"line":2,"distance":4331,"time":5},{"line":2,"time":9,"distance":7514,"transit":false,"station_name":"Bogor","is_transit":false,"station_id":"BOO","i_long":106.790574,"i_lat":-6.594596}],[{"i_long":106.951283,"transit":false,"is_transit":false,"i_lat":-6.219053,"time":0,"station_id":"CUK","distance":0,"line":1,"station_name":"Cakung"},{"is_transit":false,"station_id":"KLDB","i_lat":-6.217455,"line":1,"distance":1385,"transit":false,"time":8,"i_long":106.939679,"station_name":"Klenderbaru"},{"distance":1305,"station_id":"BUA","is_transit":false,"transit":false,"i_long":106.922662,"time":1,"line":1,"station_name":"Buaran","i_lat":-6.215568},{"line":1,"distance":3100,"is_transit":false,"time":2,"station_id":"KLD","i_lat":-6.2135,"station_name":"Klender","i_long":106.899548,"transit":false},{"transit":true,"i_long":106.86807400000001,"line":1,"is_transit":true,"station_name":"Jatinegara","station_id":"JNG","time":3,"distance":3395,"i_lat":-6.215091},{"station_id":"POK","transit":false,"i_lat":-6.209188,"station_name":"Pondok Jati","time":2,"i_long":106.861737,"line":11,"is_transit":false,"distance":1236},{"station_name":"Kramat","transit":false,"line":11,"station_id":"KMT","time":2,"distance":1829,"is_transit":false,"i_lat":-6.193792,"i_long":106.855437},{"transit":false,"station_name":"Gang Sentiong","line":11,"i_lat":-6.185975,"i_long":106.850107,"is_transit":false,"distance":973,"time":1,"station_id":"GST"},{"line":11,"station_name":"Pasar Senen","transit":false,"i_long":106.84368,"distance":1567,"time":8,"station_id":"PSE","i_lat":-6.174784,"is_transit":false},{"station_name":"Kemayoran","i_long":106.839204,"transit":false,"distance":1436,"i_lat":-6.161728,"time":4,"line":11,"is_transit":false,"station_id":"KMO"},{"distance":1901,"station_name":"Rajawali","i_lat":-6.14505,"station_id":"RJW","line":11,"time":5,"is_transit":false,"i_long":106.836569,"transit":false},{"station_id":"KPB","time":3,"i_long":106.826365,"station_name":"Kampung Bandan","is_transit":true,"distance":1444,"i_lat":-6.132549,"line":4,"transit":true},{"i_lat":-6.144674,"is_transit":false,"line":1,"i_long":106.79867,"transit":false,"distance":4102,"time":9,"station_id":"AK","station_name":"Angke"},{"transit":false,"line":1,"is_transit":false,"distance":1230,"i_lat":-6.155215,"i_long":106.800832,"time":4,"station_id":"DU","station_name":"Duri"},{"is_transit":false,"i_lat":-6.185545,"i_long":106.811091,"transit":false,"station_name":"Tanah Abang","line":1,"station_id":"THB","distance":3632,"time":8},{"station_name":"Karet","i_long":106.816351,"time":5,"line":1,"transit":false,"station_id":"KAT","distance":2029,"is_transit":false,"i_lat":-6.20132},{"i_long":106.819881,"is_transit":false,"transit":false,"distance":471,"i_lat":-6.201433,"station_id":"SUDB","line":1,"station_name":"Sudirman Baru","time":1},{"transit":false,"time":1,"station_id":"SUD","i_lat":-6.202263,"is_transit":false,"distance":280,"line":1,"station_name":"Sudirman","i_long":106.822649},{"station_name":"Manggarai","i_long":106.84912,"station_id":"MRI","i_lat":-6.209883,"distance":3186,"transit":true,"is_transit":true,"time":4,"line":2},{"distance":2610,"i_lat":-6.226659,"i_long":106.857948,"line":2,"time":4,"is_transit":false,"transit":false,"station_id":"TEB","station_name":"Tebet"},{"transit":false,"is_transit":false,"distance":1230,"time":2,"i_long":106.856607,"i_lat":-6.242512,"station_name":"Cawang","station_id":"CW","line":2},{"station_name":"Duren Kalibata","station_id":"DRN","distance":1546,"i_lat":-6.255332,"time":3,"transit":false,"line":2,"i_long":106.85449,"is_transit":false},{"distance":824,"station_id":"PSMB","time":2,"transit":false,"i_lat":-6.263214,"is_transit":false,"i_long":106.851577,"line":2,"station_name":"Pasar Minggu Baru"},{"i_long":106.843999,"distance":2380,"transit":false,"station_name":"Pasar Minggu","line":2,"time":2,"is_transit":false,"i_lat":-6.2842400000000005,"station_id":"PSM"},{"is_transit":false,"time":4,"i_lat":-6.3080680000000005,"line":2,"station_id":"TNT","station_name":"Tanjung Barat","i_long":106.838896,"transit":false,"distance":2820},{"i_long":106.832616,"station_id":"LNA","distance":2671,"line":2,"station_name":"Lenteng Agung","i_lat":-6.330363,"time":3,"is_transit":false,"transit":false},{"transit":false,"station_id":"UP","station_name":"Univ. Pancasila","is_transit":false,"time":2,"distance":1029,"line":2,"i_long":106.834175,"i_lat":-6.339291},{"station_id":"UI","i_long":106.831474,"i_lat":-6.360749,"line":2,"time":3,"station_name":"Univ. Indonesia","transit":false,"distance":2264,"is_transit":false},{"distance":1109,"station_name":"Pondok Cina","i_long":106.831114,"transit":false,"is_transit":false,"i_lat":-6.369073,"station_id":"POC","line":2,"time":2},{"is_transit":false,"i_lat":-6.391065,"time":4,"i_long":106.819451,"station_id":"DPB","distance":2727,"transit":false,"station_name":"Depokbaru","line":2},{"time":3,"i_lat":-6.405256,"line":2,"station_name":"Depok","station_id":"DP","distance":1584,"i_long":106.816926,"is_transit":false,"transit":false},{"distance":5084,"transit":false,"is_transit":false,"time":6,"i_lat":-6.448811,"station_id":"CTA","i_long":106.800298,"line":2,"station_name":"Citayam"},{"distance":5197,"station_name":"Bojonggede","time":5,"station_id":"BJD","line":2,"i_long":106.792719,"i_lat":-6.493243,"is_transit":false,"transit":false},{"line":2,"i_lat":-6.530544,"transit":false,"time":5,"distance":4331,"station_name":"Cilebut","station_id":"CLT","i_long":106.800016,"is_transit":false},{"is_transit":false,"transit":false,"time":9,"distance":7514,"station_id":"BOO","i_long":106.790574,"station_name":"Bogor","i_lat":-6.594596,"line":2}],[{"transit":false,"i_long":106.951283,"distance":0,"station_id":"CUK","line":1,"station_name":"Cakung","time":0,"i_lat":-6.219053,"is_transit":false},{"transit":false,"station_id":"KLDB","time":8,"i_lat":-6.217455,"is_transit":false,"distance":1385,"i_long":106.939679,"line":1,"station_name":"Klenderbaru"},{"is_transit":false,"i_lat":-6.215568,"line":1,"distance":1305,"time":1,"transit":false,"station_id":"BUA","station_name":"Buaran","i_long":106.922662},{"line":1,"is_transit":false,"time":2,"transit":false,"i_lat":-6.2135,"distance":3100,"station_name":"Klender","station_id":"KLD","i_long":106.899548},{"line":1,"time":3,"is_transit":true,"transit":true,"distance":3395,"station_name":"Jatinegara","station_id":"JNG","i_lat":-6.215091,"i_long":106.86807400000001},{"time":2,"station_id":"POK","station_name":"Pondok Jati","line":11,"transit":false,"is_transit":false,"distance":1236,"i_lat":-6.209188,"i_long":106.861737},{"distance":1829,"transit":false,"station_name":"Kramat","i_long":106.855437,"station_id":"KMT","is_transit":false,"i_lat":-6.193792,"time":2,"line":11},{"is_transit":false,"station_id":"GST","station_name":"Gang Sentiong","distance":973,"i_lat":-6.185975,"transit":false,"i_long":106.850107,"line":11,"time":1},{"line":11,"is_transit":false,"time":8,"transit":false,"distance":1567,"station_id":"PSE","i_long":106.84368,"i_lat":-6.174784,"station_name":"Pasar Senen"},{"distance":1436,"transit":false,"is_transit":false,"station_name":"Kemayoran","i_lat":-6.161728,"i_long":106.839204,"line":11,"time":4,"station_id":"KMO"},{"distance":1901,"i_long":106.836569,"time":5,"station_name":"Rajawali","station_id":"RJW","transit":false,"line":11,"i_lat":-6.14505,"is_transit":false},{"is_transit":true,"i_lat":-6.132549,"time":3,"i_long":106.826365,"line":4,"distance":1444,"transit":true,"station_id":"KPB","station_name":"Kampung Bandan"},{"station_name":"Jakarta Kota","i_long":106.812439,"i_lat":-6.137569,"time":3,"is_transit":true,"station_id":"JAKK","distance":1364,"transit":true,"line":2},{"i_lat":-6.141205,"is_transit":false,"line":2,"time":4,"station_name":"Jayakarta","station_id":"JAY","transit":false,"distance":1264,"i_long":106.820901},{"i_long":106.82482,"is_transit":false,"line":2,"time":2,"station_id":"MGB","i_lat":-6.149769,"station_name":"Manggabesar","distance":1080,"transit":false},{"time":2,"station_name":"Sawah Besar","is_transit":false,"i_long":106.827103,"line":2,"distance":906,"i_lat":-6.160725,"station_id":"SW","transit":false},{"transit":false,"time":2,"distance":1149,"station_name":"Juanda","i_long":106.828284,"i_lat":-6.166716,"line":2,"is_transit":false,"station_id":"JUA"},{"station_name":"Gondangdia","i_lat":-6.186295,"i_long":106.832183,"station_id":"GDD","transit":false,"line":2,"time":4,"is_transit":false,"distance":2015},{"time":3,"line":2,"i_lat":-6.198556,"distance":1750,"station_id":"CKI","station_name":"Cikini","transit":false,"i_long":106.840169,"is_transit":false},{"station_name":"Manggarai","i_lat":-6.209883,"distance":1590,"station_id":"MRI","line":2,"transit":false,"i_long":106.84912,"is_transit":false,"time":4},{"time":4,"distance":2610,"station_id":"TEB","i_long":106.857948,"line":2,"station_name":"Tebet","is_transit":false,"transit":false,"i_lat":-6.226659},{"time":2,"transit":false,"station_id":"CW","distance":1230,"line":2,"station_name":"Cawang","i_lat":-6.242512,"is_transit":false,"i_long":106.856607},{"i_long":106.85449,"line":2,"is_transit":false,"distance":1546,"time":3,"station_name":"Duren Kalibata","i_lat":-6.255332,"station_id":"DRN","transit":false},{"i_lat":-6.263214,"transit":false,"line":2,"is_transit":false,"station_id":"PSMB","station_name":"Pasar Minggu Baru","i_long":106.851577,"time":2,"distance":824},{"line":2,"station_id":"PSM","is_transit":false,"station_name":"Pasar Minggu","time":2,"i_lat":-6.2842400000000005,"i_long":106.843999,"transit":false,"distance":2380},{"station_id":"TNT","time":4,"line":2,"station_name":"Tanjung Barat","is_transit":false,"transit":false,"i_long":106.838896,"i_lat":-6.3080680000000005,"distance":2820},{"station_id":"LNA","transit":false,"station_name":"Lenteng Agung","is_transit":false,"i_lat":-6.330363,"distance":2671,"i_long":106.832616,"line":2,"time":3},{"is_transit":false,"line":2,"distance":1029,"transit":false,"time":2,"station_id":"UP","i_lat":-6.339291,"i_long":106.834175,"station_name":"Univ. Pancasila"},{"i_lat":-6.360749,"line":2,"time":3,"distance":2264,"transit":false,"is_transit":false,"i_long":106.831474,"station_name":"Univ. Indonesia","station_id":"UI"},{"station_id":"POC","is_transit":false,"transit":false,"station_name":"Pondok Cina","time":2,"i_lat":-6.369073,"distance":1109,"i_long":106.831114,"line":2},{"line":2,"i_lat":-6.391065,"i_long":106.819451,"station_name":"Depokbaru","time":4,"distance":2727,"is_transit":false,"transit":false,"station_id":"DPB"},{"station_id":"DP","i_lat":-6.405256,"line":2,"is_transit":false,"distance":1584,"transit":false,"time":3,"station_name":"Depok","i_long":106.816926},{"line":2,"distance":5084,"is_transit":false,"time":6,"station_id":"CTA","station_name":"Citayam","transit":false,"i_long":106.800298,"i_lat":-6.448811},{"time":5,"line":2,"is_transit":false,"station_id":"BJD","station_name":"Bojonggede","i_lat":-6.493243,"distance":5197,"transit":false,"i_long":106.792719},{"station_name":"Cilebut","transit":false,"is_transit":false,"time":5,"i_lat":-6.530544,"distance":4331,"station_id":"CLT","i_long":106.800016,"line":2},{"i_long":106.790574,"station_name":"Bogor","station_id":"BOO","transit":false,"i_lat":-6.594596,"line":2,"distance":7514,"is_transit":false,"time":9}]]}