{"data":[[{"station_id":"CUK","time":0,"line":1,"i_lat":-6.219053,"station_name":"Cakung","is_transit":false,"transit":false,"distance":0,"i_long":106.951283},{"line":1,"station_id":"KLDB","time":8,"transit":false,"is_transit":false,"station_name":"Klenderbaru","i_lat":-6.217455,"i_long":106.939679,"distance":1385},{"is_transit":false,"station_name":"Buaran","station_id":"BUA","i_lat":-6.215568,"i_long":106.922662,"time":1,"distance":1305,"transit":false,"line":1},{"station_name":"Klender","time":2,"transit":false,"distance":3100,"i_lat":-6.2135,"station_id":"KLD","is_transit":false,"line":1,"i_long":106.899548},{"is_transit":false,"i_long":106.86807400000001,"station_id":"JNG","time":3,"i_lat":-6.215091,"line":1,"transit":false,"distance":3395,"station_name":"Jatinegara"},{"is_transit":false,"i_long":106.858896,"time":2,"transit":false,"station_name":"Matraman","line":1,"station_id":"MTR","distance":1377,"i_lat":-6.212485},{"is_transit":true,"transit":true,"line":2,"i_long":106.84912,"i_lat":-6.209883,"station_id":"MRI","time":2,"distance":1275,"station_name":"Manggarai"},{"transit":false,"station_name":"Cikini","i_lat":-6.198556,"station_id":"CKI","i_long":106.840169,"distance":1590,"time":4,"line":2,"is_transit":false},{"distance":1750,"i_long":106.832183,"line":2,"station_id":"GDD","transit":false,"station_name":"Gondangdia","is_transit":false,"i_lat":-6.186295,"time":3}],[{"station_id":"CUK","distance":0,"time":0,"transit":false,"station_name":"Cakung","i_lat":-6.219053,"is_transit":false,"i_long":106.951283,"line":1},{"time":8,"i_lat":-6.217455,"is_transit":false,"distance":1385,"station_name":"Klenderbaru","i_long":106.939679,"line":1,"transit":false,"station_id":"KLDB"},{"distance":1305,"line":1,"i_lat":-6.215568,"station_id":"BUA","transit":false,"station_name":"Buaran","i_long":106.922662,"time":1,"is_transit":false},{"station_id":"KLD","is_transit":false,"distance":3100,"i_long":106.899548,"line":1,"transit":false,"station_name":"Klender","i_lat":-6.2135,"time":2},{"i_lat":-6.215091,"i_long":106.86807400000001,"station_id":"JNG","station_name":"Jatinegara","line":1,"is_transit":true,"time":3,"transit":true,"distance":3395},{"i_lat":-6.209188,"distance":1236,"transit":false,"line":11,"station_name":"Pondok Jati","station_id":"POK","i_long":106.861737,"is_transit":false,"time":2},{"line":11,"time":2,"transit":false,"station_name":"Kramat","distance":1829,"is_transit":false,"i_long":106.855437,"station_id":"KMT","i_lat":-6.193792},{"i_lat":-6.185975,"i_long":106.850107,"station_name":"Gang Sentiong","time":1,"line":11,"station_id":"GST","transit":false,"distance":973,"is_transit":false},{"is_transit":false,"i_long":106.84368,"station_id":"PSE","line":11,"i_lat":-6.174784,"time":8,"station_name":"Pasar Senen","transit":false,"distance":1567},{"is_transit":false,"time":4,"line":11,"station_name":"Kemayoran","i_lat":-6.161728,"distance":1436,"transit":false,"station_id":"KMO","i_long":106.839204},{"is_transit":false,"time":5,"i_lat":-6.14505,"i_long":106.836569,"line":11,"transit":false,"distance":1901,"station_name":"Rajawali","station_id":"RJW"},{"is_transit":true,"time":3,"transit":true,"i_long":106.826365,"line":4,"station_name":"Kampung Bandan","station_id":"KPB","i_lat":-6.132549,"distance":1444},{"line":2,"station_id":"JAKK","time":3,"transit":true,"station_name":"Jakarta Kota","is_transit":true,"distance":1364,"i_lat":-6.137569,"i_long":106.812439},{"i_lat":-6.141205,"distance":1264,"station_name":"Jayakarta","line":2,"station_id":"JAY","i_long":106.820901,"time":4,"transit":false,"is_transit":false},{"line":2,"i_long":106.82482,"transit":false,"i_lat":-6.149769,"station_id":"MGB","time":2,"distance":1080,"station_name":"Manggabesar","is_transit":false},{"time":2,"line":2,"is_transit":false,"distance":906,"station_id":"SW","transit":false,"i_lat":-6.160725,"station_name":"Sawah Besar","i_long":106.827103},{"transit":false,"station_name":"Juanda","is_transit":false,"distance":1149,"i_lat":-6.166716,"line":2,"time":2,"i_long":106.828284,"station_id":"JUA"},{"station_id":"GDD","line":2,"i_long":106.832183,"is_transit":false,"station_name":"Gondangdia","time":4,"distance":2015,"transit":false,"i_lat":-6.186295}],[{"station_id":"CUK","i_lat":-6.219053,"transit":false,"distance":0,"is_transit":false,"line":1,"time":0,"station_name":"Cakung","i_long":106.951283},{"time":8,"transit":false,"i_long":106.939679,"line":1,"station_name":"Klenderbaru","station_id":"KLDB","is_transit":false,"i_lat":-6.217455,"distance":1385},{"i_long":106.922662,"is_transit":false,"station_id":"BUA","station_name":"Buaran","i_lat":-6.215568,"time":1,"distance":1305,"transit":false,"line":1},{"line":1,"time":2,"station_id":"KLD","transit":false,"is_transit":false,"distance":3100,"station_name":"Klender","i_long":106.899548,"i_lat":-6.2135},{"transit":false,"time":3,"i_lat":-6.215091,"i_long":106.86807400000001,"line":1,"station_id":"JNG","distance":3395,"is_transit":false,"station_name":"Jatinegara"},{"distance":1377,"station_name":"Matraman","transit":false,"i_lat":-6.212485,"station_id":"MTR","time":2,"line":1,"i_long":106.858896,"is_transit":false},{"distance":1275,"time":2,"i_long":106.84912,"line":2,"station_id":"MRI","station_name":"Manggarai","transit":false,"i_lat":-6.209883,"is_transit":false},{"i_lat":-6.202263,"station_name":"Sudirman","distance":3186,"is_transit":false,"station_id":"SUD","transit":false,"time":4,"i_long":106.822649,"line":1},{"distance":280,"station_name":"Sudirman Baru","i_long":106.819881,"is_transit":false,"i_lat":-6.201433,"time":1,"station_id":"SUDB","line":1,"transit":false},{"station_name":"Karet","i_lat":-6.20132,"distance":471,"i_long":106.816351,"station_id":"KAT","line":1,"is_transit":false,"time":1,"transit":false},{"station_name":"Tanah Abang","line":1,"i_long":106.811091,"station_id":"THB","is_transit":false,"i_lat":-6.185545,"transit":false,"time":5,"distance":2029},{"is_transit":false,"station_name":"Duri","station_id":"DU","transit":false,"distance":3632,"i_long":106.800832,"line":1,"i_lat":-6.155215,"time":8},{"i_long":106.79867,"transit":false,"is_transit":false,"station_name":"Angke","line":1,"station_id":"AK","time":4,"i_lat":-6.144674,"distance":1230},{"i_lat":-6.132549,"is_transit":true,"distance":4102,"station_name":"Kampung Bandan","i_long":106.826365,"time":9,"transit":true,"station_id":"KPB","line":4},{"time":3,"transit":true,"distance":1364,"station_id":"JAKK","is_transit":true,"i_long":106.812439,"line":2,"station_name":"Jakarta Kota","i_lat":-6.137569},{"is_transit":false,"transit":false,"distance":1264,"line":2,"time":4,"station_name":"Jayakarta","i_lat":-6.141205,"i_long":106.820901,"station_id":"JAY"},{"station_id":"MGB","transit":false,"time":2,"distance":1080,"line":2,"i_lat":-6.149769,"i_long":106.82482,"station_name":"Manggabesar","is_transit":false},{"station_name":"Sawah Besar","time":2,"i_long":106.827103,"line":2,"distance":906,"i_lat":-6.160725,"transit":false,"is_transit":false,"station_id":"SW"},{"transit":false,"distance":1149,"station_name":"Juanda","is_transit":false,"time":2,"station_id":"JUA","i_lat":-6.166716,"i_long":106.828284,"line":2},{"time":4,"is_transit":false,"line":2,"i_lat":-6.186295,"i_long":106.832183,"distance":2015,"station_id":"GDD","station_name":"Gondangdia","transit":false}],[{"i_long":106.951283,"distance":0,"is_transit":false,"time":0,"line":1,"i_lat":-6.219053,"transit":false,"station_name":"Cakung","station_id":"CUK"},{"i_lat":-6.217455,"station_name":"Klenderbaru","distance":1385,"is_transit":false,"station_id":"KLDB","line":1,"time":8,"transit":false,"i_long":106.939679},{"line":1,"i_lat":-6.215568,"transit":false,"station_name":"Buaran","is_transit":false,"distance":1305,"time":1,"i_long":106.922662,"station_id":"BUA"},{"transit":false,"i_long":106.899548,"station_name":"Klender","line":1,"station_id":"KLD","time":2,"distance":3100,"i_lat":-6.2135,"is_transit":false},{"distance":3395,"line":1,"station_name":"Jatinegara","transit":true,"station_id":"JNG","time":3,"i_lat":-6.215091,"i_long":106.86807400000001,"is_transit":true},{"station_id":"POK","distance":1236,"i_long":106.861737,"i_lat":-6.209188,"line":11,"is_transit":false,"transit":false,"time":2,"station_name":"Pondok Jati"},{"distance":1829,"i_long":106.855437,"time":2,"station_id":"KMT","is_transit":false,"transit":false,"station_name":"Kramat","i_lat":-6.193792,"line":11},{"line":11,"time":1,"distance":973,"i_lat":-6.185975,"is_transit":false,"station_name":"Gang Sentiong","station_id":"GST","i_long":106.850107,"transit":false},{"is_transit":false,"station_id":"PSE","i_long":106.84368,"time":8,"transit":false,"station_name":"Pasar Senen","i_lat":-6.174784,"distance":1567,"line":11},{"distance":1436,"transit":false,"time":4,"is_transit":false,"station_id":"KMO","station_name":"Kemayoran","i_long":106.839204,"line":11,"i_lat":-6.161728},{"distance":1901,"station_id":"RJW","line":11,"transit":false,"i_lat":-6.14505,"time":5,"is_transit":false,"i_long":106.836569,"station_name":"Rajawali"},{"line":4,"station_name":"Kampung Bandan","time":3,"station_id":"KPB","i_lat":-6.132549,"i_long":106.826365,"is_transit":true,"transit":true,"distance":1444},{"station_id":"AK","distance":4102,"i_lat":-6.144674,"station_name":"Angke","is_transit":false,"i_long":106.79867,"line":1,"transit":false,"time":9},{"station_id":"DU","transit":false,"line":1,"i_long":106.800832,"distance":1230,"i_lat":-6.155215,"station_name":"Duri","is_transit":false,"time":4},{"line":1,"i_lat":-6.185545,"i_long":106.811091,"transit":false,"distance":3632,"station_name":"Tanah Abang","time":8,"is_transit":false,"station_id":"THB"},{"line":1,"is_transit":false,"station_name":"Karet","transit":false,"time":5,"distance":2029,"station_id":"KAT","i_long":106.816351,"i_lat":-6.20132},{"station_id":"SUDB","station_name":"Sudirman Baru","distance":471,"time":1,"transit":false,"line":1,"is_transit":false,"i_lat":-6.201433,"i_long":106.819881},{"is_transit":false,"i_long":106.822649,"station_id":"SUD","distance":280,"station_name":"Sudirman","i_lat":-6.202263,"line":1,"time":1,"transit":false},{"i_lat":-6.209883,"is_transit":true,"i_long":106.84912,"station_id":"MRI","time":4,"distance":3186,"station_name":"Manggarai","line":2,"transit":true},{"i_lat":-6.198556,"time":4,"is_transit":false,"station_id":"CKI","line":2,"transit":false,"distance":1590,"station_name":"Cikini","i_long":106.840169},{"distance":1750,"i_lat":-6.186295,"time":3,"station_id":"GDD","station_name":"Gondangdia","i_long":106.832183,"transit":false,"line":2,"is_transit":false}]]}