{"data":[[{"i_lat":-6.219053,"station_name":"Cakung","i_long":106.951283,"time":0,"line":1,"distance":0,"station_id":"CUK","is_transit":false,"transit":false},{"i_lat":-6.217455,"station_id":"KLDB","time":8,"transit":false,"i_long":106.939679,"station_name":"Klenderbaru","line":1,"distance":1385,"is_transit":false},{"station_id":"BUA","i_lat":-6.215568,"line":1,"transit":false,"station_name":"Buaran","is_transit":false,"distance":1305,"time":1,"i_long":106.922662},{"distance":3100,"transit":false,"i_long":106.899548,"station_name":"Klender","line":1,"is_transit":false,"i_lat":-6.2135,"station_id":"KLD","time":2},{"is_transit":false,"i_lat":-6.215091,"line":1,"distance":3395,"station_id":"JNG","station_name":"Jatinegara","transit":false,"i_long":106.86807400000001,"time":3},{"station_name":"Matraman","time":2,"line":1,"station_id":"MTR","is_transit":false,"i_long":106.858896,"transit":false,"i_lat":-6.212485,"distance":1377},{"time":2,"station_id":"MRI","transit":false,"i_lat":-6.209883,"distance":1275,"is_transit":false,"station_name":"Manggarai","i_long":106.84912,"line":2},{"i_lat":-6.202263,"i_long":106.822649,"is_transit":false,"transit":false,"distance":3186,"line":1,"station_name":"Sudirman","station_id":"SUD","time":4},{"i_long":106.819881,"line":1,"station_name":"Sudirman Baru","distance":280,"station_id":"SUDB","i_lat":-6.201433,"time":1,"transit":false,"is_transit":false},{"distance":471,"line":1,"transit":false,"station_id":"KAT","station_name":"Karet","is_transit":false,"i_lat":-6.20132,"i_long":106.816351,"time":1},{"time":5,"i_long":106.811091,"line":1,"station_id":"THB","station_name":"Tanah Abang","is_transit":true,"transit":true,"distance":2029,"i_lat":-6.185545},{"is_transit":false,"time":6,"i_long":106.79689,"i_lat":-6.207404,"line":6,"station_id":"PLM","distance":3191,"station_name":"Palmerah","transit":false},{"i_long":106.780334,"transit":false,"station_id":"KBY","is_transit":false,"station_name":"Kebayoran","distance":3737,"line":6,"time":7,"i_lat":-6.237242},{"station_id":"PDJ","station_name":"Pondokranji","line":6,"transit":false,"is_transit":false,"time":8,"distance":6218,"i_lat":-6.276362,"i_long":106.74273},{"time":3,"i_long":106.728916,"distance":2179,"transit":false,"line":6,"station_name":"Jurangmangu","is_transit":false,"i_lat":-6.288927,"station_id":"JMU"},{"time":4,"transit":false,"line":6,"station_name":"Sudimara","distance":1994,"i_lat":-6.296963,"station_id":"SDM","i_long":106.712277,"is_transit":false},{"station_name":"Rawa Buntu","line":6,"i_long":106.675475,"distance":4566,"station_id":"RU","is_transit":false,"i_lat":-6.314823,"time":6,"transit":false},{"line":6,"i_long":106.66566,"station_name":"Serpong","is_transit":false,"i_lat":-6.319871,"station_id":"SRP","transit":false,"time":4,"distance":2413}],[{"is_transit":false,"i_long":106.951283,"distance":0,"time":0,"i_lat":-6.219053,"line":1,"transit":false,"station_name":"Cakung","station_id":"CUK"},{"i_lat":-6.217455,"distance":1385,"is_transit":false,"station_id":"KLDB","station_name":"Klenderbaru","transit":false,"time":8,"i_long":106.939679,"line":1},{"distance":1305,"station_id":"BUA","station_name":"Buaran","transit":false,"time":1,"i_lat":-6.215568,"i_long":106.922662,"is_transit":false,"line":1},{"line":1,"station_id":"KLD","transit":false,"is_transit":false,"i_long":106.899548,"distance":3100,"station_name":"Klender","i_lat":-6.2135,"time":2},{"station_name":"Jatinegara","is_transit":true,"transit":true,"distance":3395,"i_lat":-6.215091,"time":3,"line":1,"station_id":"JNG","i_long":106.86807400000001},{"i_lat":-6.209188,"time":2,"i_long":106.861737,"station_id":"POK","is_transit":false,"transit":false,"distance":1236,"station_name":"Pondok Jati","line":11},{"i_long":106.855437,"distance":1829,"line":11,"station_name":"Kramat","i_lat":-6.193792,"time":2,"is_transit":false,"transit":false,"station_id":"KMT"},{"i_long":106.850107,"station_name":"Gang Sentiong","is_transit":false,"transit":false,"station_id":"GST","i_lat":-6.185975,"line":11,"distance":973,"time":1},{"i_long":106.84368,"station_id":"PSE","distance":1567,"is_transit":false,"time":8,"station_name":"Pasar Senen","line":11,"i_lat":-6.174784,"transit":false},{"transit":false,"time":4,"i_lat":-6.161728,"i_long":106.839204,"line":11,"is_transit":false,"station_id":"KMO","distance":1436,"station_name":"Kemayoran"},{"distance":1901,"i_long":106.836569,"time":5,"station_name":"Rajawali","line":11,"i_lat":-6.14505,"station_id":"RJW","transit":false,"is_transit":false},{"station_name":"Kampung Bandan","station_id":"KPB","transit":true,"distance":1444,"time":3,"i_lat":-6.132549,"is_transit":true,"i_long":106.826365,"line":4},{"station_name":"Angke","i_lat":-6.144674,"distance":4102,"transit":false,"time":9,"station_id":"AK","is_transit":false,"line":1,"i_long":106.79867},{"distance":1230,"time":4,"i_lat":-6.155215,"line":1,"station_id":"DU","station_name":"Duri","i_long":106.800832,"transit":false,"is_transit":false},{"station_name":"Tanah Abang","station_id":"THB","time":8,"line":1,"i_lat":-6.185545,"is_transit":true,"distance":3632,"i_long":106.811091,"transit":true},{"i_long":106.79689,"station_name":"Palmerah","is_transit":false,"i_lat":-6.207404,"line":6,"station_id":"PLM","distance":3191,"transit":false,"time":6},{"station_name":"Kebayoran","station_id":"KBY","i_lat":-6.237242,"distance":3737,"transit":false,"line":6,"is_transit":false,"time":7,"i_long":106.780334},{"time":8,"i_long":106.74273,"distance":6218,"is_transit":false,"station_name":"Pondokranji","line":6,"station_id":"PDJ","i_lat":-6.276362,"transit":false},{"station_name":"Jurangmangu","is_transit":false,"transit":false,"line":6,"time":3,"i_lat":-6.288927,"distance":2179,"i_long":106.728916,"station_id":"JMU"},{"i_long":106.712277,"station_id":"SDM","is_transit":false,"distance":1994,"station_name":"Sudimara","time":4,"line":6,"i_lat":-6.296963,"transit":false},{"line":6,"transit":false,"i_lat":-6.314823,"station_name":"Rawa Buntu","distance":4566,"is_transit":false,"station_id":"RU","i_long":106.675475,"time":6},{"transit":false,"station_id":"SRP","i_long":106.66566,"distance":2413,"station_name":"Serpong","time":4,"i_lat":-6.319871,"line":6,"is_transit":false}],[{"i_lat":-6.219053,"is_transit":false,"station_id":"CUK","i_long":106.951283,"time":0,"transit":false,"distance":0,"line":1,"station_name":"Cakung"},{"line":1,"i_lat":-6.217455,"station_id":"KLDB","time":8,"is_transit":false,"station_name":"Klenderbaru","transit":false,"distance":1385,"i_long":106.939679},{"i_lat":-6.215568,"is_transit":false,"station_id":"BUA","station_name":"Buaran","transit":false,"line":1,"distance":1305,"i_long":106.922662,"time":1},{"i_lat":-6.2135,"station_id":"KLD","transit":false,"station_name":"Klender","distance":3100,"i_long":106.899548,"line":1,"is_transit":false,"time":2},{"transit":false,"station_id":"JNG","i_lat":-6.215091,"station_name":"Jatinegara","distance":3395,"is_transit":false,"line":1,"i_long":106.86807400000001,"time":3},{"i_long":106.858896,"station_id":"MTR","station_name":"Matraman","time":2,"i_lat":-6.212485,"transit":false,"distance":1377,"is_transit":false,"line":1},{"i_lat":-6.209883,"line":2,"is_transit":true,"station_id":"MRI","distance":1275,"time":2,"transit":true,"i_long":106.84912,"station_name":"Manggarai"},{"transit":false,"station_name":"Cikini","is_transit":false,"station_id":"CKI","distance":1590,"i_lat":-6.198556,"i_long":106.840169,"line":2,"time":4},{"time":3,"i_lat":-6.186295,"station_name":"Gondangdia","is_transit":false,"station_id":"GDD","distance":1750,"transit":false,"i_long":106.832183,"line":2},{"i_lat":-6.166716,"time":4,"station_id":"JUA","i_long":106.828284,"line":2,"is_transit":false,"distance":2015,"station_name":"Juanda","transit":false},{"distance":1149,"i_lat":-6.160725,"is_transit":false,"transit":false,"station_name":"Sawah Besar","i_long":106.827103,"station_id":"SW","line":2,"time":2},{"station_id":"MGB","time":2,"i_lat":-6.149769,"i_long":106.82482,"transit":false,"station_name":"Manggabesar","distance":906,"line":2,"is_transit":false},{"transit":false,"i_lat":-6.141205,"i_long":106.820901,"line":2,"time":2,"station_id":"JAY","station_name":"Jayakarta","distance":1080,"is_transit":false},{"i_lat":-6.137569,"is_transit":true,"station_name":"Jakarta Kota","distance":1264,"i_long":106.812439,"station_id":"JAKK","line":2,"transit":true,"time":4},{"i_lat":-6.132549,"transit":true,"is_transit":true,"distance":1364,"i_long":106.826365,"line":4,"station_name":"Kampung Bandan","station_id":"KPB","time":3},{"station_id":"AK","transit":false,"distance":4102,"i_long":106.79867,"time":9,"line":1,"is_transit":false,"i_lat":-6.144674,"station_name":"Angke"},{"time":4,"station_name":"Duri","transit":false,"i_lat":-6.155215,"distance":1230,"station_id":"DU","line":1,"i_long":106.800832,"is_transit":false},{"line":1,"time":8,"is_transit":true,"station_name":"Tanah Abang","i_lat":-6.185545,"transit":true,"distance":3632,"station_id":"THB","i_long":106.811091},{"station_name":"Palmerah","i_lat":-6.207404,"station_id":"PLM","distance":3191,"line":6,"time":6,"i_long":106.79689,"transit":false,"is_transit":false},{"time":7,"station_name":"Kebayoran","line":6,"station_id":"KBY","distance":3737,"transit":false,"is_transit":false,"i_lat":-6.237242,"i_long":106.780334},{"transit":false,"station_id":"PDJ","i_lat":-6.276362,"station_name":"Pondokranji","distance":6218,"is_transit":false,"time":8,"i_long":106.74273,"line":6},{"i_lat":-6.288927,"i_long":106.728916,"is_transit":false,"time":3,"station_name":"Jurangmangu","transit":false,"distance":2179,"line":6,"station_id":"JMU"},{"time":4,"station_id":"SDM","line":6,"transit":false,"is_transit":false,"i_lat":-6.296963,"distance":1994,"station_name":"Sudimara","i_long":106.712277},{"is_transit":false,"line":6,"i_long":106.675475,"transit":false,"station_id":"RU","distance":4566,"time":6,"i_lat":-6.314823,"station_name":"Rawa Buntu"},{"is_transit":false,"transit":false,"line":6,"station_id":"SRP","time":4,"i_long":106.66566,"station_name":"Serpong","i_lat":-6.319871,"distance":2413}],[{"distance":0,"station_id":"CUK","i_long":106.951283,"line":1,"is_transit":false,"time":0,"station_name":"Cakung","i_lat":-6.219053,"transit":false},{"distance":1385,"i_long":106.939679,"is_transit":false,"time":8,"station_name":"Klenderbaru","transit":false,"i_lat":-6.217455,"line":1,"station_id":"KLDB"},{"transit":false,"i_lat":-6.215568,"time":1,"i_long":106.922662,"station_id":"BUA","line":1,"station_name":"Buaran","is_transit":false,"distance":1305},{"distance":3100,"i_lat":-6.2135,"is_transit":false,"station_name":"Klender","time":2,"station_id":"KLD","transit":false,"i_long":106.899548,"line":1},{"i_lat":-6.215091,"line":1,"i_long":106.86807400000001,"is_transit":true,"station_name":"Jatinegara","station_id":"JNG","transit":true,"distance":3395,"time":3},{"station_name":"Pondok Jati","transit":false,"time":2,"distance":1236,"station_id":"POK","i_lat":-6.209188,"i_long":106.861737,"line":11,"is_transit":false},{"transit":false,"station_name":"Kramat","station_id":"KMT","is_transit":false,"time":2,"i_lat":-6.193792,"line":11,"distance":1829,"i_long":106.855437},{"distance":973,"station_name":"Gang Sentiong","time":1,"transit":false,"station_id":"GST","i_lat":-6.185975,"is_transit":false,"line":11,"i_long":106.850107},{"line":11,"i_long":106.84368,"i_lat":-6.174784,"time":8,"station_id":"PSE","station_name":"Pasar Senen","transit":false,"is_transit":false,"distance":1567},{"transit":false,"line":11,"time":4,"is_transit":false,"i_long":106.839204,"station_name":"Kemayoran","station_id":"KMO","distance":1436,"i_lat":-6.161728},{"station_id":"RJW","distance":1901,"i_long":106.836569,"transit":false,"is_transit":false,"i_lat":-6.14505,"time":5,"station_name":"Rajawali","line":11},{"line":4,"i_long":106.826365,"transit":true,"is_transit":true,"i_lat":-6.132549,"distance":1444,"station_id":"KPB","station_name":"Kampung Bandan","time":3},{"station_id":"JAKK","i_long":106.812439,"line":2,"station_name":"Jakarta Kota","transit":true,"distance":1364,"i_lat":-6.137569,"is_transit":true,"time":3},{"transit":false,"distance":1264,"station_id":"JAY","is_transit":false,"station_name":"Jayakarta","time":4,"i_lat":-6.141205,"i_long":106.820901,"line":2},{"station_name":"Manggabesar","distance":1080,"i_long":106.82482,"i_lat":-6.149769,"line":2,"station_id":"MGB","time":2,"transit":false,"is_transit":false},{"station_name":"Sawah Besar","time":2,"transit":false,"line":2,"i_lat":-6.160725,"station_id":"SW","i_long":106.827103,"is_transit":false,"distance":906},{"station_name":"Juanda","i_long":106.828284,"is_transit":false,"time":2,"station_id":"JUA","transit":false,"i_lat":-6.166716,"distance":1149,"line":2},{"time":4,"i_long":106.832183,"station_id":"GDD","transit":false,"station_name":"Gondangdia","i_lat":-6.186295,"is_transit":false,"line":2,"distance":2015},{"station_name":"Cikini","is_transit":false,"time":3,"i_long":106.840169,"transit":false,"distance":1750,"line":2,"i_lat":-6.198556,"station_id":"CKI"},{"station_name":"Manggarai","distance":1590,"i_lat":-6.209883,"line":2,"time":4,"is_transit":true,"station_id":"MRI","transit":true,"i_long":106.84912},{"distance":3186,"is_transit":false,"station_id":"SUD","station_name":"Sudirman","time":4,"transit":false,"i_lat":-6.202263,"i_long":106.822649,"line":1},{"line":1,"time":1,"i_lat":-6.201433,"distance":280,"station_name":"Sudirman Baru","is_transit":false,"i_long":106.819881,"station_id":"SUDB","transit":false},{"i_lat":-6.20132,"station_name":"Karet","station_id":"KAT","i_long":106.816351,"line":1,"distance":471,"time":1,"is_transit":false,"transit":false},{"distance":2029,"is_transit":true,"station_name":"Tanah Abang","transit":true,"line":1,"time":5,"i_lat":-6.185545,"station_id":"THB","i_long":106.811091},{"station_name":"Palmerah","time":6,"is_transit":false,"transit":false,"i_long":106.79689,"station_id":"PLM","distance":3191,"i_lat":-6.207404,"line":6},{"is_transit":false,"i_long":106.780334,"i_lat":-6.237242,"station_name":"Kebayoran","line":6,"time":7,"station_id":"KBY","transit":false,"distance":3737},{"i_lat":-6.276362,"time":8,"distance":6218,"station_id":"PDJ","is_transit":false,"line":6,"station_name":"Pondokranji","i_long":106.74273,"transit":false},{"i_long":106.728916,"time":3,"station_name":"Jurangmangu","distance":2179,"line":6,"transit":false,"is_transit":false,"station_id":"JMU","i_lat":-6.288927},{"station_name":"Sudimara","station_id":"SDM","i_long":106.712277,"line":6,"distance":1994,"transit":false,"time":4,"is_transit":false,"i_lat":-6.296963},{"distance":4566,"time":6,"station_name":"Rawa Buntu","station_id":"RU","i_lat":-6.314823,"transit":false,"i_long":106.675475,"is_transit":false,"line":6},{"i_long":106.66566,"line":6,"station_id":"SRP","transit":false,"time":4,"station_name":"Serpong","is_transit":false,"distance":2413,"i_lat":-6.319871}]]}