{"data":[[{"distance":0,"transit":false,"i_lat":-6.219053,"line":1,"time":0,"i_long":106.951283,"station_name":"Cakung","station_id":"CUK","is_transit":false},{"line":1,"distance":1385,"is_transit":false,"i_long":106.939679,"i_lat":-6.217455,"station_name":"Klenderbaru","station_id":"KLDB","time":8,"transit":false},{"transit":false,"station_id":"BUA","i_long":106.922662,"time":1,"is_transit":false,"line":1,"i_lat":-6.215568,"distance":1305,"station_name":"Buaran"},{"is_transit":false,"time":2,"i_long":106.899548,"i_lat":-6.2135,"line":1,"station_name":"Klender","transit":false,"station_id":"KLD","distance":3100},{"time":3,"distance":3395,"i_lat":-6.215091,"line":1,"i_long":106.86807400000001,"station_id":"JNG","station_name":"Jatinegara","transit":false,"is_transit":false},{"station_id":"MTR","i_lat":-6.212485,"i_long":106.858896,"station_name":"Matraman","distance":1377,"time":2,"is_transit":false,"line":1,"transit":false},{"distance":1275,"station_name":"Manggarai","i_lat":-6.209883,"time":2,"station_id":"MRI","i_long":106.84912,"line":2,"is_transit":false,"transit":false},{"i_lat":-6.202263,"station_id":"SUD","line":1,"distance":3186,"station_name":"Sudirman","transit":false,"time":4,"i_long":106.822649,"is_transit":false},{"i_long":106.819881,"is_transit":false,"time":1,"station_id":"SUDB","station_name":"Sudirman Baru","transit":false,"distance":280,"line":1,"i_lat":-6.201433},{"station_name":"Karet","is_transit":false,"transit":false,"i_lat":-6.20132,"distance":471,"time":1,"line":1,"i_long":106.816351,"station_id":"KAT"},{"i_long":106.811091,"line":1,"is_transit":true,"transit":true,"station_id":"THB","i_lat":-6.185545,"distance":2029,"time":5,"station_name":"Tanah Abang"},{"line":6,"time":6,"is_transit":false,"station_id":"PLM","transit":false,"distance":3191,"i_lat":-6.207404,"station_name":"Palmerah","i_long":106.79689},{"i_lat":-6.237242,"time":7,"is_transit":false,"transit":false,"line":6,"station_id":"KBY","station_name":"Kebayoran","i_long":106.780334,"distance":3737},{"distance":6218,"transit":false,"is_transit":false,"i_lat":-6.276362,"i_long":106.74273,"time":8,"station_name":"Pondokranji","line":6,"station_id":"PDJ"},{"station_id":"JMU","is_transit":false,"transit":false,"station_name":"Jurangmangu","line":6,"time":3,"i_lat":-6.288927,"distance":2179,"i_long":106.728916},{"time":4,"is_transit":false,"i_lat":-6.296963,"line":6,"transit":false,"station_name":"Sudimara","distance":1994,"station_id":"SDM","i_long":106.712277},{"station_name":"Rawa Buntu","distance":4566,"i_lat":-6.314823,"line":6,"is_transit":false,"transit":false,"station_id":"RU","i_long":106.675475,"time":6},{"distance":2413,"transit":false,"line":6,"time":4,"is_transit":false,"i_long":106.66566,"station_name":"Serpong","i_lat":-6.319871,"station_id":"SRP"},{"time":4,"is_transit":false,"station_name":"Cisauk","transit":false,"i_long":106.640411,"i_lat":-6.32484,"station_id":"CSK","distance":1784,"line":3},{"line":3,"transit":false,"i_long":106.617853,"station_id":"CC","is_transit":false,"station_name":"Cicayur","distance":2519,"time":4,"i_lat":-6.329547},{"i_long":106.568863,"distance":5968,"time":8,"is_transit":false,"transit":false,"line":6,"i_lat":-6.3441410000000005,"station_id":"PRP","station_name":"Parung Panjang"}],[{"i_lat":-6.219053,"i_long":106.951283,"station_id":"CUK","is_transit":false,"distance":0,"station_name":"Cakung","line":1,"time":0,"transit":false},{"station_id":"KLDB","transit":false,"station_name":"Klenderbaru","is_transit":false,"i_lat":-6.217455,"i_long":106.939679,"line":1,"distance":1385,"time":8},{"station_name":"Buaran","time":1,"line":1,"i_lat":-6.215568,"is_transit":false,"i_long":106.922662,"distance":1305,"station_id":"BUA","transit":false},{"station_name":"Klender","transit":false,"time":2,"is_transit":false,"i_long":106.899548,"distance":3100,"i_lat":-6.2135,"line":1,"station_id":"KLD"},{"station_id":"JNG","station_name":"Jatinegara","line":1,"is_transit":true,"i_lat":-6.215091,"transit":true,"time":3,"i_long":106.86807400000001,"distance":3395},{"i_long":106.861737,"i_lat":-6.209188,"time":2,"station_id":"POK","distance":1236,"transit":false,"station_name":"Pondok Jati","is_transit":false,"line":11},{"distance":1829,"line":11,"station_id":"KMT","time":2,"i_lat":-6.193792,"i_long":106.855437,"transit":false,"station_name":"Kramat","is_transit":false},{"time":1,"transit":false,"is_transit":false,"i_lat":-6.185975,"line":11,"i_long":106.850107,"distance":973,"station_name":"Gang Sentiong","station_id":"GST"},{"line":11,"i_lat":-6.174784,"distance":1567,"is_transit":false,"station_name":"Pasar Senen","transit":false,"time":8,"station_id":"PSE","i_long":106.84368},{"transit":false,"is_transit":false,"time":4,"distance":1436,"i_lat":-6.161728,"i_long":106.839204,"station_id":"KMO","line":11,"station_name":"Kemayoran"},{"is_transit":false,"time":5,"i_long":106.836569,"station_id":"RJW","i_lat":-6.14505,"line":11,"distance":1901,"transit":false,"station_name":"Rajawali"},{"distance":1444,"i_lat":-6.132549,"line":4,"transit":true,"station_id":"KPB","i_long":106.826365,"station_name":"Kampung Bandan","is_transit":true,"time":3},{"station_id":"AK","station_name":"Angke","distance":4102,"transit":false,"time":9,"i_lat":-6.144674,"is_transit":false,"i_long":106.79867,"line":1},{"line":1,"station_id":"DU","distance":1230,"is_transit":false,"transit":false,"i_lat":-6.155215,"time":4,"i_long":106.800832,"station_name":"Duri"},{"i_lat":-6.185545,"line":1,"distance":3632,"time":8,"station_name":"Tanah Abang","is_transit":true,"i_long":106.811091,"station_id":"THB","transit":true},{"station_name":"Palmerah","is_transit":false,"distance":3191,"time":6,"line":6,"transit":false,"i_long":106.79689,"station_id":"PLM","i_lat":-6.207404},{"i_long":106.780334,"station_name":"Kebayoran","transit":false,"distance":3737,"time":7,"i_lat":-6.237242,"station_id":"KBY","is_transit":false,"line":6},{"station_name":"Pondokranji","distance":6218,"transit":false,"time":8,"station_id":"PDJ","is_transit":false,"i_long":106.74273,"i_lat":-6.276362,"line":6},{"time":3,"station_id":"JMU","i_long":106.728916,"i_lat":-6.288927,"station_name":"Jurangmangu","is_transit":false,"line":6,"transit":false,"distance":2179},{"station_id":"SDM","i_lat":-6.296963,"line":6,"distance":1994,"transit":false,"time":4,"i_long":106.712277,"station_name":"Sudimara","is_transit":false},{"distance":4566,"station_id":"RU","is_transit":false,"i_long":106.675475,"time":6,"station_name":"Rawa Buntu","i_lat":-6.314823,"line":6,"transit":false},{"line":6,"i_long":106.66566,"station_name":"Serpong","time":4,"station_id":"SRP","distance":2413,"is_transit":false,"i_lat":-6.319871,"transit":false},{"line":3,"transit":false,"time":4,"is_transit":false,"station_name":"Cisauk","distance":1784,"i_lat":-6.32484,"station_id":"CSK","i_long":106.640411},{"distance":2519,"is_transit":false,"time":4,"i_long":106.617853,"transit":false,"line":3,"station_id":"CC","station_name":"Cicayur","i_lat":-6.329547},{"distance":5968,"transit":false,"time":8,"i_lat":-6.3441410000000005,"station_name":"Parung Panjang","line":6,"station_id":"PRP","i_long":106.568863,"is_transit":false}],[{"station_name":"Cakung","distance":0,"is_transit":false,"i_long":106.951283,"line":1,"station_id":"CUK","transit":false,"i_lat":-6.219053,"time":0},{"transit":false,"station_name":"Klenderbaru","time":8,"line":1,"is_transit":false,"i_long":106.939679,"i_lat":-6.217455,"station_id":"KLDB","distance":1385},{"distance":1305,"transit":false,"station_id":"BUA","station_name":"Buaran","line":1,"i_long":106.922662,"is_transit":false,"time":1,"i_lat":-6.215568},{"station_name":"Klender","is_transit":false,"transit":false,"i_long":106.899548,"line":1,"i_lat":-6.2135,"station_id":"KLD","distance":3100,"time":2},{"is_transit":false,"line":1,"station_id":"JNG","station_name":"Jatinegara","distance":3395,"time":3,"i_lat":-6.215091,"i_long":106.86807400000001,"transit":false},{"distance":1377,"transit":false,"is_transit":false,"i_lat":-6.212485,"i_long":106.858896,"line":1,"time":2,"station_id":"MTR","station_name":"Matraman"},{"line":2,"transit":true,"distance":1275,"station_id":"MRI","time":2,"station_name":"Manggarai","i_long":106.84912,"is_transit":true,"i_lat":-6.209883},{"is_transit":false,"station_name":"Cikini","i_lat":-6.198556,"transit":false,"station_id":"CKI","i_long":106.840169,"line":2,"time":4,"distance":1590},{"i_lat":-6.186295,"station_id":"GDD","station_name":"Gondangdia","distance":1750,"is_transit":false,"i_long":106.832183,"line":2,"transit":false,"time":3},{"distance":2015,"time":4,"i_lat":-6.166716,"transit":false,"i_long":106.828284,"station_name":"Juanda","station_id":"JUA","is_transit":false,"line":2},{"station_id":"SW","is_transit":false,"station_name":"Sawah Besar","i_lat":-6.160725,"i_long":106.827103,"distance":1149,"transit":false,"time":2,"line":2},{"time":2,"i_lat":-6.149769,"distance":906,"station_id":"MGB","is_transit":false,"i_long":106.82482,"line":2,"transit":false,"station_name":"Manggabesar"},{"line":2,"i_long":106.820901,"is_transit":false,"transit":false,"time":2,"distance":1080,"station_id":"JAY","station_name":"Jayakarta","i_lat":-6.141205},{"distance":1264,"time":4,"station_id":"JAKK","station_name":"Jakarta Kota","is_transit":true,"transit":true,"i_lat":-6.137569,"line":2,"i_long":106.812439},{"station_id":"KPB","distance":1364,"is_transit":true,"time":3,"i_long":106.826365,"transit":true,"i_lat":-6.132549,"line":4,"station_name":"Kampung Bandan"},{"time":9,"station_name":"Angke","i_long":106.79867,"is_transit":false,"station_id":"AK","i_lat":-6.144674,"line":1,"distance":4102,"transit":false},{"transit":false,"station_name":"Duri","i_lat":-6.155215,"distance":1230,"line":1,"i_long":106.800832,"is_transit":false,"time":4,"station_id":"DU"},{"time":8,"station_id":"THB","station_name":"Tanah Abang","line":1,"is_transit":true,"distance":3632,"i_lat":-6.185545,"i_long":106.811091,"transit":true},{"is_transit":false,"line":6,"station_id":"PLM","i_lat":-6.207404,"station_name":"Palmerah","transit":false,"i_long":106.79689,"distance":3191,"time":6},{"distance":3737,"i_long":106.780334,"time":7,"station_id":"KBY","station_name":"Kebayoran","transit":false,"i_lat":-6.237242,"line":6,"is_transit":false},{"is_transit":false,"i_lat":-6.276362,"station_name":"Pondokranji","i_long":106.74273,"time":8,"distance":6218,"station_id":"PDJ","line":6,"transit":false},{"is_transit":false,"station_id":"JMU","distance":2179,"transit":false,"station_name":"Jurangmangu","i_lat":-6.288927,"line":6,"i_long":106.728916,"time":3},{"station_id":"SDM","distance":1994,"time":4,"i_lat":-6.296963,"i_long":106.712277,"station_name":"Sudimara","is_transit":false,"transit":false,"line":6},{"time":6,"i_lat":-6.314823,"transit":false,"station_id":"RU","is_transit":false,"distance":4566,"station_name":"Rawa Buntu","i_long":106.675475,"line":6},{"i_lat":-6.319871,"line":6,"i_long":106.66566,"station_name":"Serpong","station_id":"SRP","time":4,"is_transit":false,"transit":false,"distance":2413},{"i_lat":-6.32484,"distance":1784,"transit":false,"i_long":106.640411,"line":3,"is_transit":false,"time":4,"station_name":"Cisauk","station_id":"CSK"},{"i_long":106.617853,"line":3,"is_transit":false,"time":4,"i_lat":-6.329547,"station_id":"CC","transit":false,"distance":2519,"station_name":"Cicayur"},{"distance":5968,"station_name":"Parung Panjang","i_long":106.568863,"line":6,"is_transit":false,"i_lat":-6.3441410000000005,"transit":false,"station_id":"PRP","time":8}],[{"is_transit":false,"i_lat":-6.219053,"station_name":"Cakung","i_long":106.951283,"distance":0,"station_id":"CUK","line":1,"time":0,"transit":false},{"is_transit":false,"i_long":106.939679,"i_lat":-6.217455,"distance":1385,"station_name":"Klenderbaru","transit":false,"line":1,"station_id":"KLDB","time":8},{"transit":false,"i_lat":-6.215568,"is_transit":false,"i_long":106.922662,"station_name":"Buaran","distance":1305,"time":1,"line":1,"station_id":"BUA"},{"is_transit":false,"distance":3100,"time":2,"station_name":"Klender","i_lat":-6.2135,"line":1,"transit":false,"station_id":"KLD","i_long":106.899548},{"distance":3395,"i_lat":-6.215091,"time":3,"station_id":"JNG","transit":true,"station_name":"Jatinegara","is_transit":true,"i_long":106.86807400000001,"line":1},{"i_lat":-6.209188,"is_transit":false,"time":2,"station_name":"Pondok Jati","i_long":106.861737,"line":11,"distance":1236,"transit":false,"station_id":"POK"},{"time":2,"line":11,"station_id":"KMT","transit":false,"i_lat":-6.193792,"is_transit":false,"station_name":"Kramat","distance":1829,"i_long":106.855437},{"station_id":"GST","i_long":106.850107,"i_lat":-6.185975,"transit":false,"distance":973,"time":1,"station_name":"Gang Sentiong","line":11,"is_transit":false},{"transit":false,"distance":1567,"time":8,"i_long":106.84368,"is_transit":false,"line":11,"station_id":"PSE","i_lat":-6.174784,"station_name":"Pasar Senen"},{"is_transit":false,"distance":1436,"station_id":"KMO","i_long":106.839204,"line":11,"transit":false,"time":4,"station_name":"Kemayoran","i_lat":-6.161728},{"station_name":"Rajawali","i_long":106.836569,"line":11,"station_id":"RJW","i_lat":-6.14505,"transit":false,"distance":1901,"time":5,"is_transit":false},{"line":4,"time":3,"transit":true,"station_name":"Kampung Bandan","i_long":106.826365,"i_lat":-6.132549,"distance":1444,"is_transit":true,"station_id":"KPB"},{"transit":true,"time":3,"i_lat":-6.137569,"station_id":"JAKK","station_name":"Jakarta Kota","i_long":106.812439,"line":2,"distance":1364,"is_transit":true},{"time":4,"station_id":"JAY","station_name":"Jayakarta","is_transit":false,"distance":1264,"transit":false,"line":2,"i_lat":-6.141205,"i_long":106.820901},{"i_long":106.82482,"station_id":"MGB","time":2,"transit":false,"station_name":"Manggabesar","is_transit":false,"distance":1080,"i_lat":-6.149769,"line":2},{"station_id":"SW","line":2,"i_long":106.827103,"station_name":"Sawah Besar","distance":906,"transit":false,"i_lat":-6.160725,"time":2,"is_transit":false},{"i_long":106.828284,"i_lat":-6.166716,"time":2,"is_transit":false,"station_id":"JUA","station_name":"Juanda","line":2,"transit":false,"distance":1149},{"distance":2015,"is_transit":false,"i_lat":-6.186295,"time":4,"line":2,"transit":false,"station_id":"GDD","station_name":"Gondangdia","i_long":106.832183},{"distance":1750,"station_name":"Cikini","i_long":106.840169,"station_id":"CKI","is_transit":false,"time":3,"transit":false,"line":2,"i_lat":-6.198556},{"station_id":"MRI","line":2,"i_long":106.84912,"is_transit":true,"distance":1590,"station_name":"Manggarai","time":4,"i_lat":-6.209883,"transit":true},{"station_id":"SUD","is_transit":false,"i_lat":-6.202263,"i_long":106.822649,"line":1,"distance":3186,"transit":false,"time":4,"station_name":"Sudirman"},{"is_transit":false,"transit":false,"distance":280,"i_lat":-6.201433,"line":1,"time":1,"i_long":106.819881,"station_id":"SUDB","station_name":"Sudirman Baru"},{"station_id":"KAT","transit":false,"time":1,"distance":471,"station_name":"Karet","is_transit":false,"i_lat":-6.20132,"i_long":106.816351,"line":1},{"i_long":106.811091,"is_transit":true,"i_lat":-6.185545,"time":5,"station_name":"Tanah Abang","distance":2029,"station_id":"THB","transit":true,"line":1},{"transit":false,"line":6,"station_id":"PLM","time":6,"i_long":106.79689,"is_transit":false,"i_lat":-6.207404,"distance":3191,"station_name":"Palmerah"},{"i_long":106.780334,"distance":3737,"station_name":"Kebayoran","station_id":"KBY","line":6,"time":7,"transit":false,"is_transit":false,"i_lat":-6.237242},{"time":8,"is_transit":false,"i_lat":-6.276362,"distance":6218,"transit":false,"station_id":"PDJ","i_long":106.74273,"line":6,"station_name":"Pondokranji"},{"distance":2179,"transit":false,"i_long":106.728916,"station_name":"Jurangmangu","time":3,"station_id":"JMU","line":6,"is_transit":false,"i_lat":-6.288927},{"i_lat":-6.296963,"transit":false,"i_long":106.712277,"distance":1994,"station_id":"SDM","line":6,"time":4,"station_name":"Sudimara","is_transit":false},{"time":6,"is_transit":false,"transit":false,"i_long":106.675475,"distance":4566,"station_name":"Rawa Buntu","station_id":"RU","i_lat":-6.314823,"line":6},{"station_id":"SRP","is_transit":false,"i_lat":-6.319871,"i_long":106.66566,"station_name":"Serpong","time":4,"line":6,"distance":2413,"transit":false},{"distance":1784,"time":4,"is_transit":false,"transit":false,"station_name":"Cisauk","i_lat":-6.32484,"i_long":106.640411,"station_id":"CSK","line":3},{"transit":false,"line":3,"time":4,"is_transit":false,"i_lat":-6.329547,"distance":2519,"station_name":"Cicayur","station_id":"CC","i_long":106.617853},{"distance":5968,"time":8,"station_id":"PRP","i_long":106.568863,"line":6,"i_lat":-6.3441410000000005,"transit":false,"station_name":"Parung Panjang","is_transit":false}]]}