{"data":[[{"distance":0,"transit":false,"station_id":"CUK","line":1,"is_transit":false,"station_name":"Cakung","i_lat":-6.219053,"i_long":106.951283,"time":0},{"distance":1385,"station_id":"KLDB","i_long":106.939679,"transit":false,"line":1,"i_lat":-6.217455,"station_name":"Klenderbaru","time":8,"is_transit":false},{"line":1,"transit":false,"is_transit":false,"distance":1305,"i_long":106.922662,"station_id":"BUA","station_name":"Buaran","time":1,"i_lat":-6.215568},{"station_id":"KLD","i_long":106.899548,"i_lat":-6.2135,"time":2,"is_transit":false,"station_name":"Klender","transit":false,"distance":3100,"line":1},{"line":1,"is_transit":false,"distance":3395,"station_name":"Jatinegara","transit":false,"station_id":"JNG","time":3,"i_long":106.86807400000001,"i_lat":-6.215091},{"station_id":"MTR","station_name":"Matraman","is_transit":false,"distance":1377,"i_lat":-6.212485,"time":2,"transit":false,"i_long":106.858896,"line":1},{"station_name":"Manggarai","station_id":"MRI","distance":1275,"i_long":106.84912,"is_transit":true,"transit":true,"time":2,"i_lat":-6.209883,"line":2},{"line":2,"time":4,"distance":1590,"is_transit":false,"i_long":106.840169,"station_name":"Cikini","i_lat":-6.198556,"transit":false,"station_id":"CKI"},{"station_id":"GDD","distance":1750,"line":2,"i_lat":-6.186295,"is_transit":false,"i_long":106.832183,"transit":false,"station_name":"Gondangdia","time":3},{"station_id":"JUA","station_name":"Juanda","i_long":106.828284,"transit":false,"distance":2015,"line":2,"is_transit":false,"i_lat":-6.166716,"time":4},{"transit":false,"i_long":106.827103,"line":2,"time":2,"station_name":"Sawah Besar","distance":1149,"is_transit":false,"i_lat":-6.160725,"station_id":"SW"},{"transit":false,"station_id":"MGB","distance":906,"i_long":106.82482,"is_transit":false,"station_name":"Manggabesar","time":2,"i_lat":-6.149769,"line":2},{"time":2,"i_long":106.820901,"station_name":"Jayakarta","line":2,"station_id":"JAY","transit":false,"distance":1080,"is_transit":false,"i_lat":-6.141205}],[{"station_name":"Cakung","time":0,"is_transit":false,"i_lat":-6.219053,"line":1,"station_id":"CUK","transit":false,"distance":0,"i_long":106.951283},{"is_transit":false,"station_id":"KLDB","i_long":106.939679,"line":1,"station_name":"Klenderbaru","time":8,"i_lat":-6.217455,"transit":false,"distance":1385},{"is_transit":false,"time":1,"line":1,"station_id":"BUA","i_lat":-6.215568,"i_long":106.922662,"station_name":"Buaran","transit":false,"distance":1305},{"station_id":"KLD","is_transit":false,"distance":3100,"time":2,"i_long":106.899548,"station_name":"Klender","transit":false,"i_lat":-6.2135,"line":1},{"station_id":"JNG","line":1,"i_long":106.86807400000001,"i_lat":-6.215091,"distance":3395,"station_name":"Jatinegara","transit":true,"time":3,"is_transit":true},{"station_name":"Pondok Jati","station_id":"POK","is_transit":false,"i_lat":-6.209188,"line":11,"i_long":106.861737,"transit":false,"time":2,"distance":1236},{"transit":false,"station_id":"KMT","i_lat":-6.193792,"station_name":"Kramat","time":2,"i_long":106.855437,"line":11,"distance":1829,"is_transit":false},{"i_lat":-6.185975,"i_long":106.850107,"line":11,"transit":false,"is_transit":false,"station_name":"Gang Sentiong","time":1,"distance":973,"station_id":"GST"},{"distance":1567,"i_long":106.84368,"is_transit":false,"station_name":"Pasar Senen","transit":false,"time":8,"station_id":"PSE","line":11,"i_lat":-6.174784},{"line":11,"transit":false,"i_lat":-6.161728,"station_id":"KMO","time":4,"station_name":"Kemayoran","is_transit":false,"i_long":106.839204,"distance":1436},{"station_name":"Rajawali","time":5,"line":11,"distance":1901,"is_transit":false,"station_id":"RJW","i_long":106.836569,"i_lat":-6.14505,"transit":false},{"i_lat":-6.132549,"station_name":"Kampung Bandan","is_transit":true,"time":3,"transit":true,"i_long":106.826365,"station_id":"KPB","distance":1444,"line":4},{"station_name":"Jakarta Kota","i_long":106.812439,"i_lat":-6.137569,"is_transit":true,"time":3,"station_id":"JAKK","distance":1364,"line":2,"transit":true},{"i_long":106.820901,"station_id":"JAY","station_name":"Jayakarta","distance":1264,"transit":false,"i_lat":-6.141205,"time":4,"is_transit":false,"line":2}],[{"transit":false,"station_id":"CUK","i_long":106.951283,"time":0,"distance":0,"station_name":"Cakung","i_lat":-6.219053,"line":1,"is_transit":false},{"is_transit":false,"station_name":"Klenderbaru","transit":false,"station_id":"KLDB","i_long":106.939679,"distance":1385,"time":8,"i_lat":-6.217455,"line":1},{"time":1,"is_transit":false,"line":1,"i_long":106.922662,"i_lat":-6.215568,"station_id":"BUA","distance":1305,"transit":false,"station_name":"Buaran"},{"station_id":"KLD","i_long":106.899548,"i_lat":-6.2135,"time":2,"distance":3100,"is_transit":false,"station_name":"Klender","transit":false,"line":1},{"distance":3395,"is_transit":false,"time":3,"i_lat":-6.215091,"line":1,"i_long":106.86807400000001,"transit":false,"station_id":"JNG","station_name":"Jatinegara"},{"is_transit":false,"time":2,"i_long":106.858896,"i_lat":-6.212485,"station_name":"Matraman","transit":false,"station_id":"MTR","distance":1377,"line":1},{"time":2,"i_long":106.84912,"line":2,"distance":1275,"i_lat":-6.209883,"station_name":"Manggarai","station_id":"MRI","transit":false,"is_transit":false},{"is_transit":false,"time":4,"station_id":"SUD","station_name":"Sudirman","transit":false,"distance":3186,"i_long":106.822649,"line":1,"i_lat":-6.202263},{"time":1,"i_lat":-6.201433,"distance":280,"line":1,"station_name":"Sudirman Baru","i_long":106.819881,"station_id":"SUDB","is_transit":false,"transit":false},{"line":1,"is_transit":false,"i_long":106.816351,"distance":471,"station_name":"Karet","i_lat":-6.20132,"time":1,"transit":false,"station_id":"KAT"},{"i_lat":-6.185545,"station_id":"THB","i_long":106.811091,"station_name":"Tanah Abang","distance":2029,"transit":false,"is_transit":false,"time":5,"line":1},{"time":8,"station_name":"Duri","transit":false,"distance":3632,"i_lat":-6.155215,"is_transit":false,"i_long":106.800832,"line":1,"station_id":"DU"},{"distance":1230,"station_name":"Angke","line":1,"is_transit":false,"transit":false,"station_id":"AK","i_lat":-6.144674,"i_long":106.79867,"time":4},{"station_name":"Kampung Bandan","time":9,"i_lat":-6.132549,"i_long":106.826365,"line":4,"transit":true,"station_id":"KPB","distance":4102,"is_transit":true},{"i_long":106.812439,"station_name":"Jakarta Kota","transit":true,"line":2,"distance":1364,"is_transit":true,"time":3,"station_id":"JAKK","i_lat":-6.137569},{"line":2,"transit":false,"time":4,"i_lat":-6.141205,"station_id":"JAY","distance":1264,"is_transit":false,"i_long":106.820901,"station_name":"Jayakarta"}],[{"i_lat":-6.219053,"i_long":106.951283,"is_transit":false,"station_name":"Cakung","time":0,"transit":false,"station_id":"CUK","line":1,"distance":0},{"transit":false,"is_transit":false,"time":8,"i_long":106.939679,"distance":1385,"i_lat":-6.217455,"station_id":"KLDB","line":1,"station_name":"Klenderbaru"},{"distance":1305,"line":1,"i_long":106.922662,"i_lat":-6.215568,"transit":false,"is_transit":false,"station_id":"BUA","time":1,"station_name":"Buaran"},{"transit":false,"time":2,"distance":3100,"line":1,"station_id":"KLD","i_lat":-6.2135,"i_long":106.899548,"station_name":"Klender","is_transit":false},{"distance":3395,"time":3,"is_transit":true,"transit":true,"station_id":"JNG","i_lat":-6.215091,"i_long":106.86807400000001,"station_name":"Jatinegara","line":1},{"station_name":"Pondok Jati","line":11,"distance":1236,"time":2,"is_transit":false,"station_id":"POK","i_long":106.861737,"i_lat":-6.209188,"transit":false},{"is_transit":false,"i_lat":-6.193792,"i_long":106.855437,"line":11,"transit":false,"station_id":"KMT","distance":1829,"station_name":"Kramat","time":2},{"distance":973,"i_long":106.850107,"is_transit":false,"station_name":"Gang Sentiong","time":1,"i_lat":-6.185975,"line":11,"transit":false,"station_id":"GST"},{"station_id":"PSE","transit":false,"distance":1567,"line":11,"is_transit":false,"i_long":106.84368,"station_name":"Pasar Senen","i_lat":-6.174784,"time":8},{"line":11,"transit":false,"distance":1436,"station_id":"KMO","station_name":"Kemayoran","is_transit":false,"i_lat":-6.161728,"i_long":106.839204,"time":4},{"transit":false,"time":5,"station_name":"Rajawali","station_id":"RJW","is_transit":false,"i_lat":-6.14505,"i_long":106.836569,"distance":1901,"line":11},{"time":3,"i_lat":-6.132549,"line":4,"distance":1444,"is_transit":true,"station_name":"Kampung Bandan","station_id":"KPB","transit":true,"i_long":106.826365},{"transit":false,"distance":4102,"station_name":"Angke","time":9,"i_long":106.79867,"i_lat":-6.144674,"line":1,"station_id":"AK","is_transit":false},{"station_name":"Duri","time":4,"transit":false,"is_transit":false,"i_long":106.800832,"station_id":"DU","line":1,"distance":1230,"i_lat":-6.155215},{"i_lat":-6.185545,"time":8,"is_transit":false,"transit":false,"station_name":"Tanah Abang","line":1,"distance":3632,"i_long":106.811091,"station_id":"THB"},{"station_name":"Karet","time":5,"is_transit":false,"distance":2029,"station_id":"KAT","line":1,"i_lat":-6.20132,"i_long":106.816351,"transit":false},{"time":1,"transit":false,"is_transit":false,"station_name":"Sudirman Baru","i_lat":-6.201433,"i_long":106.819881,"distance":471,"line":1,"station_id":"SUDB"},{"distance":280,"line":1,"is_transit":false,"time":1,"transit":false,"i_lat":-6.202263,"station_id":"SUD","station_name":"Sudirman","i_long":106.822649},{"i_long":106.84912,"transit":true,"distance":3186,"i_lat":-6.209883,"station_name":"Manggarai","line":2,"is_transit":true,"time":4,"station_id":"MRI"},{"is_transit":false,"i_long":106.840169,"station_name":"Cikini","line":2,"i_lat":-6.198556,"transit":false,"station_id":"CKI","time":4,"distance":1590},{"station_name":"Gondangdia","distance":1750,"i_long":106.832183,"i_lat":-6.186295,"line":2,"transit":false,"time":3,"station_id":"GDD","is_transit":false},{"transit":false,"i_lat":-6.166716,"is_transit":false,"i_long":106.828284,"station_name":"Juanda","distance":2015,"time":4,"station_id":"JUA","line":2},{"station_id":"SW","time":2,"station_name":"Sawah Besar","i_lat":-6.160725,"line":2,"distance":1149,"transit":false,"is_transit":false,"i_long":106.827103},{"station_name":"Manggabesar","station_id":"MGB","time":2,"i_lat":-6.149769,"line":2,"i_long":106.82482,"transit":false,"is_transit":false,"distance":906},{"time":2,"i_long":106.820901,"station_name":"Jayakarta","station_id":"JAY","distance":1080,"line":2,"is_transit":false,"transit":false,"i_lat":-6.141205}]]}