{"data":[[{"station_name":"Cakung","is_transit":false,"transit":false,"distance":0,"time":0,"station_id":"CUK","i_long":106.951283,"i_lat":-6.219053,"line":1},{"station_name":"Klenderbaru","station_id":"KLDB","i_lat":-6.217455,"transit":false,"i_long":106.939679,"line":1,"time":8,"is_transit":false,"distance":1385},{"transit":false,"i_long":106.922662,"line":1,"time":1,"i_lat":-6.215568,"is_transit":false,"station_name":"Buaran","station_id":"BUA","distance":1305},{"station_name":"Klender","time":2,"transit":false,"i_long":106.899548,"is_transit":false,"line":1,"station_id":"KLD","i_lat":-6.2135,"distance":3100},{"station_id":"JNG","transit":false,"line":1,"i_long":106.86807400000001,"distance":3395,"is_transit":false,"station_name":"Jatinegara","i_lat":-6.215091,"time":3},{"is_transit":false,"line":1,"transit":false,"time":2,"i_lat":-6.212485,"i_long":106.858896,"distance":1377,"station_id":"MTR","station_name":"Matraman"},{"i_long":106.84912,"transit":false,"distance":1275,"station_id":"MRI","is_transit":false,"i_lat":-6.209883,"line":2,"time":2,"station_name":"Manggarai"},{"station_name":"Sudirman","i_long":106.822649,"time":4,"distance":3186,"transit":false,"i_lat":-6.202263,"line":1,"station_id":"SUD","is_transit":false},{"line":1,"station_name":"Sudirman Baru","i_long":106.819881,"is_transit":false,"time":1,"station_id":"SUDB","i_lat":-6.201433,"distance":280,"transit":false},{"line":1,"is_transit":false,"i_long":106.816351,"distance":471,"time":1,"station_id":"KAT","transit":false,"station_name":"Karet","i_lat":-6.20132},{"transit":false,"is_transit":false,"line":1,"time":5,"distance":2029,"i_lat":-6.185545,"station_id":"THB","i_long":106.811091,"station_name":"Tanah Abang"},{"is_transit":true,"line":1,"i_long":106.800832,"i_lat":-6.155215,"distance":3632,"transit":true,"time":8,"station_name":"Duri","station_id":"DU"},{"station_name":"Grogol","line":5,"station_id":"GGL","time":3,"is_transit":false,"transit":false,"i_long":106.788277,"distance":1700,"i_lat":-6.162021},{"time":2,"i_lat":-6.161433,"station_id":"PSG","station_name":"Pesing","line":5,"is_transit":false,"i_long":106.771379,"distance":2036,"transit":false},{"station_name":"Taman Kota","distance":1614,"station_id":"TKO","time":2,"i_lat":-6.1587309999999995,"is_transit":false,"transit":false,"i_long":106.756522,"line":5},{"distance":2334,"station_name":"Bojongindah","transit":false,"station_id":"BOI","i_lat":-6.159876,"is_transit":false,"time":2,"line":5,"i_long":106.737035},{"i_long":106.723064,"station_name":"Rawa Buaya","i_lat":-6.162758,"transit":false,"line":5,"distance":1152,"time":4,"is_transit":false,"station_id":"RW"},{"station_name":"Kalideres","is_transit":false,"time":3,"station_id":"KDS","i_lat":-6.166068,"i_long":106.701612,"line":5,"distance":2504,"transit":false},{"transit":false,"station_name":"Poris","time":3,"station_id":"PI","i_long":106.679458,"is_transit":false,"i_lat":-6.169933,"distance":2548,"line":5}],[{"is_transit":false,"transit":false,"i_long":106.951283,"line":1,"station_name":"Cakung","i_lat":-6.219053,"station_id":"CUK","distance":0,"time":0},{"line":1,"station_id":"KLDB","transit":false,"station_name":"Klenderbaru","i_long":106.939679,"time":8,"distance":1385,"is_transit":false,"i_lat":-6.217455},{"distance":1305,"station_id":"BUA","is_transit":false,"i_long":106.922662,"time":1,"line":1,"transit":false,"station_name":"Buaran","i_lat":-6.215568},{"is_transit":false,"line":1,"distance":3100,"station_name":"Klender","transit":false,"i_lat":-6.2135,"station_id":"KLD","i_long":106.899548,"time":2},{"i_long":106.86807400000001,"time":3,"is_transit":true,"station_name":"Jatinegara","station_id":"JNG","i_lat":-6.215091,"line":1,"transit":true,"distance":3395},{"distance":1236,"i_lat":-6.209188,"station_name":"Pondok Jati","is_transit":false,"transit":false,"time":2,"station_id":"POK","i_long":106.861737,"line":11},{"is_transit":false,"distance":1829,"transit":false,"i_lat":-6.193792,"station_name":"Kramat","line":11,"station_id":"KMT","time":2,"i_long":106.855437},{"i_lat":-6.185975,"station_name":"Gang Sentiong","transit":false,"station_id":"GST","distance":973,"line":11,"time":1,"i_long":106.850107,"is_transit":false},{"is_transit":false,"time":8,"transit":false,"station_id":"PSE","i_lat":-6.174784,"line":11,"distance":1567,"station_name":"Pasar Senen","i_long":106.84368},{"distance":1436,"i_long":106.839204,"time":4,"station_id":"KMO","transit":false,"station_name":"Kemayoran","is_transit":false,"i_lat":-6.161728,"line":11},{"station_name":"Rajawali","is_transit":false,"time":5,"i_lat":-6.14505,"station_id":"RJW","distance":1901,"i_long":106.836569,"transit":false,"line":11},{"i_lat":-6.132549,"time":3,"i_long":106.826365,"distance":1444,"station_id":"KPB","station_name":"Kampung Bandan","is_transit":true,"line":4,"transit":true},{"line":1,"station_id":"AK","i_lat":-6.144674,"distance":4102,"transit":false,"station_name":"Angke","i_long":106.79867,"is_transit":false,"time":9},{"transit":true,"time":4,"line":1,"station_id":"DU","i_long":106.800832,"station_name":"Duri","distance":1230,"i_lat":-6.155215,"is_transit":true},{"i_lat":-6.162021,"is_transit":false,"distance":1700,"station_id":"GGL","station_name":"Grogol","time":3,"i_long":106.788277,"line":5,"transit":false},{"is_transit":false,"line":5,"transit":false,"station_id":"PSG","i_long":106.771379,"time":2,"i_lat":-6.161433,"distance":2036,"station_name":"Pesing"},{"i_lat":-6.1587309999999995,"time":2,"station_name":"Taman Kota","distance":1614,"station_id":"TKO","i_long":106.756522,"is_transit":false,"line":5,"transit":false},{"i_lat":-6.159876,"transit":false,"distance":2334,"time":2,"i_long":106.737035,"line":5,"station_name":"Bojongindah","is_transit":false,"station_id":"BOI"},{"i_long":106.723064,"transit":false,"station_name":"Rawa Buaya","line":5,"station_id":"RW","is_transit":false,"i_lat":-6.162758,"distance":1152,"time":4},{"transit":false,"station_name":"Kalideres","station_id":"KDS","line":5,"time":3,"i_lat":-6.166068,"i_long":106.701612,"distance":2504,"is_transit":false},{"time":3,"transit":false,"i_long":106.679458,"i_lat":-6.169933,"distance":2548,"station_name":"Poris","line":5,"station_id":"PI","is_transit":false}],[{"i_lat":-6.219053,"transit":false,"line":1,"station_name":"Cakung","is_transit":false,"time":0,"i_long":106.951283,"distance":0,"station_id":"CUK"},{"station_id":"KLDB","time":8,"line":1,"station_name":"Klenderbaru","transit":false,"i_lat":-6.217455,"distance":1385,"i_long":106.939679,"is_transit":false},{"transit":false,"i_lat":-6.215568,"distance":1305,"station_id":"BUA","i_long":106.922662,"line":1,"station_name":"Buaran","time":1,"is_transit":false},{"station_id":"KLD","i_long":106.899548,"is_transit":false,"time":2,"distance":3100,"i_lat":-6.2135,"station_name":"Klender","line":1,"transit":false},{"distance":3395,"i_lat":-6.215091,"station_id":"JNG","line":1,"time":3,"i_long":106.86807400000001,"station_name":"Jatinegara","transit":false,"is_transit":false},{"distance":1377,"station_name":"Matraman","station_id":"MTR","transit":false,"i_long":106.858896,"i_lat":-6.212485,"time":2,"line":1,"is_transit":false},{"station_id":"MRI","line":2,"i_long":106.84912,"is_transit":true,"transit":true,"time":2,"i_lat":-6.209883,"distance":1275,"station_name":"Manggarai"},{"station_name":"Cikini","time":4,"station_id":"CKI","line":2,"is_transit":false,"i_lat":-6.198556,"i_long":106.840169,"transit":false,"distance":1590},{"line":2,"i_lat":-6.186295,"time":3,"station_id":"GDD","station_name":"Gondangdia","distance":1750,"is_transit":false,"i_long":106.832183,"transit":false},{"transit":false,"distance":2015,"station_name":"Juanda","time":4,"i_long":106.828284,"station_id":"JUA","i_lat":-6.166716,"is_transit":false,"line":2},{"station_name":"Sawah Besar","distance":1149,"station_id":"SW","is_transit":false,"transit":false,"time":2,"i_lat":-6.160725,"i_long":106.827103,"line":2},{"i_lat":-6.149769,"line":2,"distance":906,"transit":false,"station_name":"Manggabesar","is_transit":false,"i_long":106.82482,"station_id":"MGB","time":2},{"i_lat":-6.141205,"line":2,"time":2,"transit":false,"station_id":"JAY","is_transit":false,"distance":1080,"station_name":"Jayakarta","i_long":106.820901},{"distance":1264,"i_long":106.812439,"i_lat":-6.137569,"station_id":"JAKK","line":2,"transit":true,"station_name":"Jakarta Kota","is_transit":true,"time":4},{"station_id":"KPB","line":4,"i_long":106.826365,"distance":1364,"i_lat":-6.132549,"transit":true,"is_transit":true,"time":3,"station_name":"Kampung Bandan"},{"is_transit":false,"time":9,"i_long":106.79867,"station_name":"Angke","distance":4102,"station_id":"AK","line":1,"i_lat":-6.144674,"transit":false},{"distance":1230,"transit":true,"is_transit":true,"station_name":"Duri","line":1,"i_long":106.800832,"i_lat":-6.155215,"time":4,"station_id":"DU"},{"is_transit":false,"i_long":106.788277,"time":3,"distance":1700,"station_name":"Grogol","i_lat":-6.162021,"line":5,"transit":false,"station_id":"GGL"},{"line":5,"i_lat":-6.161433,"distance":2036,"transit":false,"is_transit":false,"station_id":"PSG","i_long":106.771379,"time":2,"station_name":"Pesing"},{"i_long":106.756522,"transit":false,"station_name":"Taman Kota","i_lat":-6.1587309999999995,"distance":1614,"station_id":"TKO","is_transit":false,"line":5,"time":2},{"transit":false,"i_lat":-6.159876,"station_name":"Bojongindah","line":5,"distance":2334,"time":2,"station_id":"BOI","i_long":106.737035,"is_transit":false},{"line":5,"time":4,"station_name":"Rawa Buaya","is_transit":false,"station_id":"RW","transit":false,"i_long":106.723064,"distance":1152,"i_lat":-6.162758},{"station_id":"KDS","i_lat":-6.166068,"distance":2504,"is_transit":false,"station_name":"Kalideres","time":3,"i_long":106.701612,"line":5,"transit":false},{"station_id":"PI","i_long":106.679458,"i_lat":-6.169933,"is_transit":false,"transit":false,"time":3,"line":5,"station_name":"Poris","distance":2548}],[{"station_name":"Cakung","i_lat":-6.219053,"time":0,"transit":false,"is_transit":false,"i_long":106.951283,"station_id":"CUK","line":1,"distance":0},{"transit":false,"station_name":"Klenderbaru","i_lat":-6.217455,"station_id":"KLDB","i_long":106.939679,"distance":1385,"is_transit":false,"line":1,"time":8},{"transit":false,"station_id":"BUA","i_long":106.922662,"line":1,"i_lat":-6.215568,"distance":1305,"time":1,"is_transit":false,"station_name":"Buaran"},{"transit":false,"station_id":"KLD","i_long":106.899548,"i_lat":-6.2135,"distance":3100,"line":1,"station_name":"Klender","time":2,"is_transit":false},{"is_transit":true,"distance":3395,"station_id":"JNG","time":3,"transit":true,"station_name":"Jatinegara","i_lat":-6.215091,"i_long":106.86807400000001,"line":1},{"time":2,"is_transit":false,"station_id":"POK","i_long":106.861737,"line":11,"transit":false,"i_lat":-6.209188,"station_name":"Pondok Jati","distance":1236},{"distance":1829,"i_lat":-6.193792,"station_id":"KMT","transit":false,"station_name":"Kramat","is_transit":false,"time":2,"i_long":106.855437,"line":11},{"station_id":"GST","station_name":"Gang Sentiong","line":11,"i_lat":-6.185975,"distance":973,"time":1,"i_long":106.850107,"is_transit":false,"transit":false},{"transit":false,"time":8,"i_long":106.84368,"i_lat":-6.174784,"is_transit":false,"line":11,"station_name":"Pasar Senen","station_id":"PSE","distance":1567},{"distance":1436,"transit":false,"time":4,"line":11,"station_name":"Kemayoran","station_id":"KMO","i_long":106.839204,"i_lat":-6.161728,"is_transit":false},{"i_lat":-6.14505,"station_name":"Rajawali","i_long":106.836569,"distance":1901,"transit":false,"station_id":"RJW","line":11,"is_transit":false,"time":5},{"transit":true,"i_lat":-6.132549,"distance":1444,"time":3,"station_name":"Kampung Bandan","is_transit":true,"i_long":106.826365,"line":4,"station_id":"KPB"},{"transit":true,"is_transit":true,"station_id":"JAKK","time":3,"station_name":"Jakarta Kota","i_long":106.812439,"distance":1364,"i_lat":-6.137569,"line":2},{"is_transit":false,"i_lat":-6.141205,"line":2,"time":4,"station_id":"JAY","distance":1264,"i_long":106.820901,"station_name":"Jayakarta","transit":false},{"distance":1080,"station_id":"MGB","station_name":"Manggabesar","transit":false,"time":2,"i_long":106.82482,"i_lat":-6.149769,"is_transit":false,"line":2},{"distance":906,"station_name":"Sawah Besar","is_transit":false,"i_lat":-6.160725,"transit":false,"time":2,"station_id":"SW","line":2,"i_long":106.827103},{"distance":1149,"station_name":"Juanda","line":2,"time":2,"is_transit":false,"station_id":"JUA","i_lat":-6.166716,"i_long":106.828284,"transit":false},{"station_name":"Gondangdia","station_id":"GDD","transit":false,"distance":2015,"time":4,"i_lat":-6.186295,"is_transit":false,"line":2,"i_long":106.832183},{"i_lat":-6.198556,"station_id":"CKI","transit":false,"time":3,"distance":1750,"station_name":"Cikini","is_transit":false,"i_long":106.840169,"line":2},{"distance":1590,"line":2,"time":4,"station_name":"Manggarai","transit":true,"is_transit":true,"i_lat":-6.209883,"station_id":"MRI","i_long":106.84912},{"i_lat":-6.202263,"time":4,"is_transit":false,"station_name":"Sudirman","station_id":"SUD","transit":false,"i_long":106.822649,"line":1,"distance":3186},{"distance":280,"line":1,"transit":false,"i_long":106.819881,"i_lat":-6.201433,"station_id":"SUDB","station_name":"Sudirman Baru","is_transit":false,"time":1},{"is_transit":false,"time":1,"i_long":106.816351,"distance":471,"station_id":"KAT","line":1,"i_lat":-6.20132,"transit":false,"station_name":"Karet"},{"is_transit":false,"i_lat":-6.185545,"i_long":106.811091,"distance":2029,"time":5,"station_id":"THB","line":1,"station_name":"Tanah Abang","transit":false},{"transit":true,"station_name":"Duri","i_long":106.800832,"distance":3632,"is_transit":true,"station_id":"DU","line":1,"time":8,"i_lat":-6.155215},{"station_id":"GGL","transit":false,"line":5,"time":3,"station_name":"Grogol","distance":1700,"is_transit":false,"i_long":106.788277,"i_lat":-6.162021},{"time":2,"transit":false,"station_id":"PSG","i_lat":-6.161433,"distance":2036,"station_name":"Pesing","line":5,"is_transit":false,"i_long":106.771379},{"time":2,"line":5,"station_name":"Taman Kota","distance":1614,"station_id":"TKO","i_lat":-6.1587309999999995,"is_transit":false,"transit":false,"i_long":106.756522},{"is_transit":false,"station_name":"Bojongindah","time":2,"distance":2334,"i_long":106.737035,"i_lat":-6.159876,"transit":false,"station_id":"BOI","line":5},{"i_lat":-6.162758,"station_name":"Rawa Buaya","is_transit":false,"line":5,"distance":1152,"transit":false,"i_long":106.723064,"station_id":"RW","time":4},{"time":3,"i_long":106.701612,"i_lat":-6.166068,"line":5,"distance":2504,"transit":false,"is_transit":false,"station_id":"KDS","station_name":"Kalideres"},{"distance":2548,"is_transit":false,"time":3,"station_id":"PI","i_lat":-6.169933,"transit":false,"station_name":"Poris","line":5,"i_long":106.679458}]]}