{"data":[[{"station_id":"CUK","transit":false,"i_long":106.951283,"is_transit":false,"line":1,"i_lat":-6.219053,"time":0,"distance":0,"station_name":"Cakung"},{"i_long":106.939679,"line":1,"i_lat":-6.217455,"is_transit":false,"station_name":"Klenderbaru","distance":1385,"station_id":"KLDB","time":8,"transit":false},{"line":1,"time":1,"station_id":"BUA","distance":1305,"station_name":"Buaran","transit":false,"i_lat":-6.215568,"i_long":106.922662,"is_transit":false},{"station_name":"Klender","transit":false,"time":2,"i_long":106.899548,"line":1,"station_id":"KLD","is_transit":false,"i_lat":-6.2135,"distance":3100},{"time":3,"is_transit":false,"line":1,"i_lat":-6.215091,"station_name":"Jatinegara","transit":false,"station_id":"JNG","distance":3395,"i_long":106.86807400000001},{"time":2,"transit":false,"line":1,"station_name":"Matraman","distance":1377,"i_long":106.858896,"station_id":"MTR","i_lat":-6.212485,"is_transit":false},{"station_id":"MRI","station_name":"Manggarai","transit":false,"i_lat":-6.209883,"i_long":106.84912,"time":2,"line":2,"distance":1275,"is_transit":false},{"i_lat":-6.202263,"station_name":"Sudirman","transit":false,"is_transit":false,"distance":3186,"time":4,"station_id":"SUD","i_long":106.822649,"line":1},{"station_name":"Sudirman Baru","time":1,"line":1,"transit":false,"distance":280,"is_transit":false,"i_lat":-6.201433,"i_long":106.819881,"station_id":"SUDB"},{"is_transit":false,"transit":false,"i_long":106.816351,"station_id":"KAT","station_name":"Karet","distance":471,"line":1,"i_lat":-6.20132,"time":1},{"i_lat":-6.185545,"line":1,"transit":true,"i_long":106.811091,"time":5,"station_name":"Tanah Abang","is_transit":true,"distance":2029,"station_id":"THB"},{"station_id":"PLM","transit":false,"i_long":106.79689,"distance":3191,"line":6,"station_name":"Palmerah","time":6,"is_transit":false,"i_lat":-6.207404},{"distance":3737,"i_long":106.780334,"transit":false,"i_lat":-6.237242,"line":6,"is_transit":false,"time":7,"station_id":"KBY","station_name":"Kebayoran"},{"is_transit":false,"line":6,"station_id":"PDJ","time":8,"distance":6218,"transit":false,"station_name":"Pondokranji","i_long":106.74273,"i_lat":-6.276362},{"station_id":"JMU","transit":false,"i_long":106.728916,"line":6,"distance":2179,"is_transit":false,"time":3,"station_name":"Jurangmangu","i_lat":-6.288927},{"distance":1994,"station_name":"Sudimara","transit":false,"time":4,"i_lat":-6.296963,"is_transit":false,"station_id":"SDM","i_long":106.712277,"line":6}],[{"i_long":106.951283,"distance":0,"station_id":"CUK","station_name":"Cakung","is_transit":false,"time":0,"i_lat":-6.219053,"transit":false,"line":1},{"station_id":"KLDB","station_name":"Klenderbaru","transit":false,"i_lat":-6.217455,"line":1,"time":8,"i_long":106.939679,"distance":1385,"is_transit":false},{"distance":1305,"line":1,"is_transit":false,"i_lat":-6.215568,"station_id":"BUA","station_name":"Buaran","time":1,"transit":false,"i_long":106.922662},{"i_long":106.899548,"distance":3100,"i_lat":-6.2135,"line":1,"time":2,"station_name":"Klender","station_id":"KLD","is_transit":false,"transit":false},{"i_lat":-6.215091,"transit":true,"time":3,"station_id":"JNG","station_name":"Jatinegara","line":1,"i_long":106.86807400000001,"is_transit":true,"distance":3395},{"i_lat":-6.209188,"i_long":106.861737,"station_name":"Pondok Jati","transit":false,"time":2,"line":11,"distance":1236,"is_transit":false,"station_id":"POK"},{"station_id":"KMT","i_lat":-6.193792,"line":11,"time":2,"transit":false,"i_long":106.855437,"is_transit":false,"distance":1829,"station_name":"Kramat"},{"i_long":106.850107,"transit":false,"i_lat":-6.185975,"time":1,"station_name":"Gang Sentiong","line":11,"distance":973,"station_id":"GST","is_transit":false},{"i_lat":-6.174784,"is_transit":false,"station_id":"PSE","time":8,"station_name":"Pasar Senen","transit":false,"i_long":106.84368,"line":11,"distance":1567},{"is_transit":false,"distance":1436,"transit":false,"i_lat":-6.161728,"line":11,"time":4,"station_name":"Kemayoran","station_id":"KMO","i_long":106.839204},{"is_transit":false,"i_lat":-6.14505,"distance":1901,"station_id":"RJW","line":11,"station_name":"Rajawali","time":5,"i_long":106.836569,"transit":false},{"i_lat":-6.132549,"station_id":"KPB","station_name":"Kampung Bandan","transit":true,"is_transit":true,"distance":1444,"i_long":106.826365,"line":4,"time":3},{"station_name":"Angke","distance":4102,"line":1,"i_long":106.79867,"transit":false,"i_lat":-6.144674,"time":9,"station_id":"AK","is_transit":false},{"is_transit":false,"station_id":"DU","distance":1230,"i_lat":-6.155215,"station_name":"Duri","transit":false,"line":1,"i_long":106.800832,"time":4},{"i_long":106.811091,"time":8,"station_id":"THB","transit":true,"distance":3632,"is_transit":true,"i_lat":-6.185545,"line":1,"station_name":"Tanah Abang"},{"transit":false,"station_id":"PLM","i_long":106.79689,"line":6,"distance":3191,"station_name":"Palmerah","is_transit":false,"i_lat":-6.207404,"time":6},{"distance":3737,"i_lat":-6.237242,"station_name":"Kebayoran","transit":false,"i_long":106.780334,"station_id":"KBY","time":7,"is_transit":false,"line":6},{"i_lat":-6.276362,"line":6,"transit":false,"distance":6218,"station_name":"Pondokranji","is_transit":false,"i_long":106.74273,"station_id":"PDJ","time":8},{"i_lat":-6.288927,"line":6,"time":3,"transit":false,"station_id":"JMU","is_transit":false,"station_name":"Jurangmangu","distance":2179,"i_long":106.728916},{"distance":1994,"i_long":106.712277,"i_lat":-6.296963,"station_id":"SDM","line":6,"transit":false,"station_name":"Sudimara","is_transit":false,"time":4}],[{"station_id":"CUK","line":1,"i_long":106.951283,"distance":0,"i_lat":-6.219053,"transit":false,"is_transit":false,"time":0,"station_name":"Cakung"},{"is_transit":false,"time":8,"i_long":106.939679,"station_name":"Klenderbaru","station_id":"KLDB","distance":1385,"line":1,"i_lat":-6.217455,"transit":false},{"is_transit":false,"transit":false,"distance":1305,"station_name":"Buaran","line":1,"i_long":106.922662,"i_lat":-6.215568,"time":1,"station_id":"BUA"},{"time":2,"i_long":106.899548,"station_name":"Klender","i_lat":-6.2135,"distance":3100,"transit":false,"line":1,"station_id":"KLD","is_transit":false},{"station_name":"Jatinegara","is_transit":false,"i_long":106.86807400000001,"line":1,"time":3,"distance":3395,"transit":false,"station_id":"JNG","i_lat":-6.215091},{"is_transit":false,"i_lat":-6.212485,"distance":1377,"line":1,"station_id":"MTR","time":2,"station_name":"Matraman","i_long":106.858896,"transit":false},{"line":2,"i_lat":-6.209883,"station_id":"MRI","distance":1275,"time":2,"station_name":"Manggarai","i_long":106.84912,"transit":true,"is_transit":true},{"station_id":"CKI","time":4,"distance":1590,"i_lat":-6.198556,"transit":false,"i_long":106.840169,"station_name":"Cikini","line":2,"is_transit":false},{"time":3,"transit":false,"station_id":"GDD","distance":1750,"i_lat":-6.186295,"i_long":106.832183,"station_name":"Gondangdia","is_transit":false,"line":2},{"i_lat":-6.166716,"distance":2015,"is_transit":false,"i_long":106.828284,"station_id":"JUA","station_name":"Juanda","time":4,"transit":false,"line":2},{"line":2,"is_transit":false,"station_id":"SW","i_lat":-6.160725,"transit":false,"station_name":"Sawah Besar","distance":1149,"i_long":106.827103,"time":2},{"i_lat":-6.149769,"station_name":"Manggabesar","distance":906,"i_long":106.82482,"transit":false,"is_transit":false,"station_id":"MGB","line":2,"time":2},{"is_transit":false,"station_id":"JAY","station_name":"Jayakarta","i_long":106.820901,"time":2,"distance":1080,"i_lat":-6.141205,"transit":false,"line":2},{"is_transit":true,"station_id":"JAKK","distance":1264,"i_lat":-6.137569,"time":4,"transit":true,"i_long":106.812439,"station_name":"Jakarta Kota","line":2},{"time":3,"line":4,"transit":true,"i_lat":-6.132549,"i_long":106.826365,"is_transit":true,"station_id":"KPB","station_name":"Kampung Bandan","distance":1364},{"i_lat":-6.144674,"i_long":106.79867,"distance":4102,"transit":false,"line":1,"time":9,"station_id":"AK","station_name":"Angke","is_transit":false},{"time":4,"is_transit":false,"station_id":"DU","i_lat":-6.155215,"line":1,"station_name":"Duri","i_long":106.800832,"distance":1230,"transit":false},{"station_id":"THB","station_name":"Tanah Abang","line":1,"i_lat":-6.185545,"time":8,"distance":3632,"i_long":106.811091,"is_transit":true,"transit":true},{"transit":false,"distance":3191,"i_long":106.79689,"i_lat":-6.207404,"is_transit":false,"line":6,"station_name":"Palmerah","station_id":"PLM","time":6},{"transit":false,"time":7,"distance":3737,"line":6,"station_name":"Kebayoran","station_id":"KBY","i_long":106.780334,"i_lat":-6.237242,"is_transit":false},{"i_lat":-6.276362,"station_name":"Pondokranji","i_long":106.74273,"distance":6218,"transit":false,"station_id":"PDJ","line":6,"is_transit":false,"time":8},{"transit":false,"i_lat":-6.288927,"distance":2179,"time":3,"station_name":"Jurangmangu","is_transit":false,"i_long":106.728916,"line":6,"station_id":"JMU"},{"transit":false,"is_transit":false,"station_id":"SDM","time":4,"station_name":"Sudimara","i_long":106.712277,"distance":1994,"i_lat":-6.296963,"line":6}],[{"is_transit":false,"i_lat":-6.219053,"line":1,"time":0,"station_id":"CUK","distance":0,"i_long":106.951283,"station_name":"Cakung","transit":false},{"station_id":"KLDB","distance":1385,"station_name":"Klenderbaru","transit":false,"time":8,"i_long":106.939679,"i_lat":-6.217455,"is_transit":false,"line":1},{"distance":1305,"station_name":"Buaran","is_transit":false,"i_lat":-6.215568,"transit":false,"time":1,"station_id":"BUA","line":1,"i_long":106.922662},{"station_name":"Klender","distance":3100,"line":1,"time":2,"is_transit":false,"station_id":"KLD","i_lat":-6.2135,"i_long":106.899548,"transit":false},{"i_lat":-6.215091,"is_transit":true,"distance":3395,"station_id":"JNG","line":1,"transit":true,"time":3,"station_name":"Jatinegara","i_long":106.86807400000001},{"line":11,"station_name":"Pondok Jati","is_transit":false,"distance":1236,"station_id":"POK","transit":false,"i_long":106.861737,"time":2,"i_lat":-6.209188},{"line":11,"i_lat":-6.193792,"time":2,"station_name":"Kramat","distance":1829,"i_long":106.855437,"transit":false,"is_transit":false,"station_id":"KMT"},{"station_name":"Gang Sentiong","is_transit":false,"time":1,"station_id":"GST","distance":973,"i_long":106.850107,"line":11,"transit":false,"i_lat":-6.185975},{"time":8,"station_id":"PSE","transit":false,"i_long":106.84368,"i_lat":-6.174784,"station_name":"Pasar Senen","is_transit":false,"line":11,"distance":1567},{"station_name":"Kemayoran","distance":1436,"i_long":106.839204,"line":11,"time":4,"is_transit":false,"station_id":"KMO","transit":false,"i_lat":-6.161728},{"distance":1901,"is_transit":false,"station_id":"RJW","i_long":106.836569,"transit":false,"line":11,"i_lat":-6.14505,"station_name":"Rajawali","time":5},{"station_name":"Kampung Bandan","distance":1444,"line":4,"time":3,"i_lat":-6.132549,"transit":true,"is_transit":true,"station_id":"KPB","i_long":106.826365},{"distance":1364,"i_long":106.812439,"i_lat":-6.137569,"line":2,"station_name":"Jakarta Kota","transit":true,"is_transit":true,"station_id":"JAKK","time":3},{"line":2,"transit":false,"time":4,"i_long":106.820901,"distance":1264,"i_lat":-6.141205,"station_name":"Jayakarta","is_transit":false,"station_id":"JAY"},{"line":2,"station_name":"Manggabesar","is_transit":false,"transit":false,"i_lat":-6.149769,"time":2,"i_long":106.82482,"station_id":"MGB","distance":1080},{"time":2,"station_id":"SW","is_transit":false,"line":2,"distance":906,"transit":false,"station_name":"Sawah Besar","i_lat":-6.160725,"i_long":106.827103},{"is_transit":false,"line":2,"station_id":"JUA","station_name":"Juanda","time":2,"i_long":106.828284,"i_lat":-6.166716,"transit":false,"distance":1149},{"time":4,"i_long":106.832183,"i_lat":-6.186295,"line":2,"distance":2015,"transit":false,"is_transit":false,"station_id":"GDD","station_name":"Gondangdia"},{"station_id":"CKI","is_transit":false,"time":3,"distance":1750,"i_lat":-6.198556,"transit":false,"station_name":"Cikini","line":2,"i_long":106.840169},{"transit":true,"distance":1590,"time":4,"i_long":106.84912,"station_name":"Manggarai","station_id":"MRI","i_lat":-6.209883,"is_transit":true,"line":2},{"station_name":"Sudirman","i_lat":-6.202263,"time":4,"distance":3186,"transit":false,"station_id":"SUD","line":1,"i_long":106.822649,"is_transit":false},{"line":1,"is_transit":false,"time":1,"station_name":"Sudirman Baru","distance":280,"i_long":106.819881,"transit":false,"station_id":"SUDB","i_lat":-6.201433},{"station_name":"Karet","i_long":106.816351,"i_lat":-6.20132,"time":1,"station_id":"KAT","distance":471,"transit":false,"is_transit":false,"line":1},{"i_lat":-6.185545,"line":1,"i_long":106.811091,"time":5,"is_transit":true,"station_name":"Tanah Abang","station_id":"THB","distance":2029,"transit":true},{"line":6,"time":6,"transit":false,"station_name":"Palmerah","station_id":"PLM","i_long":106.79689,"is_transit":false,"i_lat":-6.207404,"distance":3191},{"transit":false,"is_transit":false,"time":7,"i_long":106.780334,"station_id":"KBY","distance":3737,"i_lat":-6.237242,"station_name":"Kebayoran","line":6},{"station_id":"PDJ","transit":false,"time":8,"distance":6218,"i_long":106.74273,"line":6,"i_lat":-6.276362,"is_transit":false,"station_name":"Pondokranji"},{"distance":2179,"i_lat":-6.288927,"time":3,"line":6,"station_name":"Jurangmangu","i_long":106.728916,"is_transit":false,"transit":false,"station_id":"JMU"},{"time":4,"station_name":"Sudimara","is_transit":false,"i_lat":-6.296963,"distance":1994,"line":6,"transit":false,"station_id":"SDM","i_long":106.712277}]]}