{"data":[[{"time":0,"is_transit":false,"station_name":"Cakung","i_lat":-6.219053,"distance":0,"transit":false,"i_long":106.951283,"station_id":"CUK","line":1},{"is_transit":false,"line":1,"transit":false,"distance":1385,"i_long":106.939679,"station_name":"Klenderbaru","i_lat":-6.217455,"station_id":"KLDB","time":8},{"line":1,"distance":1305,"is_transit":false,"transit":false,"i_lat":-6.215568,"i_long":106.922662,"station_name":"Buaran","station_id":"BUA","time":1},{"transit":false,"i_lat":-6.2135,"line":1,"time":2,"distance":3100,"station_name":"Klender","i_long":106.899548,"station_id":"KLD","is_transit":false},{"i_long":106.86807400000001,"station_name":"Jatinegara","transit":false,"i_lat":-6.215091,"line":1,"distance":3395,"time":3,"station_id":"JNG","is_transit":false},{"transit":false,"time":2,"station_id":"MTR","i_long":106.858896,"is_transit":false,"distance":1377,"station_name":"Matraman","i_lat":-6.212485,"line":1},{"time":2,"distance":1275,"station_name":"Manggarai","transit":false,"i_lat":-6.209883,"is_transit":false,"i_long":106.84912,"line":2,"station_id":"MRI"},{"i_long":106.822649,"is_transit":false,"station_id":"SUD","i_lat":-6.202263,"transit":false,"time":4,"station_name":"Sudirman","line":1,"distance":3186},{"i_lat":-6.201433,"i_long":106.819881,"distance":280,"station_id":"SUDB","time":1,"station_name":"Sudirman Baru","line":1,"is_transit":false,"transit":false},{"time":1,"distance":471,"station_id":"KAT","transit":false,"station_name":"Karet","is_transit":false,"i_long":106.816351,"i_lat":-6.20132,"line":1},{"distance":2029,"time":5,"station_id":"THB","station_name":"Tanah Abang","is_transit":true,"transit":true,"i_lat":-6.185545,"line":1,"i_long":106.811091},{"time":6,"distance":3191,"is_transit":false,"transit":false,"line":6,"station_id":"PLM","station_name":"Palmerah","i_lat":-6.207404,"i_long":106.79689},{"i_long":106.780334,"transit":false,"distance":3737,"station_name":"Kebayoran","i_lat":-6.237242,"line":6,"time":7,"is_transit":false,"station_id":"KBY"},{"transit":false,"i_lat":-6.276362,"time":8,"is_transit":false,"station_id":"PDJ","i_long":106.74273,"distance":6218,"line":6,"station_name":"Pondokranji"}],[{"transit":false,"i_lat":-6.219053,"distance":0,"line":1,"station_id":"CUK","i_long":106.951283,"station_name":"Cakung","time":0,"is_transit":false},{"station_name":"Klenderbaru","station_id":"KLDB","i_lat":-6.217455,"line":1,"distance":1385,"is_transit":false,"transit":false,"time":8,"i_long":106.939679},{"distance":1305,"transit":false,"time":1,"station_name":"Buaran","is_transit":false,"i_long":106.922662,"line":1,"station_id":"BUA","i_lat":-6.215568},{"distance":3100,"station_name":"Klender","is_transit":false,"station_id":"KLD","i_lat":-6.2135,"transit":false,"i_long":106.899548,"time":2,"line":1},{"station_name":"Jatinegara","i_long":106.86807400000001,"i_lat":-6.215091,"time":3,"is_transit":true,"transit":true,"line":1,"station_id":"JNG","distance":3395},{"line":11,"is_transit":false,"station_id":"POK","distance":1236,"time":2,"i_long":106.861737,"transit":false,"station_name":"Pondok Jati","i_lat":-6.209188},{"i_lat":-6.193792,"line":11,"time":2,"transit":false,"is_transit":false,"station_name":"Kramat","i_long":106.855437,"distance":1829,"station_id":"KMT"},{"is_transit":false,"i_lat":-6.185975,"time":1,"transit":false,"i_long":106.850107,"line":11,"station_name":"Gang Sentiong","station_id":"GST","distance":973},{"i_long":106.84368,"is_transit":false,"time":8,"station_name":"Pasar Senen","station_id":"PSE","i_lat":-6.174784,"transit":false,"line":11,"distance":1567},{"distance":1436,"time":4,"i_lat":-6.161728,"line":11,"station_name":"Kemayoran","is_transit":false,"i_long":106.839204,"station_id":"KMO","transit":false},{"station_id":"RJW","is_transit":false,"station_name":"Rajawali","distance":1901,"time":5,"transit":false,"line":11,"i_lat":-6.14505,"i_long":106.836569},{"transit":true,"distance":1444,"line":4,"station_id":"KPB","i_lat":-6.132549,"time":3,"i_long":106.826365,"station_name":"Kampung Bandan","is_transit":true},{"i_long":106.79867,"time":9,"station_name":"Angke","transit":false,"line":1,"is_transit":false,"i_lat":-6.144674,"station_id":"AK","distance":4102},{"distance":1230,"i_lat":-6.155215,"station_name":"Duri","station_id":"DU","i_long":106.800832,"line":1,"time":4,"is_transit":false,"transit":false},{"distance":3632,"time":8,"station_name":"Tanah Abang","is_transit":true,"i_lat":-6.185545,"line":1,"station_id":"THB","transit":true,"i_long":106.811091},{"distance":3191,"station_id":"PLM","line":6,"time":6,"station_name":"Palmerah","i_lat":-6.207404,"is_transit":false,"i_long":106.79689,"transit":false},{"distance":3737,"station_id":"KBY","time":7,"station_name":"Kebayoran","is_transit":false,"transit":false,"i_long":106.780334,"line":6,"i_lat":-6.237242},{"station_name":"Pondokranji","is_transit":false,"distance":6218,"transit":false,"i_long":106.74273,"line":6,"station_id":"PDJ","i_lat":-6.276362,"time":8}],[{"transit":false,"line":1,"time":0,"station_name":"Cakung","distance":0,"i_long":106.951283,"station_id":"CUK","is_transit":false,"i_lat":-6.219053},{"is_transit":false,"station_id":"KLDB","time":8,"transit":false,"distance":1385,"i_lat":-6.217455,"i_long":106.939679,"line":1,"station_name":"Klenderbaru"},{"station_id":"BUA","station_name":"Buaran","line":1,"transit":false,"i_lat":-6.215568,"time":1,"is_transit":false,"i_long":106.922662,"distance":1305},{"i_lat":-6.2135,"i_long":106.899548,"distance":3100,"station_name":"Klender","station_id":"KLD","line":1,"transit":false,"time":2,"is_transit":false},{"station_id":"JNG","i_long":106.86807400000001,"transit":false,"distance":3395,"time":3,"line":1,"station_name":"Jatinegara","is_transit":false,"i_lat":-6.215091},{"distance":1377,"i_lat":-6.212485,"time":2,"is_transit":false,"station_id":"MTR","station_name":"Matraman","transit":false,"i_long":106.858896,"line":1},{"station_name":"Manggarai","transit":true,"line":2,"distance":1275,"i_long":106.84912,"station_id":"MRI","is_transit":true,"i_lat":-6.209883,"time":2},{"is_transit":false,"station_id":"CKI","i_lat":-6.198556,"distance":1590,"time":4,"station_name":"Cikini","transit":false,"i_long":106.840169,"line":2},{"time":3,"distance":1750,"i_lat":-6.186295,"station_id":"GDD","transit":false,"is_transit":false,"station_name":"Gondangdia","i_long":106.832183,"line":2},{"is_transit":false,"station_name":"Juanda","time":4,"i_lat":-6.166716,"line":2,"station_id":"JUA","transit":false,"i_long":106.828284,"distance":2015},{"transit":false,"time":2,"i_long":106.827103,"line":2,"is_transit":false,"i_lat":-6.160725,"station_id":"SW","station_name":"Sawah Besar","distance":1149},{"i_lat":-6.149769,"station_id":"MGB","is_transit":false,"line":2,"i_long":106.82482,"distance":906,"station_name":"Manggabesar","time":2,"transit":false},{"transit":false,"i_lat":-6.141205,"line":2,"is_transit":false,"time":2,"distance":1080,"i_long":106.820901,"station_name":"Jayakarta","station_id":"JAY"},{"i_long":106.812439,"distance":1264,"transit":true,"i_lat":-6.137569,"is_transit":true,"station_name":"Jakarta Kota","line":2,"station_id":"JAKK","time":4},{"line":4,"time":3,"distance":1364,"station_id":"KPB","station_name":"Kampung Bandan","i_lat":-6.132549,"transit":true,"is_transit":true,"i_long":106.826365},{"time":9,"station_name":"Angke","station_id":"AK","i_lat":-6.144674,"transit":false,"distance":4102,"line":1,"i_long":106.79867,"is_transit":false},{"station_name":"Duri","transit":false,"time":4,"is_transit":false,"distance":1230,"i_lat":-6.155215,"i_long":106.800832,"station_id":"DU","line":1},{"is_transit":true,"time":8,"station_name":"Tanah Abang","distance":3632,"i_lat":-6.185545,"station_id":"THB","i_long":106.811091,"line":1,"transit":true},{"station_name":"Palmerah","i_lat":-6.207404,"is_transit":false,"line":6,"station_id":"PLM","distance":3191,"i_long":106.79689,"transit":false,"time":6},{"line":6,"i_lat":-6.237242,"transit":false,"time":7,"i_long":106.780334,"distance":3737,"is_transit":false,"station_id":"KBY","station_name":"Kebayoran"},{"time":8,"line":6,"station_id":"PDJ","station_name":"Pondokranji","transit":false,"distance":6218,"i_lat":-6.276362,"is_transit":false,"i_long":106.74273}],[{"distance":0,"i_lat":-6.219053,"i_long":106.951283,"station_id":"CUK","time":0,"station_name":"Cakung","line":1,"is_transit":false,"transit":false},{"line":1,"distance":1385,"is_transit":false,"i_long":106.939679,"station_name":"Klenderbaru","i_lat":-6.217455,"transit":false,"time":8,"station_id":"KLDB"},{"i_lat":-6.215568,"time":1,"is_transit":false,"station_id":"BUA","transit":false,"line":1,"i_long":106.922662,"station_name":"Buaran","distance":1305},{"station_name":"Klender","i_lat":-6.2135,"time":2,"transit":false,"is_transit":false,"i_long":106.899548,"station_id":"KLD","distance":3100,"line":1},{"station_name":"Jatinegara","station_id":"JNG","i_long":106.86807400000001,"time":3,"is_transit":true,"transit":true,"i_lat":-6.215091,"line":1,"distance":3395},{"transit":false,"distance":1236,"station_id":"POK","station_name":"Pondok Jati","time":2,"i_lat":-6.209188,"line":11,"is_transit":false,"i_long":106.861737},{"station_name":"Kramat","time":2,"i_long":106.855437,"station_id":"KMT","transit":false,"is_transit":false,"distance":1829,"i_lat":-6.193792,"line":11},{"is_transit":false,"distance":973,"time":1,"line":11,"station_id":"GST","i_lat":-6.185975,"i_long":106.850107,"transit":false,"station_name":"Gang Sentiong"},{"time":8,"transit":false,"i_lat":-6.174784,"station_name":"Pasar Senen","station_id":"PSE","distance":1567,"line":11,"is_transit":false,"i_long":106.84368},{"station_name":"Kemayoran","is_transit":false,"station_id":"KMO","i_lat":-6.161728,"line":11,"time":4,"distance":1436,"i_long":106.839204,"transit":false},{"transit":false,"i_long":106.836569,"station_name":"Rajawali","i_lat":-6.14505,"station_id":"RJW","distance":1901,"is_transit":false,"line":11,"time":5},{"station_id":"KPB","i_lat":-6.132549,"station_name":"Kampung Bandan","i_long":106.826365,"transit":true,"is_transit":true,"time":3,"distance":1444,"line":4},{"i_lat":-6.137569,"transit":true,"time":3,"station_name":"Jakarta Kota","line":2,"i_long":106.812439,"is_transit":true,"station_id":"JAKK","distance":1364},{"line":2,"time":4,"i_long":106.820901,"i_lat":-6.141205,"transit":false,"is_transit":false,"station_id":"JAY","station_name":"Jayakarta","distance":1264},{"is_transit":false,"station_name":"Manggabesar","time":2,"distance":1080,"transit":false,"i_long":106.82482,"station_id":"MGB","i_lat":-6.149769,"line":2},{"transit":false,"station_id":"SW","is_transit":false,"distance":906,"time":2,"i_lat":-6.160725,"line":2,"station_name":"Sawah Besar","i_long":106.827103},{"i_lat":-6.166716,"distance":1149,"station_id":"JUA","is_transit":false,"transit":false,"line":2,"time":2,"station_name":"Juanda","i_long":106.828284},{"station_id":"GDD","line":2,"time":4,"distance":2015,"i_lat":-6.186295,"station_name":"Gondangdia","is_transit":false,"transit":false,"i_long":106.832183},{"distance":1750,"i_long":106.840169,"line":2,"time":3,"transit":false,"i_lat":-6.198556,"is_transit":false,"station_name":"Cikini","station_id":"CKI"},{"station_id":"MRI","transit":true,"distance":1590,"i_long":106.84912,"is_transit":true,"line":2,"station_name":"Manggarai","i_lat":-6.209883,"time":4},{"i_long":106.822649,"station_name":"Sudirman","is_transit":false,"transit":false,"distance":3186,"time":4,"station_id":"SUD","i_lat":-6.202263,"line":1},{"time":1,"station_id":"SUDB","i_lat":-6.201433,"station_name":"Sudirman Baru","i_long":106.819881,"is_transit":false,"transit":false,"distance":280,"line":1},{"is_transit":false,"i_lat":-6.20132,"line":1,"station_id":"KAT","transit":false,"station_name":"Karet","distance":471,"i_long":106.816351,"time":1},{"station_name":"Tanah Abang","i_lat":-6.185545,"transit":true,"line":1,"distance":2029,"is_transit":true,"time":5,"station_id":"THB","i_long":106.811091},{"transit":false,"station_name":"Palmerah","i_lat":-6.207404,"line":6,"i_long":106.79689,"is_transit":false,"time":6,"station_id":"PLM","distance":3191},{"i_long":106.780334,"is_transit":false,"time":7,"station_id":"KBY","transit":false,"i_lat":-6.237242,"station_name":"Kebayoran","line":6,"distance":3737},{"is_transit":false,"i_long":106.74273,"station_name":"Pondokranji","i_lat":-6.276362,"time":8,"transit":false,"distance":6218,"line":6,"station_id":"PDJ"}]]}