{"data":[[{"is_transit":false,"line":0,"station_id":"CUK","station_name":"Cakung","distance":0,"time":0,"i_lat":-6.219053,"transit":false,"i_long":106.951283},{"line":1,"i_long":106.939679,"is_transit":false,"station_id":"KLDB","transit":false,"time":8,"i_lat":-6.217455,"distance":1385,"station_name":"Klenderbaru"},{"line":0,"is_transit":false,"transit":false,"station_name":"Buaran","distance":1305,"time":1,"i_lat":-6.215568,"i_long":106.922662,"station_id":"BUA"},{"distance":3100,"line":1,"station_id":"KLD","station_name":"Klender","transit":false,"time":2,"is_transit":false,"i_lat":-6.2135,"i_long":106.899548},{"is_transit":true,"i_long":106.86807400000001,"distance":3395,"line":0,"transit":false,"i_lat":-6.215091,"station_id":"JNG","time":3,"station_name":"Jatinegara"},{"station_id":"MTR","station_name":"Matraman","time":2,"distance":1377,"transit":false,"i_long":106.858896,"is_transit":false,"i_lat":-6.212485,"line":1},{"transit":false,"is_transit":true,"i_lat":-6.209883,"station_name":"Manggarai","line":0,"time":2,"i_long":106.84912,"distance":1275,"station_id":"MRI"},{"station_name":"Sudirman","station_id":"SUD","line":1,"transit":false,"time":4,"i_lat":-6.202263,"distance":3186,"is_transit":false,"i_long":106.822649},{"station_id":"SUDB","station_name":"Sudirman Baru","i_long":106.819881,"line":1,"transit":false,"is_transit":false,"distance":280,"i_lat":-6.201433,"time":1},{"line":1,"i_lat":-6.20132,"station_id":"KAT","transit":false,"is_transit":false,"time":1,"distance":471,"i_long":106.816351,"station_name":"Karet"},{"station_name":"Tanah Abang","is_transit":true,"time":5,"station_id":"THB","transit":false,"i_long":106.811091,"distance":2029,"i_lat":-6.185545,"line":1},{"station_id":"DU","time":8,"i_lat":-6.155215,"line":1,"station_name":"Duri","transit":true,"i_long":106.800832,"distance":3632,"is_transit":true},{"transit":false,"i_long":106.788277,"time":3,"is_transit":false,"station_id":"GGL","station_name":"Grogol","distance":1700,"i_lat":-6.162021,"line":5},{"transit":false,"i_lat":-6.161433,"time":2,"i_long":106.771379,"is_transit":false,"line":5,"station_id":"PSG","station_name":"Pesing","distance":2036},{"is_transit":false,"i_lat":-6.1587309999999995,"time":2,"station_id":"TKO","transit":false,"station_name":"Taman Kota","distance":1614,"line":5,"i_long":106.756522},{"station_id":"BOI","station_name":"Bojongindah","i_lat":-6.159876,"transit":false,"i_long":106.737035,"is_transit":false,"time":2,"distance":2334,"line":0},{"is_transit":false,"i_lat":-6.162758,"time":4,"transit":false,"station_id":"RW","line":5,"station_name":"Rawa Buaya","distance":1152,"i_long":106.723064},{"transit":false,"station_id":"KDS","distance":2504,"is_transit":false,"i_lat":-6.166068,"line":5,"station_name":"Kalideres","i_long":106.701612,"time":3},{"line":5,"time":3,"i_lat":-6.169933,"distance":2548,"is_transit":false,"station_id":"PI","transit":false,"station_name":"Poris","i_long":106.679458}],[{"station_id":"CUK","i_lat":-6.219053,"station_name":"Cakung","i_long":106.951283,"line":0,"transit":false,"is_transit":false,"time":0,"distance":0},{"time":8,"line":1,"i_lat":-6.217455,"station_name":"Klenderbaru","station_id":"KLDB","distance":1385,"i_long":106.939679,"transit":false,"is_transit":false},{"transit":false,"i_long":106.922662,"station_id":"BUA","is_transit":false,"distance":1305,"i_lat":-6.215568,"line":0,"time":1,"station_name":"Buaran"},{"distance":3100,"i_long":106.899548,"station_id":"KLD","station_name":"Klender","is_transit":false,"line":1,"time":2,"transit":false,"i_lat":-6.2135},{"distance":3395,"is_transit":true,"i_long":106.86807400000001,"time":3,"line":0,"transit":true,"station_name":"Jatinegara","station_id":"JNG","i_lat":-6.215091},{"line":11,"time":2,"is_transit":false,"transit":false,"i_long":106.861737,"station_id":"POK","station_name":"Pondok Jati","distance":1236,"i_lat":-6.209188},{"line":11,"time":2,"transit":false,"i_lat":-6.193792,"i_long":106.855437,"is_transit":false,"distance":1829,"station_id":"KMT","station_name":"Kramat"},{"time":1,"transit":false,"i_long":106.850107,"distance":973,"i_lat":-6.185975,"line":11,"station_name":"Gang Sentiong","is_transit":false,"station_id":"GST"},{"distance":1567,"transit":false,"line":11,"station_id":"PSE","time":8,"i_lat":-6.174784,"is_transit":false,"i_long":106.84368,"station_name":"Pasar Senen"},{"station_id":"KMO","i_lat":-6.161728,"line":11,"i_long":106.839204,"transit":false,"station_name":"Kemayoran","is_transit":false,"distance":1436,"time":4},{"time":5,"transit":false,"station_name":"Rajawali","is_transit":false,"i_lat":-6.14505,"i_long":106.836569,"line":11,"station_id":"RJW","distance":1901},{"transit":true,"station_name":"Kampung Bandan","time":3,"station_id":"KPB","i_lat":-6.132549,"i_long":106.826365,"line":0,"distance":1444,"is_transit":true},{"station_id":"AK","is_transit":false,"station_name":"Angke","distance":4102,"transit":false,"line":0,"i_lat":-6.144674,"i_long":106.79867,"time":9},{"is_transit":true,"station_name":"Duri","time":4,"distance":1230,"line":1,"i_long":106.800832,"i_lat":-6.155215,"station_id":"DU","transit":true},{"distance":1700,"station_name":"Grogol","is_transit":false,"station_id":"GGL","i_long":106.788277,"i_lat":-6.162021,"transit":false,"line":5,"time":3},{"line":5,"transit":false,"i_long":106.771379,"i_lat":-6.161433,"station_name":"Pesing","station_id":"PSG","time":2,"distance":2036,"is_transit":false},{"station_name":"Taman Kota","transit":false,"i_lat":-6.1587309999999995,"i_long":106.756522,"line":5,"is_transit":false,"time":2,"station_id":"TKO","distance":1614},{"i_long":106.737035,"i_lat":-6.159876,"is_transit":false,"station_id":"BOI","station_name":"Bojongindah","distance":2334,"transit":false,"line":0,"time":2},{"station_name":"Rawa Buaya","distance":1152,"line":5,"i_lat":-6.162758,"station_id":"RW","i_long":106.723064,"transit":false,"time":4,"is_transit":false},{"time":3,"i_lat":-6.166068,"transit":false,"station_id":"KDS","is_transit":false,"line":5,"station_name":"Kalideres","i_long":106.701612,"distance":2504},{"is_transit":false,"i_lat":-6.169933,"time":3,"line":5,"station_id":"PI","distance":2548,"transit":false,"i_long":106.679458,"station_name":"Poris"}],[{"distance":0,"transit":false,"line":0,"time":0,"station_id":"CUK","is_transit":false,"i_lat":-6.219053,"station_name":"Cakung","i_long":106.951283},{"station_name":"Klenderbaru","line":1,"transit":false,"distance":1385,"is_transit":false,"station_id":"KLDB","i_lat":-6.217455,"time":8,"i_long":106.939679},{"transit":false,"distance":1305,"i_long":106.922662,"line":0,"i_lat":-6.215568,"is_transit":false,"station_id":"BUA","time":1,"station_name":"Buaran"},{"is_transit":false,"distance":3100,"transit":false,"station_name":"Klender","i_lat":-6.2135,"line":1,"time":2,"station_id":"KLD","i_long":106.899548},{"station_name":"Jatinegara","transit":false,"time":3,"i_long":106.86807400000001,"station_id":"JNG","distance":3395,"i_lat":-6.215091,"line":0,"is_transit":true},{"station_id":"MTR","distance":1377,"is_transit":false,"transit":false,"time":2,"i_lat":-6.212485,"i_long":106.858896,"station_name":"Matraman","line":1},{"time":2,"line":0,"station_name":"Manggarai","i_lat":-6.209883,"station_id":"MRI","distance":1275,"i_long":106.84912,"is_transit":true,"transit":true},{"transit":false,"i_lat":-6.198556,"station_name":"Cikini","station_id":"CKI","time":4,"line":0,"i_long":106.840169,"distance":1590,"is_transit":false},{"time":3,"distance":1750,"i_lat":-6.186295,"line":2,"transit":false,"is_transit":false,"station_name":"Gondangdia","i_long":106.832183,"station_id":"GDD"},{"i_lat":-6.166716,"time":4,"distance":2015,"station_id":"JUA","is_transit":false,"station_name":"Juanda","transit":false,"i_long":106.828284,"line":2},{"i_lat":-6.160725,"line":2,"distance":1149,"transit":false,"is_transit":false,"station_id":"SW","station_name":"Sawah Besar","time":2,"i_long":106.827103},{"station_id":"MGB","i_lat":-6.149769,"station_name":"Manggabesar","time":2,"i_long":106.82482,"distance":906,"line":2,"transit":false,"is_transit":false},{"i_long":106.820901,"transit":false,"line":7,"distance":1080,"i_lat":-6.141205,"station_name":"Jayakarta","station_id":"JAY","is_transit":false,"time":2},{"station_id":"JAKK","is_transit":true,"time":4,"distance":1264,"i_long":106.812439,"transit":true,"i_lat":-6.137569,"station_name":"Jakarta Kota","line":0},{"i_lat":-6.132549,"station_name":"Kampung Bandan","is_transit":true,"distance":1364,"station_id":"KPB","transit":false,"line":0,"time":3,"i_long":106.826365},{"station_name":"Angke","distance":4102,"i_long":106.79867,"i_lat":-6.144674,"line":0,"station_id":"AK","transit":false,"time":9,"is_transit":false},{"i_long":106.800832,"i_lat":-6.155215,"station_name":"Duri","line":1,"distance":1230,"time":4,"station_id":"DU","is_transit":true,"transit":true},{"i_lat":-6.162021,"i_long":106.788277,"time":3,"station_id":"GGL","is_transit":false,"line":5,"station_name":"Grogol","distance":1700,"transit":false},{"distance":2036,"line":5,"station_name":"Pesing","transit":false,"station_id":"PSG","i_long":106.771379,"i_lat":-6.161433,"is_transit":false,"time":2},{"transit":false,"station_id":"TKO","is_transit":false,"i_lat":-6.1587309999999995,"i_long":106.756522,"time":2,"station_name":"Taman Kota","distance":1614,"line":5},{"transit":false,"is_transit":false,"station_name":"Bojongindah","i_long":106.737035,"line":0,"station_id":"BOI","time":2,"distance":2334,"i_lat":-6.159876},{"transit":false,"distance":1152,"is_transit":false,"station_id":"RW","station_name":"Rawa Buaya","i_lat":-6.162758,"line":5,"i_long":106.723064,"time":4},{"i_lat":-6.166068,"is_transit":false,"station_name":"Kalideres","time":3,"station_id":"KDS","distance":2504,"i_long":106.701612,"line":5,"transit":false},{"station_id":"PI","distance":2548,"is_transit":false,"station_name":"Poris","time":3,"transit":false,"i_lat":-6.169933,"i_long":106.679458,"line":5}],[{"i_long":106.951283,"is_transit":false,"distance":0,"station_id":"CUK","line":0,"transit":false,"station_name":"Cakung","i_lat":-6.219053,"time":0},{"line":1,"i_long":106.939679,"is_transit":false,"station_id":"KLDB","station_name":"Klenderbaru","time":8,"i_lat":-6.217455,"transit":false,"distance":1385},{"is_transit":false,"time":1,"transit":false,"i_long":106.922662,"station_name":"Buaran","station_id":"BUA","distance":1305,"i_lat":-6.215568,"line":0},{"i_lat":-6.2135,"i_long":106.899548,"station_name":"Klender","transit":false,"time":2,"line":1,"station_id":"KLD","is_transit":false,"distance":3100},{"line":0,"transit":true,"distance":3395,"station_id":"JNG","i_long":106.86807400000001,"station_name":"Jatinegara","time":3,"i_lat":-6.215091,"is_transit":true},{"line":11,"station_name":"Pondok Jati","i_lat":-6.209188,"i_long":106.861737,"distance":1236,"time":2,"is_transit":false,"station_id":"POK","transit":false},{"is_transit":false,"i_lat":-6.193792,"distance":1829,"station_id":"KMT","time":2,"station_name":"Kramat","line":11,"transit":false,"i_long":106.855437},{"time":1,"i_lat":-6.185975,"i_long":106.850107,"distance":973,"line":11,"is_transit":false,"transit":false,"station_name":"Gang Sentiong","station_id":"GST"},{"transit":false,"i_long":106.84368,"line":11,"distance":1567,"time":8,"is_transit":false,"i_lat":-6.174784,"station_id":"PSE","station_name":"Pasar Senen"},{"station_id":"KMO","distance":1436,"transit":false,"station_name":"Kemayoran","line":11,"i_lat":-6.161728,"i_long":106.839204,"time":4,"is_transit":false},{"station_id":"RJW","station_name":"Rajawali","distance":1901,"line":11,"transit":false,"time":5,"i_lat":-6.14505,"is_transit":false,"i_long":106.836569},{"i_long":106.826365,"distance":1444,"transit":true,"station_name":"Kampung Bandan","i_lat":-6.132549,"line":0,"is_transit":true,"time":3,"station_id":"KPB"},{"is_transit":true,"time":3,"station_id":"JAKK","transit":true,"i_long":106.812439,"distance":1364,"i_lat":-6.137569,"line":0,"station_name":"Jakarta Kota"},{"is_transit":false,"line":7,"station_id":"JAY","time":4,"i_lat":-6.141205,"distance":1264,"i_long":106.820901,"transit":false,"station_name":"Jayakarta"},{"transit":false,"time":2,"station_id":"MGB","i_long":106.82482,"station_name":"Manggabesar","line":2,"is_transit":false,"distance":1080,"i_lat":-6.149769},{"distance":906,"transit":false,"station_id":"SW","i_lat":-6.160725,"i_long":106.827103,"time":2,"station_name":"Sawah Besar","line":2,"is_transit":false},{"i_long":106.828284,"is_transit":false,"station_id":"JUA","station_name":"Juanda","transit":false,"line":2,"i_lat":-6.166716,"time":2,"distance":1149},{"i_lat":-6.186295,"station_id":"GDD","is_transit":false,"transit":false,"station_name":"Gondangdia","line":2,"time":4,"distance":2015,"i_long":106.832183},{"is_transit":false,"i_long":106.840169,"station_id":"CKI","station_name":"Cikini","time":3,"i_lat":-6.198556,"line":0,"distance":1750,"transit":false},{"line":0,"i_long":106.84912,"station_name":"Manggarai","station_id":"MRI","time":4,"is_transit":true,"transit":true,"distance":1590,"i_lat":-6.209883},{"line":1,"distance":3186,"transit":false,"station_id":"SUD","time":4,"i_long":106.822649,"i_lat":-6.202263,"station_name":"Sudirman","is_transit":false},{"station_name":"Sudirman Baru","i_lat":-6.201433,"line":1,"i_long":106.819881,"is_transit":false,"distance":280,"transit":false,"time":1,"station_id":"SUDB"},{"time":1,"distance":471,"is_transit":false,"transit":false,"station_id":"KAT","line":1,"station_name":"Karet","i_lat":-6.20132,"i_long":106.816351},{"station_id":"THB","time":5,"i_long":106.811091,"line":1,"distance":2029,"is_transit":true,"transit":false,"station_name":"Tanah Abang","i_lat":-6.185545},{"time":8,"i_lat":-6.155215,"is_transit":true,"distance":3632,"i_long":106.800832,"station_name":"Duri","transit":true,"station_id":"DU","line":1},{"i_long":106.788277,"station_name":"Grogol","distance":1700,"line":5,"station_id":"GGL","i_lat":-6.162021,"transit":false,"is_transit":false,"time":3},{"station_id":"PSG","station_name":"Pesing","time":2,"distance":2036,"i_long":106.771379,"i_lat":-6.161433,"is_transit":false,"line":5,"transit":false},{"station_id":"TKO","is_transit":false,"transit":false,"i_lat":-6.1587309999999995,"line":5,"station_name":"Taman Kota","i_long":106.756522,"distance":1614,"time":2},{"i_long":106.737035,"line":0,"station_id":"BOI","is_transit":false,"time":2,"distance":2334,"transit":false,"station_name":"Bojongindah","i_lat":-6.159876},{"station_name":"Rawa Buaya","i_lat":-6.162758,"transit":false,"i_long":106.723064,"line":5,"station_id":"RW","time":4,"distance":1152,"is_transit":false},{"i_long":106.701612,"line":5,"time":3,"station_name":"Kalideres","distance":2504,"is_transit":false,"station_id":"KDS","transit":false,"i_lat":-6.166068},{"distance":2548,"is_transit":false,"time":3,"station_name":"Poris","transit":false,"i_lat":-6.169933,"station_id":"PI","i_long":106.679458,"line":5}]]}