{"data":[[{"i_long":106.951283,"time":0,"station_id":"CUK","station_name":"Cakung","is_transit":false,"transit":false,"line":1,"distance":0,"i_lat":-6.219053},{"station_id":"KLDB","is_transit":false,"time":8,"transit":false,"line":1,"station_name":"Klenderbaru","i_lat":-6.217455,"distance":1385,"i_long":106.939679},{"station_id":"BUA","i_long":106.922662,"transit":false,"i_lat":-6.215568,"station_name":"Buaran","distance":1305,"time":1,"is_transit":false,"line":1},{"transit":false,"distance":3100,"station_id":"KLD","time":2,"station_name":"Klender","is_transit":false,"i_long":106.899548,"line":1,"i_lat":-6.2135},{"is_transit":false,"station_id":"JNG","line":1,"i_long":106.86807400000001,"distance":3395,"station_name":"Jatinegara","time":3,"transit":false,"i_lat":-6.215091},{"station_id":"MTR","i_long":106.858896,"line":1,"is_transit":false,"distance":1377,"time":2,"transit":false,"i_lat":-6.212485,"station_name":"Matraman"},{"time":2,"transit":true,"i_lat":-6.209883,"is_transit":true,"station_id":"MRI","i_long":106.84912,"distance":1275,"line":2,"station_name":"Manggarai"},{"i_lat":-6.226659,"i_long":106.857948,"station_id":"TEB","distance":2610,"station_name":"Tebet","line":2,"time":4,"transit":false,"is_transit":false},{"is_transit":false,"time":2,"distance":1230,"transit":false,"station_name":"Cawang","i_lat":-6.242512,"line":2,"i_long":106.856607,"station_id":"CW"},{"i_long":106.85449,"is_transit":false,"distance":1546,"line":2,"time":3,"transit":false,"i_lat":-6.255332,"station_name":"Duren Kalibata","station_id":"DRN"},{"time":2,"i_long":106.851577,"distance":824,"transit":false,"line":2,"i_lat":-6.263214,"is_transit":false,"station_name":"Pasar Minggu Baru","station_id":"PSMB"},{"station_name":"Pasar Minggu","i_long":106.843999,"time":2,"is_transit":false,"i_lat":-6.2842400000000005,"station_id":"PSM","line":2,"distance":2380,"transit":false},{"i_long":106.838896,"is_transit":false,"i_lat":-6.3080680000000005,"distance":2820,"station_name":"Tanjung Barat","time":4,"line":2,"station_id":"TNT","transit":false},{"i_lat":-6.330363,"line":2,"distance":2671,"transit":false,"station_id":"LNA","i_long":106.832616,"time":3,"station_name":"Lenteng Agung","is_transit":false},{"is_transit":false,"i_long":106.834175,"time":2,"distance":1029,"transit":false,"i_lat":-6.339291,"station_id":"UP","line":2,"station_name":"Univ. Pancasila"},{"station_id":"UI","i_lat":-6.360749,"is_transit":false,"line":2,"time":3,"transit":false,"distance":2264,"i_long":106.831474,"station_name":"Univ. Indonesia"},{"line":2,"station_id":"POC","is_transit":false,"i_lat":-6.369073,"distance":1109,"station_name":"Pondok Cina","time":2,"transit":false,"i_long":106.831114},{"transit":false,"is_transit":false,"i_lat":-6.391065,"line":2,"i_long":106.819451,"distance":2727,"station_id":"DPB","station_name":"Depokbaru","time":4},{"distance":1584,"transit":false,"station_id":"DP","time":3,"is_transit":false,"i_lat":-6.405256,"i_long":106.816926,"station_name":"Depok","line":2},{"i_lat":-6.448811,"i_long":106.800298,"time":6,"transit":true,"line":2,"is_transit":true,"distance":5084,"station_id":"CTA","station_name":"Citayam"},{"distance":0,"i_long":106.824374,"time":0,"transit":false,"is_transit":false,"station_id":"PDRG","station_name":"Pondok Rajeg","i_lat":-6.460735,"line":21}],[{"distance":0,"line":1,"time":0,"is_transit":false,"i_lat":-6.219053,"station_id":"CUK","station_name":"Cakung","i_long":106.951283,"transit":false},{"is_transit":false,"line":1,"station_id":"KLDB","transit":false,"i_lat":-6.217455,"station_name":"Klenderbaru","time":8,"distance":1385,"i_long":106.939679},{"line":1,"is_transit":false,"station_name":"Buaran","time":1,"i_long":106.922662,"i_lat":-6.215568,"station_id":"BUA","distance":1305,"transit":false},{"station_id":"KLD","is_transit":false,"time":2,"i_lat":-6.2135,"distance":3100,"station_name":"Klender","transit":false,"i_long":106.899548,"line":1},{"distance":3395,"station_id":"JNG","i_long":106.86807400000001,"transit":true,"is_transit":true,"i_lat":-6.215091,"station_name":"Jatinegara","time":3,"line":1},{"is_transit":false,"distance":1236,"i_lat":-6.209188,"station_name":"Pondok Jati","i_long":106.861737,"time":2,"station_id":"POK","transit":false,"line":11},{"time":2,"transit":false,"station_name":"Kramat","line":11,"is_transit":false,"distance":1829,"i_lat":-6.193792,"i_long":106.855437,"station_id":"KMT"},{"is_transit":false,"line":11,"station_id":"GST","i_lat":-6.185975,"station_name":"Gang Sentiong","transit":false,"i_long":106.850107,"time":1,"distance":973},{"distance":1567,"i_long":106.84368,"time":8,"station_id":"PSE","station_name":"Pasar Senen","transit":false,"i_lat":-6.174784,"line":11,"is_transit":false},{"is_transit":false,"i_lat":-6.161728,"station_name":"Kemayoran","i_long":106.839204,"time":4,"distance":1436,"station_id":"KMO","line":11,"transit":false},{"is_transit":false,"station_name":"Rajawali","distance":1901,"station_id":"RJW","transit":false,"i_lat":-6.14505,"line":11,"i_long":106.836569,"time":5},{"station_id":"KPB","distance":1444,"time":3,"i_lat":-6.132549,"i_long":106.826365,"station_name":"Kampung Bandan","is_transit":true,"transit":true,"line":4},{"time":9,"i_lat":-6.144674,"transit":false,"station_id":"AK","is_transit":false,"distance":4102,"station_name":"Angke","i_long":106.79867,"line":1},{"i_lat":-6.155215,"line":1,"i_long":106.800832,"station_name":"Duri","station_id":"DU","time":4,"is_transit":false,"transit":false,"distance":1230},{"i_lat":-6.185545,"distance":3632,"transit":false,"i_long":106.811091,"line":1,"is_transit":false,"time":8,"station_name":"Tanah Abang","station_id":"THB"},{"i_long":106.816351,"line":1,"is_transit":false,"time":5,"i_lat":-6.20132,"station_id":"KAT","transit":false,"station_name":"Karet","distance":2029},{"distance":471,"station_name":"Sudirman Baru","i_long":106.819881,"line":1,"is_transit":false,"i_lat":-6.201433,"transit":false,"station_id":"SUDB","time":1},{"time":1,"station_id":"SUD","i_lat":-6.202263,"station_name":"Sudirman","i_long":106.822649,"is_transit":false,"line":1,"transit":false,"distance":280},{"i_long":106.84912,"time":4,"is_transit":true,"transit":true,"distance":3186,"line":2,"i_lat":-6.209883,"station_id":"MRI","station_name":"Manggarai"},{"i_lat":-6.226659,"i_long":106.857948,"station_id":"TEB","time":4,"is_transit":false,"line":2,"station_name":"Tebet","distance":2610,"transit":false},{"distance":1230,"i_lat":-6.242512,"station_id":"CW","line":2,"station_name":"Cawang","transit":false,"i_long":106.856607,"is_transit":false,"time":2},{"station_id":"DRN","i_long":106.85449,"distance":1546,"i_lat":-6.255332,"line":2,"station_name":"Duren Kalibata","transit":false,"time":3,"is_transit":false},{"distance":824,"transit":false,"is_transit":false,"line":2,"station_name":"Pasar Minggu Baru","station_id":"PSMB","i_long":106.851577,"i_lat":-6.263214,"time":2},{"station_name":"Pasar Minggu","time":2,"station_id":"PSM","i_long":106.843999,"line":2,"distance":2380,"transit":false,"is_transit":false,"i_lat":-6.2842400000000005},{"i_lat":-6.3080680000000005,"station_name":"Tanjung Barat","time":4,"distance":2820,"station_id":"TNT","is_transit":false,"transit":false,"line":2,"i_long":106.838896},{"is_transit":false,"station_name":"Lenteng Agung","transit":false,"line":2,"distance":2671,"time":3,"station_id":"LNA","i_lat":-6.330363,"i_long":106.832616},{"time":2,"station_id":"UP","transit":false,"station_name":"Univ. Pancasila","i_long":106.834175,"distance":1029,"line":2,"is_transit":false,"i_lat":-6.339291},{"station_id":"UI","transit":false,"station_name":"Univ. Indonesia","line":2,"i_long":106.831474,"time":3,"i_lat":-6.360749,"is_transit":false,"distance":2264},{"time":2,"line":2,"station_name":"Pondok Cina","station_id":"POC","transit":false,"is_transit":false,"i_lat":-6.369073,"i_long":106.831114,"distance":1109},{"time":4,"transit":false,"line":2,"station_name":"Depokbaru","distance":2727,"i_lat":-6.391065,"is_transit":false,"station_id":"DPB","i_long":106.819451},{"line":2,"transit":false,"distance":1584,"time":3,"station_name":"Depok","station_id":"DP","is_transit":false,"i_lat":-6.405256,"i_long":106.816926},{"station_name":"Citayam","is_transit":true,"i_long":106.800298,"line":2,"station_id":"CTA","i_lat":-6.448811,"time":6,"transit":true,"distance":5084},{"station_id":"PDRG","station_name":"Pondok Rajeg","line":21,"i_lat":-6.460735,"is_transit":false,"i_long":106.824374,"transit":false,"time":0,"distance":0}],[{"distance":0,"is_transit":false,"transit":false,"i_lat":-6.219053,"i_long":106.951283,"line":1,"time":0,"station_name":"Cakung","station_id":"CUK"},{"time":8,"is_transit":false,"station_name":"Klenderbaru","station_id":"KLDB","i_lat":-6.217455,"transit":false,"distance":1385,"line":1,"i_long":106.939679},{"is_transit":false,"station_id":"BUA","transit":false,"distance":1305,"i_long":106.922662,"line":1,"time":1,"station_name":"Buaran","i_lat":-6.215568},{"i_long":106.899548,"time":2,"distance":3100,"station_name":"Klender","is_transit":false,"line":1,"station_id":"KLD","i_lat":-6.2135,"transit":false},{"distance":3395,"i_long":106.86807400000001,"time":3,"i_lat":-6.215091,"line":1,"is_transit":true,"transit":true,"station_id":"JNG","station_name":"Jatinegara"},{"distance":1236,"transit":false,"line":11,"station_id":"POK","is_transit":false,"time":2,"station_name":"Pondok Jati","i_long":106.861737,"i_lat":-6.209188},{"time":2,"station_id":"KMT","i_lat":-6.193792,"distance":1829,"i_long":106.855437,"line":11,"transit":false,"is_transit":false,"station_name":"Kramat"},{"station_name":"Gang Sentiong","time":1,"is_transit":false,"i_long":106.850107,"station_id":"GST","distance":973,"i_lat":-6.185975,"line":11,"transit":false},{"is_transit":false,"transit":false,"station_name":"Pasar Senen","line":11,"distance":1567,"i_lat":-6.174784,"station_id":"PSE","time":8,"i_long":106.84368},{"i_lat":-6.161728,"time":4,"transit":false,"distance":1436,"i_long":106.839204,"station_id":"KMO","is_transit":false,"station_name":"Kemayoran","line":11},{"time":5,"line":11,"i_lat":-6.14505,"station_id":"RJW","i_long":106.836569,"transit":false,"distance":1901,"is_transit":false,"station_name":"Rajawali"},{"station_name":"Kampung Bandan","line":4,"i_lat":-6.132549,"i_long":106.826365,"is_transit":true,"distance":1444,"time":3,"station_id":"KPB","transit":true},{"transit":true,"station_name":"Jakarta Kota","is_transit":true,"i_long":106.812439,"line":2,"station_id":"JAKK","i_lat":-6.137569,"distance":1364,"time":3},{"i_long":106.820901,"station_name":"Jayakarta","distance":1264,"line":2,"is_transit":false,"transit":false,"time":4,"station_id":"JAY","i_lat":-6.141205},{"station_name":"Manggabesar","time":2,"station_id":"MGB","is_transit":false,"i_long":106.82482,"line":2,"transit":false,"i_lat":-6.149769,"distance":1080},{"i_long":106.827103,"time":2,"transit":false,"station_id":"SW","distance":906,"i_lat":-6.160725,"is_transit":false,"line":2,"station_name":"Sawah Besar"},{"transit":false,"line":2,"time":2,"station_id":"JUA","station_name":"Juanda","is_transit":false,"i_long":106.828284,"i_lat":-6.166716,"distance":1149},{"distance":2015,"time":4,"station_id":"GDD","i_long":106.832183,"line":2,"i_lat":-6.186295,"station_name":"Gondangdia","transit":false,"is_transit":false},{"time":3,"i_lat":-6.198556,"distance":1750,"is_transit":false,"station_id":"CKI","line":2,"i_long":106.840169,"station_name":"Cikini","transit":false},{"station_name":"Manggarai","transit":false,"line":2,"is_transit":false,"time":4,"station_id":"MRI","i_lat":-6.209883,"distance":1590,"i_long":106.84912},{"time":4,"transit":false,"distance":2610,"station_name":"Tebet","line":2,"station_id":"TEB","is_transit":false,"i_long":106.857948,"i_lat":-6.226659},{"station_id":"CW","time":2,"i_lat":-6.242512,"i_long":106.856607,"line":2,"transit":false,"station_name":"Cawang","distance":1230,"is_transit":false},{"time":3,"station_name":"Duren Kalibata","i_lat":-6.255332,"transit":false,"is_transit":false,"line":2,"distance":1546,"i_long":106.85449,"station_id":"DRN"},{"i_lat":-6.263214,"is_transit":false,"time":2,"station_name":"Pasar Minggu Baru","distance":824,"station_id":"PSMB","i_long":106.851577,"transit":false,"line":2},{"station_name":"Pasar Minggu","is_transit":false,"distance":2380,"line":2,"station_id":"PSM","i_long":106.843999,"i_lat":-6.2842400000000005,"time":2,"transit":false},{"distance":2820,"transit":false,"line":2,"i_long":106.838896,"station_name":"Tanjung Barat","is_transit":false,"i_lat":-6.3080680000000005,"time":4,"station_id":"TNT"},{"station_id":"LNA","i_long":106.832616,"station_name":"Lenteng Agung","transit":false,"distance":2671,"i_lat":-6.330363,"time":3,"line":2,"is_transit":false},{"is_transit":false,"time":2,"i_lat":-6.339291,"line":2,"station_name":"Univ. Pancasila","i_long":106.834175,"distance":1029,"station_id":"UP","transit":false},{"i_lat":-6.360749,"line":2,"time":3,"transit":false,"distance":2264,"i_long":106.831474,"is_transit":false,"station_id":"UI","station_name":"Univ. Indonesia"},{"station_name":"Pondok Cina","is_transit":false,"i_lat":-6.369073,"distance":1109,"transit":false,"time":2,"station_id":"POC","line":2,"i_long":106.831114},{"i_lat":-6.391065,"i_long":106.819451,"station_name":"Depokbaru","line":2,"distance":2727,"time":4,"station_id":"DPB","transit":false,"is_transit":false},{"transit":false,"i_long":106.816926,"station_name":"Depok","distance":1584,"i_lat":-6.405256,"station_id":"DP","is_transit":false,"line":2,"time":3},{"distance":5084,"transit":true,"station_id":"CTA","is_transit":true,"station_name":"Citayam","i_long":106.800298,"time":6,"i_lat":-6.448811,"line":2},{"i_long":106.824374,"station_id":"PDRG","transit":false,"i_lat":-6.460735,"time":0,"distance":0,"is_transit":false,"line":21,"station_name":"Pondok Rajeg"}]]}