{"data":[[{"station_name":"Cakung","line":1,"time":0,"is_transit":false,"i_lat":-6.219053,"i_long":106.951283,"station_id":"CUK","distance":0,"transit":false},{"transit":false,"time":8,"distance":1385,"station_id":"KLDB","i_long":106.939679,"line":1,"is_transit":false,"station_name":"Klenderbaru","i_lat":-6.217455},{"transit":false,"i_long":106.922662,"i_lat":-6.215568,"is_transit":false,"distance":1305,"line":1,"station_id":"BUA","time":1,"station_name":"Buaran"},{"i_lat":-6.2135,"transit":false,"i_long":106.899548,"station_name":"Klender","distance":3100,"station_id":"KLD","is_transit":false,"time":2,"line":1},{"time":3,"distance":3395,"i_lat":-6.215091,"is_transit":false,"transit":false,"station_name":"Jatinegara","station_id":"JNG","i_long":106.86807400000001,"line":1},{"distance":1377,"transit":false,"time":2,"station_id":"MTR","i_lat":-6.212485,"station_name":"Matraman","is_transit":false,"line":1,"i_long":106.858896},{"is_transit":false,"station_name":"Manggarai","line":2,"time":2,"i_lat":-6.209883,"station_id":"MRI","distance":1275,"i_long":106.84912,"transit":false},{"i_lat":-6.202263,"time":4,"distance":3186,"station_name":"Sudirman","station_id":"SUD","line":1,"is_transit":false,"transit":false,"i_long":106.822649},{"distance":280,"transit":false,"station_id":"SUDB","i_long":106.819881,"line":1,"i_lat":-6.201433,"time":1,"is_transit":false,"station_name":"Sudirman Baru"},{"line":1,"time":1,"distance":471,"station_id":"KAT","transit":false,"i_lat":-6.20132,"station_name":"Karet","i_long":106.816351,"is_transit":false},{"i_lat":-6.185545,"is_transit":false,"station_id":"THB","transit":false,"i_long":106.811091,"time":5,"station_name":"Tanah Abang","line":1,"distance":2029},{"is_transit":false,"i_long":106.800832,"line":1,"station_id":"DU","station_name":"Duri","distance":3632,"time":8,"transit":false,"i_lat":-6.155215},{"is_transit":false,"station_id":"AK","i_long":106.79867,"transit":false,"distance":1230,"station_name":"Angke","time":4,"i_lat":-6.144674,"line":1}],[{"time":0,"station_name":"Cakung","i_lat":-6.219053,"transit":false,"i_long":106.951283,"station_id":"CUK","is_transit":false,"distance":0,"line":1},{"time":8,"line":1,"transit":false,"is_transit":false,"distance":1385,"i_lat":-6.217455,"i_long":106.939679,"station_id":"KLDB","station_name":"Klenderbaru"},{"i_long":106.922662,"transit":false,"is_transit":false,"time":1,"i_lat":-6.215568,"distance":1305,"station_name":"Buaran","line":1,"station_id":"BUA"},{"station_name":"Klender","time":2,"distance":3100,"station_id":"KLD","i_lat":-6.2135,"i_long":106.899548,"transit":false,"is_transit":false,"line":1},{"transit":true,"is_transit":true,"time":3,"station_name":"Jatinegara","station_id":"JNG","i_lat":-6.215091,"i_long":106.86807400000001,"line":1,"distance":3395},{"i_long":106.861737,"time":2,"is_transit":false,"transit":false,"station_name":"Pondok Jati","i_lat":-6.209188,"station_id":"POK","line":11,"distance":1236},{"line":11,"distance":1829,"station_name":"Kramat","station_id":"KMT","time":2,"i_lat":-6.193792,"i_long":106.855437,"transit":false,"is_transit":false},{"is_transit":false,"distance":973,"transit":false,"station_id":"GST","i_lat":-6.185975,"station_name":"Gang Sentiong","i_long":106.850107,"line":11,"time":1},{"i_lat":-6.174784,"station_id":"PSE","line":11,"transit":false,"station_name":"Pasar Senen","i_long":106.84368,"distance":1567,"is_transit":false,"time":8},{"i_lat":-6.161728,"line":11,"distance":1436,"time":4,"station_id":"KMO","is_transit":false,"station_name":"Kemayoran","i_long":106.839204,"transit":false},{"station_name":"Rajawali","station_id":"RJW","i_long":106.836569,"distance":1901,"is_transit":false,"time":5,"i_lat":-6.14505,"line":11,"transit":false},{"station_name":"Kampung Bandan","transit":true,"station_id":"KPB","time":3,"i_long":106.826365,"distance":1444,"is_transit":true,"i_lat":-6.132549,"line":4},{"transit":false,"time":9,"is_transit":false,"distance":4102,"station_name":"Angke","i_lat":-6.144674,"line":1,"station_id":"AK","i_long":106.79867}],[{"distance":0,"time":0,"transit":false,"station_name":"Cakung","is_transit":false,"station_id":"CUK","i_long":106.951283,"i_lat":-6.219053,"line":1},{"line":1,"is_transit":false,"time":8,"distance":1385,"station_id":"KLDB","i_lat":-6.217455,"station_name":"Klenderbaru","i_long":106.939679,"transit":false},{"distance":1305,"line":1,"i_lat":-6.215568,"station_name":"Buaran","transit":false,"time":1,"is_transit":false,"station_id":"BUA","i_long":106.922662},{"i_lat":-6.2135,"station_id":"KLD","line":1,"i_long":106.899548,"time":2,"distance":3100,"transit":false,"station_name":"Klender","is_transit":false},{"i_lat":-6.215091,"transit":false,"i_long":106.86807400000001,"line":1,"time":3,"station_name":"Jatinegara","distance":3395,"is_transit":false,"station_id":"JNG"},{"station_id":"MTR","distance":1377,"i_long":106.858896,"time":2,"is_transit":false,"transit":false,"line":1,"station_name":"Matraman","i_lat":-6.212485},{"transit":true,"time":2,"station_id":"MRI","i_lat":-6.209883,"distance":1275,"i_long":106.84912,"line":2,"is_transit":true,"station_name":"Manggarai"},{"station_name":"Cikini","time":4,"is_transit":false,"station_id":"CKI","line":2,"i_long":106.840169,"distance":1590,"i_lat":-6.198556,"transit":false},{"i_lat":-6.186295,"time":3,"station_id":"GDD","transit":false,"station_name":"Gondangdia","is_transit":false,"i_long":106.832183,"distance":1750,"line":2},{"is_transit":false,"station_name":"Juanda","i_long":106.828284,"line":2,"station_id":"JUA","time":4,"distance":2015,"transit":false,"i_lat":-6.166716},{"is_transit":false,"i_lat":-6.160725,"i_long":106.827103,"line":2,"distance":1149,"station_id":"SW","time":2,"transit":false,"station_name":"Sawah Besar"},{"transit":false,"is_transit":false,"i_lat":-6.149769,"i_long":106.82482,"line":2,"station_name":"Manggabesar","distance":906,"station_id":"MGB","time":2},{"i_lat":-6.141205,"is_transit":false,"transit":false,"station_id":"JAY","time":2,"distance":1080,"station_name":"Jayakarta","line":2,"i_long":106.820901},{"is_transit":true,"time":4,"transit":true,"line":2,"station_name":"Jakarta Kota","i_lat":-6.137569,"distance":1264,"station_id":"JAKK","i_long":106.812439},{"is_transit":true,"distance":1364,"i_long":106.826365,"station_id":"KPB","transit":true,"line":4,"station_name":"Kampung Bandan","time":3,"i_lat":-6.132549},{"line":1,"station_id":"AK","i_long":106.79867,"is_transit":false,"time":9,"distance":4102,"transit":false,"station_name":"Angke","i_lat":-6.144674}],[{"is_transit":false,"transit":false,"i_long":106.951283,"time":0,"station_name":"Cakung","distance":0,"station_id":"CUK","i_lat":-6.219053,"line":1},{"time":8,"station_id":"KLDB","i_long":106.939679,"is_transit":false,"distance":1385,"line":1,"station_name":"Klenderbaru","i_lat":-6.217455,"transit":false},{"station_id":"BUA","time":1,"transit":false,"distance":1305,"i_long":106.922662,"line":1,"i_lat":-6.215568,"is_transit":false,"station_name":"Buaran"},{"is_transit":false,"station_name":"Klender","line":1,"distance":3100,"time":2,"transit":false,"station_id":"KLD","i_lat":-6.2135,"i_long":106.899548},{"line":1,"transit":true,"is_transit":true,"station_name":"Jatinegara","i_long":106.86807400000001,"time":3,"distance":3395,"i_lat":-6.215091,"station_id":"JNG"},{"is_transit":false,"i_long":106.861737,"distance":1236,"station_name":"Pondok Jati","i_lat":-6.209188,"line":11,"transit":false,"time":2,"station_id":"POK"},{"station_name":"Kramat","time":2,"is_transit":false,"i_long":106.855437,"distance":1829,"station_id":"KMT","transit":false,"i_lat":-6.193792,"line":11},{"i_long":106.850107,"is_transit":false,"line":11,"station_id":"GST","time":1,"transit":false,"i_lat":-6.185975,"distance":973,"station_name":"Gang Sentiong"},{"is_transit":false,"station_name":"Pasar Senen","station_id":"PSE","time":8,"i_lat":-6.174784,"i_long":106.84368,"distance":1567,"transit":false,"line":11},{"i_lat":-6.161728,"is_transit":false,"time":4,"i_long":106.839204,"station_name":"Kemayoran","transit":false,"distance":1436,"station_id":"KMO","line":11},{"i_lat":-6.14505,"transit":false,"line":11,"is_transit":false,"i_long":106.836569,"time":5,"station_name":"Rajawali","station_id":"RJW","distance":1901},{"is_transit":true,"line":4,"i_long":106.826365,"time":3,"distance":1444,"transit":true,"station_id":"KPB","station_name":"Kampung Bandan","i_lat":-6.132549},{"station_name":"Jakarta Kota","line":2,"transit":true,"station_id":"JAKK","i_long":106.812439,"time":3,"is_transit":true,"i_lat":-6.137569,"distance":1364},{"station_name":"Jayakarta","transit":false,"i_lat":-6.141205,"time":4,"is_transit":false,"distance":1264,"station_id":"JAY","line":2,"i_long":106.820901},{"station_id":"MGB","is_transit":false,"distance":1080,"time":2,"i_lat":-6.149769,"line":2,"transit":false,"station_name":"Manggabesar","i_long":106.82482},{"station_name":"Sawah Besar","station_id":"SW","i_long":106.827103,"i_lat":-6.160725,"line":2,"transit":false,"time":2,"is_transit":false,"distance":906},{"time":2,"station_id":"JUA","line":2,"transit":false,"station_name":"Juanda","i_lat":-6.166716,"distance":1149,"i_long":106.828284,"is_transit":false},{"station_id":"GDD","transit":false,"is_transit":false,"time":4,"i_lat":-6.186295,"distance":2015,"i_long":106.832183,"station_name":"Gondangdia","line":2},{"station_id":"CKI","distance":1750,"is_transit":false,"station_name":"Cikini","i_lat":-6.198556,"transit":false,"line":2,"i_long":106.840169,"time":3},{"station_name":"Manggarai","time":4,"is_transit":true,"i_lat":-6.209883,"i_long":106.84912,"transit":true,"line":2,"station_id":"MRI","distance":1590},{"station_id":"SUD","time":4,"station_name":"Sudirman","i_long":106.822649,"line":1,"is_transit":false,"i_lat":-6.202263,"distance":3186,"transit":false},{"i_lat":-6.201433,"distance":280,"line":1,"time":1,"i_long":106.819881,"station_id":"SUDB","station_name":"Sudirman Baru","is_transit":false,"transit":false},{"is_transit":false,"station_name":"Karet","transit":false,"station_id":"KAT","distance":471,"time":1,"i_lat":-6.20132,"i_long":106.816351,"line":1},{"time":5,"transit":false,"station_name":"Tanah Abang","i_lat":-6.185545,"i_long":106.811091,"line":1,"is_transit":false,"distance":2029,"station_id":"THB"},{"time":8,"transit":false,"i_long":106.800832,"station_id":"DU","i_lat":-6.155215,"distance":3632,"line":1,"is_transit":false,"station_name":"Duri"},{"i_lat":-6.144674,"is_transit":false,"time":4,"transit":false,"station_name":"Angke","distance":1230,"station_id":"AK","i_long":106.79867,"line":1}]]}