{"data":[[{"time":0,"station_name":"Cakung","line":0,"i_long":106.951283,"station_id":"CUK","i_lat":-6.219053,"transit":false,"is_transit":false,"distance":0},{"is_transit":false,"station_name":"Klenderbaru","i_long":106.939679,"distance":1385,"i_lat":-6.217455,"station_id":"KLDB","transit":false,"line":1,"time":8},{"transit":false,"i_long":106.922662,"station_id":"BUA","is_transit":false,"i_lat":-6.215568,"distance":1305,"station_name":"Buaran","line":0,"time":1},{"is_transit":false,"station_name":"Klender","distance":3100,"transit":false,"time":2,"station_id":"KLD","i_lat":-6.2135,"i_long":106.899548,"line":1},{"is_transit":true,"distance":3395,"transit":true,"i_lat":-6.215091,"line":0,"time":3,"station_name":"Jatinegara","station_id":"JNG","i_long":106.86807400000001},{"time":2,"transit":false,"station_name":"Pondok Jati","line":11,"i_lat":-6.209188,"i_long":106.861737,"is_transit":false,"distance":1236,"station_id":"POK"},{"distance":1829,"i_lat":-6.193792,"line":11,"is_transit":false,"transit":false,"time":2,"station_id":"KMT","i_long":106.855437,"station_name":"Kramat"},{"transit":false,"i_long":106.850107,"station_id":"GST","time":1,"i_lat":-6.185975,"station_name":"Gang Sentiong","line":11,"distance":973,"is_transit":false}],[{"is_transit":false,"transit":false,"time":0,"i_lat":-6.219053,"distance":0,"i_long":106.951283,"line":0,"station_id":"CUK","station_name":"Cakung"},{"station_name":"Klenderbaru","distance":1385,"i_lat":-6.217455,"i_long":106.939679,"station_id":"KLDB","is_transit":false,"time":8,"transit":false,"line":1},{"i_lat":-6.215568,"line":0,"distance":1305,"is_transit":false,"time":1,"i_long":106.922662,"station_id":"BUA","transit":false,"station_name":"Buaran"},{"distance":3100,"i_lat":-6.2135,"station_id":"KLD","station_name":"Klender","line":1,"i_long":106.899548,"time":2,"is_transit":false,"transit":false},{"station_id":"JNG","is_transit":true,"i_long":106.86807400000001,"line":0,"station_name":"Jatinegara","time":3,"distance":3395,"i_lat":-6.215091,"transit":false},{"is_transit":false,"station_id":"MTR","distance":1377,"transit":false,"line":1,"i_long":106.858896,"station_name":"Matraman","time":2,"i_lat":-6.212485},{"i_lat":-6.209883,"i_long":106.84912,"distance":1275,"is_transit":true,"line":0,"station_id":"MRI","time":2,"transit":false,"station_name":"Manggarai"},{"i_lat":-6.202263,"distance":3186,"i_long":106.822649,"station_id":"SUD","time":4,"transit":false,"line":1,"is_transit":false,"station_name":"Sudirman"},{"distance":280,"i_long":106.819881,"line":1,"transit":false,"station_id":"SUDB","i_lat":-6.201433,"station_name":"Sudirman Baru","time":1,"is_transit":false},{"time":1,"station_id":"KAT","station_name":"Karet","i_long":106.816351,"is_transit":false,"distance":471,"i_lat":-6.20132,"transit":false,"line":1},{"i_long":106.811091,"line":1,"station_id":"THB","time":5,"transit":false,"station_name":"Tanah Abang","is_transit":true,"i_lat":-6.185545,"distance":2029},{"i_lat":-6.155215,"distance":3632,"line":1,"transit":true,"station_id":"DU","station_name":"Duri","is_transit":true,"i_long":106.800832,"time":8},{"time":4,"line":0,"is_transit":false,"station_name":"Angke","station_id":"AK","distance":1230,"i_lat":-6.144674,"i_long":106.79867,"transit":false},{"i_lat":-6.132549,"line":0,"time":9,"transit":true,"i_long":106.826365,"distance":4102,"station_name":"Kampung Bandan","station_id":"KPB","is_transit":true},{"time":3,"station_name":"Rajawali","i_lat":-6.14505,"station_id":"RJW","line":11,"transit":false,"is_transit":false,"distance":1444,"i_long":106.836569},{"i_long":106.839204,"station_name":"Kemayoran","is_transit":false,"station_id":"KMO","distance":1901,"i_lat":-6.161728,"line":11,"time":5,"transit":false},{"line":11,"station_name":"Pasar Senen","transit":false,"time":4,"i_lat":-6.174784,"station_id":"PSE","distance":1436,"i_long":106.84368,"is_transit":false},{"station_id":"GST","station_name":"Gang Sentiong","i_long":106.850107,"time":8,"line":11,"is_transit":false,"i_lat":-6.185975,"transit":false,"distance":1567}],[{"station_name":"Cakung","time":0,"distance":0,"i_lat":-6.219053,"line":0,"is_transit":false,"transit":false,"station_id":"CUK","i_long":106.951283},{"station_name":"Klenderbaru","i_long":106.939679,"time":8,"station_id":"KLDB","is_transit":false,"distance":1385,"transit":false,"line":1,"i_lat":-6.217455},{"time":1,"i_lat":-6.215568,"is_transit":false,"station_id":"BUA","distance":1305,"transit":false,"i_long":106.922662,"station_name":"Buaran","line":0},{"distance":3100,"transit":false,"line":1,"station_id":"KLD","i_long":106.899548,"is_transit":false,"i_lat":-6.2135,"station_name":"Klender","time":2},{"distance":3395,"station_name":"Jatinegara","i_lat":-6.215091,"line":0,"i_long":106.86807400000001,"time":3,"is_transit":true,"station_id":"JNG","transit":false},{"station_id":"MTR","i_lat":-6.212485,"i_long":106.858896,"line":1,"distance":1377,"is_transit":false,"transit":false,"station_name":"Matraman","time":2},{"line":0,"station_name":"Manggarai","is_transit":true,"transit":true,"i_lat":-6.209883,"time":2,"i_long":106.84912,"distance":1275,"station_id":"MRI"},{"distance":1590,"station_id":"CKI","station_name":"Cikini","is_transit":false,"time":4,"i_long":106.840169,"line":0,"transit":false,"i_lat":-6.198556},{"distance":1750,"time":3,"i_lat":-6.186295,"station_name":"Gondangdia","line":2,"station_id":"GDD","transit":false,"i_long":106.832183,"is_transit":false},{"line":2,"station_name":"Juanda","station_id":"JUA","time":4,"i_lat":-6.166716,"i_long":106.828284,"transit":false,"is_transit":false,"distance":2015},{"station_id":"SW","i_lat":-6.160725,"distance":1149,"is_transit":false,"i_long":106.827103,"time":2,"line":2,"transit":false,"station_name":"Sawah Besar"},{"transit":false,"i_long":106.82482,"station_name":"Manggabesar","i_lat":-6.149769,"station_id":"MGB","line":2,"is_transit":false,"time":2,"distance":906},{"is_transit":false,"station_id":"JAY","station_name":"Jayakarta","time":2,"line":7,"i_long":106.820901,"distance":1080,"transit":false,"i_lat":-6.141205},{"is_transit":true,"station_name":"Jakarta Kota","station_id":"JAKK","i_lat":-6.137569,"time":4,"i_long":106.812439,"line":0,"transit":true,"distance":1264},{"i_long":106.826365,"is_transit":true,"station_id":"KPB","station_name":"Kampung Bandan","time":3,"distance":1364,"transit":true,"i_lat":-6.132549,"line":0},{"i_lat":-6.14505,"station_id":"RJW","station_name":"Rajawali","is_transit":false,"i_long":106.836569,"time":3,"distance":1444,"transit":false,"line":11},{"station_id":"KMO","line":11,"time":5,"transit":false,"station_name":"Kemayoran","i_long":106.839204,"is_transit":false,"distance":1901,"i_lat":-6.161728},{"station_name":"Pasar Senen","time":4,"station_id":"PSE","transit":false,"i_long":106.84368,"i_lat":-6.174784,"is_transit":false,"distance":1436,"line":11},{"station_id":"GST","i_long":106.850107,"transit":false,"station_name":"Gang Sentiong","i_lat":-6.185975,"time":8,"distance":1567,"line":11,"is_transit":false}]]}