{"data":[[{"distance":0,"station_id":"CUK","i_lat":-6.219053,"i_long":106.951283,"line":0,"transit":false,"station_name":"Cakung","time":0,"is_transit":false},{"station_id":"KLDB","station_name":"Klenderbaru","time":8,"i_lat":-6.217455,"transit":false,"line":1,"distance":1385,"is_transit":false,"i_long":106.939679},{"line":0,"station_id":"BUA","is_transit":false,"i_long":106.922662,"time":1,"station_name":"Buaran","distance":1305,"transit":false,"i_lat":-6.215568},{"station_id":"KLD","is_transit":false,"transit":false,"time":2,"i_long":106.899548,"i_lat":-6.2135,"distance":3100,"line":1,"station_name":"Klender"},{"line":0,"i_long":106.86807400000001,"transit":false,"i_lat":-6.215091,"time":3,"station_id":"JNG","is_transit":true,"distance":3395,"station_name":"Jatinegara"},{"station_id":"MTR","is_transit":false,"station_name":"Matraman","transit":false,"line":1,"distance":1377,"time":2,"i_lat":-6.212485,"i_long":106.858896},{"station_name":"Manggarai","transit":true,"i_lat":-6.209883,"time":2,"i_long":106.84912,"station_id":"MRI","distance":1275,"line":0,"is_transit":true},{"station_id":"TEB","i_lat":-6.226659,"i_long":106.857948,"time":4,"distance":2610,"station_name":"Tebet","transit":false,"line":2,"is_transit":false},{"station_id":"CW","time":2,"i_long":106.856607,"line":0,"distance":1230,"i_lat":-6.242512,"transit":false,"station_name":"Cawang","is_transit":false},{"i_long":106.85449,"i_lat":-6.255332,"station_name":"Duren Kalibata","transit":false,"distance":1546,"is_transit":false,"time":3,"line":0,"station_id":"DRN"},{"distance":824,"i_long":106.851577,"transit":false,"i_lat":-6.263214,"station_id":"PSMB","is_transit":false,"station_name":"Pasar Minggu Baru","time":2,"line":2},{"i_long":106.843999,"line":2,"station_name":"Pasar Minggu","time":2,"distance":2380,"is_transit":false,"transit":false,"i_lat":-6.2842400000000005,"station_id":"PSM"},{"line":2,"station_name":"Tanjung Barat","transit":false,"is_transit":false,"station_id":"TNT","time":4,"distance":2820,"i_lat":-6.3080680000000005,"i_long":106.838896},{"i_long":106.832616,"is_transit":false,"station_name":"Lenteng Agung","station_id":"LNA","distance":2671,"line":2,"i_lat":-6.330363,"time":3,"transit":false},{"i_long":106.834175,"station_name":"Univ. Pancasila","is_transit":false,"transit":false,"station_id":"UP","time":2,"distance":1029,"i_lat":-6.339291,"line":2}],[{"transit":false,"line":0,"station_name":"Cakung","is_transit":false,"i_long":106.951283,"distance":0,"i_lat":-6.219053,"time":0,"station_id":"CUK"},{"station_name":"Klenderbaru","line":1,"i_long":106.939679,"time":8,"is_transit":false,"transit":false,"i_lat":-6.217455,"station_id":"KLDB","distance":1385},{"i_lat":-6.215568,"line":0,"station_name":"Buaran","is_transit":false,"distance":1305,"transit":false,"station_id":"BUA","i_long":106.922662,"time":1},{"is_transit":false,"i_lat":-6.2135,"time":2,"i_long":106.899548,"station_id":"KLD","distance":3100,"station_name":"Klender","transit":false,"line":1},{"transit":true,"i_long":106.86807400000001,"station_id":"JNG","is_transit":true,"distance":3395,"time":3,"i_lat":-6.215091,"line":0,"station_name":"Jatinegara"},{"time":2,"i_lat":-6.209188,"station_id":"POK","transit":false,"i_long":106.861737,"station_name":"Pondok Jati","distance":1236,"line":11,"is_transit":false},{"station_id":"KMT","i_lat":-6.193792,"distance":1829,"time":2,"line":11,"transit":false,"i_long":106.855437,"is_transit":false,"station_name":"Kramat"},{"distance":973,"transit":false,"line":11,"time":1,"station_id":"GST","station_name":"Gang Sentiong","is_transit":false,"i_long":106.850107,"i_lat":-6.185975},{"i_long":106.84368,"station_name":"Pasar Senen","station_id":"PSE","time":8,"is_transit":false,"distance":1567,"i_lat":-6.174784,"line":11,"transit":false},{"is_transit":false,"i_long":106.839204,"time":4,"station_id":"KMO","distance":1436,"transit":false,"station_name":"Kemayoran","i_lat":-6.161728,"line":11},{"is_transit":false,"time":5,"i_long":106.836569,"i_lat":-6.14505,"station_name":"Rajawali","station_id":"RJW","distance":1901,"transit":false,"line":11},{"time":3,"line":0,"station_name":"Kampung Bandan","station_id":"KPB","distance":1444,"i_long":106.826365,"transit":true,"i_lat":-6.132549,"is_transit":true},{"transit":false,"station_id":"AK","distance":4102,"station_name":"Angke","i_lat":-6.144674,"i_long":106.79867,"time":9,"is_transit":false,"line":0},{"station_id":"DU","station_name":"Duri","time":4,"i_lat":-6.155215,"transit":true,"distance":1230,"i_long":106.800832,"is_transit":true,"line":1},{"distance":3632,"i_lat":-6.185545,"is_transit":true,"line":1,"time":8,"i_long":106.811091,"transit":false,"station_name":"Tanah Abang","station_id":"THB"},{"i_long":106.816351,"distance":2029,"time":5,"i_lat":-6.20132,"line":1,"is_transit":false,"station_name":"Karet","station_id":"KAT","transit":false},{"time":1,"is_transit":false,"i_lat":-6.201433,"line":1,"transit":false,"station_name":"Sudirman Baru","distance":471,"station_id":"SUDB","i_long":106.819881},{"station_name":"Sudirman","distance":280,"station_id":"SUD","transit":false,"i_long":106.822649,"i_lat":-6.202263,"line":1,"is_transit":false,"time":1},{"transit":true,"station_id":"MRI","distance":3186,"line":0,"station_name":"Manggarai","is_transit":true,"i_lat":-6.209883,"time":4,"i_long":106.84912},{"time":4,"i_long":106.857948,"is_transit":false,"station_id":"TEB","station_name":"Tebet","i_lat":-6.226659,"distance":2610,"transit":false,"line":2},{"station_id":"CW","is_transit":false,"time":2,"station_name":"Cawang","transit":false,"distance":1230,"i_lat":-6.242512,"i_long":106.856607,"line":0},{"i_long":106.85449,"line":0,"i_lat":-6.255332,"is_transit":false,"station_name":"Duren Kalibata","time":3,"station_id":"DRN","transit":false,"distance":1546},{"station_name":"Pasar Minggu Baru","transit":false,"i_long":106.851577,"distance":824,"i_lat":-6.263214,"line":2,"is_transit":false,"time":2,"station_id":"PSMB"},{"transit":false,"i_long":106.843999,"station_name":"Pasar Minggu","is_transit":false,"station_id":"PSM","distance":2380,"i_lat":-6.2842400000000005,"line":2,"time":2},{"is_transit":false,"station_id":"TNT","line":2,"i_lat":-6.3080680000000005,"time":4,"i_long":106.838896,"transit":false,"station_name":"Tanjung Barat","distance":2820},{"distance":2671,"station_id":"LNA","time":3,"i_lat":-6.330363,"i_long":106.832616,"transit":false,"station_name":"Lenteng Agung","is_transit":false,"line":2},{"transit":false,"i_lat":-6.339291,"time":2,"line":2,"station_name":"Univ. Pancasila","is_transit":false,"distance":1029,"i_long":106.834175,"station_id":"UP"}],[{"distance":0,"transit":false,"station_name":"Cakung","i_lat":-6.219053,"i_long":106.951283,"station_id":"CUK","line":0,"is_transit":false,"time":0},{"is_transit":false,"i_long":106.939679,"station_name":"Klenderbaru","station_id":"KLDB","time":8,"distance":1385,"line":1,"i_lat":-6.217455,"transit":false},{"station_name":"Buaran","station_id":"BUA","is_transit":false,"transit":false,"line":0,"time":1,"distance":1305,"i_lat":-6.215568,"i_long":106.922662},{"time":2,"is_transit":false,"transit":false,"i_lat":-6.2135,"station_id":"KLD","station_name":"Klender","line":1,"i_long":106.899548,"distance":3100},{"is_transit":true,"i_lat":-6.215091,"time":3,"i_long":106.86807400000001,"line":0,"distance":3395,"transit":true,"station_id":"JNG","station_name":"Jatinegara"},{"line":11,"station_name":"Pondok Jati","time":2,"i_lat":-6.209188,"i_long":106.861737,"distance":1236,"is_transit":false,"transit":false,"station_id":"POK"},{"station_id":"KMT","transit":false,"i_lat":-6.193792,"i_long":106.855437,"time":2,"line":11,"distance":1829,"is_transit":false,"station_name":"Kramat"},{"station_name":"Gang Sentiong","station_id":"GST","transit":false,"distance":973,"time":1,"is_transit":false,"i_lat":-6.185975,"i_long":106.850107,"line":11},{"i_lat":-6.174784,"distance":1567,"i_long":106.84368,"station_name":"Pasar Senen","line":11,"time":8,"station_id":"PSE","transit":false,"is_transit":false},{"i_lat":-6.161728,"i_long":106.839204,"time":4,"line":11,"station_id":"KMO","distance":1436,"is_transit":false,"station_name":"Kemayoran","transit":false},{"distance":1901,"is_transit":false,"station_id":"RJW","time":5,"i_long":106.836569,"line":11,"i_lat":-6.14505,"station_name":"Rajawali","transit":false},{"transit":true,"station_id":"KPB","station_name":"Kampung Bandan","is_transit":true,"time":3,"distance":1444,"i_lat":-6.132549,"i_long":106.826365,"line":0},{"station_id":"JAKK","distance":1364,"i_long":106.812439,"is_transit":true,"time":3,"transit":true,"line":0,"i_lat":-6.137569,"station_name":"Jakarta Kota"},{"station_name":"Jayakarta","is_transit":false,"line":7,"station_id":"JAY","transit":false,"time":4,"i_long":106.820901,"i_lat":-6.141205,"distance":1264},{"line":2,"time":2,"is_transit":false,"station_name":"Manggabesar","distance":1080,"i_long":106.82482,"transit":false,"station_id":"MGB","i_lat":-6.149769},{"station_id":"SW","time":2,"distance":906,"transit":false,"line":2,"i_long":106.827103,"i_lat":-6.160725,"station_name":"Sawah Besar","is_transit":false},{"i_lat":-6.166716,"line":2,"station_name":"Juanda","time":2,"station_id":"JUA","is_transit":false,"distance":1149,"transit":false,"i_long":106.828284},{"i_lat":-6.186295,"transit":false,"station_id":"GDD","line":2,"is_transit":false,"station_name":"Gondangdia","time":4,"distance":2015,"i_long":106.832183},{"station_id":"CKI","i_long":106.840169,"is_transit":false,"i_lat":-6.198556,"distance":1750,"time":3,"station_name":"Cikini","transit":false,"line":0},{"distance":1590,"station_id":"MRI","station_name":"Manggarai","is_transit":true,"time":4,"transit":true,"line":0,"i_lat":-6.209883,"i_long":106.84912},{"i_long":106.857948,"station_id":"TEB","station_name":"Tebet","transit":false,"distance":2610,"i_lat":-6.226659,"line":2,"time":4,"is_transit":false},{"station_name":"Cawang","i_lat":-6.242512,"line":0,"transit":false,"station_id":"CW","is_transit":false,"i_long":106.856607,"distance":1230,"time":2},{"i_lat":-6.255332,"station_id":"DRN","distance":1546,"time":3,"is_transit":false,"transit":false,"i_long":106.85449,"station_name":"Duren Kalibata","line":0},{"i_long":106.851577,"is_transit":false,"transit":false,"time":2,"distance":824,"station_name":"Pasar Minggu Baru","line":2,"station_id":"PSMB","i_lat":-6.263214},{"line":2,"station_name":"Pasar Minggu","transit":false,"i_long":106.843999,"i_lat":-6.2842400000000005,"station_id":"PSM","distance":2380,"is_transit":false,"time":2},{"transit":false,"distance":2820,"time":4,"i_lat":-6.3080680000000005,"station_id":"TNT","i_long":106.838896,"line":2,"is_transit":false,"station_name":"Tanjung Barat"},{"i_long":106.832616,"time":3,"i_lat":-6.330363,"distance":2671,"is_transit":false,"transit":false,"line":2,"station_id":"LNA","station_name":"Lenteng Agung"},{"station_id":"UP","station_name":"Univ. Pancasila","is_transit":false,"time":2,"distance":1029,"transit":false,"i_long":106.834175,"i_lat":-6.339291,"line":2}]]}