{"data":[[{"station_id":"CUK","is_transit":false,"station_name":"Cakung","line":1,"i_long":106.951283,"transit":false,"i_lat":-6.219053,"distance":0,"time":0},{"station_id":"KLDB","transit":false,"i_lat":-6.217455,"distance":1385,"is_transit":false,"time":8,"i_long":106.939679,"line":1,"station_name":"Klenderbaru"},{"i_lat":-6.215568,"time":1,"station_id":"BUA","is_transit":false,"distance":1305,"station_name":"Buaran","i_long":106.922662,"line":1,"transit":false},{"i_lat":-6.2135,"station_name":"Klender","is_transit":false,"i_long":106.899548,"line":1,"station_id":"KLD","distance":3100,"transit":false,"time":2},{"i_lat":-6.215091,"transit":false,"is_transit":false,"station_id":"JNG","distance":3395,"i_long":106.86807400000001,"time":3,"station_name":"Jatinegara","line":1},{"transit":false,"time":2,"i_lat":-6.212485,"station_name":"Matraman","line":1,"is_transit":false,"station_id":"MTR","i_long":106.858896,"distance":1377},{"station_name":"Manggarai","is_transit":false,"distance":1275,"time":2,"transit":false,"i_long":106.84912,"station_id":"MRI","i_lat":-6.209883,"line":2},{"transit":false,"station_id":"SUD","distance":3186,"i_lat":-6.202263,"is_transit":false,"line":1,"time":4,"i_long":106.822649,"station_name":"Sudirman"},{"time":1,"station_name":"Sudirman Baru","i_lat":-6.201433,"i_long":106.819881,"distance":280,"station_id":"SUDB","is_transit":false,"line":1,"transit":false},{"i_lat":-6.20132,"station_name":"Karet","is_transit":false,"line":1,"time":1,"station_id":"KAT","distance":471,"transit":false,"i_long":106.816351},{"time":5,"line":1,"station_name":"Tanah Abang","distance":2029,"transit":true,"station_id":"THB","i_lat":-6.185545,"i_long":106.811091,"is_transit":true},{"transit":false,"station_id":"PLM","distance":3191,"i_lat":-6.207404,"line":6,"station_name":"Palmerah","is_transit":false,"i_long":106.79689,"time":6},{"is_transit":false,"i_long":106.780334,"i_lat":-6.237242,"time":7,"station_name":"Kebayoran","station_id":"KBY","transit":false,"line":6,"distance":3737},{"i_long":106.74273,"line":6,"time":8,"station_name":"Pondokranji","is_transit":false,"station_id":"PDJ","i_lat":-6.276362,"transit":false,"distance":6218},{"time":3,"i_long":106.728916,"line":6,"station_id":"JMU","station_name":"Jurangmangu","transit":false,"is_transit":false,"distance":2179,"i_lat":-6.288927},{"line":6,"time":4,"i_lat":-6.296963,"station_name":"Sudimara","distance":1994,"is_transit":false,"transit":false,"station_id":"SDM","i_long":106.712277},{"transit":false,"time":6,"station_name":"Rawa Buntu","i_long":106.675475,"distance":4566,"i_lat":-6.314823,"station_id":"RU","line":6,"is_transit":false},{"line":6,"station_name":"Serpong","time":4,"station_id":"SRP","distance":2413,"i_lat":-6.319871,"transit":false,"is_transit":false,"i_long":106.66566},{"transit":false,"is_transit":false,"distance":1784,"i_lat":-6.32484,"i_long":106.640411,"station_id":"CSK","line":3,"station_name":"Cisauk","time":4},{"transit":false,"station_name":"Cicayur","i_long":106.617853,"line":3,"i_lat":-6.329547,"is_transit":false,"station_id":"CC","time":4,"distance":2519},{"station_id":"PRP","i_long":106.568863,"line":6,"is_transit":false,"distance":5968,"station_name":"Parung Panjang","i_lat":-6.3441410000000005,"transit":false,"time":8},{"time":9,"i_long":106.508482,"station_name":"Cilejit","i_lat":-6.354349,"distance":7025,"station_id":"CJT","line":3,"is_transit":false,"transit":false}],[{"time":0,"line":1,"station_name":"Cakung","distance":0,"station_id":"CUK","i_lat":-6.219053,"i_long":106.951283,"is_transit":false,"transit":false},{"station_name":"Klenderbaru","distance":1385,"i_lat":-6.217455,"transit":false,"i_long":106.939679,"time":8,"station_id":"KLDB","is_transit":false,"line":1},{"transit":false,"line":1,"station_id":"BUA","i_lat":-6.215568,"is_transit":false,"i_long":106.922662,"time":1,"distance":1305,"station_name":"Buaran"},{"transit":false,"i_long":106.899548,"i_lat":-6.2135,"station_name":"Klender","distance":3100,"line":1,"time":2,"is_transit":false,"station_id":"KLD"},{"time":3,"i_long":106.86807400000001,"line":1,"distance":3395,"transit":true,"station_id":"JNG","station_name":"Jatinegara","is_transit":true,"i_lat":-6.215091},{"i_lat":-6.209188,"line":11,"i_long":106.861737,"station_id":"POK","is_transit":false,"distance":1236,"station_name":"Pondok Jati","transit":false,"time":2},{"distance":1829,"station_name":"Kramat","i_long":106.855437,"i_lat":-6.193792,"time":2,"transit":false,"is_transit":false,"station_id":"KMT","line":11},{"transit":false,"distance":973,"station_name":"Gang Sentiong","i_lat":-6.185975,"is_transit":false,"time":1,"line":11,"i_long":106.850107,"station_id":"GST"},{"station_id":"PSE","station_name":"Pasar Senen","distance":1567,"is_transit":false,"i_lat":-6.174784,"transit":false,"i_long":106.84368,"line":11,"time":8},{"i_long":106.839204,"line":11,"time":4,"distance":1436,"transit":false,"station_id":"KMO","station_name":"Kemayoran","is_transit":false,"i_lat":-6.161728},{"transit":false,"distance":1901,"i_long":106.836569,"station_name":"Rajawali","is_transit":false,"station_id":"RJW","i_lat":-6.14505,"time":5,"line":11},{"station_name":"Kampung Bandan","line":4,"station_id":"KPB","time":3,"i_lat":-6.132549,"distance":1444,"is_transit":true,"i_long":106.826365,"transit":true},{"line":1,"i_lat":-6.144674,"transit":false,"station_name":"Angke","time":9,"station_id":"AK","distance":4102,"is_transit":false,"i_long":106.79867},{"distance":1230,"i_long":106.800832,"time":4,"line":1,"is_transit":false,"station_id":"DU","i_lat":-6.155215,"transit":false,"station_name":"Duri"},{"transit":true,"line":1,"station_name":"Tanah Abang","i_long":106.811091,"time":8,"distance":3632,"is_transit":true,"i_lat":-6.185545,"station_id":"THB"},{"transit":false,"i_lat":-6.207404,"i_long":106.79689,"station_id":"PLM","station_name":"Palmerah","line":6,"is_transit":false,"distance":3191,"time":6},{"i_lat":-6.237242,"i_long":106.780334,"distance":3737,"time":7,"transit":false,"station_name":"Kebayoran","line":6,"is_transit":false,"station_id":"KBY"},{"distance":6218,"i_lat":-6.276362,"i_long":106.74273,"is_transit":false,"station_name":"Pondokranji","time":8,"transit":false,"station_id":"PDJ","line":6},{"station_id":"JMU","transit":false,"is_transit":false,"line":6,"station_name":"Jurangmangu","time":3,"distance":2179,"i_long":106.728916,"i_lat":-6.288927},{"time":4,"station_name":"Sudimara","station_id":"SDM","is_transit":false,"i_long":106.712277,"line":6,"distance":1994,"transit":false,"i_lat":-6.296963},{"line":6,"station_name":"Rawa Buntu","transit":false,"time":6,"i_long":106.675475,"i_lat":-6.314823,"station_id":"RU","is_transit":false,"distance":4566},{"distance":2413,"i_lat":-6.319871,"station_name":"Serpong","i_long":106.66566,"is_transit":false,"line":6,"transit":false,"time":4,"station_id":"SRP"},{"station_id":"CSK","time":4,"station_name":"Cisauk","transit":false,"line":3,"i_lat":-6.32484,"is_transit":false,"distance":1784,"i_long":106.640411},{"transit":false,"station_name":"Cicayur","i_long":106.617853,"i_lat":-6.329547,"distance":2519,"line":3,"station_id":"CC","time":4,"is_transit":false},{"is_transit":false,"i_long":106.568863,"transit":false,"station_id":"PRP","time":8,"i_lat":-6.3441410000000005,"distance":5968,"line":6,"station_name":"Parung Panjang"},{"i_long":106.508482,"station_name":"Cilejit","is_transit":false,"station_id":"CJT","distance":7025,"transit":false,"i_lat":-6.354349,"time":9,"line":3}],[{"station_id":"CUK","transit":false,"distance":0,"is_transit":false,"i_long":106.951283,"station_name":"Cakung","line":1,"i_lat":-6.219053,"time":0},{"distance":1385,"i_long":106.939679,"station_id":"KLDB","is_transit":false,"line":1,"transit":false,"time":8,"station_name":"Klenderbaru","i_lat":-6.217455},{"is_transit":false,"distance":1305,"station_name":"Buaran","i_lat":-6.215568,"station_id":"BUA","i_long":106.922662,"line":1,"time":1,"transit":false},{"transit":false,"station_id":"KLD","station_name":"Klender","is_transit":false,"time":2,"i_lat":-6.2135,"line":1,"distance":3100,"i_long":106.899548},{"line":1,"time":3,"transit":false,"distance":3395,"station_name":"Jatinegara","is_transit":false,"station_id":"JNG","i_lat":-6.215091,"i_long":106.86807400000001},{"station_name":"Matraman","i_lat":-6.212485,"station_id":"MTR","i_long":106.858896,"line":1,"time":2,"is_transit":false,"distance":1377,"transit":false},{"time":2,"i_long":106.84912,"station_name":"Manggarai","i_lat":-6.209883,"distance":1275,"transit":true,"line":2,"station_id":"MRI","is_transit":true},{"station_id":"CKI","i_lat":-6.198556,"transit":false,"station_name":"Cikini","line":2,"is_transit":false,"distance":1590,"i_long":106.840169,"time":4},{"station_id":"GDD","station_name":"Gondangdia","i_long":106.832183,"line":2,"distance":1750,"is_transit":false,"transit":false,"i_lat":-6.186295,"time":3},{"time":4,"transit":false,"is_transit":false,"station_id":"JUA","i_lat":-6.166716,"i_long":106.828284,"line":2,"distance":2015,"station_name":"Juanda"},{"transit":false,"station_name":"Sawah Besar","station_id":"SW","i_long":106.827103,"distance":1149,"i_lat":-6.160725,"is_transit":false,"time":2,"line":2},{"distance":906,"i_long":106.82482,"station_name":"Manggabesar","is_transit":false,"i_lat":-6.149769,"line":2,"transit":false,"station_id":"MGB","time":2},{"station_name":"Jayakarta","line":2,"is_transit":false,"i_lat":-6.141205,"transit":false,"time":2,"station_id":"JAY","distance":1080,"i_long":106.820901},{"transit":true,"time":4,"distance":1264,"line":2,"station_name":"Jakarta Kota","station_id":"JAKK","i_lat":-6.137569,"is_transit":true,"i_long":106.812439},{"station_name":"Kampung Bandan","transit":true,"is_transit":true,"station_id":"KPB","line":4,"i_lat":-6.132549,"i_long":106.826365,"time":3,"distance":1364},{"distance":4102,"i_lat":-6.144674,"i_long":106.79867,"line":1,"time":9,"station_name":"Angke","transit":false,"station_id":"AK","is_transit":false},{"distance":1230,"is_transit":false,"transit":false,"time":4,"station_id":"DU","station_name":"Duri","i_lat":-6.155215,"i_long":106.800832,"line":1},{"station_id":"THB","transit":true,"distance":3632,"is_transit":true,"line":1,"time":8,"i_long":106.811091,"i_lat":-6.185545,"station_name":"Tanah Abang"},{"time":6,"transit":false,"is_transit":false,"distance":3191,"i_lat":-6.207404,"station_name":"Palmerah","i_long":106.79689,"station_id":"PLM","line":6},{"time":7,"station_id":"KBY","is_transit":false,"i_long":106.780334,"transit":false,"line":6,"distance":3737,"station_name":"Kebayoran","i_lat":-6.237242},{"time":8,"is_transit":false,"station_name":"Pondokranji","line":6,"station_id":"PDJ","transit":false,"distance":6218,"i_lat":-6.276362,"i_long":106.74273},{"transit":false,"time":3,"i_lat":-6.288927,"distance":2179,"is_transit":false,"i_long":106.728916,"line":6,"station_id":"JMU","station_name":"Jurangmangu"},{"transit":false,"distance":1994,"i_lat":-6.296963,"station_name":"Sudimara","time":4,"i_long":106.712277,"is_transit":false,"line":6,"station_id":"SDM"},{"station_id":"RU","transit":false,"is_transit":false,"distance":4566,"i_lat":-6.314823,"station_name":"Rawa Buntu","time":6,"line":6,"i_long":106.675475},{"i_long":106.66566,"station_id":"SRP","is_transit":false,"distance":2413,"transit":false,"i_lat":-6.319871,"station_name":"Serpong","line":6,"time":4},{"time":4,"station_id":"CSK","station_name":"Cisauk","line":3,"i_long":106.640411,"transit":false,"distance":1784,"is_transit":false,"i_lat":-6.32484},{"time":4,"line":3,"transit":false,"is_transit":false,"station_name":"Cicayur","distance":2519,"station_id":"CC","i_long":106.617853,"i_lat":-6.329547},{"transit":false,"i_lat":-6.3441410000000005,"line":6,"time":8,"i_long":106.568863,"station_name":"Parung Panjang","is_transit":false,"station_id":"PRP","distance":5968},{"station_name":"Cilejit","i_long":106.508482,"time":9,"line":3,"station_id":"CJT","distance":7025,"is_transit":false,"transit":false,"i_lat":-6.354349}],[{"station_id":"CUK","i_long":106.951283,"time":0,"transit":false,"station_name":"Cakung","distance":0,"i_lat":-6.219053,"line":1,"is_transit":false},{"transit":false,"i_lat":-6.217455,"station_name":"Klenderbaru","distance":1385,"time":8,"i_long":106.939679,"station_id":"KLDB","line":1,"is_transit":false},{"i_lat":-6.215568,"station_id":"BUA","i_long":106.922662,"distance":1305,"time":1,"is_transit":false,"line":1,"transit":false,"station_name":"Buaran"},{"line":1,"is_transit":false,"transit":false,"station_name":"Klender","i_long":106.899548,"distance":3100,"i_lat":-6.2135,"time":2,"station_id":"KLD"},{"time":3,"station_id":"JNG","station_name":"Jatinegara","is_transit":true,"distance":3395,"transit":true,"i_long":106.86807400000001,"i_lat":-6.215091,"line":1},{"station_id":"POK","transit":false,"line":11,"i_long":106.861737,"is_transit":false,"i_lat":-6.209188,"distance":1236,"station_name":"Pondok Jati","time":2},{"station_name":"Kramat","transit":false,"i_lat":-6.193792,"i_long":106.855437,"line":11,"time":2,"distance":1829,"is_transit":false,"station_id":"KMT"},{"line":11,"i_long":106.850107,"i_lat":-6.185975,"station_id":"GST","is_transit":false,"transit":false,"station_name":"Gang Sentiong","distance":973,"time":1},{"i_lat":-6.174784,"transit":false,"is_transit":false,"station_name":"Pasar Senen","station_id":"PSE","line":11,"distance":1567,"time":8,"i_long":106.84368},{"transit":false,"i_long":106.839204,"distance":1436,"i_lat":-6.161728,"station_id":"KMO","time":4,"station_name":"Kemayoran","is_transit":false,"line":11},{"line":11,"i_long":106.836569,"distance":1901,"station_name":"Rajawali","i_lat":-6.14505,"station_id":"RJW","transit":false,"is_transit":false,"time":5},{"station_id":"KPB","line":4,"i_long":106.826365,"is_transit":true,"time":3,"transit":true,"distance":1444,"i_lat":-6.132549,"station_name":"Kampung Bandan"},{"time":3,"station_name":"Jakarta Kota","distance":1364,"i_lat":-6.137569,"i_long":106.812439,"is_transit":true,"line":2,"transit":true,"station_id":"JAKK"},{"distance":1264,"is_transit":false,"station_name":"Jayakarta","i_lat":-6.141205,"i_long":106.820901,"station_id":"JAY","time":4,"line":2,"transit":false},{"transit":false,"station_name":"Manggabesar","is_transit":false,"i_long":106.82482,"time":2,"i_lat":-6.149769,"line":2,"station_id":"MGB","distance":1080},{"i_long":106.827103,"station_name":"Sawah Besar","i_lat":-6.160725,"distance":906,"line":2,"time":2,"station_id":"SW","is_transit":false,"transit":false},{"station_id":"JUA","transit":false,"time":2,"station_name":"Juanda","is_transit":false,"distance":1149,"i_lat":-6.166716,"i_long":106.828284,"line":2},{"time":4,"station_name":"Gondangdia","transit":false,"i_long":106.832183,"is_transit":false,"distance":2015,"i_lat":-6.186295,"line":2,"station_id":"GDD"},{"time":3,"station_id":"CKI","transit":false,"station_name":"Cikini","i_long":106.840169,"line":2,"distance":1750,"i_lat":-6.198556,"is_transit":false},{"station_id":"MRI","transit":true,"station_name":"Manggarai","is_transit":true,"distance":1590,"time":4,"i_lat":-6.209883,"i_long":106.84912,"line":2},{"i_lat":-6.202263,"time":4,"transit":false,"station_id":"SUD","distance":3186,"i_long":106.822649,"station_name":"Sudirman","is_transit":false,"line":1},{"station_id":"SUDB","is_transit":false,"i_long":106.819881,"station_name":"Sudirman Baru","line":1,"transit":false,"distance":280,"i_lat":-6.201433,"time":1},{"time":1,"transit":false,"station_name":"Karet","is_transit":false,"i_long":106.816351,"i_lat":-6.20132,"station_id":"KAT","distance":471,"line":1},{"line":1,"station_name":"Tanah Abang","transit":true,"distance":2029,"i_lat":-6.185545,"is_transit":true,"time":5,"station_id":"THB","i_long":106.811091},{"i_lat":-6.207404,"distance":3191,"time":6,"line":6,"station_id":"PLM","transit":false,"is_transit":false,"i_long":106.79689,"station_name":"Palmerah"},{"station_id":"KBY","is_transit":false,"distance":3737,"time":7,"i_long":106.780334,"i_lat":-6.237242,"station_name":"Kebayoran","line":6,"transit":false},{"transit":false,"i_lat":-6.276362,"station_id":"PDJ","time":8,"station_name":"Pondokranji","distance":6218,"is_transit":false,"line":6,"i_long":106.74273},{"distance":2179,"i_long":106.728916,"transit":false,"is_transit":false,"line":6,"station_id":"JMU","time":3,"i_lat":-6.288927,"station_name":"Jurangmangu"},{"is_transit":false,"i_lat":-6.296963,"station_name":"Sudimara","distance":1994,"time":4,"line":6,"i_long":106.712277,"station_id":"SDM","transit":false},{"i_lat":-6.314823,"station_id":"RU","time":6,"station_name":"Rawa Buntu","is_transit":false,"i_long":106.675475,"transit":false,"line":6,"distance":4566},{"station_id":"SRP","line":6,"station_name":"Serpong","transit":false,"distance":2413,"i_long":106.66566,"is_transit":false,"i_lat":-6.319871,"time":4},{"line":3,"i_long":106.640411,"is_transit":false,"i_lat":-6.32484,"station_name":"Cisauk","transit":false,"station_id":"CSK","time":4,"distance":1784},{"station_id":"CC","line":3,"is_transit":false,"transit":false,"i_long":106.617853,"i_lat":-6.329547,"time":4,"station_name":"Cicayur","distance":2519},{"time":8,"line":6,"station_name":"Parung Panjang","is_transit":false,"i_lat":-6.3441410000000005,"distance":5968,"transit":false,"station_id":"PRP","i_long":106.568863},{"distance":7025,"transit":false,"station_id":"CJT","is_transit":false,"line":3,"station_name":"Cilejit","time":9,"i_lat":-6.354349,"i_long":106.508482}]]}