{"data":[[{"station_id":"CUK","distance":0,"station_name":"Cakung","transit":false,"line":1,"i_long":106.951283,"is_transit":false,"time":0,"i_lat":-6.219053},{"distance":1385,"line":1,"time":8,"is_transit":false,"station_name":"Klenderbaru","i_long":106.939679,"transit":false,"i_lat":-6.217455,"station_id":"KLDB"},{"line":1,"distance":1305,"station_name":"Buaran","transit":false,"i_lat":-6.215568,"i_long":106.922662,"station_id":"BUA","time":1,"is_transit":false},{"station_id":"KLD","time":2,"is_transit":false,"i_long":106.899548,"line":1,"transit":false,"station_name":"Klender","i_lat":-6.2135,"distance":3100},{"time":3,"i_lat":-6.215091,"transit":false,"station_name":"Jatinegara","distance":3395,"station_id":"JNG","line":1,"is_transit":false,"i_long":106.86807400000001},{"line":1,"station_id":"MTR","transit":false,"station_name":"Matraman","is_transit":false,"time":2,"i_long":106.858896,"distance":1377,"i_lat":-6.212485},{"transit":false,"i_lat":-6.209883,"station_id":"MRI","station_name":"Manggarai","time":2,"line":2,"distance":1275,"is_transit":false,"i_long":106.84912}],[{"distance":0,"time":0,"is_transit":false,"transit":false,"i_long":106.951283,"station_name":"Cakung","i_lat":-6.219053,"line":1,"station_id":"CUK"},{"time":8,"line":1,"is_transit":false,"station_id":"KLDB","i_long":106.939679,"distance":1385,"transit":false,"station_name":"Klenderbaru","i_lat":-6.217455},{"time":1,"transit":false,"distance":1305,"i_long":106.922662,"station_name":"Buaran","is_transit":false,"i_lat":-6.215568,"station_id":"BUA","line":1},{"i_long":106.899548,"line":1,"station_name":"Klender","i_lat":-6.2135,"transit":false,"time":2,"station_id":"KLD","distance":3100,"is_transit":false},{"is_transit":true,"i_lat":-6.215091,"i_long":106.86807400000001,"distance":3395,"transit":true,"line":1,"time":3,"station_name":"Jatinegara","station_id":"JNG"},{"i_lat":-6.209188,"i_long":106.861737,"is_transit":false,"station_id":"POK","line":11,"transit":false,"station_name":"Pondok Jati","distance":1236,"time":2},{"transit":false,"time":2,"i_lat":-6.193792,"station_name":"Kramat","distance":1829,"i_long":106.855437,"line":11,"station_id":"KMT","is_transit":false},{"transit":false,"station_id":"GST","distance":973,"station_name":"Gang Sentiong","i_lat":-6.185975,"line":11,"i_long":106.850107,"is_transit":false,"time":1},{"is_transit":false,"i_lat":-6.174784,"station_id":"PSE","time":8,"transit":false,"distance":1567,"station_name":"Pasar Senen","i_long":106.84368,"line":11},{"line":11,"distance":1436,"i_lat":-6.161728,"i_long":106.839204,"is_transit":false,"time":4,"station_name":"Kemayoran","transit":false,"station_id":"KMO"},{"time":5,"line":11,"i_long":106.836569,"is_transit":false,"station_name":"Rajawali","transit":false,"i_lat":-6.14505,"distance":1901,"station_id":"RJW"},{"is_transit":true,"distance":1444,"time":3,"i_lat":-6.132549,"station_name":"Kampung Bandan","transit":true,"i_long":106.826365,"line":4,"station_id":"KPB"},{"i_long":106.79867,"distance":4102,"station_id":"AK","station_name":"Angke","i_lat":-6.144674,"line":1,"is_transit":false,"transit":false,"time":9},{"distance":1230,"i_lat":-6.155215,"station_name":"Duri","is_transit":false,"line":1,"i_long":106.800832,"station_id":"DU","time":4,"transit":false},{"line":1,"time":8,"station_name":"Tanah Abang","distance":3632,"transit":false,"i_lat":-6.185545,"station_id":"THB","is_transit":false,"i_long":106.811091},{"time":5,"i_lat":-6.20132,"line":1,"station_id":"KAT","is_transit":false,"i_long":106.816351,"transit":false,"distance":2029,"station_name":"Karet"},{"line":1,"station_name":"Sudirman Baru","is_transit":false,"time":1,"transit":false,"i_lat":-6.201433,"distance":471,"i_long":106.819881,"station_id":"SUDB"},{"distance":280,"is_transit":false,"i_long":106.822649,"transit":false,"line":1,"station_id":"SUD","station_name":"Sudirman","time":1,"i_lat":-6.202263},{"distance":3186,"station_id":"MRI","transit":false,"line":2,"is_transit":false,"i_lat":-6.209883,"station_name":"Manggarai","i_long":106.84912,"time":4}],[{"line":1,"transit":false,"station_id":"CUK","is_transit":false,"distance":0,"i_lat":-6.219053,"station_name":"Cakung","i_long":106.951283,"time":0},{"i_lat":-6.217455,"distance":1385,"i_long":106.939679,"line":1,"station_id":"KLDB","station_name":"Klenderbaru","is_transit":false,"transit":false,"time":8},{"is_transit":false,"distance":1305,"time":1,"station_id":"BUA","transit":false,"station_name":"Buaran","i_lat":-6.215568,"i_long":106.922662,"line":1},{"i_lat":-6.2135,"station_name":"Klender","time":2,"is_transit":false,"transit":false,"i_long":106.899548,"distance":3100,"line":1,"station_id":"KLD"},{"i_long":106.86807400000001,"i_lat":-6.215091,"station_name":"Jatinegara","station_id":"JNG","is_transit":true,"time":3,"transit":true,"line":1,"distance":3395},{"time":2,"i_lat":-6.209188,"i_long":106.861737,"is_transit":false,"station_id":"POK","station_name":"Pondok Jati","distance":1236,"transit":false,"line":11},{"distance":1829,"station_name":"Kramat","is_transit":false,"transit":false,"time":2,"station_id":"KMT","i_lat":-6.193792,"i_long":106.855437,"line":11},{"time":1,"station_id":"GST","line":11,"transit":false,"station_name":"Gang Sentiong","is_transit":false,"i_lat":-6.185975,"i_long":106.850107,"distance":973},{"time":8,"transit":false,"i_lat":-6.174784,"station_name":"Pasar Senen","line":11,"station_id":"PSE","is_transit":false,"distance":1567,"i_long":106.84368},{"transit":false,"is_transit":false,"line":11,"i_lat":-6.161728,"station_name":"Kemayoran","i_long":106.839204,"station_id":"KMO","distance":1436,"time":4},{"i_lat":-6.14505,"station_id":"RJW","line":11,"is_transit":false,"distance":1901,"i_long":106.836569,"transit":false,"station_name":"Rajawali","time":5},{"i_long":106.826365,"line":4,"transit":true,"distance":1444,"i_lat":-6.132549,"is_transit":true,"station_id":"KPB","station_name":"Kampung Bandan","time":3},{"distance":1364,"time":3,"station_id":"JAKK","i_lat":-6.137569,"transit":true,"i_long":106.812439,"line":2,"station_name":"Jakarta Kota","is_transit":true},{"transit":false,"station_id":"JAY","i_lat":-6.141205,"i_long":106.820901,"time":4,"line":2,"station_name":"Jayakarta","distance":1264,"is_transit":false},{"station_name":"Manggabesar","distance":1080,"transit":false,"station_id":"MGB","i_long":106.82482,"time":2,"line":2,"is_transit":false,"i_lat":-6.149769},{"is_transit":false,"station_name":"Sawah Besar","i_long":106.827103,"distance":906,"line":2,"station_id":"SW","i_lat":-6.160725,"time":2,"transit":false},{"distance":1149,"is_transit":false,"i_lat":-6.166716,"station_id":"JUA","line":2,"transit":false,"station_name":"Juanda","time":2,"i_long":106.828284},{"distance":2015,"station_name":"Gondangdia","is_transit":false,"i_lat":-6.186295,"line":2,"i_long":106.832183,"transit":false,"station_id":"GDD","time":4},{"i_lat":-6.198556,"i_long":106.840169,"station_name":"Cikini","distance":1750,"station_id":"CKI","time":3,"is_transit":false,"transit":false,"line":2},{"transit":false,"line":2,"is_transit":false,"time":4,"distance":1590,"station_name":"Manggarai","station_id":"MRI","i_lat":-6.209883,"i_long":106.84912}]]}