{"data":[[{"distance":0,"i_long":106.951283,"transit":false,"is_transit":false,"station_name":"Cakung","i_lat":-6.219053,"line":1,"time":0,"station_id":"CUK"},{"station_id":"KLDB","station_name":"Klenderbaru","line":1,"time":8,"transit":false,"is_transit":false,"i_lat":-6.217455,"distance":1385,"i_long":106.939679},{"station_name":"Buaran","is_transit":false,"station_id":"BUA","transit":false,"distance":1305,"time":1,"i_long":106.922662,"line":1,"i_lat":-6.215568},{"time":2,"station_id":"KLD","i_lat":-6.2135,"distance":3100,"transit":false,"is_transit":false,"i_long":106.899548,"line":1,"station_name":"Klender"},{"station_name":"Jatinegara","distance":3395,"station_id":"JNG","time":3,"i_lat":-6.215091,"line":1,"transit":false,"i_long":106.86807400000001,"is_transit":false},{"station_id":"MTR","is_transit":false,"distance":1377,"i_long":106.858896,"line":1,"station_name":"Matraman","transit":false,"time":2,"i_lat":-6.212485},{"distance":1275,"i_lat":-6.209883,"i_long":106.84912,"station_id":"MRI","is_transit":false,"line":2,"transit":false,"station_name":"Manggarai","time":2},{"distance":3186,"i_long":106.822649,"line":1,"i_lat":-6.202263,"station_id":"SUD","station_name":"Sudirman","transit":false,"is_transit":false,"time":4},{"transit":false,"is_transit":false,"distance":280,"i_long":106.819881,"line":1,"station_name":"Sudirman Baru","i_lat":-6.201433,"station_id":"SUDB","time":1},{"transit":false,"is_transit":false,"distance":471,"i_lat":-6.20132,"time":1,"station_id":"KAT","station_name":"Karet","line":1,"i_long":106.816351},{"i_lat":-6.185545,"station_id":"THB","i_long":106.811091,"distance":2029,"transit":true,"station_name":"Tanah Abang","line":1,"time":5,"is_transit":true},{"i_lat":-6.207404,"line":6,"station_name":"Palmerah","is_transit":false,"time":6,"distance":3191,"i_long":106.79689,"station_id":"PLM","transit":false},{"transit":false,"line":6,"distance":3737,"is_transit":false,"i_lat":-6.237242,"station_name":"Kebayoran","i_long":106.780334,"station_id":"KBY","time":7},{"transit":false,"line":6,"station_name":"Pondokranji","is_transit":false,"time":8,"i_lat":-6.276362,"distance":6218,"station_id":"PDJ","i_long":106.74273},{"station_id":"JMU","line":6,"transit":false,"i_long":106.728916,"i_lat":-6.288927,"time":3,"station_name":"Jurangmangu","distance":2179,"is_transit":false},{"station_id":"SDM","station_name":"Sudimara","distance":1994,"i_long":106.712277,"transit":false,"is_transit":false,"time":4,"i_lat":-6.296963,"line":6}],[{"distance":0,"time":0,"station_name":"Cakung","transit":false,"line":1,"station_id":"CUK","i_long":106.951283,"is_transit":false,"i_lat":-6.219053},{"i_long":106.939679,"distance":1385,"transit":false,"station_id":"KLDB","line":1,"is_transit":false,"time":8,"i_lat":-6.217455,"station_name":"Klenderbaru"},{"distance":1305,"i_long":106.922662,"station_id":"BUA","line":1,"time":1,"is_transit":false,"i_lat":-6.215568,"transit":false,"station_name":"Buaran"},{"transit":false,"is_transit":false,"i_lat":-6.2135,"i_long":106.899548,"distance":3100,"station_name":"Klender","line":1,"time":2,"station_id":"KLD"},{"station_id":"JNG","is_transit":true,"distance":3395,"i_lat":-6.215091,"line":1,"time":3,"i_long":106.86807400000001,"station_name":"Jatinegara","transit":true},{"time":2,"transit":false,"station_name":"Pondok Jati","line":11,"i_long":106.861737,"distance":1236,"station_id":"POK","i_lat":-6.209188,"is_transit":false},{"i_lat":-6.193792,"line":11,"station_id":"KMT","station_name":"Kramat","distance":1829,"time":2,"transit":false,"is_transit":false,"i_long":106.855437},{"is_transit":false,"i_lat":-6.185975,"line":11,"i_long":106.850107,"distance":973,"station_name":"Gang Sentiong","time":1,"station_id":"GST","transit":false},{"station_name":"Pasar Senen","i_lat":-6.174784,"is_transit":false,"line":11,"time":8,"i_long":106.84368,"station_id":"PSE","distance":1567,"transit":false},{"line":11,"i_lat":-6.161728,"time":4,"is_transit":false,"station_name":"Kemayoran","transit":false,"distance":1436,"i_long":106.839204,"station_id":"KMO"},{"i_long":106.836569,"line":11,"station_name":"Rajawali","transit":false,"distance":1901,"station_id":"RJW","time":5,"is_transit":false,"i_lat":-6.14505},{"transit":true,"i_long":106.826365,"station_name":"Kampung Bandan","station_id":"KPB","distance":1444,"time":3,"line":4,"is_transit":true,"i_lat":-6.132549},{"is_transit":false,"station_name":"Angke","i_lat":-6.144674,"i_long":106.79867,"station_id":"AK","distance":4102,"time":9,"line":1,"transit":false},{"i_lat":-6.155215,"line":1,"station_id":"DU","station_name":"Duri","is_transit":false,"time":4,"distance":1230,"i_long":106.800832,"transit":false},{"i_long":106.811091,"is_transit":true,"line":1,"station_id":"THB","station_name":"Tanah Abang","i_lat":-6.185545,"distance":3632,"time":8,"transit":true},{"i_lat":-6.207404,"transit":false,"line":6,"station_id":"PLM","distance":3191,"is_transit":false,"time":6,"station_name":"Palmerah","i_long":106.79689},{"station_name":"Kebayoran","i_lat":-6.237242,"station_id":"KBY","is_transit":false,"transit":false,"distance":3737,"time":7,"i_long":106.780334,"line":6},{"transit":false,"distance":6218,"i_lat":-6.276362,"i_long":106.74273,"line":6,"station_name":"Pondokranji","time":8,"is_transit":false,"station_id":"PDJ"},{"distance":2179,"transit":false,"station_id":"JMU","station_name":"Jurangmangu","line":6,"i_long":106.728916,"time":3,"is_transit":false,"i_lat":-6.288927},{"transit":false,"station_name":"Sudimara","distance":1994,"line":6,"time":4,"is_transit":false,"i_lat":-6.296963,"i_long":106.712277,"station_id":"SDM"}],[{"i_long":106.951283,"station_name":"Cakung","transit":false,"is_transit":false,"station_id":"CUK","distance":0,"i_lat":-6.219053,"time":0,"line":1},{"distance":1385,"line":1,"station_id":"KLDB","is_transit":false,"time":8,"station_name":"Klenderbaru","transit":false,"i_lat":-6.217455,"i_long":106.939679},{"transit":false,"i_long":106.922662,"is_transit":false,"station_id":"BUA","station_name":"Buaran","distance":1305,"i_lat":-6.215568,"line":1,"time":1},{"time":2,"i_lat":-6.2135,"station_name":"Klender","is_transit":false,"i_long":106.899548,"line":1,"station_id":"KLD","transit":false,"distance":3100},{"i_lat":-6.215091,"time":3,"i_long":106.86807400000001,"station_name":"Jatinegara","line":1,"distance":3395,"is_transit":false,"station_id":"JNG","transit":false},{"time":2,"distance":1377,"transit":false,"i_long":106.858896,"is_transit":false,"line":1,"station_id":"MTR","station_name":"Matraman","i_lat":-6.212485},{"i_lat":-6.209883,"distance":1275,"i_long":106.84912,"station_name":"Manggarai","transit":true,"is_transit":true,"line":2,"station_id":"MRI","time":2},{"distance":1590,"i_long":106.840169,"line":2,"i_lat":-6.198556,"station_name":"Cikini","station_id":"CKI","transit":false,"time":4,"is_transit":false},{"station_name":"Gondangdia","transit":false,"time":3,"is_transit":false,"line":2,"i_long":106.832183,"station_id":"GDD","i_lat":-6.186295,"distance":1750},{"line":2,"is_transit":false,"time":4,"distance":2015,"i_lat":-6.166716,"i_long":106.828284,"transit":false,"station_id":"JUA","station_name":"Juanda"},{"i_lat":-6.160725,"time":2,"is_transit":false,"transit":false,"i_long":106.827103,"line":2,"station_name":"Sawah Besar","station_id":"SW","distance":1149},{"station_name":"Manggabesar","time":2,"line":2,"station_id":"MGB","transit":false,"distance":906,"is_transit":false,"i_long":106.82482,"i_lat":-6.149769},{"time":2,"transit":false,"i_long":106.820901,"line":2,"station_name":"Jayakarta","i_lat":-6.141205,"is_transit":false,"station_id":"JAY","distance":1080},{"is_transit":true,"distance":1264,"i_long":106.812439,"station_id":"JAKK","i_lat":-6.137569,"line":2,"station_name":"Jakarta Kota","time":4,"transit":true},{"time":3,"line":4,"station_name":"Kampung Bandan","distance":1364,"i_long":106.826365,"i_lat":-6.132549,"transit":true,"is_transit":true,"station_id":"KPB"},{"i_long":106.79867,"station_id":"AK","station_name":"Angke","i_lat":-6.144674,"is_transit":false,"transit":false,"line":1,"time":9,"distance":4102},{"station_id":"DU","distance":1230,"i_long":106.800832,"station_name":"Duri","transit":false,"line":1,"time":4,"i_lat":-6.155215,"is_transit":false},{"distance":3632,"i_lat":-6.185545,"is_transit":true,"station_name":"Tanah Abang","line":1,"time":8,"transit":true,"i_long":106.811091,"station_id":"THB"},{"station_id":"PLM","transit":false,"i_lat":-6.207404,"is_transit":false,"line":6,"distance":3191,"i_long":106.79689,"station_name":"Palmerah","time":6},{"i_long":106.780334,"time":7,"line":6,"i_lat":-6.237242,"station_name":"Kebayoran","is_transit":false,"distance":3737,"transit":false,"station_id":"KBY"},{"line":6,"station_name":"Pondokranji","i_long":106.74273,"i_lat":-6.276362,"station_id":"PDJ","is_transit":false,"transit":false,"time":8,"distance":6218},{"transit":false,"i_lat":-6.288927,"distance":2179,"time":3,"line":6,"i_long":106.728916,"station_name":"Jurangmangu","station_id":"JMU","is_transit":false},{"station_id":"SDM","i_long":106.712277,"i_lat":-6.296963,"is_transit":false,"line":6,"distance":1994,"transit":false,"station_name":"Sudimara","time":4}],[{"station_id":"CUK","station_name":"Cakung","time":0,"line":1,"i_lat":-6.219053,"i_long":106.951283,"transit":false,"is_transit":false,"distance":0},{"distance":1385,"station_id":"KLDB","line":1,"is_transit":false,"time":8,"i_lat":-6.217455,"transit":false,"i_long":106.939679,"station_name":"Klenderbaru"},{"station_id":"BUA","i_lat":-6.215568,"is_transit":false,"transit":false,"time":1,"station_name":"Buaran","distance":1305,"line":1,"i_long":106.922662},{"transit":false,"i_lat":-6.2135,"time":2,"i_long":106.899548,"distance":3100,"station_id":"KLD","line":1,"station_name":"Klender","is_transit":false},{"transit":true,"station_id":"JNG","is_transit":true,"distance":3395,"time":3,"station_name":"Jatinegara","i_long":106.86807400000001,"line":1,"i_lat":-6.215091},{"i_long":106.861737,"i_lat":-6.209188,"line":11,"station_id":"POK","time":2,"station_name":"Pondok Jati","transit":false,"is_transit":false,"distance":1236},{"transit":false,"is_transit":false,"time":2,"i_lat":-6.193792,"line":11,"distance":1829,"i_long":106.855437,"station_name":"Kramat","station_id":"KMT"},{"transit":false,"line":11,"station_name":"Gang Sentiong","station_id":"GST","time":1,"i_lat":-6.185975,"is_transit":false,"distance":973,"i_long":106.850107},{"time":8,"station_id":"PSE","i_lat":-6.174784,"transit":false,"line":11,"station_name":"Pasar Senen","i_long":106.84368,"distance":1567,"is_transit":false},{"time":4,"station_name":"Kemayoran","distance":1436,"i_lat":-6.161728,"i_long":106.839204,"is_transit":false,"line":11,"transit":false,"station_id":"KMO"},{"time":5,"distance":1901,"transit":false,"is_transit":false,"line":11,"station_name":"Rajawali","i_long":106.836569,"i_lat":-6.14505,"station_id":"RJW"},{"station_name":"Kampung Bandan","distance":1444,"is_transit":true,"time":3,"i_long":106.826365,"i_lat":-6.132549,"line":4,"station_id":"KPB","transit":true},{"time":3,"line":2,"i_lat":-6.137569,"station_name":"Jakarta Kota","is_transit":true,"i_long":106.812439,"station_id":"JAKK","transit":true,"distance":1364},{"i_lat":-6.141205,"station_name":"Jayakarta","transit":false,"i_long":106.820901,"is_transit":false,"time":4,"station_id":"JAY","line":2,"distance":1264},{"i_lat":-6.149769,"line":2,"station_name":"Manggabesar","is_transit":false,"distance":1080,"transit":false,"i_long":106.82482,"station_id":"MGB","time":2},{"transit":false,"i_lat":-6.160725,"line":2,"station_name":"Sawah Besar","is_transit":false,"distance":906,"i_long":106.827103,"station_id":"SW","time":2},{"distance":1149,"is_transit":false,"time":2,"transit":false,"i_lat":-6.166716,"station_name":"Juanda","station_id":"JUA","i_long":106.828284,"line":2},{"is_transit":false,"transit":false,"distance":2015,"time":4,"i_lat":-6.186295,"line":2,"i_long":106.832183,"station_name":"Gondangdia","station_id":"GDD"},{"is_transit":false,"distance":1750,"line":2,"i_long":106.840169,"station_name":"Cikini","station_id":"CKI","transit":false,"i_lat":-6.198556,"time":3},{"transit":true,"i_long":106.84912,"line":2,"station_id":"MRI","time":4,"distance":1590,"i_lat":-6.209883,"is_transit":true,"station_name":"Manggarai"},{"time":4,"line":1,"station_id":"SUD","i_lat":-6.202263,"station_name":"Sudirman","i_long":106.822649,"is_transit":false,"distance":3186,"transit":false},{"line":1,"is_transit":false,"transit":false,"i_lat":-6.201433,"time":1,"i_long":106.819881,"distance":280,"station_id":"SUDB","station_name":"Sudirman Baru"},{"distance":471,"i_long":106.816351,"is_transit":false,"station_name":"Karet","i_lat":-6.20132,"line":1,"station_id":"KAT","time":1,"transit":false},{"line":1,"station_id":"THB","station_name":"Tanah Abang","is_transit":true,"time":5,"i_long":106.811091,"transit":true,"i_lat":-6.185545,"distance":2029},{"station_name":"Palmerah","i_lat":-6.207404,"is_transit":false,"time":6,"i_long":106.79689,"station_id":"PLM","distance":3191,"transit":false,"line":6},{"line":6,"station_name":"Kebayoran","transit":false,"time":7,"i_lat":-6.237242,"i_long":106.780334,"station_id":"KBY","distance":3737,"is_transit":false},{"i_long":106.74273,"is_transit":false,"line":6,"distance":6218,"station_name":"Pondokranji","station_id":"PDJ","time":8,"transit":false,"i_lat":-6.276362},{"i_long":106.728916,"line":6,"transit":false,"station_id":"JMU","i_lat":-6.288927,"station_name":"Jurangmangu","is_transit":false,"time":3,"distance":2179},{"station_name":"Sudimara","transit":false,"distance":1994,"is_transit":false,"line":6,"i_lat":-6.296963,"time":4,"station_id":"SDM","i_long":106.712277}]]}