{"data":[[{"i_long":106.951283,"station_id":"CUK","distance":0,"line":1,"transit":false,"time":0,"station_name":"Cakung","is_transit":false,"i_lat":-6.219053},{"is_transit":false,"distance":1385,"station_id":"KLDB","i_lat":-6.217455,"i_long":106.939679,"time":8,"station_name":"Klenderbaru","line":1,"transit":false},{"distance":1305,"is_transit":false,"line":1,"station_id":"BUA","station_name":"Buaran","transit":false,"time":1,"i_lat":-6.215568,"i_long":106.922662},{"distance":3100,"station_name":"Klender","transit":false,"line":1,"station_id":"KLD","i_long":106.899548,"time":2,"is_transit":false,"i_lat":-6.2135},{"is_transit":false,"station_id":"JNG","i_long":106.86807400000001,"line":1,"distance":3395,"time":3,"station_name":"Jatinegara","transit":false,"i_lat":-6.215091},{"station_id":"MTR","time":2,"is_transit":false,"transit":false,"i_long":106.858896,"i_lat":-6.212485,"distance":1377,"station_name":"Matraman","line":1}],[{"transit":false,"line":1,"time":0,"station_name":"Cakung","distance":0,"i_lat":-6.219053,"i_long":106.951283,"is_transit":false,"station_id":"CUK"},{"transit":false,"i_long":106.939679,"is_transit":false,"distance":1385,"station_name":"Klenderbaru","i_lat":-6.217455,"station_id":"KLDB","line":1,"time":8},{"distance":1305,"transit":false,"is_transit":false,"time":1,"station_id":"BUA","i_lat":-6.215568,"i_long":106.922662,"line":1,"station_name":"Buaran"},{"time":2,"is_transit":false,"transit":false,"station_id":"KLD","station_name":"Klender","i_lat":-6.2135,"i_long":106.899548,"distance":3100,"line":1},{"station_id":"JNG","time":3,"distance":3395,"station_name":"Jatinegara","is_transit":true,"transit":true,"i_lat":-6.215091,"i_long":106.86807400000001,"line":1},{"station_id":"POK","transit":false,"i_lat":-6.209188,"time":2,"line":11,"station_name":"Pondok Jati","is_transit":false,"i_long":106.861737,"distance":1236},{"distance":1829,"station_id":"KMT","transit":false,"i_long":106.855437,"time":2,"i_lat":-6.193792,"line":11,"station_name":"Kramat","is_transit":false},{"distance":973,"time":1,"station_id":"GST","transit":false,"i_lat":-6.185975,"line":11,"i_long":106.850107,"station_name":"Gang Sentiong","is_transit":false},{"transit":false,"line":11,"i_lat":-6.174784,"distance":1567,"station_id":"PSE","station_name":"Pasar Senen","time":8,"is_transit":false,"i_long":106.84368},{"i_long":106.839204,"line":11,"station_name":"Kemayoran","is_transit":false,"time":4,"distance":1436,"transit":false,"i_lat":-6.161728,"station_id":"KMO"},{"time":5,"i_lat":-6.14505,"i_long":106.836569,"transit":false,"station_name":"Rajawali","distance":1901,"station_id":"RJW","is_transit":false,"line":11},{"station_name":"Kampung Bandan","is_transit":true,"i_long":106.826365,"station_id":"KPB","i_lat":-6.132549,"transit":true,"time":3,"line":4,"distance":1444},{"station_id":"AK","is_transit":false,"line":1,"distance":4102,"i_lat":-6.144674,"time":9,"station_name":"Angke","transit":false,"i_long":106.79867},{"transit":false,"station_id":"DU","is_transit":false,"i_long":106.800832,"time":4,"station_name":"Duri","i_lat":-6.155215,"distance":1230,"line":1},{"i_lat":-6.185545,"line":1,"distance":3632,"station_id":"THB","station_name":"Tanah Abang","time":8,"i_long":106.811091,"is_transit":false,"transit":false},{"is_transit":false,"i_long":106.816351,"station_name":"Karet","i_lat":-6.20132,"transit":false,"distance":2029,"station_id":"KAT","time":5,"line":1},{"line":1,"time":1,"station_name":"Sudirman Baru","i_long":106.819881,"station_id":"SUDB","distance":471,"i_lat":-6.201433,"transit":false,"is_transit":false},{"is_transit":false,"distance":280,"line":1,"station_name":"Sudirman","i_long":106.822649,"i_lat":-6.202263,"station_id":"SUD","time":1,"transit":false},{"distance":3186,"time":4,"station_name":"Manggarai","transit":false,"i_long":106.84912,"is_transit":false,"station_id":"MRI","i_lat":-6.209883,"line":2},{"distance":1275,"is_transit":false,"line":1,"time":2,"i_long":106.858896,"station_name":"Matraman","transit":false,"i_lat":-6.212485,"station_id":"MTR"}],[{"distance":0,"transit":false,"station_id":"CUK","station_name":"Cakung","is_transit":false,"i_long":106.951283,"line":1,"time":0,"i_lat":-6.219053},{"line":1,"transit":false,"i_lat":-6.217455,"station_name":"Klenderbaru","station_id":"KLDB","distance":1385,"is_transit":false,"time":8,"i_long":106.939679},{"is_transit":false,"station_id":"BUA","station_name":"Buaran","i_long":106.922662,"transit":false,"time":1,"line":1,"i_lat":-6.215568,"distance":1305},{"station_name":"Klender","is_transit":false,"line":1,"i_lat":-6.2135,"i_long":106.899548,"time":2,"distance":3100,"station_id":"KLD","transit":false},{"line":1,"distance":3395,"station_id":"JNG","i_long":106.86807400000001,"station_name":"Jatinegara","i_lat":-6.215091,"transit":true,"is_transit":true,"time":3},{"distance":1236,"transit":false,"time":2,"i_long":106.861737,"line":11,"station_id":"POK","station_name":"Pondok Jati","is_transit":false,"i_lat":-6.209188},{"station_name":"Kramat","time":2,"is_transit":false,"distance":1829,"i_long":106.855437,"transit":false,"line":11,"i_lat":-6.193792,"station_id":"KMT"},{"distance":973,"i_lat":-6.185975,"station_name":"Gang Sentiong","line":11,"station_id":"GST","i_long":106.850107,"transit":false,"time":1,"is_transit":false},{"i_long":106.84368,"line":11,"is_transit":false,"i_lat":-6.174784,"station_id":"PSE","station_name":"Pasar Senen","transit":false,"distance":1567,"time":8},{"station_name":"Kemayoran","i_lat":-6.161728,"is_transit":false,"i_long":106.839204,"line":11,"time":4,"transit":false,"distance":1436,"station_id":"KMO"},{"station_id":"RJW","line":11,"time":5,"i_long":106.836569,"is_transit":false,"i_lat":-6.14505,"transit":false,"distance":1901,"station_name":"Rajawali"},{"is_transit":true,"time":3,"line":4,"i_long":106.826365,"transit":true,"distance":1444,"station_id":"KPB","i_lat":-6.132549,"station_name":"Kampung Bandan"},{"station_id":"JAKK","i_lat":-6.137569,"is_transit":true,"i_long":106.812439,"distance":1364,"station_name":"Jakarta Kota","line":2,"time":3,"transit":true},{"distance":1264,"station_id":"JAY","transit":false,"is_transit":false,"time":4,"i_lat":-6.141205,"i_long":106.820901,"station_name":"Jayakarta","line":2},{"i_lat":-6.149769,"time":2,"i_long":106.82482,"line":2,"station_name":"Manggabesar","transit":false,"distance":1080,"station_id":"MGB","is_transit":false},{"distance":906,"i_long":106.827103,"is_transit":false,"line":2,"station_name":"Sawah Besar","time":2,"i_lat":-6.160725,"station_id":"SW","transit":false},{"i_long":106.828284,"is_transit":false,"line":2,"station_name":"Juanda","transit":false,"station_id":"JUA","distance":1149,"time":2,"i_lat":-6.166716},{"distance":2015,"i_lat":-6.186295,"i_long":106.832183,"is_transit":false,"station_id":"GDD","transit":false,"time":4,"station_name":"Gondangdia","line":2},{"station_id":"CKI","distance":1750,"i_long":106.840169,"transit":false,"line":2,"time":3,"i_lat":-6.198556,"is_transit":false,"station_name":"Cikini"},{"station_name":"Manggarai","time":4,"line":2,"i_lat":-6.209883,"transit":true,"is_transit":true,"i_long":106.84912,"distance":1590,"station_id":"MRI"},{"is_transit":false,"station_id":"MTR","i_lat":-6.212485,"i_long":106.858896,"line":1,"transit":false,"station_name":"Matraman","time":2,"distance":1275}]]}