{"data":[[{"i_long":106.951283,"i_lat":-6.219053,"line":1,"station_id":"CUK","time":0,"station_name":"Cakung","is_transit":false,"transit":false,"distance":0},{"station_name":"Klenderbaru","i_long":106.939679,"time":8,"line":1,"station_id":"KLDB","distance":1385,"transit":false,"i_lat":-6.217455,"is_transit":false},{"line":1,"station_name":"Buaran","distance":1305,"station_id":"BUA","time":1,"i_lat":-6.215568,"is_transit":false,"i_long":106.922662,"transit":false},{"i_lat":-6.2135,"station_id":"KLD","is_transit":false,"time":2,"i_long":106.899548,"transit":false,"line":1,"station_name":"Klender","distance":3100},{"line":1,"is_transit":false,"transit":false,"station_name":"Jatinegara","time":3,"i_long":106.86807400000001,"station_id":"JNG","i_lat":-6.215091,"distance":3395},{"i_lat":-6.212485,"station_id":"MTR","i_long":106.858896,"station_name":"Matraman","is_transit":false,"line":1,"time":2,"distance":1377,"transit":false},{"time":2,"is_transit":false,"i_lat":-6.209883,"i_long":106.84912,"transit":false,"station_id":"MRI","distance":1275,"station_name":"Manggarai","line":2},{"distance":3186,"station_name":"Sudirman","transit":false,"i_lat":-6.202263,"i_long":106.822649,"station_id":"SUD","line":1,"is_transit":false,"time":4},{"station_name":"Sudirman Baru","distance":280,"transit":false,"i_long":106.819881,"line":1,"time":1,"station_id":"SUDB","is_transit":false,"i_lat":-6.201433},{"is_transit":false,"station_id":"KAT","transit":false,"station_name":"Karet","i_long":106.816351,"line":1,"distance":471,"time":1,"i_lat":-6.20132},{"i_lat":-6.185545,"station_id":"THB","is_transit":false,"distance":2029,"line":1,"time":5,"transit":false,"station_name":"Tanah Abang","i_long":106.811091},{"time":8,"i_lat":-6.155215,"line":1,"distance":3632,"is_transit":false,"station_id":"DU","transit":false,"station_name":"Duri","i_long":106.800832},{"station_id":"AK","transit":false,"time":4,"station_name":"Angke","i_lat":-6.144674,"distance":1230,"line":1,"is_transit":false,"i_long":106.79867}],[{"station_id":"CUK","is_transit":false,"i_lat":-6.219053,"station_name":"Cakung","transit":false,"distance":0,"i_long":106.951283,"line":1,"time":0},{"time":8,"transit":false,"line":1,"is_transit":false,"i_lat":-6.217455,"station_id":"KLDB","distance":1385,"i_long":106.939679,"station_name":"Klenderbaru"},{"station_name":"Buaran","distance":1305,"time":1,"line":1,"i_lat":-6.215568,"station_id":"BUA","i_long":106.922662,"transit":false,"is_transit":false},{"station_id":"KLD","distance":3100,"is_transit":false,"station_name":"Klender","i_lat":-6.2135,"time":2,"transit":false,"i_long":106.899548,"line":1},{"line":1,"time":3,"is_transit":true,"station_id":"JNG","transit":true,"distance":3395,"station_name":"Jatinegara","i_lat":-6.215091,"i_long":106.86807400000001},{"station_name":"Pondok Jati","time":2,"i_lat":-6.209188,"station_id":"POK","distance":1236,"is_transit":false,"line":11,"i_long":106.861737,"transit":false},{"i_long":106.855437,"is_transit":false,"station_id":"KMT","station_name":"Kramat","i_lat":-6.193792,"line":11,"distance":1829,"transit":false,"time":2},{"time":1,"i_long":106.850107,"transit":false,"station_name":"Gang Sentiong","station_id":"GST","is_transit":false,"distance":973,"line":11,"i_lat":-6.185975},{"station_id":"PSE","is_transit":false,"line":11,"station_name":"Pasar Senen","distance":1567,"i_long":106.84368,"transit":false,"time":8,"i_lat":-6.174784},{"transit":false,"line":11,"i_lat":-6.161728,"station_name":"Kemayoran","station_id":"KMO","is_transit":false,"distance":1436,"time":4,"i_long":106.839204},{"line":11,"is_transit":false,"station_id":"RJW","i_long":106.836569,"i_lat":-6.14505,"distance":1901,"transit":false,"station_name":"Rajawali","time":5},{"line":4,"distance":1444,"transit":true,"i_long":106.826365,"is_transit":true,"station_id":"KPB","time":3,"i_lat":-6.132549,"station_name":"Kampung Bandan"},{"transit":false,"station_name":"Angke","i_lat":-6.144674,"i_long":106.79867,"station_id":"AK","distance":4102,"is_transit":false,"time":9,"line":1}],[{"i_lat":-6.219053,"line":1,"station_name":"Cakung","transit":false,"is_transit":false,"i_long":106.951283,"time":0,"station_id":"CUK","distance":0},{"station_id":"KLDB","transit":false,"i_lat":-6.217455,"line":1,"time":8,"is_transit":false,"distance":1385,"station_name":"Klenderbaru","i_long":106.939679},{"is_transit":false,"station_id":"BUA","line":1,"i_long":106.922662,"transit":false,"station_name":"Buaran","distance":1305,"i_lat":-6.215568,"time":1},{"distance":3100,"i_lat":-6.2135,"station_name":"Klender","station_id":"KLD","transit":false,"line":1,"i_long":106.899548,"time":2,"is_transit":false},{"station_id":"JNG","line":1,"transit":false,"is_transit":false,"station_name":"Jatinegara","distance":3395,"time":3,"i_lat":-6.215091,"i_long":106.86807400000001},{"i_lat":-6.212485,"station_id":"MTR","is_transit":false,"transit":false,"line":1,"station_name":"Matraman","i_long":106.858896,"time":2,"distance":1377},{"distance":1275,"i_long":106.84912,"transit":true,"is_transit":true,"station_id":"MRI","time":2,"i_lat":-6.209883,"station_name":"Manggarai","line":2},{"i_long":106.840169,"transit":false,"i_lat":-6.198556,"time":4,"is_transit":false,"station_id":"CKI","distance":1590,"line":2,"station_name":"Cikini"},{"transit":false,"time":3,"station_name":"Gondangdia","i_lat":-6.186295,"i_long":106.832183,"line":2,"distance":1750,"is_transit":false,"station_id":"GDD"},{"station_id":"JUA","time":4,"i_lat":-6.166716,"i_long":106.828284,"distance":2015,"station_name":"Juanda","line":2,"transit":false,"is_transit":false},{"i_long":106.827103,"transit":false,"i_lat":-6.160725,"is_transit":false,"station_name":"Sawah Besar","line":2,"station_id":"SW","distance":1149,"time":2},{"i_long":106.82482,"is_transit":false,"line":2,"distance":906,"transit":false,"station_id":"MGB","i_lat":-6.149769,"station_name":"Manggabesar","time":2},{"is_transit":false,"station_id":"JAY","transit":false,"distance":1080,"line":2,"station_name":"Jayakarta","time":2,"i_lat":-6.141205,"i_long":106.820901},{"station_id":"JAKK","distance":1264,"is_transit":true,"transit":true,"time":4,"i_lat":-6.137569,"i_long":106.812439,"line":2,"station_name":"Jakarta Kota"},{"is_transit":true,"i_lat":-6.132549,"station_id":"KPB","station_name":"Kampung Bandan","time":3,"transit":true,"line":4,"distance":1364,"i_long":106.826365},{"transit":false,"i_lat":-6.144674,"time":9,"i_long":106.79867,"distance":4102,"station_id":"AK","is_transit":false,"line":1,"station_name":"Angke"}],[{"station_id":"CUK","transit":false,"distance":0,"i_lat":-6.219053,"is_transit":false,"i_long":106.951283,"line":1,"time":0,"station_name":"Cakung"},{"time":8,"is_transit":false,"station_id":"KLDB","i_lat":-6.217455,"i_long":106.939679,"distance":1385,"line":1,"transit":false,"station_name":"Klenderbaru"},{"i_long":106.922662,"station_id":"BUA","distance":1305,"time":1,"i_lat":-6.215568,"transit":false,"is_transit":false,"line":1,"station_name":"Buaran"},{"i_long":106.899548,"distance":3100,"is_transit":false,"transit":false,"station_name":"Klender","station_id":"KLD","time":2,"i_lat":-6.2135,"line":1},{"is_transit":true,"line":1,"distance":3395,"transit":true,"station_name":"Jatinegara","time":3,"station_id":"JNG","i_long":106.86807400000001,"i_lat":-6.215091},{"station_id":"POK","time":2,"is_transit":false,"distance":1236,"line":11,"station_name":"Pondok Jati","i_lat":-6.209188,"transit":false,"i_long":106.861737},{"time":2,"station_name":"Kramat","line":11,"is_transit":false,"i_long":106.855437,"station_id":"KMT","transit":false,"distance":1829,"i_lat":-6.193792},{"time":1,"transit":false,"i_long":106.850107,"line":11,"i_lat":-6.185975,"station_name":"Gang Sentiong","is_transit":false,"station_id":"GST","distance":973},{"distance":1567,"transit":false,"station_id":"PSE","i_lat":-6.174784,"station_name":"Pasar Senen","i_long":106.84368,"line":11,"is_transit":false,"time":8},{"line":11,"i_long":106.839204,"i_lat":-6.161728,"station_name":"Kemayoran","time":4,"transit":false,"distance":1436,"station_id":"KMO","is_transit":false},{"line":11,"transit":false,"station_name":"Rajawali","distance":1901,"i_long":106.836569,"time":5,"is_transit":false,"station_id":"RJW","i_lat":-6.14505},{"time":3,"i_lat":-6.132549,"is_transit":true,"transit":true,"line":4,"station_id":"KPB","i_long":106.826365,"distance":1444,"station_name":"Kampung Bandan"},{"station_name":"Jakarta Kota","time":3,"station_id":"JAKK","transit":true,"distance":1364,"i_lat":-6.137569,"i_long":106.812439,"line":2,"is_transit":true},{"line":2,"i_lat":-6.141205,"is_transit":false,"distance":1264,"station_name":"Jayakarta","time":4,"station_id":"JAY","i_long":106.820901,"transit":false},{"time":2,"station_name":"Manggabesar","line":2,"i_long":106.82482,"is_transit":false,"distance":1080,"station_id":"MGB","transit":false,"i_lat":-6.149769},{"line":2,"i_lat":-6.160725,"is_transit":false,"distance":906,"time":2,"i_long":106.827103,"transit":false,"station_name":"Sawah Besar","station_id":"SW"},{"transit":false,"i_lat":-6.166716,"is_transit":false,"station_name":"Juanda","time":2,"distance":1149,"i_long":106.828284,"station_id":"JUA","line":2},{"is_transit":false,"transit":false,"time":4,"i_lat":-6.186295,"station_name":"Gondangdia","station_id":"GDD","i_long":106.832183,"line":2,"distance":2015},{"is_transit":false,"transit":false,"distance":1750,"time":3,"i_lat":-6.198556,"line":2,"i_long":106.840169,"station_name":"Cikini","station_id":"CKI"},{"station_name":"Manggarai","station_id":"MRI","i_long":106.84912,"i_lat":-6.209883,"distance":1590,"line":2,"is_transit":true,"time":4,"transit":true},{"i_long":106.822649,"i_lat":-6.202263,"transit":false,"station_name":"Sudirman","is_transit":false,"distance":3186,"station_id":"SUD","line":1,"time":4},{"i_long":106.819881,"is_transit":false,"station_name":"Sudirman Baru","i_lat":-6.201433,"distance":280,"station_id":"SUDB","time":1,"line":1,"transit":false},{"i_lat":-6.20132,"line":1,"station_name":"Karet","i_long":106.816351,"transit":false,"time":1,"is_transit":false,"station_id":"KAT","distance":471},{"line":1,"distance":2029,"station_name":"Tanah Abang","transit":false,"station_id":"THB","i_lat":-6.185545,"time":5,"is_transit":false,"i_long":106.811091},{"distance":3632,"i_long":106.800832,"station_name":"Duri","transit":false,"time":8,"i_lat":-6.155215,"is_transit":false,"station_id":"DU","line":1},{"station_id":"AK","is_transit":false,"transit":false,"station_name":"Angke","time":4,"distance":1230,"i_lat":-6.144674,"i_long":106.79867,"line":1}]]}