{"data":[[{"transit":false,"i_lat":-6.219053,"is_transit":false,"i_long":106.951283,"time":0,"station_id":"CUK","station_name":"Cakung","distance":0,"line":1},{"station_name":"Kranji","is_transit":false,"line":1,"i_lat":-6.224515,"i_long":106.977657,"transit":false,"time":3,"station_id":"KRI","distance":3097},{"station_name":"Bekasi","is_transit":false,"i_lat":-6.236616,"time":4,"station_id":"BKS","line":1,"i_long":106.997013,"distance":2520,"transit":false},{"i_lat":-6.248029,"i_long":107.016735,"time":2,"station_name":"Bekasi Timur","line":1,"distance":2368,"station_id":"BKST","transit":false,"is_transit":false},{"time":7,"station_id":"TB","is_transit":false,"line":1,"distance":4460,"i_long":107.055722,"station_name":"Tambun","transit":false,"i_lat":-6.258864},{"distance":3420,"is_transit":false,"i_lat":-6.261877,"station_id":"CIT","transit":false,"i_long":107.083084,"station_name":"Cibitung","line":1,"time":3}]]}