{"data":[[{"is_transit":false,"i_long":106.951283,"i_lat":-6.219053,"time":0,"station_id":"CUK","station_name":"Cakung","line":1,"transit":false,"distance":0},{"line":1,"station_name":"Klenderbaru","i_lat":-6.217455,"transit":false,"i_long":106.939679,"time":8,"distance":1385,"is_transit":false,"station_id":"KLDB"},{"station_id":"BUA","i_lat":-6.215568,"time":1,"is_transit":false,"i_long":106.922662,"line":1,"transit":false,"station_name":"Buaran","distance":1305},{"time":2,"i_long":106.899548,"station_name":"Klender","line":1,"transit":false,"i_lat":-6.2135,"station_id":"KLD","distance":3100,"is_transit":false},{"station_name":"Jatinegara","distance":3395,"station_id":"JNG","transit":false,"i_lat":-6.215091,"is_transit":false,"time":3,"i_long":106.86807400000001,"line":1},{"i_lat":-6.212485,"line":1,"time":2,"is_transit":false,"distance":1377,"transit":false,"i_long":106.858896,"station_id":"MTR","station_name":"Matraman"},{"line":2,"distance":1275,"i_lat":-6.209883,"i_long":106.84912,"transit":true,"is_transit":true,"station_name":"Manggarai","time":2,"station_id":"MRI"},{"station_name":"Tebet","station_id":"TEB","distance":2610,"is_transit":false,"i_lat":-6.226659,"time":4,"transit":false,"i_long":106.857948,"line":2},{"i_long":106.856607,"time":2,"station_id":"CW","i_lat":-6.242512,"distance":1230,"line":2,"station_name":"Cawang","transit":false,"is_transit":false},{"station_name":"Duren Kalibata","i_long":106.85449,"line":2,"station_id":"DRN","i_lat":-6.255332,"transit":false,"is_transit":false,"distance":1546,"time":3},{"i_lat":-6.263214,"is_transit":false,"station_name":"Pasar Minggu Baru","i_long":106.851577,"line":2,"transit":false,"distance":824,"time":2,"station_id":"PSMB"},{"i_lat":-6.2842400000000005,"time":2,"transit":false,"is_transit":false,"i_long":106.843999,"distance":2380,"station_id":"PSM","station_name":"Pasar Minggu","line":2},{"station_id":"TNT","distance":2820,"station_name":"Tanjung Barat","is_transit":false,"time":4,"i_lat":-6.3080680000000005,"transit":false,"line":2,"i_long":106.838896},{"is_transit":false,"i_lat":-6.330363,"time":3,"station_id":"LNA","station_name":"Lenteng Agung","line":2,"i_long":106.832616,"transit":false,"distance":2671},{"distance":1029,"time":2,"i_lat":-6.339291,"station_id":"UP","is_transit":false,"transit":false,"line":2,"station_name":"Univ. Pancasila","i_long":106.834175}],[{"transit":false,"time":0,"i_lat":-6.219053,"i_long":106.951283,"line":1,"station_id":"CUK","distance":0,"station_name":"Cakung","is_transit":false},{"transit":false,"line":1,"time":8,"distance":1385,"station_id":"KLDB","i_long":106.939679,"station_name":"Klenderbaru","is_transit":false,"i_lat":-6.217455},{"time":1,"distance":1305,"transit":false,"station_name":"Buaran","i_long":106.922662,"station_id":"BUA","is_transit":false,"i_lat":-6.215568,"line":1},{"distance":3100,"i_long":106.899548,"line":1,"is_transit":false,"transit":false,"i_lat":-6.2135,"station_id":"KLD","station_name":"Klender","time":2},{"i_long":106.86807400000001,"transit":true,"time":3,"station_id":"JNG","i_lat":-6.215091,"distance":3395,"line":1,"is_transit":true,"station_name":"Jatinegara"},{"i_lat":-6.209188,"transit":false,"time":2,"distance":1236,"station_name":"Pondok Jati","is_transit":false,"station_id":"POK","line":11,"i_long":106.861737},{"station_id":"KMT","i_lat":-6.193792,"line":11,"transit":false,"station_name":"Kramat","distance":1829,"i_long":106.855437,"time":2,"is_transit":false},{"is_transit":false,"station_id":"GST","transit":false,"i_lat":-6.185975,"time":1,"i_long":106.850107,"distance":973,"line":11,"station_name":"Gang Sentiong"},{"i_lat":-6.174784,"distance":1567,"station_name":"Pasar Senen","transit":false,"i_long":106.84368,"is_transit":false,"station_id":"PSE","time":8,"line":11},{"time":4,"i_lat":-6.161728,"station_name":"Kemayoran","station_id":"KMO","distance":1436,"transit":false,"is_transit":false,"i_long":106.839204,"line":11},{"time":5,"i_lat":-6.14505,"line":11,"station_id":"RJW","is_transit":false,"i_long":106.836569,"distance":1901,"transit":false,"station_name":"Rajawali"},{"i_long":106.826365,"station_name":"Kampung Bandan","line":4,"i_lat":-6.132549,"time":3,"is_transit":true,"distance":1444,"transit":true,"station_id":"KPB"},{"line":1,"time":9,"is_transit":false,"distance":4102,"i_lat":-6.144674,"station_id":"AK","transit":false,"station_name":"Angke","i_long":106.79867},{"i_lat":-6.155215,"i_long":106.800832,"is_transit":false,"line":1,"time":4,"station_name":"Duri","transit":false,"distance":1230,"station_id":"DU"},{"station_id":"THB","transit":false,"i_lat":-6.185545,"distance":3632,"is_transit":false,"station_name":"Tanah Abang","line":1,"i_long":106.811091,"time":8},{"i_long":106.816351,"transit":false,"time":5,"station_name":"Karet","line":1,"station_id":"KAT","is_transit":false,"i_lat":-6.20132,"distance":2029},{"time":1,"station_name":"Sudirman Baru","is_transit":false,"station_id":"SUDB","i_lat":-6.201433,"line":1,"transit":false,"i_long":106.819881,"distance":471},{"i_long":106.822649,"station_id":"SUD","line":1,"distance":280,"station_name":"Sudirman","is_transit":false,"transit":false,"i_lat":-6.202263,"time":1},{"is_transit":true,"line":2,"i_long":106.84912,"i_lat":-6.209883,"station_name":"Manggarai","transit":true,"time":4,"station_id":"MRI","distance":3186},{"line":2,"distance":2610,"i_lat":-6.226659,"is_transit":false,"transit":false,"station_name":"Tebet","i_long":106.857948,"station_id":"TEB","time":4},{"is_transit":false,"distance":1230,"station_id":"CW","i_lat":-6.242512,"transit":false,"time":2,"i_long":106.856607,"station_name":"Cawang","line":2},{"time":3,"is_transit":false,"station_id":"DRN","i_lat":-6.255332,"transit":false,"station_name":"Duren Kalibata","distance":1546,"i_long":106.85449,"line":2},{"station_id":"PSMB","time":2,"i_lat":-6.263214,"i_long":106.851577,"station_name":"Pasar Minggu Baru","transit":false,"distance":824,"is_transit":false,"line":2},{"i_lat":-6.2842400000000005,"i_long":106.843999,"distance":2380,"line":2,"station_id":"PSM","transit":false,"is_transit":false,"station_name":"Pasar Minggu","time":2},{"i_long":106.838896,"line":2,"station_id":"TNT","station_name":"Tanjung Barat","time":4,"transit":false,"distance":2820,"is_transit":false,"i_lat":-6.3080680000000005},{"line":2,"station_name":"Lenteng Agung","transit":false,"i_lat":-6.330363,"is_transit":false,"distance":2671,"station_id":"LNA","time":3,"i_long":106.832616},{"distance":1029,"station_name":"Univ. Pancasila","is_transit":false,"i_lat":-6.339291,"time":2,"line":2,"station_id":"UP","i_long":106.834175,"transit":false}],[{"time":0,"station_id":"CUK","distance":0,"is_transit":false,"i_long":106.951283,"station_name":"Cakung","line":1,"transit":false,"i_lat":-6.219053},{"line":1,"distance":1385,"station_name":"Klenderbaru","station_id":"KLDB","time":8,"i_lat":-6.217455,"is_transit":false,"transit":false,"i_long":106.939679},{"is_transit":false,"transit":false,"i_long":106.922662,"line":1,"station_name":"Buaran","station_id":"BUA","i_lat":-6.215568,"time":1,"distance":1305},{"i_long":106.899548,"transit":false,"line":1,"station_id":"KLD","station_name":"Klender","i_lat":-6.2135,"is_transit":false,"distance":3100,"time":2},{"distance":3395,"is_transit":true,"station_id":"JNG","transit":true,"i_lat":-6.215091,"station_name":"Jatinegara","time":3,"line":1,"i_long":106.86807400000001},{"i_lat":-6.209188,"station_name":"Pondok Jati","transit":false,"is_transit":false,"distance":1236,"station_id":"POK","line":11,"i_long":106.861737,"time":2},{"time":2,"is_transit":false,"station_id":"KMT","i_lat":-6.193792,"i_long":106.855437,"distance":1829,"line":11,"transit":false,"station_name":"Kramat"},{"transit":false,"time":1,"station_id":"GST","distance":973,"line":11,"is_transit":false,"i_lat":-6.185975,"station_name":"Gang Sentiong","i_long":106.850107},{"distance":1567,"station_id":"PSE","i_lat":-6.174784,"time":8,"line":11,"is_transit":false,"i_long":106.84368,"station_name":"Pasar Senen","transit":false},{"distance":1436,"i_lat":-6.161728,"i_long":106.839204,"transit":false,"station_id":"KMO","line":11,"time":4,"station_name":"Kemayoran","is_transit":false},{"station_id":"RJW","line":11,"transit":false,"time":5,"station_name":"Rajawali","i_lat":-6.14505,"i_long":106.836569,"distance":1901,"is_transit":false},{"i_lat":-6.132549,"i_long":106.826365,"distance":1444,"station_name":"Kampung Bandan","line":4,"is_transit":true,"time":3,"transit":true,"station_id":"KPB"},{"distance":1364,"time":3,"transit":true,"station_id":"JAKK","station_name":"Jakarta Kota","i_lat":-6.137569,"i_long":106.812439,"is_transit":true,"line":2},{"line":2,"transit":false,"distance":1264,"i_long":106.820901,"time":4,"i_lat":-6.141205,"station_name":"Jayakarta","station_id":"JAY","is_transit":false},{"time":2,"station_name":"Manggabesar","distance":1080,"i_lat":-6.149769,"i_long":106.82482,"transit":false,"is_transit":false,"station_id":"MGB","line":2},{"is_transit":false,"station_name":"Sawah Besar","line":2,"distance":906,"i_long":106.827103,"i_lat":-6.160725,"time":2,"station_id":"SW","transit":false},{"transit":false,"distance":1149,"station_name":"Juanda","station_id":"JUA","is_transit":false,"i_long":106.828284,"line":2,"time":2,"i_lat":-6.166716},{"is_transit":false,"line":2,"station_name":"Gondangdia","time":4,"station_id":"GDD","transit":false,"i_lat":-6.186295,"distance":2015,"i_long":106.832183},{"is_transit":false,"time":3,"line":2,"distance":1750,"station_id":"CKI","i_long":106.840169,"i_lat":-6.198556,"transit":false,"station_name":"Cikini"},{"time":4,"is_transit":false,"distance":1590,"station_name":"Manggarai","i_lat":-6.209883,"i_long":106.84912,"transit":false,"line":2,"station_id":"MRI"},{"station_id":"TEB","time":4,"distance":2610,"i_lat":-6.226659,"line":2,"i_long":106.857948,"transit":false,"is_transit":false,"station_name":"Tebet"},{"station_name":"Cawang","i_lat":-6.242512,"transit":false,"line":2,"station_id":"CW","time":2,"is_transit":false,"distance":1230,"i_long":106.856607},{"station_id":"DRN","distance":1546,"is_transit":false,"line":2,"transit":false,"time":3,"i_lat":-6.255332,"i_long":106.85449,"station_name":"Duren Kalibata"},{"time":2,"i_lat":-6.263214,"line":2,"station_id":"PSMB","is_transit":false,"transit":false,"i_long":106.851577,"distance":824,"station_name":"Pasar Minggu Baru"},{"time":2,"is_transit":false,"transit":false,"station_id":"PSM","i_long":106.843999,"distance":2380,"station_name":"Pasar Minggu","i_lat":-6.2842400000000005,"line":2},{"is_transit":false,"i_long":106.838896,"transit":false,"time":4,"i_lat":-6.3080680000000005,"station_id":"TNT","distance":2820,"line":2,"station_name":"Tanjung Barat"},{"station_name":"Lenteng Agung","distance":2671,"time":3,"i_long":106.832616,"station_id":"LNA","i_lat":-6.330363,"line":2,"transit":false,"is_transit":false},{"station_name":"Univ. Pancasila","transit":false,"time":2,"i_lat":-6.339291,"distance":1029,"is_transit":false,"station_id":"UP","i_long":106.834175,"line":2}]]}