{"data":[[{"i_lat":-6.219053,"line":1,"station_name":"Cakung","i_long":106.951283,"time":0,"station_id":"CUK","is_transit":false,"transit":false,"distance":0},{"time":8,"is_transit":false,"station_id":"KLDB","station_name":"Klenderbaru","i_long":106.939679,"distance":1385,"i_lat":-6.217455,"transit":false,"line":1},{"time":1,"line":1,"station_id":"BUA","station_name":"Buaran","transit":false,"distance":1305,"i_long":106.922662,"is_transit":false,"i_lat":-6.215568},{"time":2,"line":1,"station_name":"Klender","distance":3100,"is_transit":false,"i_lat":-6.2135,"transit":false,"station_id":"KLD","i_long":106.899548},{"distance":3395,"transit":false,"is_transit":false,"i_lat":-6.215091,"i_long":106.86807400000001,"station_name":"Jatinegara","line":1,"time":3,"station_id":"JNG"},{"station_name":"Matraman","distance":1377,"is_transit":false,"line":1,"time":2,"station_id":"MTR","transit":false,"i_long":106.858896,"i_lat":-6.212485},{"line":2,"distance":1275,"i_lat":-6.209883,"station_name":"Manggarai","i_long":106.84912,"station_id":"MRI","transit":false,"time":2,"is_transit":false},{"i_long":106.822649,"transit":false,"distance":3186,"is_transit":false,"station_id":"SUD","i_lat":-6.202263,"station_name":"Sudirman","line":1,"time":4},{"is_transit":false,"time":1,"line":1,"station_id":"SUDB","i_lat":-6.201433,"transit":false,"station_name":"Sudirman Baru","i_long":106.819881,"distance":280},{"distance":471,"station_name":"Karet","line":1,"time":1,"station_id":"KAT","is_transit":false,"transit":false,"i_lat":-6.20132,"i_long":106.816351},{"transit":false,"time":5,"line":1,"station_id":"THB","station_name":"Tanah Abang","is_transit":false,"distance":2029,"i_lat":-6.185545,"i_long":106.811091},{"i_long":106.800832,"i_lat":-6.155215,"is_transit":false,"time":8,"station_name":"Duri","line":1,"station_id":"DU","distance":3632,"transit":false},{"is_transit":false,"station_name":"Angke","i_long":106.79867,"time":4,"distance":1230,"i_lat":-6.144674,"transit":false,"station_id":"AK","line":1}],[{"distance":0,"station_id":"CUK","time":0,"i_lat":-6.219053,"line":1,"station_name":"Cakung","i_long":106.951283,"is_transit":false,"transit":false},{"i_lat":-6.217455,"distance":1385,"line":1,"transit":false,"time":8,"station_name":"Klenderbaru","station_id":"KLDB","i_long":106.939679,"is_transit":false},{"time":1,"station_id":"BUA","transit":false,"is_transit":false,"i_long":106.922662,"line":1,"station_name":"Buaran","i_lat":-6.215568,"distance":1305},{"time":2,"station_id":"KLD","station_name":"Klender","transit":false,"i_long":106.899548,"distance":3100,"i_lat":-6.2135,"is_transit":false,"line":1},{"distance":3395,"time":3,"station_name":"Jatinegara","station_id":"JNG","is_transit":true,"transit":true,"i_lat":-6.215091,"line":1,"i_long":106.86807400000001},{"time":2,"i_long":106.861737,"line":11,"distance":1236,"is_transit":false,"transit":false,"station_name":"Pondok Jati","i_lat":-6.209188,"station_id":"POK"},{"distance":1829,"line":11,"time":2,"is_transit":false,"i_long":106.855437,"station_name":"Kramat","transit":false,"i_lat":-6.193792,"station_id":"KMT"},{"station_id":"GST","i_lat":-6.185975,"station_name":"Gang Sentiong","distance":973,"is_transit":false,"i_long":106.850107,"line":11,"time":1,"transit":false},{"station_id":"PSE","distance":1567,"line":11,"station_name":"Pasar Senen","i_long":106.84368,"transit":false,"time":8,"is_transit":false,"i_lat":-6.174784},{"station_id":"KMO","transit":false,"time":4,"distance":1436,"station_name":"Kemayoran","i_lat":-6.161728,"i_long":106.839204,"line":11,"is_transit":false},{"station_name":"Rajawali","distance":1901,"i_lat":-6.14505,"line":11,"time":5,"transit":false,"i_long":106.836569,"station_id":"RJW","is_transit":false},{"line":4,"transit":true,"i_long":106.826365,"is_transit":true,"distance":1444,"station_id":"KPB","station_name":"Kampung Bandan","i_lat":-6.132549,"time":3},{"i_long":106.79867,"station_name":"Angke","is_transit":false,"transit":false,"line":1,"time":9,"i_lat":-6.144674,"distance":4102,"station_id":"AK"}],[{"station_name":"Cakung","i_lat":-6.219053,"time":0,"is_transit":false,"distance":0,"transit":false,"station_id":"CUK","line":1,"i_long":106.951283},{"time":8,"i_lat":-6.217455,"station_name":"Klenderbaru","station_id":"KLDB","distance":1385,"transit":false,"line":1,"i_long":106.939679,"is_transit":false},{"is_transit":false,"i_long":106.922662,"transit":false,"station_name":"Buaran","line":1,"i_lat":-6.215568,"time":1,"distance":1305,"station_id":"BUA"},{"i_lat":-6.2135,"i_long":106.899548,"line":1,"distance":3100,"station_id":"KLD","station_name":"Klender","transit":false,"time":2,"is_transit":false},{"time":3,"distance":3395,"transit":false,"i_long":106.86807400000001,"station_id":"JNG","line":1,"i_lat":-6.215091,"is_transit":false,"station_name":"Jatinegara"},{"transit":false,"i_lat":-6.212485,"distance":1377,"is_transit":false,"i_long":106.858896,"line":1,"station_name":"Matraman","station_id":"MTR","time":2},{"station_name":"Manggarai","line":2,"i_lat":-6.209883,"i_long":106.84912,"time":2,"distance":1275,"transit":true,"is_transit":true,"station_id":"MRI"},{"time":4,"station_name":"Cikini","is_transit":false,"transit":false,"i_long":106.840169,"line":2,"i_lat":-6.198556,"distance":1590,"station_id":"CKI"},{"station_name":"Gondangdia","i_lat":-6.186295,"is_transit":false,"i_long":106.832183,"distance":1750,"station_id":"GDD","line":2,"time":3,"transit":false},{"station_id":"JUA","station_name":"Juanda","transit":false,"i_lat":-6.166716,"i_long":106.828284,"distance":2015,"time":4,"is_transit":false,"line":2},{"i_lat":-6.160725,"time":2,"station_name":"Sawah Besar","is_transit":false,"station_id":"SW","i_long":106.827103,"line":2,"distance":1149,"transit":false},{"time":2,"transit":false,"station_id":"MGB","distance":906,"is_transit":false,"i_long":106.82482,"line":2,"station_name":"Manggabesar","i_lat":-6.149769},{"i_long":106.820901,"time":2,"line":2,"is_transit":false,"distance":1080,"transit":false,"station_name":"Jayakarta","station_id":"JAY","i_lat":-6.141205},{"distance":1264,"transit":true,"i_lat":-6.137569,"station_id":"JAKK","i_long":106.812439,"is_transit":true,"station_name":"Jakarta Kota","line":2,"time":4},{"time":3,"is_transit":true,"i_long":106.826365,"station_id":"KPB","station_name":"Kampung Bandan","transit":true,"line":4,"i_lat":-6.132549,"distance":1364},{"is_transit":false,"station_name":"Angke","i_long":106.79867,"station_id":"AK","distance":4102,"transit":false,"line":1,"time":9,"i_lat":-6.144674}],[{"line":1,"i_long":106.951283,"time":0,"station_id":"CUK","is_transit":false,"i_lat":-6.219053,"transit":false,"distance":0,"station_name":"Cakung"},{"is_transit":false,"distance":1385,"line":1,"station_id":"KLDB","i_lat":-6.217455,"i_long":106.939679,"station_name":"Klenderbaru","time":8,"transit":false},{"station_id":"BUA","is_transit":false,"transit":false,"line":1,"i_lat":-6.215568,"time":1,"distance":1305,"i_long":106.922662,"station_name":"Buaran"},{"time":2,"distance":3100,"transit":false,"line":1,"i_lat":-6.2135,"is_transit":false,"i_long":106.899548,"station_name":"Klender","station_id":"KLD"},{"station_name":"Jatinegara","transit":true,"i_long":106.86807400000001,"distance":3395,"time":3,"is_transit":true,"i_lat":-6.215091,"line":1,"station_id":"JNG"},{"transit":false,"i_lat":-6.209188,"distance":1236,"i_long":106.861737,"station_name":"Pondok Jati","line":11,"time":2,"is_transit":false,"station_id":"POK"},{"i_lat":-6.193792,"station_name":"Kramat","station_id":"KMT","time":2,"distance":1829,"is_transit":false,"transit":false,"line":11,"i_long":106.855437},{"transit":false,"station_id":"GST","time":1,"i_lat":-6.185975,"distance":973,"line":11,"is_transit":false,"station_name":"Gang Sentiong","i_long":106.850107},{"station_name":"Pasar Senen","i_lat":-6.174784,"time":8,"distance":1567,"transit":false,"i_long":106.84368,"line":11,"station_id":"PSE","is_transit":false},{"station_name":"Kemayoran","transit":false,"i_lat":-6.161728,"i_long":106.839204,"station_id":"KMO","is_transit":false,"line":11,"time":4,"distance":1436},{"station_id":"RJW","transit":false,"i_long":106.836569,"is_transit":false,"i_lat":-6.14505,"distance":1901,"station_name":"Rajawali","time":5,"line":11},{"distance":1444,"station_name":"Kampung Bandan","is_transit":true,"station_id":"KPB","transit":true,"time":3,"i_lat":-6.132549,"i_long":106.826365,"line":4},{"transit":true,"time":3,"i_long":106.812439,"is_transit":true,"line":2,"station_id":"JAKK","distance":1364,"i_lat":-6.137569,"station_name":"Jakarta Kota"},{"time":4,"line":2,"is_transit":false,"i_long":106.820901,"distance":1264,"transit":false,"i_lat":-6.141205,"station_name":"Jayakarta","station_id":"JAY"},{"i_long":106.82482,"distance":1080,"line":2,"station_id":"MGB","station_name":"Manggabesar","is_transit":false,"i_lat":-6.149769,"transit":false,"time":2},{"station_name":"Sawah Besar","station_id":"SW","transit":false,"i_long":106.827103,"distance":906,"time":2,"is_transit":false,"i_lat":-6.160725,"line":2},{"station_id":"JUA","transit":false,"station_name":"Juanda","i_long":106.828284,"is_transit":false,"time":2,"distance":1149,"i_lat":-6.166716,"line":2},{"transit":false,"i_lat":-6.186295,"distance":2015,"line":2,"station_name":"Gondangdia","i_long":106.832183,"time":4,"station_id":"GDD","is_transit":false},{"distance":1750,"is_transit":false,"line":2,"i_long":106.840169,"transit":false,"station_id":"CKI","time":3,"station_name":"Cikini","i_lat":-6.198556},{"station_id":"MRI","is_transit":true,"i_lat":-6.209883,"station_name":"Manggarai","line":2,"time":4,"distance":1590,"i_long":106.84912,"transit":true},{"distance":3186,"transit":false,"station_name":"Sudirman","i_lat":-6.202263,"station_id":"SUD","i_long":106.822649,"is_transit":false,"line":1,"time":4},{"distance":280,"is_transit":false,"i_lat":-6.201433,"station_name":"Sudirman Baru","time":1,"transit":false,"i_long":106.819881,"line":1,"station_id":"SUDB"},{"distance":471,"line":1,"transit":false,"is_transit":false,"i_lat":-6.20132,"station_name":"Karet","time":1,"i_long":106.816351,"station_id":"KAT"},{"transit":false,"i_lat":-6.185545,"is_transit":false,"line":1,"station_id":"THB","station_name":"Tanah Abang","distance":2029,"time":5,"i_long":106.811091},{"is_transit":false,"station_name":"Duri","station_id":"DU","i_lat":-6.155215,"transit":false,"i_long":106.800832,"time":8,"distance":3632,"line":1},{"i_long":106.79867,"station_name":"Angke","station_id":"AK","transit":false,"time":4,"i_lat":-6.144674,"is_transit":false,"distance":1230,"line":1}]]}