{"data":[[{"time":0,"i_long":106.951283,"line":1,"i_lat":-6.219053,"station_name":"Cakung","distance":0,"transit":false,"station_id":"CUK","is_transit":false},{"i_long":106.939679,"is_transit":false,"station_id":"KLDB","distance":1385,"time":8,"station_name":"Klenderbaru","i_lat":-6.217455,"line":1,"transit":false},{"is_transit":false,"distance":1305,"transit":false,"station_name":"Buaran","time":1,"i_lat":-6.215568,"line":1,"station_id":"BUA","i_long":106.922662},{"distance":3100,"line":1,"transit":false,"time":2,"i_lat":-6.2135,"is_transit":false,"station_id":"KLD","i_long":106.899548,"station_name":"Klender"},{"distance":3395,"i_long":106.86807400000001,"line":1,"station_name":"Jatinegara","time":3,"is_transit":false,"transit":false,"station_id":"JNG","i_lat":-6.215091},{"i_lat":-6.212485,"time":2,"distance":1377,"transit":false,"station_name":"Matraman","i_long":106.858896,"line":1,"station_id":"MTR","is_transit":false},{"station_id":"MRI","i_lat":-6.209883,"transit":true,"is_transit":true,"time":2,"distance":1275,"i_long":106.84912,"station_name":"Manggarai","line":2},{"is_transit":false,"time":4,"i_lat":-6.226659,"transit":false,"distance":2610,"station_id":"TEB","line":2,"station_name":"Tebet","i_long":106.857948},{"is_transit":false,"distance":1230,"line":2,"i_long":106.856607,"station_name":"Cawang","station_id":"CW","time":2,"transit":false,"i_lat":-6.242512},{"transit":false,"i_lat":-6.255332,"is_transit":false,"i_long":106.85449,"distance":1546,"time":3,"station_id":"DRN","station_name":"Duren Kalibata","line":2},{"distance":824,"is_transit":false,"station_id":"PSMB","i_long":106.851577,"station_name":"Pasar Minggu Baru","i_lat":-6.263214,"transit":false,"line":2,"time":2},{"distance":2380,"transit":false,"time":2,"line":2,"station_name":"Pasar Minggu","station_id":"PSM","i_long":106.843999,"is_transit":false,"i_lat":-6.2842400000000005},{"line":2,"distance":2820,"station_name":"Tanjung Barat","transit":false,"is_transit":false,"time":4,"i_long":106.838896,"i_lat":-6.3080680000000005,"station_id":"TNT"},{"station_id":"LNA","station_name":"Lenteng Agung","is_transit":false,"line":2,"i_long":106.832616,"time":3,"i_lat":-6.330363,"distance":2671,"transit":false},{"transit":false,"station_id":"UP","is_transit":false,"time":2,"i_long":106.834175,"distance":1029,"line":2,"station_name":"Univ. Pancasila","i_lat":-6.339291},{"time":3,"i_long":106.831474,"is_transit":false,"station_name":"Univ. Indonesia","line":2,"station_id":"UI","distance":2264,"transit":false,"i_lat":-6.360749},{"time":2,"transit":false,"station_name":"Pondok Cina","station_id":"POC","is_transit":false,"distance":1109,"i_lat":-6.369073,"line":2,"i_long":106.831114},{"distance":2727,"i_long":106.819451,"time":4,"transit":false,"station_id":"DPB","line":2,"station_name":"Depokbaru","i_lat":-6.391065,"is_transit":false},{"is_transit":false,"distance":1584,"station_id":"DP","i_lat":-6.405256,"station_name":"Depok","time":3,"line":2,"transit":false,"i_long":106.816926},{"i_lat":-6.448811,"i_long":106.800298,"time":6,"distance":5084,"station_id":"CTA","transit":false,"is_transit":false,"line":2,"station_name":"Citayam"},{"station_id":"BJD","distance":5197,"i_lat":-6.493243,"is_transit":false,"station_name":"Bojonggede","i_long":106.792719,"transit":false,"line":2,"time":5},{"distance":4331,"time":5,"i_lat":-6.530544,"i_long":106.800016,"line":2,"is_transit":false,"transit":false,"station_name":"Cilebut","station_id":"CLT"},{"is_transit":false,"transit":false,"time":9,"station_name":"Bogor","i_lat":-6.594596,"station_id":"BOO","distance":7514,"i_long":106.790574,"line":2}],[{"time":0,"distance":0,"i_lat":-6.219053,"i_long":106.951283,"line":1,"transit":false,"station_name":"Cakung","station_id":"CUK","is_transit":false},{"station_name":"Klenderbaru","distance":1385,"transit":false,"i_long":106.939679,"i_lat":-6.217455,"station_id":"KLDB","is_transit":false,"time":8,"line":1},{"distance":1305,"time":1,"i_lat":-6.215568,"i_long":106.922662,"station_name":"Buaran","station_id":"BUA","is_transit":false,"transit":false,"line":1},{"distance":3100,"station_name":"Klender","time":2,"i_long":106.899548,"transit":false,"station_id":"KLD","is_transit":false,"i_lat":-6.2135,"line":1},{"station_name":"Jatinegara","station_id":"JNG","distance":3395,"i_lat":-6.215091,"line":1,"is_transit":true,"time":3,"transit":true,"i_long":106.86807400000001},{"distance":1236,"transit":false,"line":11,"is_transit":false,"station_id":"POK","time":2,"i_lat":-6.209188,"i_long":106.861737,"station_name":"Pondok Jati"},{"station_name":"Kramat","is_transit":false,"distance":1829,"i_lat":-6.193792,"i_long":106.855437,"line":11,"station_id":"KMT","time":2,"transit":false},{"i_long":106.850107,"station_id":"GST","station_name":"Gang Sentiong","time":1,"distance":973,"transit":false,"line":11,"i_lat":-6.185975,"is_transit":false},{"station_name":"Pasar Senen","is_transit":false,"station_id":"PSE","transit":false,"distance":1567,"i_lat":-6.174784,"i_long":106.84368,"line":11,"time":8},{"time":4,"transit":false,"distance":1436,"station_name":"Kemayoran","station_id":"KMO","is_transit":false,"i_lat":-6.161728,"i_long":106.839204,"line":11},{"time":5,"line":11,"distance":1901,"station_name":"Rajawali","is_transit":false,"i_lat":-6.14505,"i_long":106.836569,"station_id":"RJW","transit":false},{"time":3,"distance":1444,"line":4,"transit":true,"station_id":"KPB","i_lat":-6.132549,"i_long":106.826365,"station_name":"Kampung Bandan","is_transit":true},{"line":1,"i_long":106.79867,"time":9,"station_name":"Angke","transit":false,"is_transit":false,"station_id":"AK","i_lat":-6.144674,"distance":4102},{"line":1,"station_name":"Duri","transit":false,"distance":1230,"i_lat":-6.155215,"i_long":106.800832,"station_id":"DU","time":4,"is_transit":false},{"is_transit":false,"transit":false,"station_name":"Tanah Abang","distance":3632,"line":1,"station_id":"THB","time":8,"i_long":106.811091,"i_lat":-6.185545},{"distance":2029,"station_name":"Karet","is_transit":false,"time":5,"i_long":106.816351,"line":1,"transit":false,"i_lat":-6.20132,"station_id":"KAT"},{"i_long":106.819881,"is_transit":false,"i_lat":-6.201433,"line":1,"time":1,"station_name":"Sudirman Baru","distance":471,"transit":false,"station_id":"SUDB"},{"station_id":"SUD","i_long":106.822649,"is_transit":false,"time":1,"distance":280,"station_name":"Sudirman","line":1,"i_lat":-6.202263,"transit":false},{"station_name":"Manggarai","i_lat":-6.209883,"transit":true,"line":2,"station_id":"MRI","is_transit":true,"distance":3186,"time":4,"i_long":106.84912},{"time":4,"i_lat":-6.226659,"station_name":"Tebet","station_id":"TEB","distance":2610,"i_long":106.857948,"transit":false,"is_transit":false,"line":2},{"line":2,"transit":false,"station_id":"CW","is_transit":false,"time":2,"station_name":"Cawang","distance":1230,"i_long":106.856607,"i_lat":-6.242512},{"i_lat":-6.255332,"i_long":106.85449,"distance":1546,"line":2,"transit":false,"station_id":"DRN","station_name":"Duren Kalibata","is_transit":false,"time":3},{"line":2,"distance":824,"station_name":"Pasar Minggu Baru","station_id":"PSMB","is_transit":false,"time":2,"i_lat":-6.263214,"i_long":106.851577,"transit":false},{"time":2,"line":2,"station_name":"Pasar Minggu","distance":2380,"transit":false,"i_lat":-6.2842400000000005,"is_transit":false,"i_long":106.843999,"station_id":"PSM"},{"i_lat":-6.3080680000000005,"is_transit":false,"i_long":106.838896,"station_name":"Tanjung Barat","line":2,"time":4,"distance":2820,"transit":false,"station_id":"TNT"},{"i_long":106.832616,"line":2,"station_name":"Lenteng Agung","station_id":"LNA","is_transit":false,"distance":2671,"time":3,"transit":false,"i_lat":-6.330363},{"i_lat":-6.339291,"distance":1029,"transit":false,"line":2,"i_long":106.834175,"station_id":"UP","station_name":"Univ. Pancasila","is_transit":false,"time":2},{"transit":false,"station_name":"Univ. Indonesia","i_lat":-6.360749,"is_transit":false,"i_long":106.831474,"distance":2264,"line":2,"station_id":"UI","time":3},{"transit":false,"time":2,"i_long":106.831114,"station_name":"Pondok Cina","line":2,"station_id":"POC","is_transit":false,"distance":1109,"i_lat":-6.369073},{"station_name":"Depokbaru","is_transit":false,"line":2,"distance":2727,"transit":false,"time":4,"i_long":106.819451,"station_id":"DPB","i_lat":-6.391065},{"distance":1584,"line":2,"is_transit":false,"time":3,"transit":false,"i_lat":-6.405256,"station_name":"Depok","i_long":106.816926,"station_id":"DP"},{"station_name":"Citayam","i_long":106.800298,"line":2,"transit":false,"is_transit":false,"distance":5084,"station_id":"CTA","i_lat":-6.448811,"time":6},{"i_long":106.792719,"station_id":"BJD","time":5,"station_name":"Bojonggede","transit":false,"distance":5197,"i_lat":-6.493243,"line":2,"is_transit":false},{"line":2,"i_lat":-6.530544,"station_id":"CLT","station_name":"Cilebut","is_transit":false,"time":5,"transit":false,"distance":4331,"i_long":106.800016},{"i_long":106.790574,"distance":7514,"station_id":"BOO","transit":false,"line":2,"is_transit":false,"time":9,"station_name":"Bogor","i_lat":-6.594596}],[{"station_id":"CUK","station_name":"Cakung","transit":false,"time":0,"i_long":106.951283,"line":1,"is_transit":false,"distance":0,"i_lat":-6.219053},{"transit":false,"i_lat":-6.217455,"is_transit":false,"time":8,"line":1,"station_name":"Klenderbaru","distance":1385,"i_long":106.939679,"station_id":"KLDB"},{"line":1,"transit":false,"distance":1305,"i_long":106.922662,"is_transit":false,"station_name":"Buaran","i_lat":-6.215568,"station_id":"BUA","time":1},{"i_long":106.899548,"line":1,"i_lat":-6.2135,"is_transit":false,"station_name":"Klender","station_id":"KLD","time":2,"distance":3100,"transit":false},{"time":3,"distance":3395,"station_name":"Jatinegara","i_long":106.86807400000001,"station_id":"JNG","line":1,"is_transit":true,"transit":true,"i_lat":-6.215091},{"i_long":106.861737,"station_name":"Pondok Jati","is_transit":false,"transit":false,"i_lat":-6.209188,"station_id":"POK","line":11,"time":2,"distance":1236},{"is_transit":false,"distance":1829,"station_name":"Kramat","station_id":"KMT","i_lat":-6.193792,"time":2,"transit":false,"i_long":106.855437,"line":11},{"line":11,"station_id":"GST","transit":false,"station_name":"Gang Sentiong","time":1,"distance":973,"is_transit":false,"i_lat":-6.185975,"i_long":106.850107},{"i_lat":-6.174784,"transit":false,"distance":1567,"line":11,"station_name":"Pasar Senen","station_id":"PSE","is_transit":false,"time":8,"i_long":106.84368},{"station_name":"Kemayoran","transit":false,"station_id":"KMO","distance":1436,"time":4,"is_transit":false,"i_long":106.839204,"line":11,"i_lat":-6.161728},{"i_long":106.836569,"line":11,"is_transit":false,"station_id":"RJW","time":5,"station_name":"Rajawali","distance":1901,"transit":false,"i_lat":-6.14505},{"i_lat":-6.132549,"i_long":106.826365,"is_transit":true,"station_id":"KPB","station_name":"Kampung Bandan","line":4,"transit":true,"time":3,"distance":1444},{"time":3,"i_lat":-6.137569,"i_long":106.812439,"distance":1364,"station_name":"Jakarta Kota","line":2,"transit":true,"is_transit":true,"station_id":"JAKK"},{"line":2,"i_long":106.820901,"station_id":"JAY","is_transit":false,"time":4,"i_lat":-6.141205,"transit":false,"station_name":"Jayakarta","distance":1264},{"i_long":106.82482,"time":2,"station_name":"Manggabesar","is_transit":false,"distance":1080,"transit":false,"line":2,"station_id":"MGB","i_lat":-6.149769},{"i_long":106.827103,"i_lat":-6.160725,"time":2,"distance":906,"line":2,"is_transit":false,"station_id":"SW","transit":false,"station_name":"Sawah Besar"},{"transit":false,"distance":1149,"station_id":"JUA","is_transit":false,"station_name":"Juanda","i_long":106.828284,"time":2,"i_lat":-6.166716,"line":2},{"is_transit":false,"distance":2015,"station_id":"GDD","i_long":106.832183,"transit":false,"time":4,"line":2,"i_lat":-6.186295,"station_name":"Gondangdia"},{"time":3,"distance":1750,"station_name":"Cikini","line":2,"station_id":"CKI","i_lat":-6.198556,"is_transit":false,"i_long":106.840169,"transit":false},{"time":4,"line":2,"transit":false,"station_name":"Manggarai","i_long":106.84912,"distance":1590,"i_lat":-6.209883,"is_transit":false,"station_id":"MRI"},{"is_transit":false,"transit":false,"time":4,"i_lat":-6.226659,"station_id":"TEB","distance":2610,"station_name":"Tebet","i_long":106.857948,"line":2},{"i_long":106.856607,"station_id":"CW","i_lat":-6.242512,"station_name":"Cawang","transit":false,"is_transit":false,"time":2,"line":2,"distance":1230},{"transit":false,"station_id":"DRN","i_long":106.85449,"line":2,"time":3,"distance":1546,"i_lat":-6.255332,"station_name":"Duren Kalibata","is_transit":false},{"line":2,"station_id":"PSMB","i_long":106.851577,"station_name":"Pasar Minggu Baru","time":2,"i_lat":-6.263214,"transit":false,"is_transit":false,"distance":824},{"station_name":"Pasar Minggu","time":2,"i_lat":-6.2842400000000005,"station_id":"PSM","line":2,"distance":2380,"is_transit":false,"transit":false,"i_long":106.843999},{"time":4,"i_lat":-6.3080680000000005,"is_transit":false,"station_name":"Tanjung Barat","transit":false,"distance":2820,"i_long":106.838896,"station_id":"TNT","line":2},{"transit":false,"line":2,"distance":2671,"station_id":"LNA","i_lat":-6.330363,"station_name":"Lenteng Agung","is_transit":false,"i_long":106.832616,"time":3},{"transit":false,"time":2,"is_transit":false,"distance":1029,"i_long":106.834175,"line":2,"station_id":"UP","i_lat":-6.339291,"station_name":"Univ. Pancasila"},{"i_long":106.831474,"station_id":"UI","distance":2264,"line":2,"time":3,"transit":false,"is_transit":false,"station_name":"Univ. Indonesia","i_lat":-6.360749},{"i_lat":-6.369073,"is_transit":false,"time":2,"line":2,"transit":false,"station_name":"Pondok Cina","station_id":"POC","distance":1109,"i_long":106.831114},{"station_name":"Depokbaru","is_transit":false,"station_id":"DPB","time":4,"transit":false,"distance":2727,"i_lat":-6.391065,"i_long":106.819451,"line":2},{"line":2,"station_id":"DP","i_long":106.816926,"distance":1584,"i_lat":-6.405256,"transit":false,"is_transit":false,"station_name":"Depok","time":3},{"transit":false,"time":6,"is_transit":false,"i_lat":-6.448811,"station_name":"Citayam","line":2,"station_id":"CTA","distance":5084,"i_long":106.800298},{"i_long":106.792719,"station_id":"BJD","distance":5197,"i_lat":-6.493243,"transit":false,"station_name":"Bojonggede","time":5,"is_transit":false,"line":2},{"i_lat":-6.530544,"time":5,"station_name":"Cilebut","station_id":"CLT","i_long":106.800016,"line":2,"is_transit":false,"distance":4331,"transit":false},{"i_long":106.790574,"line":2,"is_transit":false,"station_name":"Bogor","time":9,"i_lat":-6.594596,"transit":false,"distance":7514,"station_id":"BOO"}]]}