{"data":[[{"transit":false,"i_long":106.951283,"distance":0,"station_name":"Cakung","line":1,"time":0,"station_id":"CUK","is_transit":false,"i_lat":-6.219053},{"line":1,"i_lat":-6.217455,"station_name":"Klenderbaru","transit":false,"distance":1385,"time":8,"is_transit":false,"station_id":"KLDB","i_long":106.939679},{"i_lat":-6.215568,"i_long":106.922662,"station_id":"BUA","station_name":"Buaran","is_transit":false,"line":1,"time":1,"transit":false,"distance":1305},{"i_lat":-6.2135,"station_id":"KLD","is_transit":false,"i_long":106.899548,"transit":false,"station_name":"Klender","distance":3100,"line":1,"time":2},{"is_transit":false,"i_long":106.86807400000001,"distance":3395,"transit":false,"station_name":"Jatinegara","time":3,"i_lat":-6.215091,"station_id":"JNG","line":1},{"i_lat":-6.212485,"line":1,"is_transit":false,"transit":false,"station_name":"Matraman","distance":1377,"station_id":"MTR","time":2,"i_long":106.858896},{"station_id":"MRI","transit":false,"i_lat":-6.209883,"distance":1275,"i_long":106.84912,"time":2,"station_name":"Manggarai","line":2,"is_transit":false},{"distance":3186,"transit":false,"is_transit":false,"i_long":106.822649,"time":4,"station_name":"Sudirman","station_id":"SUD","i_lat":-6.202263,"line":1},{"station_id":"SUDB","station_name":"Sudirman Baru","transit":false,"is_transit":false,"line":1,"distance":280,"time":1,"i_long":106.819881,"i_lat":-6.201433},{"transit":false,"station_id":"KAT","i_long":106.816351,"line":1,"station_name":"Karet","is_transit":false,"distance":471,"time":1,"i_lat":-6.20132},{"time":5,"distance":2029,"line":1,"i_lat":-6.185545,"station_id":"THB","is_transit":true,"transit":true,"station_name":"Tanah Abang","i_long":106.811091},{"transit":false,"is_transit":false,"station_name":"Palmerah","i_long":106.79689,"station_id":"PLM","line":6,"time":6,"distance":3191,"i_lat":-6.207404},{"line":6,"i_lat":-6.237242,"station_name":"Kebayoran","station_id":"KBY","i_long":106.780334,"transit":false,"is_transit":false,"time":7,"distance":3737},{"is_transit":false,"time":8,"i_lat":-6.276362,"i_long":106.74273,"transit":false,"station_name":"Pondokranji","distance":6218,"line":6,"station_id":"PDJ"},{"i_lat":-6.288927,"i_long":106.728916,"line":6,"is_transit":false,"transit":false,"station_name":"Jurangmangu","station_id":"JMU","time":3,"distance":2179},{"transit":false,"is_transit":false,"station_name":"Sudimara","station_id":"SDM","line":6,"i_long":106.712277,"i_lat":-6.296963,"time":4,"distance":1994},{"transit":false,"distance":4566,"line":6,"station_name":"Rawa Buntu","time":6,"i_lat":-6.314823,"station_id":"RU","is_transit":false,"i_long":106.675475},{"station_id":"SRP","time":4,"transit":false,"i_long":106.66566,"distance":2413,"i_lat":-6.319871,"line":6,"station_name":"Serpong","is_transit":false},{"i_long":106.640411,"distance":1784,"is_transit":false,"transit":false,"station_name":"Cisauk","station_id":"CSK","i_lat":-6.32484,"time":4,"line":3},{"distance":2519,"line":3,"transit":false,"i_lat":-6.329547,"time":4,"i_long":106.617853,"is_transit":false,"station_name":"Cicayur","station_id":"CC"},{"line":6,"station_id":"PRP","is_transit":false,"time":8,"distance":5968,"transit":false,"i_lat":-6.3441410000000005,"i_long":106.568863,"station_name":"Parung Panjang"},{"station_id":"CJT","station_name":"Cilejit","time":9,"distance":7025,"i_long":106.508482,"line":3,"is_transit":false,"i_lat":-6.354349,"transit":false},{"distance":2675,"i_long":106.491338,"i_lat":-6.338021,"transit":false,"station_name":"Daru","is_transit":false,"time":6,"station_id":"DAR","line":0},{"station_id":"TEJ","is_transit":false,"time":5,"i_long":106.460812,"line":6,"transit":false,"distance":3902,"station_name":"Tenjo","i_lat":-6.327251},{"time":5,"station_name":"Tigaraksa","line":6,"distance":2974,"i_lat":-6.328533,"i_long":106.425991,"transit":false,"is_transit":false,"station_id":"TGS"},{"station_name":"Cikoya","time":3,"is_transit":false,"station_id":"CKY","i_lat":-6.33561,"i_long":106.411216,"line":3,"distance":2651,"transit":false},{"is_transit":false,"station_name":"Maja","station_id":"MJ","line":6,"i_lat":-6.332307,"i_long":106.394373,"transit":false,"time":4,"distance":1853},{"transit":false,"time":10,"i_lat":-6.334892,"station_id":"CTR","station_name":"Citeras","is_transit":false,"line":3,"distance":7293,"i_long":106.332092}],[{"station_id":"CUK","station_name":"Cakung","time":0,"i_lat":-6.219053,"is_transit":false,"i_long":106.951283,"distance":0,"line":1,"transit":false},{"station_name":"Klenderbaru","distance":1385,"line":1,"i_lat":-6.217455,"is_transit":false,"i_long":106.939679,"station_id":"KLDB","transit":false,"time":8},{"distance":1305,"transit":false,"i_long":106.922662,"i_lat":-6.215568,"line":1,"time":1,"is_transit":false,"station_name":"Buaran","station_id":"BUA"},{"i_lat":-6.2135,"time":2,"line":1,"transit":false,"is_transit":false,"distance":3100,"station_name":"Klender","station_id":"KLD","i_long":106.899548},{"distance":3395,"time":3,"station_name":"Jatinegara","i_lat":-6.215091,"transit":true,"is_transit":true,"line":1,"station_id":"JNG","i_long":106.86807400000001},{"station_id":"POK","i_lat":-6.209188,"is_transit":false,"distance":1236,"time":2,"i_long":106.861737,"line":11,"transit":false,"station_name":"Pondok Jati"},{"i_long":106.855437,"line":11,"transit":false,"distance":1829,"station_id":"KMT","time":2,"station_name":"Kramat","is_transit":false,"i_lat":-6.193792},{"station_id":"GST","time":1,"i_long":106.850107,"line":11,"is_transit":false,"distance":973,"i_lat":-6.185975,"station_name":"Gang Sentiong","transit":false},{"time":8,"transit":false,"station_id":"PSE","line":11,"i_long":106.84368,"station_name":"Pasar Senen","distance":1567,"is_transit":false,"i_lat":-6.174784},{"is_transit":false,"station_id":"KMO","i_lat":-6.161728,"station_name":"Kemayoran","line":11,"transit":false,"time":4,"i_long":106.839204,"distance":1436},{"line":11,"transit":false,"is_transit":false,"i_lat":-6.14505,"station_name":"Rajawali","station_id":"RJW","time":5,"distance":1901,"i_long":106.836569},{"is_transit":true,"distance":1444,"line":4,"station_id":"KPB","i_long":106.826365,"transit":true,"time":3,"i_lat":-6.132549,"station_name":"Kampung Bandan"},{"station_name":"Angke","time":9,"line":1,"i_lat":-6.144674,"is_transit":false,"distance":4102,"station_id":"AK","transit":false,"i_long":106.79867},{"i_lat":-6.155215,"line":1,"station_id":"DU","is_transit":false,"i_long":106.800832,"station_name":"Duri","time":4,"transit":false,"distance":1230},{"time":8,"i_lat":-6.185545,"transit":true,"distance":3632,"is_transit":true,"station_name":"Tanah Abang","station_id":"THB","i_long":106.811091,"line":1},{"time":6,"i_lat":-6.207404,"line":6,"i_long":106.79689,"distance":3191,"is_transit":false,"transit":false,"station_name":"Palmerah","station_id":"PLM"},{"line":6,"station_id":"KBY","station_name":"Kebayoran","time":7,"distance":3737,"is_transit":false,"i_long":106.780334,"transit":false,"i_lat":-6.237242},{"is_transit":false,"distance":6218,"station_name":"Pondokranji","station_id":"PDJ","i_lat":-6.276362,"time":8,"transit":false,"i_long":106.74273,"line":6},{"line":6,"station_id":"JMU","transit":false,"station_name":"Jurangmangu","time":3,"distance":2179,"is_transit":false,"i_lat":-6.288927,"i_long":106.728916},{"i_lat":-6.296963,"transit":false,"distance":1994,"line":6,"station_name":"Sudimara","station_id":"SDM","is_transit":false,"time":4,"i_long":106.712277},{"station_name":"Rawa Buntu","transit":false,"station_id":"RU","distance":4566,"time":6,"is_transit":false,"i_long":106.675475,"line":6,"i_lat":-6.314823},{"i_long":106.66566,"line":6,"is_transit":false,"station_id":"SRP","time":4,"station_name":"Serpong","distance":2413,"transit":false,"i_lat":-6.319871},{"i_lat":-6.32484,"i_long":106.640411,"is_transit":false,"station_id":"CSK","station_name":"Cisauk","line":3,"transit":false,"time":4,"distance":1784},{"time":4,"i_lat":-6.329547,"i_long":106.617853,"distance":2519,"station_name":"Cicayur","line":3,"transit":false,"is_transit":false,"station_id":"CC"},{"line":6,"i_long":106.568863,"station_id":"PRP","is_transit":false,"time":8,"i_lat":-6.3441410000000005,"transit":false,"station_name":"Parung Panjang","distance":5968},{"i_long":106.508482,"time":9,"station_name":"Cilejit","is_transit":false,"distance":7025,"transit":false,"line":3,"station_id":"CJT","i_lat":-6.354349},{"i_long":106.491338,"i_lat":-6.338021,"time":6,"distance":2675,"line":0,"is_transit":false,"station_id":"DAR","transit":false,"station_name":"Daru"},{"transit":false,"distance":3902,"station_id":"TEJ","is_transit":false,"station_name":"Tenjo","i_long":106.460812,"time":5,"i_lat":-6.327251,"line":6},{"is_transit":false,"distance":2974,"station_id":"TGS","i_long":106.425991,"transit":false,"time":5,"line":6,"i_lat":-6.328533,"station_name":"Tigaraksa"},{"time":3,"distance":2651,"station_name":"Cikoya","line":3,"station_id":"CKY","i_lat":-6.33561,"is_transit":false,"i_long":106.411216,"transit":false},{"time":4,"line":6,"transit":false,"station_name":"Maja","i_long":106.394373,"distance":1853,"i_lat":-6.332307,"is_transit":false,"station_id":"MJ"},{"is_transit":false,"transit":false,"time":10,"i_lat":-6.334892,"station_id":"CTR","distance":7293,"station_name":"Citeras","i_long":106.332092,"line":3}],[{"i_long":106.951283,"station_id":"CUK","i_lat":-6.219053,"station_name":"Cakung","transit":false,"is_transit":false,"time":0,"line":1,"distance":0},{"transit":false,"station_id":"KLDB","i_long":106.939679,"line":1,"time":8,"distance":1385,"i_lat":-6.217455,"station_name":"Klenderbaru","is_transit":false},{"line":1,"station_id":"BUA","i_long":106.922662,"station_name":"Buaran","time":1,"i_lat":-6.215568,"transit":false,"is_transit":false,"distance":1305},{"station_name":"Klender","time":2,"i_lat":-6.2135,"station_id":"KLD","line":1,"distance":3100,"is_transit":false,"transit":false,"i_long":106.899548},{"time":3,"i_lat":-6.215091,"is_transit":false,"station_name":"Jatinegara","transit":false,"distance":3395,"i_long":106.86807400000001,"station_id":"JNG","line":1},{"transit":false,"line":1,"distance":1377,"station_id":"MTR","i_lat":-6.212485,"station_name":"Matraman","is_transit":false,"i_long":106.858896,"time":2},{"transit":true,"time":2,"is_transit":true,"distance":1275,"i_long":106.84912,"line":2,"station_id":"MRI","i_lat":-6.209883,"station_name":"Manggarai"},{"i_long":106.840169,"station_id":"CKI","distance":1590,"line":2,"time":4,"transit":false,"is_transit":false,"station_name":"Cikini","i_lat":-6.198556},{"i_lat":-6.186295,"is_transit":false,"time":3,"line":2,"transit":false,"station_name":"Gondangdia","station_id":"GDD","distance":1750,"i_long":106.832183},{"station_name":"Juanda","is_transit":false,"station_id":"JUA","time":4,"transit":false,"distance":2015,"i_lat":-6.166716,"i_long":106.828284,"line":2},{"line":2,"station_id":"SW","i_long":106.827103,"distance":1149,"i_lat":-6.160725,"transit":false,"is_transit":false,"station_name":"Sawah Besar","time":2},{"transit":false,"time":2,"is_transit":false,"i_lat":-6.149769,"station_name":"Manggabesar","line":2,"station_id":"MGB","distance":906,"i_long":106.82482},{"station_name":"Jayakarta","i_lat":-6.141205,"line":2,"i_long":106.820901,"time":2,"transit":false,"is_transit":false,"distance":1080,"station_id":"JAY"},{"station_name":"Jakarta Kota","is_transit":true,"i_long":106.812439,"transit":true,"station_id":"JAKK","time":4,"i_lat":-6.137569,"distance":1264,"line":2},{"i_long":106.826365,"line":4,"distance":1364,"transit":true,"station_id":"KPB","is_transit":true,"time":3,"station_name":"Kampung Bandan","i_lat":-6.132549},{"time":9,"i_long":106.79867,"distance":4102,"i_lat":-6.144674,"station_name":"Angke","transit":false,"station_id":"AK","is_transit":false,"line":1},{"transit":false,"time":4,"i_long":106.800832,"distance":1230,"station_name":"Duri","i_lat":-6.155215,"line":1,"station_id":"DU","is_transit":false},{"is_transit":true,"i_lat":-6.185545,"station_name":"Tanah Abang","distance":3632,"station_id":"THB","time":8,"transit":true,"line":1,"i_long":106.811091},{"transit":false,"station_id":"PLM","distance":3191,"line":6,"is_transit":false,"time":6,"i_lat":-6.207404,"i_long":106.79689,"station_name":"Palmerah"},{"time":7,"i_long":106.780334,"line":6,"distance":3737,"station_id":"KBY","i_lat":-6.237242,"is_transit":false,"transit":false,"station_name":"Kebayoran"},{"distance":6218,"line":6,"station_name":"Pondokranji","time":8,"station_id":"PDJ","i_lat":-6.276362,"transit":false,"i_long":106.74273,"is_transit":false},{"station_id":"JMU","transit":false,"time":3,"i_long":106.728916,"station_name":"Jurangmangu","is_transit":false,"distance":2179,"line":6,"i_lat":-6.288927},{"distance":1994,"i_lat":-6.296963,"station_id":"SDM","is_transit":false,"transit":false,"station_name":"Sudimara","line":6,"time":4,"i_long":106.712277},{"is_transit":false,"time":6,"station_id":"RU","distance":4566,"station_name":"Rawa Buntu","transit":false,"i_lat":-6.314823,"line":6,"i_long":106.675475},{"i_lat":-6.319871,"is_transit":false,"distance":2413,"i_long":106.66566,"transit":false,"line":6,"station_name":"Serpong","station_id":"SRP","time":4},{"line":3,"time":4,"i_lat":-6.32484,"distance":1784,"i_long":106.640411,"station_id":"CSK","is_transit":false,"transit":false,"station_name":"Cisauk"},{"is_transit":false,"station_id":"CC","station_name":"Cicayur","transit":false,"i_long":106.617853,"line":3,"distance":2519,"i_lat":-6.329547,"time":4},{"transit":false,"station_name":"Parung Panjang","station_id":"PRP","i_lat":-6.3441410000000005,"is_transit":false,"time":8,"distance":5968,"i_long":106.568863,"line":6},{"station_name":"Cilejit","i_lat":-6.354349,"transit":false,"is_transit":false,"station_id":"CJT","distance":7025,"line":3,"time":9,"i_long":106.508482},{"time":6,"distance":2675,"station_id":"DAR","is_transit":false,"transit":false,"line":0,"station_name":"Daru","i_long":106.491338,"i_lat":-6.338021},{"i_long":106.460812,"station_name":"Tenjo","is_transit":false,"station_id":"TEJ","i_lat":-6.327251,"transit":false,"line":6,"distance":3902,"time":5},{"station_id":"TGS","line":6,"station_name":"Tigaraksa","transit":false,"is_transit":false,"distance":2974,"time":5,"i_long":106.425991,"i_lat":-6.328533},{"time":3,"station_id":"CKY","i_long":106.411216,"i_lat":-6.33561,"station_name":"Cikoya","transit":false,"is_transit":false,"distance":2651,"line":3},{"transit":false,"station_id":"MJ","i_long":106.394373,"i_lat":-6.332307,"time":4,"line":6,"station_name":"Maja","distance":1853,"is_transit":false},{"i_long":106.332092,"station_id":"CTR","transit":false,"is_transit":false,"line":3,"time":10,"i_lat":-6.334892,"station_name":"Citeras","distance":7293}],[{"time":0,"distance":0,"station_id":"CUK","station_name":"Cakung","i_long":106.951283,"line":1,"i_lat":-6.219053,"is_transit":false,"transit":false},{"transit":false,"line":1,"is_transit":false,"i_lat":-6.217455,"station_id":"KLDB","time":8,"distance":1385,"station_name":"Klenderbaru","i_long":106.939679},{"i_lat":-6.215568,"i_long":106.922662,"station_id":"BUA","line":1,"station_name":"Buaran","time":1,"is_transit":false,"distance":1305,"transit":false},{"station_id":"KLD","i_lat":-6.2135,"line":1,"is_transit":false,"transit":false,"distance":3100,"time":2,"i_long":106.899548,"station_name":"Klender"},{"distance":3395,"station_id":"JNG","station_name":"Jatinegara","i_lat":-6.215091,"is_transit":true,"line":1,"transit":true,"i_long":106.86807400000001,"time":3},{"transit":false,"line":11,"station_id":"POK","is_transit":false,"i_long":106.861737,"time":2,"i_lat":-6.209188,"station_name":"Pondok Jati","distance":1236},{"station_id":"KMT","station_name":"Kramat","time":2,"i_lat":-6.193792,"distance":1829,"line":11,"transit":false,"is_transit":false,"i_long":106.855437},{"line":11,"i_lat":-6.185975,"station_name":"Gang Sentiong","transit":false,"distance":973,"time":1,"is_transit":false,"station_id":"GST","i_long":106.850107},{"i_long":106.84368,"is_transit":false,"station_name":"Pasar Senen","time":8,"i_lat":-6.174784,"distance":1567,"transit":false,"station_id":"PSE","line":11},{"transit":false,"is_transit":false,"distance":1436,"station_id":"KMO","i_lat":-6.161728,"time":4,"station_name":"Kemayoran","i_long":106.839204,"line":11},{"distance":1901,"time":5,"i_lat":-6.14505,"transit":false,"station_id":"RJW","line":11,"station_name":"Rajawali","i_long":106.836569,"is_transit":false},{"time":3,"distance":1444,"transit":true,"station_name":"Kampung Bandan","is_transit":true,"line":4,"station_id":"KPB","i_lat":-6.132549,"i_long":106.826365},{"i_lat":-6.137569,"transit":true,"is_transit":true,"distance":1364,"station_id":"JAKK","i_long":106.812439,"station_name":"Jakarta Kota","time":3,"line":2},{"time":4,"station_name":"Jayakarta","i_long":106.820901,"i_lat":-6.141205,"station_id":"JAY","distance":1264,"transit":false,"is_transit":false,"line":2},{"i_lat":-6.149769,"line":2,"time":2,"station_id":"MGB","distance":1080,"station_name":"Manggabesar","i_long":106.82482,"is_transit":false,"transit":false},{"i_lat":-6.160725,"distance":906,"i_long":106.827103,"station_name":"Sawah Besar","time":2,"line":2,"transit":false,"station_id":"SW","is_transit":false},{"transit":false,"time":2,"station_name":"Juanda","line":2,"i_lat":-6.166716,"is_transit":false,"distance":1149,"station_id":"JUA","i_long":106.828284},{"station_name":"Gondangdia","station_id":"GDD","transit":false,"i_lat":-6.186295,"time":4,"is_transit":false,"distance":2015,"i_long":106.832183,"line":2},{"transit":false,"distance":1750,"station_name":"Cikini","i_lat":-6.198556,"time":3,"i_long":106.840169,"is_transit":false,"station_id":"CKI","line":2},{"time":4,"i_lat":-6.209883,"line":2,"station_name":"Manggarai","transit":true,"i_long":106.84912,"distance":1590,"is_transit":true,"station_id":"MRI"},{"i_long":106.822649,"is_transit":false,"distance":3186,"i_lat":-6.202263,"transit":false,"line":1,"time":4,"station_id":"SUD","station_name":"Sudirman"},{"time":1,"distance":280,"station_name":"Sudirman Baru","i_long":106.819881,"is_transit":false,"station_id":"SUDB","i_lat":-6.201433,"transit":false,"line":1},{"station_id":"KAT","distance":471,"line":1,"i_long":106.816351,"time":1,"is_transit":false,"station_name":"Karet","i_lat":-6.20132,"transit":false},{"is_transit":true,"station_id":"THB","time":5,"station_name":"Tanah Abang","i_lat":-6.185545,"i_long":106.811091,"line":1,"transit":true,"distance":2029},{"station_name":"Palmerah","time":6,"i_lat":-6.207404,"distance":3191,"is_transit":false,"i_long":106.79689,"line":6,"station_id":"PLM","transit":false},{"time":7,"is_transit":false,"transit":false,"distance":3737,"station_id":"KBY","station_name":"Kebayoran","i_long":106.780334,"line":6,"i_lat":-6.237242},{"station_id":"PDJ","time":8,"station_name":"Pondokranji","is_transit":false,"i_lat":-6.276362,"transit":false,"i_long":106.74273,"distance":6218,"line":6},{"line":6,"station_id":"JMU","transit":false,"time":3,"is_transit":false,"i_lat":-6.288927,"station_name":"Jurangmangu","i_long":106.728916,"distance":2179},{"station_id":"SDM","i_lat":-6.296963,"time":4,"i_long":106.712277,"distance":1994,"line":6,"station_name":"Sudimara","transit":false,"is_transit":false},{"line":6,"is_transit":false,"distance":4566,"i_long":106.675475,"transit":false,"time":6,"station_id":"RU","station_name":"Rawa Buntu","i_lat":-6.314823},{"time":4,"i_lat":-6.319871,"transit":false,"distance":2413,"station_name":"Serpong","is_transit":false,"station_id":"SRP","i_long":106.66566,"line":6},{"i_long":106.640411,"transit":false,"is_transit":false,"distance":1784,"station_id":"CSK","line":3,"station_name":"Cisauk","time":4,"i_lat":-6.32484},{"station_name":"Cicayur","distance":2519,"i_lat":-6.329547,"is_transit":false,"line":3,"station_id":"CC","transit":false,"time":4,"i_long":106.617853},{"distance":5968,"station_id":"PRP","transit":false,"station_name":"Parung Panjang","is_transit":false,"line":6,"time":8,"i_lat":-6.3441410000000005,"i_long":106.568863},{"transit":false,"time":9,"is_transit":false,"distance":7025,"station_id":"CJT","i_lat":-6.354349,"i_long":106.508482,"station_name":"Cilejit","line":3},{"distance":2675,"line":0,"transit":false,"is_transit":false,"i_lat":-6.338021,"time":6,"station_name":"Daru","i_long":106.491338,"station_id":"DAR"},{"transit":false,"i_long":106.460812,"station_name":"Tenjo","line":6,"distance":3902,"is_transit":false,"station_id":"TEJ","time":5,"i_lat":-6.327251},{"station_name":"Tigaraksa","i_long":106.425991,"i_lat":-6.328533,"time":5,"distance":2974,"line":6,"station_id":"TGS","transit":false,"is_transit":false},{"distance":2651,"station_id":"CKY","line":3,"i_lat":-6.33561,"transit":false,"time":3,"is_transit":false,"i_long":106.411216,"station_name":"Cikoya"},{"is_transit":false,"distance":1853,"station_id":"MJ","i_lat":-6.332307,"line":6,"i_long":106.394373,"time":4,"transit":false,"station_name":"Maja"},{"distance":7293,"line":3,"station_name":"Citeras","i_lat":-6.334892,"i_long":106.332092,"is_transit":false,"transit":false,"time":10,"station_id":"CTR"}]]}