{"data":[[{"time":0,"distance":0,"transit":false,"line":1,"i_lat":-6.219053,"is_transit":false,"i_long":106.951283,"station_name":"Cakung","station_id":"CUK"},{"station_name":"Klenderbaru","transit":false,"i_long":106.939679,"distance":1385,"time":8,"is_transit":false,"i_lat":-6.217455,"line":1,"station_id":"KLDB"},{"transit":false,"i_lat":-6.215568,"distance":1305,"i_long":106.922662,"station_name":"Buaran","line":1,"time":1,"is_transit":false,"station_id":"BUA"},{"i_lat":-6.2135,"station_name":"Klender","station_id":"KLD","time":2,"distance":3100,"is_transit":false,"transit":false,"line":1,"i_long":106.899548},{"transit":false,"station_id":"JNG","time":3,"i_lat":-6.215091,"distance":3395,"line":1,"is_transit":false,"station_name":"Jatinegara","i_long":106.86807400000001},{"station_name":"Matraman","i_lat":-6.212485,"time":2,"distance":1377,"transit":false,"i_long":106.858896,"line":1,"station_id":"MTR","is_transit":false},{"station_name":"Manggarai","transit":true,"i_lat":-6.209883,"i_long":106.84912,"station_id":"MRI","is_transit":true,"line":2,"time":2,"distance":1275},{"station_id":"CKI","transit":false,"i_long":106.840169,"is_transit":false,"i_lat":-6.198556,"distance":1590,"station_name":"Cikini","time":4,"line":2},{"distance":1750,"station_name":"Gondangdia","is_transit":false,"station_id":"GDD","transit":false,"time":3,"i_lat":-6.186295,"i_long":106.832183,"line":2},{"transit":false,"time":4,"i_long":106.828284,"is_transit":false,"line":2,"station_id":"JUA","distance":2015,"i_lat":-6.166716,"station_name":"Juanda"},{"time":2,"line":2,"is_transit":false,"i_long":106.827103,"distance":1149,"transit":false,"i_lat":-6.160725,"station_name":"Sawah Besar","station_id":"SW"},{"i_long":106.82482,"distance":906,"line":2,"station_id":"MGB","station_name":"Manggabesar","is_transit":false,"i_lat":-6.149769,"transit":false,"time":2},{"station_name":"Jayakarta","station_id":"JAY","transit":false,"i_long":106.820901,"distance":1080,"time":2,"is_transit":false,"i_lat":-6.141205,"line":2}],[{"station_id":"CUK","transit":false,"station_name":"Cakung","i_long":106.951283,"is_transit":false,"time":0,"distance":0,"i_lat":-6.219053,"line":1},{"is_transit":false,"time":8,"station_id":"KLDB","station_name":"Klenderbaru","line":1,"i_long":106.939679,"transit":false,"i_lat":-6.217455,"distance":1385},{"time":1,"line":1,"distance":1305,"station_id":"BUA","station_name":"Buaran","i_long":106.922662,"is_transit":false,"transit":false,"i_lat":-6.215568},{"distance":3100,"i_lat":-6.2135,"station_id":"KLD","line":1,"time":2,"i_long":106.899548,"is_transit":false,"station_name":"Klender","transit":false},{"station_id":"JNG","i_lat":-6.215091,"line":1,"distance":3395,"is_transit":true,"time":3,"transit":true,"i_long":106.86807400000001,"station_name":"Jatinegara"},{"is_transit":false,"time":2,"station_id":"POK","i_long":106.861737,"distance":1236,"i_lat":-6.209188,"line":11,"transit":false,"station_name":"Pondok Jati"},{"station_id":"KMT","line":11,"distance":1829,"transit":false,"station_name":"Kramat","i_lat":-6.193792,"i_long":106.855437,"time":2,"is_transit":false},{"station_id":"GST","i_long":106.850107,"distance":973,"station_name":"Gang Sentiong","is_transit":false,"i_lat":-6.185975,"line":11,"transit":false,"time":1},{"transit":false,"station_name":"Pasar Senen","is_transit":false,"i_long":106.84368,"time":8,"i_lat":-6.174784,"line":11,"station_id":"PSE","distance":1567},{"station_id":"KMO","time":4,"is_transit":false,"i_long":106.839204,"transit":false,"distance":1436,"station_name":"Kemayoran","line":11,"i_lat":-6.161728},{"line":11,"i_long":106.836569,"time":5,"station_id":"RJW","is_transit":false,"distance":1901,"transit":false,"station_name":"Rajawali","i_lat":-6.14505},{"time":3,"line":4,"i_lat":-6.132549,"station_name":"Kampung Bandan","distance":1444,"station_id":"KPB","transit":true,"i_long":106.826365,"is_transit":true},{"is_transit":true,"station_name":"Jakarta Kota","transit":true,"i_long":106.812439,"i_lat":-6.137569,"line":2,"distance":1364,"time":3,"station_id":"JAKK"},{"station_name":"Jayakarta","i_lat":-6.141205,"is_transit":false,"time":4,"i_long":106.820901,"transit":false,"line":2,"distance":1264,"station_id":"JAY"}],[{"i_long":106.951283,"transit":false,"station_id":"CUK","i_lat":-6.219053,"time":0,"line":1,"distance":0,"is_transit":false,"station_name":"Cakung"},{"transit":false,"i_long":106.939679,"distance":1385,"time":8,"is_transit":false,"i_lat":-6.217455,"station_name":"Klenderbaru","line":1,"station_id":"KLDB"},{"i_long":106.922662,"transit":false,"distance":1305,"station_name":"Buaran","is_transit":false,"i_lat":-6.215568,"time":1,"station_id":"BUA","line":1},{"line":1,"time":2,"station_id":"KLD","transit":false,"is_transit":false,"i_lat":-6.2135,"station_name":"Klender","i_long":106.899548,"distance":3100},{"station_name":"Jatinegara","station_id":"JNG","is_transit":false,"time":3,"distance":3395,"i_lat":-6.215091,"i_long":106.86807400000001,"transit":false,"line":1},{"station_name":"Matraman","is_transit":false,"i_long":106.858896,"i_lat":-6.212485,"distance":1377,"line":1,"station_id":"MTR","transit":false,"time":2},{"time":2,"station_name":"Manggarai","line":2,"is_transit":false,"distance":1275,"transit":false,"i_long":106.84912,"i_lat":-6.209883,"station_id":"MRI"},{"is_transit":false,"station_id":"SUD","time":4,"distance":3186,"i_long":106.822649,"line":1,"station_name":"Sudirman","i_lat":-6.202263,"transit":false},{"time":1,"transit":false,"distance":280,"i_long":106.819881,"station_name":"Sudirman Baru","line":1,"station_id":"SUDB","is_transit":false,"i_lat":-6.201433},{"distance":471,"station_name":"Karet","transit":false,"i_lat":-6.20132,"station_id":"KAT","is_transit":false,"i_long":106.816351,"line":1,"time":1},{"line":1,"distance":2029,"time":5,"station_id":"THB","is_transit":false,"i_lat":-6.185545,"station_name":"Tanah Abang","transit":false,"i_long":106.811091},{"line":1,"i_lat":-6.155215,"station_id":"DU","is_transit":false,"time":8,"distance":3632,"station_name":"Duri","i_long":106.800832,"transit":false},{"line":1,"station_id":"AK","is_transit":false,"time":4,"i_lat":-6.144674,"distance":1230,"station_name":"Angke","transit":false,"i_long":106.79867},{"is_transit":true,"line":4,"transit":true,"time":9,"distance":4102,"i_lat":-6.132549,"station_name":"Kampung Bandan","i_long":106.826365,"station_id":"KPB"},{"station_name":"Jakarta Kota","time":3,"distance":1364,"i_long":106.812439,"transit":true,"line":2,"i_lat":-6.137569,"station_id":"JAKK","is_transit":true},{"station_id":"JAY","station_name":"Jayakarta","time":4,"transit":false,"is_transit":false,"i_long":106.820901,"line":2,"i_lat":-6.141205,"distance":1264}],[{"time":0,"transit":false,"i_long":106.951283,"line":1,"station_name":"Cakung","is_transit":false,"i_lat":-6.219053,"distance":0,"station_id":"CUK"},{"station_id":"KLDB","station_name":"Klenderbaru","line":1,"transit":false,"distance":1385,"is_transit":false,"i_lat":-6.217455,"time":8,"i_long":106.939679},{"line":1,"distance":1305,"i_long":106.922662,"is_transit":false,"i_lat":-6.215568,"time":1,"station_id":"BUA","station_name":"Buaran","transit":false},{"i_lat":-6.2135,"is_transit":false,"transit":false,"i_long":106.899548,"time":2,"distance":3100,"line":1,"station_id":"KLD","station_name":"Klender"},{"distance":3395,"station_name":"Jatinegara","transit":true,"i_long":106.86807400000001,"i_lat":-6.215091,"station_id":"JNG","line":1,"time":3,"is_transit":true},{"time":2,"station_id":"POK","is_transit":false,"transit":false,"line":11,"distance":1236,"station_name":"Pondok Jati","i_lat":-6.209188,"i_long":106.861737},{"is_transit":false,"transit":false,"i_lat":-6.193792,"station_id":"KMT","i_long":106.855437,"line":11,"time":2,"distance":1829,"station_name":"Kramat"},{"i_long":106.850107,"station_id":"GST","transit":false,"time":1,"distance":973,"is_transit":false,"i_lat":-6.185975,"station_name":"Gang Sentiong","line":11},{"time":8,"i_lat":-6.174784,"line":11,"distance":1567,"station_name":"Pasar Senen","is_transit":false,"station_id":"PSE","i_long":106.84368,"transit":false},{"i_long":106.839204,"distance":1436,"transit":false,"i_lat":-6.161728,"time":4,"station_id":"KMO","station_name":"Kemayoran","line":11,"is_transit":false},{"station_name":"Rajawali","distance":1901,"time":5,"transit":false,"i_long":106.836569,"line":11,"station_id":"RJW","is_transit":false,"i_lat":-6.14505},{"i_long":106.826365,"distance":1444,"line":4,"transit":true,"time":3,"is_transit":true,"station_id":"KPB","i_lat":-6.132549,"station_name":"Kampung Bandan"},{"station_id":"AK","distance":4102,"time":9,"transit":false,"i_long":106.79867,"line":1,"station_name":"Angke","i_lat":-6.144674,"is_transit":false},{"distance":1230,"station_id":"DU","station_name":"Duri","i_long":106.800832,"is_transit":false,"i_lat":-6.155215,"transit":false,"time":4,"line":1},{"distance":3632,"i_lat":-6.185545,"time":8,"station_name":"Tanah Abang","is_transit":false,"transit":false,"station_id":"THB","i_long":106.811091,"line":1},{"line":1,"station_name":"Karet","i_long":106.816351,"distance":2029,"i_lat":-6.20132,"station_id":"KAT","is_transit":false,"time":5,"transit":false},{"i_lat":-6.201433,"time":1,"station_id":"SUDB","transit":false,"station_name":"Sudirman Baru","i_long":106.819881,"distance":471,"line":1,"is_transit":false},{"i_lat":-6.202263,"is_transit":false,"transit":false,"station_id":"SUD","station_name":"Sudirman","i_long":106.822649,"time":1,"line":1,"distance":280},{"station_name":"Manggarai","line":2,"time":4,"is_transit":true,"distance":3186,"transit":true,"i_lat":-6.209883,"station_id":"MRI","i_long":106.84912},{"time":4,"i_long":106.840169,"i_lat":-6.198556,"line":2,"station_id":"CKI","station_name":"Cikini","distance":1590,"transit":false,"is_transit":false},{"is_transit":false,"station_name":"Gondangdia","transit":false,"i_long":106.832183,"i_lat":-6.186295,"line":2,"station_id":"GDD","distance":1750,"time":3},{"station_name":"Juanda","i_long":106.828284,"distance":2015,"i_lat":-6.166716,"line":2,"time":4,"transit":false,"station_id":"JUA","is_transit":false},{"station_id":"SW","is_transit":false,"time":2,"station_name":"Sawah Besar","transit":false,"i_lat":-6.160725,"distance":1149,"i_long":106.827103,"line":2},{"transit":false,"is_transit":false,"station_name":"Manggabesar","time":2,"i_lat":-6.149769,"line":2,"i_long":106.82482,"distance":906,"station_id":"MGB"},{"station_id":"JAY","transit":false,"distance":1080,"time":2,"i_lat":-6.141205,"i_long":106.820901,"is_transit":false,"station_name":"Jayakarta","line":2}]]}