{"data":[[{"station_name":"Cawang","i_lat":-6.242512,"is_transit":false,"line":2,"distance":0,"station_id":"CW","i_long":106.856607,"transit":false,"time":0},{"line":2,"i_lat":-6.226659,"transit":false,"time":2,"i_long":106.857948,"distance":1230,"is_transit":false,"station_id":"TEB","station_name":"Tebet"},{"time":4,"line":2,"station_id":"MRI","station_name":"Manggarai","transit":true,"distance":2610,"i_lat":-6.209883,"is_transit":true,"i_long":106.84912},{"transit":false,"i_lat":-6.202263,"i_long":106.822649,"station_id":"SUD","time":4,"station_name":"Sudirman","line":1,"is_transit":false,"distance":3186},{"line":1,"distance":280,"is_transit":false,"i_long":106.819881,"station_name":"Sudirman Baru","i_lat":-6.201433,"transit":false,"time":1,"station_id":"SUDB"},{"i_lat":-6.20132,"time":1,"is_transit":false,"station_id":"KAT","transit":false,"line":1,"i_long":106.816351,"station_name":"Karet","distance":471},{"station_name":"Tanah Abang","i_lat":-6.185545,"time":5,"is_transit":false,"transit":false,"i_long":106.811091,"station_id":"THB","distance":2029,"line":1},{"station_name":"Duri","station_id":"DU","i_long":106.800832,"time":8,"is_transit":false,"transit":false,"i_lat":-6.155215,"line":1,"distance":3632},{"distance":1230,"transit":false,"station_id":"AK","station_name":"Angke","time":4,"i_lat":-6.144674,"line":1,"is_transit":false,"i_long":106.79867}],[{"station_name":"Cawang","time":0,"i_long":106.856607,"station_id":"CW","distance":0,"is_transit":false,"transit":false,"i_lat":-6.242512,"line":2},{"distance":1230,"is_transit":false,"time":2,"line":2,"station_id":"TEB","i_lat":-6.226659,"i_long":106.857948,"station_name":"Tebet","transit":false},{"time":4,"transit":false,"i_lat":-6.209883,"station_name":"Manggarai","station_id":"MRI","distance":2610,"line":2,"is_transit":false,"i_long":106.84912},{"station_name":"Cikini","is_transit":false,"station_id":"CKI","i_lat":-6.198556,"line":2,"time":4,"distance":1590,"i_long":106.840169,"transit":false},{"transit":false,"i_long":106.832183,"station_name":"Gondangdia","i_lat":-6.186295,"station_id":"GDD","distance":1750,"is_transit":false,"line":2,"time":3},{"station_id":"JUA","i_lat":-6.166716,"station_name":"Juanda","i_long":106.828284,"is_transit":false,"transit":false,"time":4,"distance":2015,"line":2},{"i_lat":-6.160725,"transit":false,"time":2,"station_name":"Sawah Besar","line":2,"i_long":106.827103,"is_transit":false,"distance":1149,"station_id":"SW"},{"line":2,"time":2,"i_long":106.82482,"i_lat":-6.149769,"transit":false,"is_transit":false,"station_id":"MGB","station_name":"Manggabesar","distance":906},{"is_transit":false,"station_name":"Jayakarta","time":2,"distance":1080,"transit":false,"i_long":106.820901,"station_id":"JAY","i_lat":-6.141205,"line":2},{"transit":true,"station_id":"JAKK","is_transit":true,"distance":1264,"time":4,"i_lat":-6.137569,"line":2,"station_name":"Jakarta Kota","i_long":106.812439},{"i_lat":-6.132549,"distance":1364,"station_id":"KPB","is_transit":true,"transit":true,"line":4,"time":3,"station_name":"Kampung Bandan","i_long":106.826365},{"distance":4102,"line":1,"station_id":"AK","i_long":106.79867,"time":9,"i_lat":-6.144674,"is_transit":false,"station_name":"Angke","transit":false}],[{"i_lat":-6.242512,"station_id":"CW","i_long":106.856607,"station_name":"Cawang","line":2,"is_transit":false,"distance":0,"time":0,"transit":false},{"station_name":"Tebet","is_transit":false,"time":2,"transit":false,"station_id":"TEB","i_lat":-6.226659,"i_long":106.857948,"distance":1230,"line":2},{"station_id":"MRI","i_long":106.84912,"distance":2610,"station_name":"Manggarai","is_transit":true,"i_lat":-6.209883,"line":2,"time":4,"transit":true},{"time":2,"transit":false,"i_long":106.858896,"line":1,"distance":1275,"station_name":"Matraman","is_transit":false,"i_lat":-6.212485,"station_id":"MTR"},{"station_name":"Jatinegara","is_transit":true,"transit":true,"distance":1377,"station_id":"JNG","line":1,"i_long":106.86807400000001,"i_lat":-6.215091,"time":8},{"i_long":106.861737,"distance":1236,"transit":false,"time":2,"station_name":"Pondok Jati","station_id":"POK","line":11,"i_lat":-6.209188,"is_transit":false},{"transit":false,"line":11,"station_name":"Kramat","station_id":"KMT","time":2,"distance":1829,"i_lat":-6.193792,"is_transit":false,"i_long":106.855437},{"i_long":106.850107,"transit":false,"line":11,"distance":973,"time":1,"station_id":"GST","station_name":"Gang Sentiong","is_transit":false,"i_lat":-6.185975},{"time":8,"i_lat":-6.174784,"distance":1567,"i_long":106.84368,"is_transit":false,"transit":false,"station_id":"PSE","station_name":"Pasar Senen","line":11},{"station_name":"Kemayoran","i_lat":-6.161728,"transit":false,"is_transit":false,"i_long":106.839204,"line":11,"time":4,"distance":1436,"station_id":"KMO"},{"station_name":"Rajawali","is_transit":false,"i_long":106.836569,"line":11,"transit":false,"station_id":"RJW","i_lat":-6.14505,"time":5,"distance":1901},{"i_long":106.826365,"station_id":"KPB","time":3,"i_lat":-6.132549,"line":4,"distance":1444,"transit":true,"is_transit":true,"station_name":"Kampung Bandan"},{"time":9,"station_id":"AK","i_lat":-6.144674,"station_name":"Angke","i_long":106.79867,"is_transit":false,"line":1,"transit":false,"distance":4102}]]}