{"data":[[{"transit":false,"station_id":"CW","distance":0,"is_transit":false,"i_long":106.856607,"line":2,"station_name":"Cawang","i_lat":-6.242512,"time":0},{"station_id":"TEB","i_long":106.857948,"line":2,"i_lat":-6.226659,"station_name":"Tebet","is_transit":false,"transit":false,"time":2,"distance":1230},{"is_transit":true,"station_name":"Manggarai","transit":true,"time":4,"i_lat":-6.209883,"i_long":106.84912,"line":2,"distance":2610,"station_id":"MRI"},{"distance":3186,"station_id":"SUD","transit":false,"station_name":"Sudirman","i_lat":-6.202263,"i_long":106.822649,"line":1,"time":4,"is_transit":false},{"i_long":106.819881,"time":1,"distance":280,"station_id":"SUDB","station_name":"Sudirman Baru","is_transit":false,"i_lat":-6.201433,"line":1,"transit":false},{"transit":false,"station_name":"Karet","time":1,"distance":471,"line":1,"station_id":"KAT","i_long":106.816351,"i_lat":-6.20132,"is_transit":false},{"station_id":"THB","line":1,"i_long":106.811091,"is_transit":false,"transit":false,"distance":2029,"time":5,"station_name":"Tanah Abang","i_lat":-6.185545},{"station_name":"Duri","transit":false,"station_id":"DU","distance":3632,"time":8,"i_long":106.800832,"i_lat":-6.155215,"is_transit":false,"line":1},{"transit":false,"time":4,"is_transit":false,"i_long":106.79867,"distance":1230,"line":1,"station_id":"AK","station_name":"Angke","i_lat":-6.144674}],[{"station_name":"Cawang","i_lat":-6.242512,"i_long":106.856607,"is_transit":false,"transit":false,"time":0,"distance":0,"station_id":"CW","line":2},{"station_name":"Tebet","i_lat":-6.226659,"time":2,"distance":1230,"is_transit":false,"i_long":106.857948,"transit":false,"station_id":"TEB","line":2},{"i_lat":-6.209883,"station_name":"Manggarai","station_id":"MRI","i_long":106.84912,"line":2,"transit":false,"distance":2610,"time":4,"is_transit":false},{"is_transit":false,"i_lat":-6.198556,"time":4,"station_id":"CKI","distance":1590,"transit":false,"i_long":106.840169,"line":2,"station_name":"Cikini"},{"transit":false,"station_name":"Gondangdia","is_transit":false,"time":3,"distance":1750,"station_id":"GDD","i_lat":-6.186295,"line":2,"i_long":106.832183},{"is_transit":false,"i_long":106.828284,"time":4,"transit":false,"i_lat":-6.166716,"station_name":"Juanda","line":2,"station_id":"JUA","distance":2015},{"distance":1149,"station_name":"Sawah Besar","station_id":"SW","i_lat":-6.160725,"line":2,"i_long":106.827103,"time":2,"is_transit":false,"transit":false},{"station_id":"MGB","transit":false,"line":2,"distance":906,"station_name":"Manggabesar","i_long":106.82482,"is_transit":false,"time":2,"i_lat":-6.149769},{"distance":1080,"line":2,"i_long":106.820901,"station_id":"JAY","transit":false,"is_transit":false,"station_name":"Jayakarta","time":2,"i_lat":-6.141205},{"station_name":"Jakarta Kota","time":4,"distance":1264,"i_long":106.812439,"station_id":"JAKK","is_transit":true,"i_lat":-6.137569,"line":2,"transit":true},{"i_long":106.826365,"time":3,"distance":1364,"line":4,"transit":true,"station_name":"Kampung Bandan","station_id":"KPB","is_transit":true,"i_lat":-6.132549},{"station_id":"AK","line":1,"i_long":106.79867,"is_transit":false,"transit":false,"time":9,"station_name":"Angke","i_lat":-6.144674,"distance":4102}],[{"station_id":"CW","i_lat":-6.242512,"time":0,"line":2,"distance":0,"transit":false,"station_name":"Cawang","i_long":106.856607,"is_transit":false},{"transit":false,"i_lat":-6.226659,"station_id":"TEB","time":2,"line":2,"i_long":106.857948,"station_name":"Tebet","distance":1230,"is_transit":false},{"time":4,"distance":2610,"line":2,"transit":true,"station_name":"Manggarai","i_lat":-6.209883,"station_id":"MRI","is_transit":true,"i_long":106.84912},{"station_id":"MTR","time":2,"i_lat":-6.212485,"transit":false,"station_name":"Matraman","line":1,"distance":1275,"i_long":106.858896,"is_transit":false},{"station_id":"JNG","time":8,"station_name":"Jatinegara","distance":1377,"i_long":106.86807400000001,"line":1,"i_lat":-6.215091,"transit":true,"is_transit":true},{"is_transit":false,"line":11,"station_name":"Pondok Jati","transit":false,"time":2,"station_id":"POK","i_lat":-6.209188,"distance":1236,"i_long":106.861737},{"i_long":106.855437,"line":11,"station_name":"Kramat","transit":false,"i_lat":-6.193792,"is_transit":false,"station_id":"KMT","time":2,"distance":1829},{"distance":973,"line":11,"is_transit":false,"station_name":"Gang Sentiong","i_long":106.850107,"transit":false,"station_id":"GST","time":1,"i_lat":-6.185975},{"distance":1567,"i_long":106.84368,"station_id":"PSE","line":11,"transit":false,"is_transit":false,"time":8,"i_lat":-6.174784,"station_name":"Pasar Senen"},{"time":4,"transit":false,"distance":1436,"i_lat":-6.161728,"line":11,"station_name":"Kemayoran","i_long":106.839204,"is_transit":false,"station_id":"KMO"},{"i_lat":-6.14505,"is_transit":false,"transit":false,"time":5,"line":11,"station_id":"RJW","distance":1901,"i_long":106.836569,"station_name":"Rajawali"},{"station_name":"Kampung Bandan","i_long":106.826365,"is_transit":true,"time":3,"transit":true,"i_lat":-6.132549,"distance":1444,"line":4,"station_id":"KPB"},{"i_lat":-6.144674,"i_long":106.79867,"distance":4102,"line":1,"is_transit":false,"station_id":"AK","transit":false,"station_name":"Angke","time":9}]]}