{"data":[[{"time":0,"line":2,"transit":false,"i_lat":-6.242512,"station_name":"Cawang","station_id":"CW","is_transit":false,"i_long":106.856607,"distance":0},{"i_lat":-6.226659,"station_name":"Tebet","transit":false,"i_long":106.857948,"is_transit":false,"line":2,"distance":1230,"station_id":"TEB","time":2},{"transit":true,"station_name":"Manggarai","is_transit":true,"i_long":106.84912,"time":4,"line":2,"station_id":"MRI","distance":2610,"i_lat":-6.209883},{"i_lat":-6.202263,"distance":3186,"i_long":106.822649,"line":1,"transit":false,"time":4,"station_name":"Sudirman","station_id":"SUD","is_transit":false},{"station_id":"SUDB","i_lat":-6.201433,"i_long":106.819881,"line":1,"distance":280,"time":1,"transit":false,"station_name":"Sudirman Baru","is_transit":false},{"distance":471,"i_lat":-6.20132,"i_long":106.816351,"station_name":"Karet","time":1,"is_transit":false,"line":1,"transit":false,"station_id":"KAT"},{"i_lat":-6.185545,"i_long":106.811091,"transit":false,"time":5,"distance":2029,"line":1,"is_transit":false,"station_name":"Tanah Abang","station_id":"THB"},{"time":8,"distance":3632,"station_id":"DU","i_lat":-6.155215,"line":1,"transit":false,"station_name":"Duri","i_long":106.800832,"is_transit":false},{"station_name":"Angke","station_id":"AK","time":4,"distance":1230,"i_lat":-6.144674,"i_long":106.79867,"transit":false,"line":1,"is_transit":false}],[{"station_id":"CW","time":0,"distance":0,"i_long":106.856607,"line":2,"station_name":"Cawang","i_lat":-6.242512,"is_transit":false,"transit":false},{"i_lat":-6.226659,"distance":1230,"time":2,"line":2,"station_name":"Tebet","is_transit":false,"transit":false,"i_long":106.857948,"station_id":"TEB"},{"is_transit":false,"station_name":"Manggarai","i_long":106.84912,"transit":false,"distance":2610,"station_id":"MRI","time":4,"i_lat":-6.209883,"line":2},{"time":4,"station_id":"CKI","station_name":"Cikini","i_long":106.840169,"transit":false,"line":2,"i_lat":-6.198556,"is_transit":false,"distance":1590},{"station_name":"Gondangdia","i_long":106.832183,"line":2,"station_id":"GDD","i_lat":-6.186295,"is_transit":false,"distance":1750,"transit":false,"time":3},{"distance":2015,"station_name":"Juanda","time":4,"station_id":"JUA","transit":false,"i_lat":-6.166716,"line":2,"is_transit":false,"i_long":106.828284},{"distance":1149,"i_lat":-6.160725,"i_long":106.827103,"station_id":"SW","station_name":"Sawah Besar","transit":false,"line":2,"is_transit":false,"time":2},{"distance":906,"transit":false,"station_id":"MGB","time":2,"i_lat":-6.149769,"station_name":"Manggabesar","line":2,"is_transit":false,"i_long":106.82482},{"i_lat":-6.141205,"i_long":106.820901,"is_transit":false,"station_name":"Jayakarta","station_id":"JAY","line":2,"time":2,"transit":false,"distance":1080},{"station_name":"Jakarta Kota","distance":1264,"transit":true,"i_long":106.812439,"is_transit":true,"time":4,"i_lat":-6.137569,"line":2,"station_id":"JAKK"},{"station_id":"KPB","i_lat":-6.132549,"i_long":106.826365,"line":4,"time":3,"is_transit":true,"distance":1364,"station_name":"Kampung Bandan","transit":true},{"station_name":"Angke","is_transit":false,"i_long":106.79867,"time":9,"i_lat":-6.144674,"transit":false,"station_id":"AK","distance":4102,"line":1}],[{"is_transit":false,"station_name":"Cawang","i_lat":-6.242512,"station_id":"CW","time":0,"line":2,"transit":false,"distance":0,"i_long":106.856607},{"station_id":"TEB","i_long":106.857948,"transit":false,"distance":1230,"is_transit":false,"i_lat":-6.226659,"station_name":"Tebet","time":2,"line":2},{"is_transit":true,"station_id":"MRI","distance":2610,"i_long":106.84912,"time":4,"transit":true,"station_name":"Manggarai","i_lat":-6.209883,"line":2},{"station_id":"MTR","time":2,"station_name":"Matraman","distance":1275,"i_long":106.858896,"is_transit":false,"line":1,"i_lat":-6.212485,"transit":false},{"transit":true,"time":8,"distance":1377,"line":1,"is_transit":true,"i_long":106.86807400000001,"station_name":"Jatinegara","station_id":"JNG","i_lat":-6.215091},{"i_long":106.861737,"station_id":"POK","transit":false,"distance":1236,"line":11,"i_lat":-6.209188,"is_transit":false,"time":2,"station_name":"Pondok Jati"},{"station_name":"Kramat","station_id":"KMT","i_lat":-6.193792,"transit":false,"i_long":106.855437,"line":11,"is_transit":false,"distance":1829,"time":2},{"time":1,"i_long":106.850107,"station_id":"GST","line":11,"distance":973,"transit":false,"is_transit":false,"i_lat":-6.185975,"station_name":"Gang Sentiong"},{"station_id":"PSE","distance":1567,"i_long":106.84368,"is_transit":false,"line":11,"i_lat":-6.174784,"time":8,"station_name":"Pasar Senen","transit":false},{"line":11,"transit":false,"station_id":"KMO","distance":1436,"is_transit":false,"i_lat":-6.161728,"time":4,"i_long":106.839204,"station_name":"Kemayoran"},{"station_id":"RJW","transit":false,"station_name":"Rajawali","distance":1901,"i_long":106.836569,"line":11,"i_lat":-6.14505,"is_transit":false,"time":5},{"line":4,"distance":1444,"i_long":106.826365,"station_name":"Kampung Bandan","transit":true,"station_id":"KPB","is_transit":true,"time":3,"i_lat":-6.132549},{"time":9,"station_id":"AK","line":1,"transit":false,"is_transit":false,"station_name":"Angke","i_long":106.79867,"distance":4102,"i_lat":-6.144674}]]}