{"data":[[{"is_transit":false,"line":0,"i_lat":-6.242512,"distance":0,"time":0,"station_id":"CW","station_name":"Cawang","transit":false,"i_long":106.856607},{"station_id":"TEB","distance":1230,"station_name":"Tebet","i_lat":-6.226659,"transit":false,"time":2,"is_transit":false,"i_long":106.857948,"line":2},{"i_lat":-6.209883,"station_name":"Manggarai","station_id":"MRI","i_long":106.84912,"distance":2610,"time":4,"transit":true,"line":0,"is_transit":true},{"station_id":"SUD","station_name":"Sudirman","time":4,"i_lat":-6.202263,"line":1,"distance":3186,"is_transit":false,"transit":false,"i_long":106.822649},{"i_long":106.819881,"station_name":"Sudirman Baru","transit":false,"i_lat":-6.201433,"station_id":"SUDB","distance":280,"line":1,"time":1,"is_transit":false},{"transit":false,"station_id":"KAT","distance":471,"station_name":"Karet","i_long":106.816351,"time":1,"is_transit":false,"i_lat":-6.20132,"line":1},{"station_name":"Tanah Abang","station_id":"THB","time":5,"is_transit":true,"i_lat":-6.185545,"transit":false,"line":1,"distance":2029,"i_long":106.811091},{"i_lat":-6.155215,"station_id":"DU","line":1,"time":8,"transit":true,"is_transit":true,"distance":3632,"i_long":106.800832,"station_name":"Duri"},{"distance":1230,"i_lat":-6.144674,"i_long":106.79867,"transit":false,"line":0,"station_id":"AK","station_name":"Angke","time":4,"is_transit":false}],[{"station_id":"CW","line":0,"is_transit":false,"i_lat":-6.242512,"distance":0,"time":0,"station_name":"Cawang","i_long":106.856607,"transit":false},{"station_id":"TEB","line":2,"i_lat":-6.226659,"is_transit":false,"i_long":106.857948,"distance":1230,"time":2,"station_name":"Tebet","transit":false},{"distance":2610,"i_lat":-6.209883,"time":4,"station_name":"Manggarai","transit":true,"line":0,"station_id":"MRI","i_long":106.84912,"is_transit":true},{"transit":false,"i_long":106.840169,"is_transit":false,"time":4,"station_id":"CKI","distance":1590,"i_lat":-6.198556,"station_name":"Cikini","line":0},{"time":3,"transit":false,"i_lat":-6.186295,"distance":1750,"i_long":106.832183,"line":2,"station_name":"Gondangdia","station_id":"GDD","is_transit":false},{"i_lat":-6.166716,"i_long":106.828284,"distance":2015,"station_id":"JUA","station_name":"Juanda","is_transit":false,"time":4,"line":2,"transit":false},{"distance":1149,"station_name":"Sawah Besar","transit":false,"i_long":106.827103,"station_id":"SW","time":2,"line":2,"i_lat":-6.160725,"is_transit":false},{"i_long":106.82482,"line":2,"transit":false,"i_lat":-6.149769,"is_transit":false,"station_name":"Manggabesar","distance":906,"station_id":"MGB","time":2},{"is_transit":false,"time":2,"station_name":"Jayakarta","i_lat":-6.141205,"transit":false,"distance":1080,"i_long":106.820901,"station_id":"JAY","line":7},{"i_lat":-6.137569,"station_id":"JAKK","line":0,"station_name":"Jakarta Kota","time":4,"i_long":106.812439,"transit":true,"is_transit":true,"distance":1264},{"is_transit":true,"i_long":106.826365,"station_id":"KPB","i_lat":-6.132549,"transit":false,"distance":1364,"station_name":"Kampung Bandan","line":0,"time":3},{"i_long":106.79867,"transit":false,"station_id":"AK","distance":4102,"station_name":"Angke","i_lat":-6.144674,"line":0,"time":9,"is_transit":false}],[{"distance":0,"time":0,"station_name":"Cawang","i_lat":-6.242512,"line":0,"station_id":"CW","is_transit":false,"transit":false,"i_long":106.856607},{"line":2,"transit":false,"station_name":"Tebet","station_id":"TEB","i_lat":-6.226659,"i_long":106.857948,"distance":1230,"time":2,"is_transit":false},{"station_name":"Manggarai","is_transit":true,"distance":2610,"i_long":106.84912,"station_id":"MRI","time":4,"transit":true,"line":0,"i_lat":-6.209883},{"transit":false,"distance":1275,"i_long":106.858896,"i_lat":-6.212485,"time":2,"is_transit":false,"line":1,"station_id":"MTR","station_name":"Matraman"},{"station_name":"Jatinegara","distance":1377,"station_id":"JNG","transit":true,"is_transit":true,"time":8,"i_long":106.86807400000001,"i_lat":-6.215091,"line":0},{"i_lat":-6.209188,"station_name":"Pondok Jati","transit":false,"station_id":"POK","is_transit":false,"time":2,"distance":1236,"i_long":106.861737,"line":11},{"transit":false,"distance":1829,"line":11,"is_transit":false,"station_id":"KMT","station_name":"Kramat","i_long":106.855437,"time":2,"i_lat":-6.193792},{"transit":false,"distance":973,"time":1,"station_id":"GST","station_name":"Gang Sentiong","i_long":106.850107,"is_transit":false,"line":11,"i_lat":-6.185975},{"station_id":"PSE","transit":false,"i_lat":-6.174784,"is_transit":false,"distance":1567,"line":11,"station_name":"Pasar Senen","i_long":106.84368,"time":8},{"station_name":"Kemayoran","i_long":106.839204,"distance":1436,"line":11,"transit":false,"time":4,"is_transit":false,"i_lat":-6.161728,"station_id":"KMO"},{"i_lat":-6.14505,"i_long":106.836569,"distance":1901,"station_name":"Rajawali","line":11,"transit":false,"station_id":"RJW","time":5,"is_transit":false},{"i_lat":-6.132549,"i_long":106.826365,"time":3,"station_name":"Kampung Bandan","distance":1444,"line":0,"is_transit":true,"station_id":"KPB","transit":true},{"i_long":106.79867,"transit":false,"distance":4102,"is_transit":false,"i_lat":-6.144674,"time":9,"line":0,"station_id":"AK","station_name":"Angke"}]]}