{"data":[[{"is_transit":false,"line":2,"station_id":"CW","station_name":"Cawang","time":0,"distance":0,"i_lat":-6.242512,"i_long":106.856607,"transit":false},{"distance":1546,"is_transit":false,"transit":false,"i_lat":-6.255332,"i_long":106.85449,"line":2,"time":3,"station_id":"DRN","station_name":"Duren Kalibata"},{"line":2,"transit":false,"distance":824,"station_id":"PSMB","time":2,"station_name":"Pasar Minggu Baru","i_long":106.851577,"is_transit":false,"i_lat":-6.263214},{"is_transit":false,"station_name":"Pasar Minggu","i_lat":-6.2842400000000005,"transit":false,"station_id":"PSM","i_long":106.843999,"line":2,"time":2,"distance":2380},{"i_lat":-6.3080680000000005,"station_id":"TNT","station_name":"Tanjung Barat","distance":2820,"is_transit":false,"i_long":106.838896,"line":2,"transit":false,"time":4},{"distance":2671,"time":3,"i_lat":-6.330363,"transit":false,"i_long":106.832616,"station_name":"Lenteng Agung","station_id":"LNA","is_transit":false,"line":2},{"station_id":"UP","is_transit":false,"station_name":"Univ. Pancasila","i_lat":-6.339291,"i_long":106.834175,"time":2,"distance":1029,"transit":false,"line":2},{"time":3,"i_lat":-6.360749,"distance":2264,"station_id":"UI","is_transit":false,"i_long":106.831474,"line":2,"station_name":"Univ. Indonesia","transit":false},{"line":2,"i_long":106.831114,"is_transit":false,"time":2,"transit":false,"distance":1109,"station_id":"POC","station_name":"Pondok Cina","i_lat":-6.369073},{"time":4,"distance":2727,"station_id":"DPB","station_name":"Depokbaru","is_transit":false,"transit":false,"i_lat":-6.391065,"line":2,"i_long":106.819451},{"station_id":"DP","distance":1584,"is_transit":false,"time":3,"i_long":106.816926,"transit":false,"i_lat":-6.405256,"line":2,"station_name":"Depok"},{"time":6,"station_name":"Citayam","i_long":106.800298,"is_transit":false,"station_id":"CTA","i_lat":-6.448811,"line":2,"distance":5084,"transit":false},{"station_name":"Bojonggede","transit":false,"i_lat":-6.493243,"distance":5197,"line":2,"i_long":106.792719,"is_transit":false,"time":5,"station_id":"BJD"},{"i_long":106.800016,"i_lat":-6.530544,"transit":false,"distance":4331,"station_name":"Cilebut","is_transit":false,"time":5,"station_id":"CLT","line":2},{"is_transit":false,"distance":7514,"station_name":"Bogor","i_lat":-6.594596,"time":9,"station_id":"BOO","i_long":106.790574,"transit":false,"line":2}]]}