{"data":[[{"line":0,"station_id":"CW","transit":false,"i_long":106.856607,"station_name":"Cawang","distance":0,"i_lat":-6.242512,"time":0,"is_transit":false},{"station_id":"DRN","distance":1546,"time":3,"station_name":"Duren Kalibata","i_lat":-6.255332,"i_long":106.85449,"transit":false,"is_transit":false,"line":0},{"station_id":"PSMB","i_lat":-6.263214,"time":2,"transit":false,"station_name":"Pasar Minggu Baru","is_transit":false,"i_long":106.851577,"line":2,"distance":824},{"line":2,"i_long":106.843999,"time":2,"station_id":"PSM","transit":false,"distance":2380,"station_name":"Pasar Minggu","is_transit":false,"i_lat":-6.2842400000000005},{"time":4,"station_name":"Tanjung Barat","is_transit":false,"transit":false,"line":2,"i_long":106.838896,"i_lat":-6.3080680000000005,"distance":2820,"station_id":"TNT"},{"distance":2671,"transit":false,"is_transit":false,"i_lat":-6.330363,"station_name":"Lenteng Agung","i_long":106.832616,"station_id":"LNA","time":3,"line":2},{"i_long":106.834175,"station_id":"UP","line":2,"time":2,"is_transit":false,"station_name":"Univ. Pancasila","distance":1029,"transit":false,"i_lat":-6.339291},{"station_name":"Univ. Indonesia","transit":false,"distance":2264,"is_transit":false,"i_lat":-6.360749,"i_long":106.831474,"time":3,"station_id":"UI","line":2},{"station_id":"POC","distance":1109,"transit":false,"i_lat":-6.369073,"i_long":106.831114,"is_transit":false,"station_name":"Pondok Cina","time":2,"line":2},{"i_long":106.819451,"time":4,"station_name":"Depokbaru","station_id":"DPB","is_transit":false,"distance":2727,"i_lat":-6.391065,"line":0,"transit":false},{"i_long":106.816926,"distance":1584,"time":3,"station_name":"Depok","station_id":"DP","i_lat":-6.405256,"transit":false,"line":0,"is_transit":false},{"distance":5084,"i_long":106.800298,"station_name":"Citayam","i_lat":-6.448811,"line":1,"transit":false,"station_id":"CTA","is_transit":true,"time":6},{"station_id":"BJD","i_long":106.792719,"time":5,"distance":5197,"is_transit":false,"i_lat":-6.493243,"line":0,"transit":false,"station_name":"Bojonggede"},{"distance":4331,"station_name":"Cilebut","station_id":"CLT","is_transit":false,"time":5,"i_lat":-6.530544,"i_long":106.800016,"transit":false,"line":0},{"time":9,"station_id":"BOO","transit":false,"distance":7514,"is_transit":true,"i_long":106.790574,"i_lat":-6.594596,"station_name":"Bogor","line":1}]]}