{"data":[[{"time":0,"station_name":"Cawang","station_id":"CW","transit":false,"i_long":106.856607,"i_lat":-6.242512,"is_transit":false,"distance":0,"line":2},{"time":3,"distance":1546,"i_long":106.85449,"transit":false,"i_lat":-6.255332,"line":2,"is_transit":false,"station_name":"Duren Kalibata","station_id":"DRN"},{"is_transit":false,"station_id":"PSMB","distance":824,"i_long":106.851577,"station_name":"Pasar Minggu Baru","transit":false,"time":2,"i_lat":-6.263214,"line":2},{"station_id":"PSM","transit":false,"time":2,"i_lat":-6.2842400000000005,"i_long":106.843999,"station_name":"Pasar Minggu","is_transit":false,"distance":2380,"line":2},{"i_lat":-6.3080680000000005,"distance":2820,"line":2,"transit":false,"time":4,"is_transit":false,"station_id":"TNT","i_long":106.838896,"station_name":"Tanjung Barat"},{"distance":2671,"station_id":"LNA","line":2,"is_transit":false,"i_lat":-6.330363,"time":3,"station_name":"Lenteng Agung","transit":false,"i_long":106.832616},{"station_id":"UP","is_transit":false,"transit":false,"time":2,"station_name":"Univ. Pancasila","line":2,"distance":1029,"i_lat":-6.339291,"i_long":106.834175},{"distance":2264,"station_id":"UI","line":2,"time":3,"is_transit":false,"transit":false,"station_name":"Univ. Indonesia","i_lat":-6.360749,"i_long":106.831474},{"transit":false,"station_id":"POC","station_name":"Pondok Cina","is_transit":false,"distance":1109,"time":2,"line":2,"i_lat":-6.369073,"i_long":106.831114},{"station_id":"DPB","time":4,"transit":false,"distance":2727,"line":2,"is_transit":false,"i_lat":-6.391065,"station_name":"Depokbaru","i_long":106.819451},{"i_long":106.816926,"transit":false,"is_transit":false,"distance":1584,"station_id":"DP","station_name":"Depok","time":3,"line":2,"i_lat":-6.405256},{"i_lat":-6.448811,"line":2,"is_transit":false,"distance":5084,"i_long":106.800298,"time":6,"station_name":"Citayam","station_id":"CTA","transit":false},{"distance":5197,"i_lat":-6.493243,"is_transit":false,"time":5,"transit":false,"station_id":"BJD","line":2,"station_name":"Bojonggede","i_long":106.792719},{"i_long":106.800016,"transit":false,"i_lat":-6.530544,"is_transit":false,"line":2,"time":5,"distance":4331,"station_id":"CLT","station_name":"Cilebut"},{"i_long":106.790574,"transit":false,"is_transit":false,"time":9,"distance":7514,"line":2,"station_id":"BOO","i_lat":-6.594596,"station_name":"Bogor"}]]}