{"data":[[{"distance":0,"i_lat":-6.242512,"is_transit":false,"time":0,"station_name":"Cawang","station_id":"CW","transit":false,"line":2,"i_long":106.856607},{"station_id":"DRN","transit":false,"line":2,"station_name":"Duren Kalibata","distance":1546,"is_transit":false,"i_lat":-6.255332,"time":3,"i_long":106.85449},{"time":2,"station_name":"Pasar Minggu Baru","station_id":"PSMB","i_lat":-6.263214,"line":2,"is_transit":false,"distance":824,"i_long":106.851577,"transit":false},{"time":2,"transit":false,"station_name":"Pasar Minggu","line":2,"is_transit":false,"station_id":"PSM","distance":2380,"i_long":106.843999,"i_lat":-6.2842400000000005},{"station_id":"TNT","i_lat":-6.3080680000000005,"is_transit":false,"transit":false,"station_name":"Tanjung Barat","time":4,"line":2,"i_long":106.838896,"distance":2820},{"time":3,"line":2,"station_id":"LNA","distance":2671,"station_name":"Lenteng Agung","i_lat":-6.330363,"transit":false,"i_long":106.832616,"is_transit":false},{"i_lat":-6.339291,"time":2,"is_transit":false,"station_name":"Univ. Pancasila","distance":1029,"i_long":106.834175,"line":2,"transit":false,"station_id":"UP"},{"station_name":"Univ. Indonesia","station_id":"UI","time":3,"transit":false,"i_lat":-6.360749,"distance":2264,"is_transit":false,"i_long":106.831474,"line":2},{"transit":false,"is_transit":false,"time":2,"distance":1109,"line":2,"station_id":"POC","i_long":106.831114,"station_name":"Pondok Cina","i_lat":-6.369073},{"transit":false,"distance":2727,"station_name":"Depokbaru","i_long":106.819451,"i_lat":-6.391065,"station_id":"DPB","line":2,"is_transit":false,"time":4},{"line":2,"is_transit":false,"time":3,"transit":false,"station_id":"DP","station_name":"Depok","distance":1584,"i_lat":-6.405256,"i_long":106.816926},{"is_transit":false,"distance":5084,"i_long":106.800298,"station_name":"Citayam","line":2,"transit":false,"time":6,"station_id":"CTA","i_lat":-6.448811},{"distance":5197,"time":5,"is_transit":false,"station_id":"BJD","transit":false,"station_name":"Bojonggede","i_lat":-6.493243,"line":2,"i_long":106.792719},{"station_id":"CLT","is_transit":false,"distance":4331,"i_long":106.800016,"line":2,"transit":false,"i_lat":-6.530544,"time":5,"station_name":"Cilebut"},{"transit":false,"time":9,"station_name":"Bogor","distance":7514,"i_lat":-6.594596,"line":2,"i_long":106.790574,"is_transit":false,"station_id":"BOO"}]]}