{"data":[[{"transit":false,"station_name":"Cawang","line":0,"distance":0,"i_lat":-6.242512,"station_id":"CW","is_transit":false,"time":0,"i_long":106.856607},{"i_long":106.85449,"distance":1546,"time":3,"station_name":"Duren Kalibata","transit":false,"line":0,"is_transit":false,"station_id":"DRN","i_lat":-6.255332},{"time":2,"station_id":"PSMB","transit":false,"station_name":"Pasar Minggu Baru","i_long":106.851577,"line":2,"distance":824,"i_lat":-6.263214,"is_transit":false},{"time":2,"station_name":"Pasar Minggu","is_transit":false,"station_id":"PSM","distance":2380,"transit":false,"i_lat":-6.2842400000000005,"line":2,"i_long":106.843999},{"i_long":106.838896,"is_transit":false,"line":2,"distance":2820,"station_id":"TNT","time":4,"transit":false,"i_lat":-6.3080680000000005,"station_name":"Tanjung Barat"},{"distance":2671,"i_long":106.832616,"time":3,"station_name":"Lenteng Agung","line":2,"transit":false,"is_transit":false,"station_id":"LNA","i_lat":-6.330363},{"line":2,"is_transit":false,"station_name":"Univ. Pancasila","distance":1029,"i_lat":-6.339291,"station_id":"UP","time":2,"transit":false,"i_long":106.834175},{"station_id":"UI","time":3,"i_lat":-6.360749,"transit":false,"i_long":106.831474,"is_transit":false,"distance":2264,"station_name":"Univ. Indonesia","line":2},{"line":2,"distance":1109,"transit":false,"is_transit":false,"station_id":"POC","station_name":"Pondok Cina","i_lat":-6.369073,"time":2,"i_long":106.831114},{"station_name":"Depokbaru","time":4,"i_long":106.819451,"station_id":"DPB","transit":false,"i_lat":-6.391065,"line":0,"is_transit":false,"distance":2727},{"i_long":106.816926,"is_transit":false,"i_lat":-6.405256,"distance":1584,"line":0,"time":3,"station_name":"Depok","station_id":"DP","transit":false},{"is_transit":true,"line":1,"transit":false,"distance":5084,"station_id":"CTA","time":6,"i_lat":-6.448811,"i_long":106.800298,"station_name":"Citayam"},{"i_long":106.851978,"station_name":"Cibinong","station_id":"CBN","time":10,"distance":6740,"i_lat":-6.46424,"transit":false,"is_transit":false,"line":0}]]}