{"data":[[{"i_long":106.856607,"line":2,"is_transit":false,"time":0,"transit":false,"station_name":"Cawang","i_lat":-6.242512,"station_id":"CW","distance":0},{"time":2,"station_name":"Tebet","is_transit":false,"transit":false,"line":2,"station_id":"TEB","distance":1230,"i_lat":-6.226659,"i_long":106.857948},{"is_transit":true,"distance":2610,"station_id":"MRI","transit":true,"line":2,"station_name":"Manggarai","time":4,"i_lat":-6.209883,"i_long":106.84912},{"station_id":"MTR","time":2,"i_lat":-6.212485,"distance":1275,"i_long":106.858896,"station_name":"Matraman","is_transit":false,"line":1,"transit":false},{"transit":false,"is_transit":false,"time":8,"station_name":"Jatinegara","distance":1377,"i_lat":-6.215091,"i_long":106.86807400000001,"line":1,"station_id":"JNG"},{"transit":false,"i_lat":-6.2135,"time":3,"station_name":"Klender","station_id":"KLD","distance":3395,"is_transit":false,"i_long":106.899548,"line":1},{"i_lat":-6.215568,"is_transit":false,"line":1,"transit":false,"time":2,"distance":3100,"i_long":106.922662,"station_name":"Buaran","station_id":"BUA"},{"station_id":"KLDB","line":1,"station_name":"Klenderbaru","distance":1305,"transit":false,"i_lat":-6.217455,"i_long":106.939679,"time":1,"is_transit":false},{"station_id":"CUK","line":1,"i_long":106.951283,"distance":1385,"i_lat":-6.219053,"transit":false,"time":8,"station_name":"Cakung","is_transit":false}],[{"time":0,"station_name":"Cawang","is_transit":false,"station_id":"CW","transit":false,"i_long":106.856607,"distance":0,"line":2,"i_lat":-6.242512},{"station_id":"TEB","station_name":"Tebet","i_lat":-6.226659,"transit":false,"i_long":106.857948,"line":2,"distance":1230,"time":2,"is_transit":false},{"line":2,"distance":2610,"is_transit":true,"transit":true,"time":4,"station_name":"Manggarai","station_id":"MRI","i_lat":-6.209883,"i_long":106.84912},{"station_name":"Sudirman","distance":3186,"is_transit":false,"i_lat":-6.202263,"station_id":"SUD","i_long":106.822649,"line":1,"time":4,"transit":false},{"is_transit":false,"i_long":106.819881,"distance":280,"station_name":"Sudirman Baru","time":1,"station_id":"SUDB","i_lat":-6.201433,"transit":false,"line":1},{"transit":false,"station_id":"KAT","line":1,"distance":471,"i_long":106.816351,"time":1,"is_transit":false,"i_lat":-6.20132,"station_name":"Karet"},{"time":5,"transit":false,"line":1,"distance":2029,"i_lat":-6.185545,"station_id":"THB","i_long":106.811091,"is_transit":false,"station_name":"Tanah Abang"},{"i_long":106.800832,"station_id":"DU","distance":3632,"is_transit":false,"transit":false,"line":1,"i_lat":-6.155215,"station_name":"Duri","time":8},{"i_long":106.79867,"station_name":"Angke","station_id":"AK","transit":false,"i_lat":-6.144674,"is_transit":false,"line":1,"time":4,"distance":1230},{"transit":true,"station_name":"Kampung Bandan","station_id":"KPB","is_transit":true,"i_lat":-6.132549,"time":9,"i_long":106.826365,"line":4,"distance":4102},{"i_lat":-6.14505,"time":3,"is_transit":false,"i_long":106.836569,"station_id":"RJW","distance":1444,"station_name":"Rajawali","transit":false,"line":11},{"distance":1901,"i_long":106.839204,"i_lat":-6.161728,"transit":false,"station_id":"KMO","time":5,"line":11,"station_name":"Kemayoran","is_transit":false},{"line":11,"station_id":"PSE","is_transit":false,"time":4,"i_lat":-6.174784,"station_name":"Pasar Senen","transit":false,"i_long":106.84368,"distance":1436},{"line":11,"is_transit":false,"i_long":106.850107,"time":8,"transit":false,"station_id":"GST","station_name":"Gang Sentiong","i_lat":-6.185975,"distance":1567},{"i_long":106.855437,"station_id":"KMT","line":11,"distance":973,"is_transit":false,"station_name":"Kramat","time":1,"transit":false,"i_lat":-6.193792},{"line":11,"time":2,"station_id":"POK","distance":1829,"is_transit":false,"transit":false,"station_name":"Pondok Jati","i_lat":-6.209188,"i_long":106.861737},{"station_id":"JNG","is_transit":true,"line":1,"station_name":"Jatinegara","distance":1236,"time":9,"transit":true,"i_lat":-6.215091,"i_long":106.86807400000001},{"time":3,"distance":3395,"station_name":"Klender","line":1,"is_transit":false,"i_long":106.899548,"i_lat":-6.2135,"station_id":"KLD","transit":false},{"distance":3100,"is_transit":false,"i_lat":-6.215568,"transit":false,"time":2,"station_id":"BUA","i_long":106.922662,"line":1,"station_name":"Buaran"},{"station_id":"KLDB","distance":1305,"is_transit":false,"transit":false,"i_lat":-6.217455,"i_long":106.939679,"station_name":"Klenderbaru","line":1,"time":1},{"time":8,"distance":1385,"is_transit":false,"i_lat":-6.219053,"line":1,"transit":false,"i_long":106.951283,"station_name":"Cakung","station_id":"CUK"}],[{"is_transit":false,"i_lat":-6.242512,"distance":0,"transit":false,"i_long":106.856607,"station_name":"Cawang","station_id":"CW","time":0,"line":2},{"distance":1230,"line":2,"time":2,"station_id":"TEB","transit":false,"i_long":106.857948,"is_transit":false,"station_name":"Tebet","i_lat":-6.226659},{"station_name":"Manggarai","is_transit":false,"distance":2610,"line":2,"station_id":"MRI","i_long":106.84912,"transit":false,"time":4,"i_lat":-6.209883},{"station_name":"Cikini","line":2,"i_long":106.840169,"time":4,"distance":1590,"transit":false,"i_lat":-6.198556,"station_id":"CKI","is_transit":false},{"transit":false,"time":3,"distance":1750,"station_name":"Gondangdia","is_transit":false,"station_id":"GDD","i_lat":-6.186295,"i_long":106.832183,"line":2},{"i_long":106.828284,"station_id":"JUA","is_transit":false,"line":2,"time":4,"transit":false,"i_lat":-6.166716,"station_name":"Juanda","distance":2015},{"i_lat":-6.160725,"station_id":"SW","transit":false,"time":2,"is_transit":false,"line":2,"station_name":"Sawah Besar","distance":1149,"i_long":106.827103},{"transit":false,"line":2,"distance":906,"station_id":"MGB","i_long":106.82482,"i_lat":-6.149769,"is_transit":false,"time":2,"station_name":"Manggabesar"},{"transit":false,"station_id":"JAY","is_transit":false,"time":2,"distance":1080,"line":2,"i_long":106.820901,"i_lat":-6.141205,"station_name":"Jayakarta"},{"station_name":"Jakarta Kota","time":4,"i_lat":-6.137569,"i_long":106.812439,"distance":1264,"is_transit":true,"station_id":"JAKK","line":2,"transit":true},{"station_name":"Kampung Bandan","distance":1364,"transit":true,"i_long":106.826365,"station_id":"KPB","is_transit":true,"i_lat":-6.132549,"line":4,"time":3},{"transit":false,"station_name":"Rajawali","time":3,"station_id":"RJW","is_transit":false,"distance":1444,"i_lat":-6.14505,"i_long":106.836569,"line":11},{"i_lat":-6.161728,"is_transit":false,"i_long":106.839204,"station_name":"Kemayoran","station_id":"KMO","time":5,"transit":false,"line":11,"distance":1901},{"station_id":"PSE","i_long":106.84368,"line":11,"transit":false,"station_name":"Pasar Senen","distance":1436,"i_lat":-6.174784,"time":4,"is_transit":false},{"transit":false,"line":11,"i_lat":-6.185975,"i_long":106.850107,"distance":1567,"station_id":"GST","is_transit":false,"station_name":"Gang Sentiong","time":8},{"line":11,"station_name":"Kramat","station_id":"KMT","transit":false,"is_transit":false,"time":1,"i_long":106.855437,"i_lat":-6.193792,"distance":973},{"station_id":"POK","i_lat":-6.209188,"i_long":106.861737,"distance":1829,"line":11,"is_transit":false,"transit":false,"time":2,"station_name":"Pondok Jati"},{"time":9,"is_transit":true,"distance":1236,"transit":true,"station_id":"JNG","station_name":"Jatinegara","i_lat":-6.215091,"line":1,"i_long":106.86807400000001},{"station_name":"Klender","station_id":"KLD","i_long":106.899548,"distance":3395,"line":1,"transit":false,"i_lat":-6.2135,"time":3,"is_transit":false},{"i_lat":-6.215568,"i_long":106.922662,"line":1,"is_transit":false,"transit":false,"station_name":"Buaran","time":2,"distance":3100,"station_id":"BUA"},{"i_lat":-6.217455,"i_long":106.939679,"time":1,"station_name":"Klenderbaru","is_transit":false,"line":1,"distance":1305,"station_id":"KLDB","transit":false},{"i_lat":-6.219053,"line":1,"distance":1385,"transit":false,"i_long":106.951283,"time":8,"is_transit":false,"station_id":"CUK","station_name":"Cakung"}]]}