{"data":[[{"i_long":106.856607,"line":2,"station_name":"Cawang","transit":false,"time":0,"i_lat":-6.242512,"distance":0,"station_id":"CW","is_transit":false},{"transit":false,"is_transit":false,"time":3,"distance":1546,"i_lat":-6.255332,"station_id":"DRN","line":2,"i_long":106.85449,"station_name":"Duren Kalibata"},{"is_transit":false,"station_name":"Pasar Minggu Baru","station_id":"PSMB","i_long":106.851577,"i_lat":-6.263214,"distance":824,"transit":false,"line":2,"time":2},{"i_long":106.843999,"i_lat":-6.2842400000000005,"time":2,"is_transit":false,"line":2,"distance":2380,"transit":false,"station_id":"PSM","station_name":"Pasar Minggu"},{"station_name":"Tanjung Barat","time":4,"transit":false,"i_long":106.838896,"is_transit":false,"distance":2820,"station_id":"TNT","i_lat":-6.3080680000000005,"line":2},{"is_transit":false,"station_name":"Lenteng Agung","transit":false,"line":2,"station_id":"LNA","i_lat":-6.330363,"i_long":106.832616,"distance":2671,"time":3},{"time":2,"distance":1029,"is_transit":false,"station_name":"Univ. Pancasila","i_lat":-6.339291,"i_long":106.834175,"line":2,"transit":false,"station_id":"UP"},{"distance":2264,"time":3,"is_transit":false,"station_name":"Univ. Indonesia","i_lat":-6.360749,"i_long":106.831474,"station_id":"UI","transit":false,"line":2},{"is_transit":false,"line":2,"station_id":"POC","i_long":106.831114,"station_name":"Pondok Cina","i_lat":-6.369073,"distance":1109,"transit":false,"time":2},{"transit":false,"is_transit":false,"station_name":"Depokbaru","distance":2727,"i_long":106.819451,"time":4,"line":2,"i_lat":-6.391065,"station_id":"DPB"},{"transit":false,"station_name":"Depok","line":2,"i_lat":-6.405256,"time":3,"distance":1584,"station_id":"DP","is_transit":false,"i_long":106.816926},{"i_lat":-6.448811,"time":6,"is_transit":false,"transit":false,"line":2,"distance":5084,"station_id":"CTA","station_name":"Citayam","i_long":106.800298}]]}