{"data":[[{"line":2,"is_transit":false,"station_id":"CW","time":0,"transit":false,"distance":0,"station_name":"Cawang","i_lat":-6.242512,"i_long":106.856607},{"is_transit":false,"i_long":106.85449,"distance":1546,"line":2,"transit":false,"station_name":"Duren Kalibata","time":3,"i_lat":-6.255332,"station_id":"DRN"},{"time":2,"i_lat":-6.263214,"distance":824,"i_long":106.851577,"line":2,"transit":false,"station_name":"Pasar Minggu Baru","station_id":"PSMB","is_transit":false},{"station_id":"PSM","time":2,"distance":2380,"i_lat":-6.2842400000000005,"station_name":"Pasar Minggu","line":2,"is_transit":false,"transit":false,"i_long":106.843999},{"station_name":"Tanjung Barat","is_transit":false,"time":4,"i_lat":-6.3080680000000005,"line":2,"distance":2820,"i_long":106.838896,"station_id":"TNT","transit":false},{"station_id":"LNA","time":3,"is_transit":false,"station_name":"Lenteng Agung","transit":false,"distance":2671,"i_lat":-6.330363,"i_long":106.832616,"line":2},{"i_long":106.834175,"station_id":"UP","station_name":"Univ. Pancasila","is_transit":false,"time":2,"i_lat":-6.339291,"transit":false,"distance":1029,"line":2},{"is_transit":false,"distance":2264,"i_lat":-6.360749,"i_long":106.831474,"transit":false,"station_name":"Univ. Indonesia","line":2,"time":3,"station_id":"UI"},{"distance":1109,"i_lat":-6.369073,"station_name":"Pondok Cina","is_transit":false,"transit":false,"station_id":"POC","time":2,"line":2,"i_long":106.831114},{"distance":2727,"i_lat":-6.391065,"is_transit":false,"time":4,"station_id":"DPB","i_long":106.819451,"line":2,"transit":false,"station_name":"Depokbaru"},{"i_long":106.816926,"station_id":"DP","station_name":"Depok","distance":1584,"i_lat":-6.405256,"transit":false,"line":2,"is_transit":false,"time":3},{"i_long":106.800298,"line":2,"time":6,"station_id":"CTA","transit":true,"i_lat":-6.448811,"distance":5084,"station_name":"Citayam","is_transit":true},{"transit":false,"i_long":106.824374,"station_name":"Pondok Rajeg","station_id":"PDRG","distance":0,"line":21,"is_transit":false,"time":0,"i_lat":-6.460735},{"line":21,"i_lat":-6.46424,"station_id":"CBN","is_transit":false,"station_name":"Cibinong","transit":false,"time":0,"distance":0,"i_long":106.851978}]]}