{"data":[[{"is_transit":false,"station_id":"CW","i_lat":-6.242512,"distance":0,"station_name":"Cawang","i_long":106.856607,"transit":false,"line":0,"time":0},{"transit":false,"i_long":106.85449,"line":0,"distance":1546,"i_lat":-6.255332,"station_id":"DRN","is_transit":false,"station_name":"Duren Kalibata","time":3},{"is_transit":false,"station_name":"Pasar Minggu Baru","time":2,"station_id":"PSMB","i_lat":-6.263214,"line":2,"distance":824,"i_long":106.851577,"transit":false},{"station_id":"PSM","i_long":106.843999,"transit":false,"station_name":"Pasar Minggu","line":2,"time":2,"distance":2380,"is_transit":false,"i_lat":-6.2842400000000005},{"station_id":"TNT","i_long":106.838896,"is_transit":false,"station_name":"Tanjung Barat","time":4,"line":2,"distance":2820,"transit":false,"i_lat":-6.3080680000000005},{"i_lat":-6.330363,"is_transit":false,"time":3,"station_name":"Lenteng Agung","distance":2671,"line":2,"transit":false,"station_id":"LNA","i_long":106.832616},{"distance":1029,"i_lat":-6.339291,"station_name":"Univ. Pancasila","station_id":"UP","time":2,"transit":false,"line":2,"is_transit":false,"i_long":106.834175},{"distance":2264,"transit":false,"is_transit":false,"station_name":"Univ. Indonesia","time":3,"line":2,"i_long":106.831474,"i_lat":-6.360749,"station_id":"UI"},{"i_lat":-6.369073,"time":2,"station_name":"Pondok Cina","distance":1109,"is_transit":false,"station_id":"POC","line":2,"transit":false,"i_long":106.831114},{"line":0,"station_id":"DPB","i_lat":-6.391065,"time":4,"distance":2727,"transit":false,"station_name":"Depokbaru","is_transit":false,"i_long":106.819451},{"distance":1584,"i_long":106.816926,"i_lat":-6.405256,"transit":false,"station_id":"DP","is_transit":false,"station_name":"Depok","line":0,"time":3},{"station_id":"CTA","line":1,"time":6,"is_transit":true,"i_lat":-6.448811,"i_long":106.800298,"station_name":"Citayam","distance":5084,"transit":false}]]}