{"data":[[{"station_id":"CW","i_long":106.856607,"station_name":"Cawang","distance":0,"is_transit":false,"line":2,"i_lat":-6.242512,"transit":false,"time":0},{"station_id":"TEB","station_name":"Tebet","transit":false,"i_long":106.857948,"is_transit":false,"time":2,"distance":1230,"line":2,"i_lat":-6.226659},{"is_transit":true,"distance":2610,"i_long":106.84912,"station_id":"MRI","i_lat":-6.209883,"transit":true,"station_name":"Manggarai","line":2,"time":4},{"transit":false,"distance":1275,"is_transit":false,"station_name":"Matraman","i_lat":-6.212485,"line":1,"time":2,"station_id":"MTR","i_long":106.858896},{"station_name":"Jatinegara","is_transit":false,"station_id":"JNG","i_lat":-6.215091,"line":1,"distance":1377,"i_long":106.86807400000001,"time":8,"transit":false},{"time":3,"is_transit":false,"station_id":"KLD","line":1,"transit":false,"i_lat":-6.2135,"distance":3395,"i_long":106.899548,"station_name":"Klender"},{"time":2,"station_id":"BUA","station_name":"Buaran","transit":false,"is_transit":false,"line":1,"i_lat":-6.215568,"distance":3100,"i_long":106.922662},{"station_id":"KLDB","transit":false,"distance":1305,"is_transit":false,"line":1,"i_lat":-6.217455,"station_name":"Klenderbaru","time":1,"i_long":106.939679},{"time":8,"station_id":"CUK","distance":1385,"i_lat":-6.219053,"station_name":"Cakung","line":1,"transit":false,"is_transit":false,"i_long":106.951283}],[{"is_transit":false,"transit":false,"i_lat":-6.242512,"time":0,"distance":0,"line":2,"station_name":"Cawang","i_long":106.856607,"station_id":"CW"},{"i_long":106.857948,"line":2,"distance":1230,"station_id":"TEB","i_lat":-6.226659,"is_transit":false,"transit":false,"time":2,"station_name":"Tebet"},{"transit":true,"line":2,"i_lat":-6.209883,"time":4,"i_long":106.84912,"station_id":"MRI","distance":2610,"station_name":"Manggarai","is_transit":true},{"i_lat":-6.202263,"i_long":106.822649,"line":1,"time":4,"transit":false,"distance":3186,"station_name":"Sudirman","station_id":"SUD","is_transit":false},{"distance":280,"station_name":"Sudirman Baru","is_transit":false,"station_id":"SUDB","line":1,"transit":false,"i_long":106.819881,"i_lat":-6.201433,"time":1},{"is_transit":false,"transit":false,"station_name":"Karet","i_long":106.816351,"i_lat":-6.20132,"station_id":"KAT","time":1,"distance":471,"line":1},{"i_lat":-6.185545,"is_transit":false,"station_id":"THB","station_name":"Tanah Abang","transit":false,"distance":2029,"line":1,"i_long":106.811091,"time":5},{"i_lat":-6.155215,"distance":3632,"i_long":106.800832,"station_id":"DU","line":1,"station_name":"Duri","is_transit":false,"transit":false,"time":8},{"station_name":"Angke","i_lat":-6.144674,"time":4,"distance":1230,"i_long":106.79867,"station_id":"AK","transit":false,"line":1,"is_transit":false},{"time":9,"station_id":"KPB","i_lat":-6.132549,"is_transit":true,"line":4,"transit":true,"station_name":"Kampung Bandan","i_long":106.826365,"distance":4102},{"distance":1444,"is_transit":false,"i_lat":-6.14505,"station_id":"RJW","transit":false,"time":3,"station_name":"Rajawali","i_long":106.836569,"line":11},{"time":5,"station_id":"KMO","station_name":"Kemayoran","line":11,"transit":false,"i_long":106.839204,"i_lat":-6.161728,"is_transit":false,"distance":1901},{"is_transit":false,"transit":false,"time":4,"line":11,"distance":1436,"station_name":"Pasar Senen","station_id":"PSE","i_lat":-6.174784,"i_long":106.84368},{"i_lat":-6.185975,"i_long":106.850107,"time":8,"distance":1567,"station_id":"GST","station_name":"Gang Sentiong","transit":false,"is_transit":false,"line":11},{"distance":973,"station_name":"Kramat","i_lat":-6.193792,"station_id":"KMT","line":11,"transit":false,"i_long":106.855437,"time":1,"is_transit":false},{"transit":false,"line":11,"is_transit":false,"time":2,"distance":1829,"station_name":"Pondok Jati","station_id":"POK","i_lat":-6.209188,"i_long":106.861737},{"i_long":106.86807400000001,"station_name":"Jatinegara","line":1,"station_id":"JNG","distance":1236,"is_transit":true,"i_lat":-6.215091,"time":9,"transit":true},{"station_name":"Klender","time":3,"line":1,"i_lat":-6.2135,"distance":3395,"station_id":"KLD","transit":false,"is_transit":false,"i_long":106.899548},{"time":2,"distance":3100,"is_transit":false,"transit":false,"station_id":"BUA","i_lat":-6.215568,"line":1,"station_name":"Buaran","i_long":106.922662},{"station_name":"Klenderbaru","line":1,"i_lat":-6.217455,"i_long":106.939679,"transit":false,"is_transit":false,"station_id":"KLDB","time":1,"distance":1305},{"transit":false,"distance":1385,"is_transit":false,"i_lat":-6.219053,"station_id":"CUK","time":8,"station_name":"Cakung","i_long":106.951283,"line":1}],[{"station_name":"Cawang","distance":0,"is_transit":false,"i_lat":-6.242512,"station_id":"CW","time":0,"i_long":106.856607,"line":2,"transit":false},{"time":2,"distance":1230,"station_id":"TEB","i_long":106.857948,"line":2,"is_transit":false,"transit":false,"station_name":"Tebet","i_lat":-6.226659},{"distance":2610,"transit":false,"station_name":"Manggarai","station_id":"MRI","line":2,"i_long":106.84912,"is_transit":false,"i_lat":-6.209883,"time":4},{"transit":false,"time":4,"station_id":"CKI","distance":1590,"i_lat":-6.198556,"is_transit":false,"i_long":106.840169,"line":2,"station_name":"Cikini"},{"line":2,"transit":false,"time":3,"i_long":106.832183,"i_lat":-6.186295,"distance":1750,"station_id":"GDD","station_name":"Gondangdia","is_transit":false},{"line":2,"is_transit":false,"time":4,"i_long":106.828284,"distance":2015,"transit":false,"i_lat":-6.166716,"station_id":"JUA","station_name":"Juanda"},{"transit":false,"distance":1149,"i_long":106.827103,"line":2,"station_name":"Sawah Besar","time":2,"is_transit":false,"station_id":"SW","i_lat":-6.160725},{"station_name":"Manggabesar","i_lat":-6.149769,"i_long":106.82482,"line":2,"station_id":"MGB","distance":906,"time":2,"is_transit":false,"transit":false},{"i_lat":-6.141205,"is_transit":false,"time":2,"station_id":"JAY","distance":1080,"transit":false,"line":2,"i_long":106.820901,"station_name":"Jayakarta"},{"distance":1264,"is_transit":true,"station_id":"JAKK","line":2,"i_long":106.812439,"station_name":"Jakarta Kota","transit":true,"i_lat":-6.137569,"time":4},{"station_id":"KPB","station_name":"Kampung Bandan","is_transit":true,"time":3,"i_long":106.826365,"transit":true,"i_lat":-6.132549,"distance":1364,"line":4},{"i_long":106.836569,"station_id":"RJW","time":3,"distance":1444,"is_transit":false,"transit":false,"station_name":"Rajawali","i_lat":-6.14505,"line":11},{"i_long":106.839204,"i_lat":-6.161728,"time":5,"distance":1901,"station_id":"KMO","is_transit":false,"line":11,"station_name":"Kemayoran","transit":false},{"time":4,"distance":1436,"station_name":"Pasar Senen","transit":false,"is_transit":false,"line":11,"station_id":"PSE","i_long":106.84368,"i_lat":-6.174784},{"time":8,"station_id":"GST","distance":1567,"is_transit":false,"i_lat":-6.185975,"station_name":"Gang Sentiong","i_long":106.850107,"transit":false,"line":11},{"transit":false,"time":1,"line":11,"station_id":"KMT","i_long":106.855437,"distance":973,"station_name":"Kramat","is_transit":false,"i_lat":-6.193792},{"distance":1829,"station_id":"POK","i_long":106.861737,"line":11,"station_name":"Pondok Jati","transit":false,"is_transit":false,"i_lat":-6.209188,"time":2},{"transit":true,"i_lat":-6.215091,"station_name":"Jatinegara","line":1,"is_transit":true,"station_id":"JNG","distance":1236,"time":9,"i_long":106.86807400000001},{"i_long":106.899548,"distance":3395,"i_lat":-6.2135,"transit":false,"station_id":"KLD","line":1,"station_name":"Klender","time":3,"is_transit":false},{"station_name":"Buaran","i_lat":-6.215568,"time":2,"distance":3100,"line":1,"station_id":"BUA","i_long":106.922662,"is_transit":false,"transit":false},{"line":1,"station_name":"Klenderbaru","i_lat":-6.217455,"is_transit":false,"i_long":106.939679,"time":1,"station_id":"KLDB","transit":false,"distance":1305},{"distance":1385,"is_transit":false,"i_long":106.951283,"line":1,"station_name":"Cakung","station_id":"CUK","i_lat":-6.219053,"time":8,"transit":false}]]}