{"data":[[{"time":0,"station_name":"Cawang","station_id":"CW","i_long":106.856607,"transit":false,"distance":0,"i_lat":-6.242512,"is_transit":false,"line":2},{"time":3,"line":2,"station_name":"Duren Kalibata","station_id":"DRN","distance":1546,"transit":false,"i_lat":-6.255332,"is_transit":false,"i_long":106.85449},{"station_name":"Pasar Minggu Baru","i_long":106.851577,"station_id":"PSMB","line":2,"is_transit":false,"i_lat":-6.263214,"transit":false,"distance":824,"time":2},{"distance":2380,"is_transit":false,"time":2,"i_long":106.843999,"i_lat":-6.2842400000000005,"transit":false,"line":2,"station_name":"Pasar Minggu","station_id":"PSM"},{"i_long":106.838896,"time":4,"line":2,"station_name":"Tanjung Barat","station_id":"TNT","is_transit":false,"i_lat":-6.3080680000000005,"distance":2820,"transit":false},{"station_name":"Lenteng Agung","i_long":106.832616,"line":2,"time":3,"station_id":"LNA","transit":false,"distance":2671,"is_transit":false,"i_lat":-6.330363},{"distance":1029,"i_lat":-6.339291,"i_long":106.834175,"line":2,"station_id":"UP","time":2,"transit":false,"is_transit":false,"station_name":"Univ. Pancasila"},{"transit":false,"line":2,"i_long":106.831474,"station_id":"UI","station_name":"Univ. Indonesia","i_lat":-6.360749,"is_transit":false,"distance":2264,"time":3},{"line":2,"station_name":"Pondok Cina","station_id":"POC","i_long":106.831114,"i_lat":-6.369073,"distance":1109,"time":2,"is_transit":false,"transit":false},{"distance":2727,"station_name":"Depokbaru","time":4,"i_long":106.819451,"station_id":"DPB","is_transit":false,"line":2,"transit":false,"i_lat":-6.391065},{"transit":false,"time":3,"is_transit":false,"i_lat":-6.405256,"line":2,"station_name":"Depok","station_id":"DP","distance":1584,"i_long":106.816926},{"station_id":"CTA","station_name":"Citayam","i_lat":-6.448811,"is_transit":true,"distance":5084,"i_long":106.800298,"transit":true,"line":2,"time":6},{"i_long":106.824374,"time":0,"station_name":"Pondok Rajeg","station_id":"PDRG","i_lat":-6.460735,"is_transit":false,"transit":false,"distance":0,"line":21},{"time":0,"distance":0,"station_name":"Cibinong","transit":false,"i_long":106.851978,"is_transit":false,"i_lat":-6.46424,"line":21,"station_id":"CBN"}]]}