{"data":[[{"distance":0,"i_lat":-6.242512,"i_long":106.856607,"station_id":"CW","line":2,"time":0,"station_name":"Cawang","is_transit":false,"transit":false},{"i_long":106.85449,"i_lat":-6.255332,"transit":false,"line":2,"distance":1546,"time":3,"is_transit":false,"station_name":"Duren Kalibata","station_id":"DRN"},{"station_name":"Pasar Minggu Baru","is_transit":false,"station_id":"PSMB","transit":false,"i_long":106.851577,"line":2,"distance":824,"time":2,"i_lat":-6.263214},{"transit":false,"i_lat":-6.2842400000000005,"is_transit":false,"i_long":106.843999,"station_id":"PSM","distance":2380,"station_name":"Pasar Minggu","time":2,"line":2},{"time":4,"distance":2820,"is_transit":false,"station_id":"TNT","i_long":106.838896,"station_name":"Tanjung Barat","transit":false,"i_lat":-6.3080680000000005,"line":2},{"line":2,"time":3,"is_transit":false,"i_long":106.832616,"distance":2671,"i_lat":-6.330363,"transit":false,"station_id":"LNA","station_name":"Lenteng Agung"},{"transit":false,"time":2,"distance":1029,"i_lat":-6.339291,"line":2,"station_name":"Univ. Pancasila","is_transit":false,"i_long":106.834175,"station_id":"UP"},{"time":3,"transit":false,"station_id":"UI","line":2,"is_transit":false,"i_lat":-6.360749,"station_name":"Univ. Indonesia","distance":2264,"i_long":106.831474},{"transit":false,"station_name":"Pondok Cina","distance":1109,"station_id":"POC","line":2,"i_lat":-6.369073,"time":2,"is_transit":false,"i_long":106.831114},{"distance":2727,"line":2,"time":4,"is_transit":false,"station_id":"DPB","i_long":106.819451,"station_name":"Depokbaru","i_lat":-6.391065,"transit":false},{"transit":false,"i_lat":-6.405256,"station_name":"Depok","station_id":"DP","i_long":106.816926,"line":2,"distance":1584,"time":3,"is_transit":false},{"station_name":"Citayam","is_transit":true,"station_id":"CTA","i_lat":-6.448811,"i_long":106.800298,"line":2,"time":6,"distance":5084,"transit":true},{"is_transit":false,"transit":false,"station_name":"Pondok Rajeg","i_lat":-6.460735,"line":21,"distance":0,"station_id":"PDRG","time":0,"i_long":106.824374},{"line":21,"i_long":106.851978,"time":0,"station_name":"Cibinong","i_lat":-6.46424,"station_id":"CBN","transit":false,"is_transit":false,"distance":0}]]}