{"data":[[{"station_name":"Cawang","i_lat":-6.242512,"time":0,"distance":0,"i_long":106.856607,"is_transit":false,"line":2,"transit":false,"station_id":"CW"},{"is_transit":false,"transit":false,"line":2,"station_name":"Tebet","distance":1230,"i_lat":-6.226659,"station_id":"TEB","time":2,"i_long":106.857948},{"transit":true,"line":2,"distance":2610,"is_transit":true,"i_lat":-6.209883,"station_id":"MRI","time":4,"i_long":106.84912,"station_name":"Manggarai"},{"time":2,"transit":false,"station_id":"MTR","station_name":"Matraman","is_transit":false,"distance":1275,"line":1,"i_lat":-6.212485,"i_long":106.858896},{"i_lat":-6.215091,"transit":false,"station_name":"Jatinegara","distance":1377,"i_long":106.86807400000001,"line":1,"time":8,"is_transit":false,"station_id":"JNG"},{"is_transit":false,"time":3,"station_id":"KLD","i_lat":-6.2135,"i_long":106.899548,"line":1,"station_name":"Klender","transit":false,"distance":3395},{"i_long":106.922662,"time":2,"station_id":"BUA","transit":false,"i_lat":-6.215568,"line":1,"station_name":"Buaran","distance":3100,"is_transit":false},{"distance":1305,"is_transit":false,"time":1,"station_id":"KLDB","i_long":106.939679,"line":1,"transit":false,"station_name":"Klenderbaru","i_lat":-6.217455},{"line":1,"i_lat":-6.219053,"station_id":"CUK","station_name":"Cakung","i_long":106.951283,"time":8,"distance":1385,"transit":false,"is_transit":false}],[{"distance":0,"station_name":"Cawang","station_id":"CW","time":0,"i_lat":-6.242512,"i_long":106.856607,"is_transit":false,"line":2,"transit":false},{"i_lat":-6.226659,"distance":1230,"station_id":"TEB","time":2,"i_long":106.857948,"station_name":"Tebet","line":2,"transit":false,"is_transit":false},{"transit":true,"i_lat":-6.209883,"station_id":"MRI","line":2,"is_transit":true,"station_name":"Manggarai","distance":2610,"time":4,"i_long":106.84912},{"distance":3186,"transit":false,"i_lat":-6.202263,"station_name":"Sudirman","line":1,"i_long":106.822649,"station_id":"SUD","time":4,"is_transit":false},{"station_name":"Sudirman Baru","station_id":"SUDB","time":1,"transit":false,"line":1,"distance":280,"i_long":106.819881,"is_transit":false,"i_lat":-6.201433},{"i_long":106.816351,"distance":471,"line":1,"is_transit":false,"station_id":"KAT","i_lat":-6.20132,"transit":false,"station_name":"Karet","time":1},{"line":1,"time":5,"transit":false,"station_id":"THB","is_transit":false,"distance":2029,"i_long":106.811091,"i_lat":-6.185545,"station_name":"Tanah Abang"},{"i_lat":-6.155215,"time":8,"is_transit":false,"station_id":"DU","transit":false,"distance":3632,"i_long":106.800832,"line":1,"station_name":"Duri"},{"transit":false,"station_name":"Angke","station_id":"AK","is_transit":false,"distance":1230,"i_lat":-6.144674,"time":4,"i_long":106.79867,"line":1},{"is_transit":true,"i_long":106.826365,"line":4,"station_name":"Kampung Bandan","station_id":"KPB","time":9,"i_lat":-6.132549,"transit":true,"distance":4102},{"distance":1444,"i_long":106.836569,"is_transit":false,"station_name":"Rajawali","line":11,"transit":false,"time":3,"i_lat":-6.14505,"station_id":"RJW"},{"station_name":"Kemayoran","station_id":"KMO","i_long":106.839204,"line":11,"time":5,"is_transit":false,"distance":1901,"i_lat":-6.161728,"transit":false},{"station_id":"PSE","is_transit":false,"station_name":"Pasar Senen","distance":1436,"transit":false,"i_lat":-6.174784,"i_long":106.84368,"time":4,"line":11},{"station_name":"Gang Sentiong","distance":1567,"line":11,"i_long":106.850107,"is_transit":false,"station_id":"GST","transit":false,"time":8,"i_lat":-6.185975},{"is_transit":false,"i_long":106.855437,"line":11,"station_name":"Kramat","time":1,"distance":973,"i_lat":-6.193792,"transit":false,"station_id":"KMT"},{"distance":1829,"is_transit":false,"station_name":"Pondok Jati","transit":false,"i_lat":-6.209188,"time":2,"station_id":"POK","line":11,"i_long":106.861737},{"distance":1236,"station_name":"Jatinegara","i_lat":-6.215091,"is_transit":true,"time":9,"transit":true,"station_id":"JNG","line":1,"i_long":106.86807400000001},{"distance":3395,"time":3,"station_id":"KLD","station_name":"Klender","i_lat":-6.2135,"is_transit":false,"transit":false,"i_long":106.899548,"line":1},{"distance":3100,"transit":false,"is_transit":false,"station_id":"BUA","i_lat":-6.215568,"i_long":106.922662,"line":1,"station_name":"Buaran","time":2},{"transit":false,"i_lat":-6.217455,"i_long":106.939679,"station_name":"Klenderbaru","station_id":"KLDB","line":1,"time":1,"distance":1305,"is_transit":false},{"distance":1385,"time":8,"station_id":"CUK","station_name":"Cakung","is_transit":false,"i_lat":-6.219053,"line":1,"transit":false,"i_long":106.951283}],[{"station_id":"CW","time":0,"distance":0,"i_long":106.856607,"line":2,"station_name":"Cawang","i_lat":-6.242512,"transit":false,"is_transit":false},{"station_id":"TEB","time":2,"is_transit":false,"line":2,"station_name":"Tebet","transit":false,"distance":1230,"i_lat":-6.226659,"i_long":106.857948},{"time":4,"station_id":"MRI","line":2,"distance":2610,"is_transit":false,"transit":false,"i_long":106.84912,"station_name":"Manggarai","i_lat":-6.209883},{"distance":1590,"transit":false,"line":2,"is_transit":false,"i_lat":-6.198556,"station_id":"CKI","station_name":"Cikini","time":4,"i_long":106.840169},{"distance":1750,"i_long":106.832183,"line":2,"i_lat":-6.186295,"transit":false,"station_name":"Gondangdia","station_id":"GDD","is_transit":false,"time":3},{"distance":2015,"transit":false,"i_lat":-6.166716,"line":2,"is_transit":false,"time":4,"i_long":106.828284,"station_name":"Juanda","station_id":"JUA"},{"distance":1149,"i_long":106.827103,"line":2,"i_lat":-6.160725,"transit":false,"is_transit":false,"station_id":"SW","time":2,"station_name":"Sawah Besar"},{"distance":906,"time":2,"transit":false,"station_id":"MGB","i_lat":-6.149769,"i_long":106.82482,"line":2,"is_transit":false,"station_name":"Manggabesar"},{"distance":1080,"station_name":"Jayakarta","station_id":"JAY","transit":false,"is_transit":false,"time":2,"i_lat":-6.141205,"line":2,"i_long":106.820901},{"transit":true,"time":4,"i_long":106.812439,"line":2,"station_name":"Jakarta Kota","station_id":"JAKK","distance":1264,"is_transit":true,"i_lat":-6.137569},{"is_transit":true,"time":3,"station_name":"Kampung Bandan","i_long":106.826365,"station_id":"KPB","line":4,"distance":1364,"i_lat":-6.132549,"transit":true},{"is_transit":false,"station_id":"RJW","i_long":106.836569,"transit":false,"distance":1444,"i_lat":-6.14505,"time":3,"station_name":"Rajawali","line":11},{"i_lat":-6.161728,"transit":false,"i_long":106.839204,"time":5,"line":11,"station_name":"Kemayoran","is_transit":false,"station_id":"KMO","distance":1901},{"i_lat":-6.174784,"is_transit":false,"transit":false,"station_name":"Pasar Senen","station_id":"PSE","time":4,"distance":1436,"i_long":106.84368,"line":11},{"station_id":"GST","i_long":106.850107,"is_transit":false,"station_name":"Gang Sentiong","distance":1567,"transit":false,"line":11,"i_lat":-6.185975,"time":8},{"i_long":106.855437,"station_id":"KMT","time":1,"i_lat":-6.193792,"transit":false,"line":11,"distance":973,"is_transit":false,"station_name":"Kramat"},{"is_transit":false,"distance":1829,"station_name":"Pondok Jati","line":11,"time":2,"i_long":106.861737,"station_id":"POK","i_lat":-6.209188,"transit":false},{"line":1,"transit":true,"station_name":"Jatinegara","station_id":"JNG","time":9,"distance":1236,"i_lat":-6.215091,"i_long":106.86807400000001,"is_transit":true},{"station_name":"Klender","i_long":106.899548,"transit":false,"station_id":"KLD","time":3,"distance":3395,"line":1,"is_transit":false,"i_lat":-6.2135},{"i_long":106.922662,"station_name":"Buaran","i_lat":-6.215568,"station_id":"BUA","time":2,"line":1,"is_transit":false,"distance":3100,"transit":false},{"station_name":"Klenderbaru","distance":1305,"i_long":106.939679,"time":1,"transit":false,"i_lat":-6.217455,"is_transit":false,"station_id":"KLDB","line":1},{"time":8,"is_transit":false,"station_id":"CUK","transit":false,"distance":1385,"i_lat":-6.219053,"i_long":106.951283,"station_name":"Cakung","line":1}]]}