{"data":[[{"station_id":"CW","distance":0,"time":0,"i_lat":-6.242512,"i_long":106.856607,"station_name":"Cawang","is_transit":false,"transit":false,"line":2},{"time":3,"i_lat":-6.255332,"transit":false,"station_id":"DRN","is_transit":false,"distance":1546,"station_name":"Duren Kalibata","i_long":106.85449,"line":2},{"i_lat":-6.263214,"line":2,"i_long":106.851577,"station_name":"Pasar Minggu Baru","station_id":"PSMB","time":2,"is_transit":false,"transit":false,"distance":824},{"i_lat":-6.2842400000000005,"distance":2380,"transit":false,"i_long":106.843999,"line":2,"is_transit":false,"time":2,"station_name":"Pasar Minggu","station_id":"PSM"},{"i_long":106.838896,"line":2,"is_transit":false,"time":4,"i_lat":-6.3080680000000005,"station_id":"TNT","transit":false,"distance":2820,"station_name":"Tanjung Barat"},{"distance":2671,"station_name":"Lenteng Agung","i_long":106.832616,"line":2,"is_transit":false,"i_lat":-6.330363,"transit":false,"station_id":"LNA","time":3},{"is_transit":false,"i_lat":-6.339291,"station_name":"Univ. Pancasila","i_long":106.834175,"distance":1029,"station_id":"UP","line":2,"time":2,"transit":false},{"is_transit":false,"i_long":106.831474,"i_lat":-6.360749,"distance":2264,"station_name":"Univ. Indonesia","transit":false,"line":2,"station_id":"UI","time":3},{"transit":false,"i_lat":-6.369073,"is_transit":false,"i_long":106.831114,"station_name":"Pondok Cina","time":2,"distance":1109,"line":2,"station_id":"POC"},{"is_transit":false,"distance":2727,"time":4,"station_name":"Depokbaru","i_lat":-6.391065,"line":2,"transit":false,"station_id":"DPB","i_long":106.819451},{"distance":1584,"i_lat":-6.405256,"time":3,"station_id":"DP","transit":false,"station_name":"Depok","is_transit":false,"i_long":106.816926,"line":2},{"i_lat":-6.448811,"is_transit":false,"time":6,"station_name":"Citayam","i_long":106.800298,"line":2,"distance":5084,"transit":false,"station_id":"CTA"}]]}