{"data":[[{"i_long":106.856607,"line":0,"transit":false,"time":0,"distance":0,"i_lat":-6.242512,"station_name":"Cawang","station_id":"CW","is_transit":false},{"distance":1230,"station_id":"TEB","time":2,"transit":false,"i_lat":-6.226659,"line":2,"station_name":"Tebet","i_long":106.857948,"is_transit":false},{"distance":2610,"station_id":"MRI","station_name":"Manggarai","i_long":106.84912,"transit":true,"time":4,"line":0,"i_lat":-6.209883,"is_transit":true},{"i_long":106.858896,"station_name":"Matraman","line":1,"station_id":"MTR","is_transit":false,"transit":false,"i_lat":-6.212485,"distance":1275,"time":2},{"time":8,"is_transit":true,"station_id":"JNG","station_name":"Jatinegara","i_lat":-6.215091,"transit":false,"i_long":106.86807400000001,"distance":1377,"line":0},{"transit":false,"i_lat":-6.2135,"i_long":106.899548,"distance":3395,"line":1,"time":3,"is_transit":false,"station_name":"Klender","station_id":"KLD"},{"transit":false,"station_name":"Buaran","is_transit":false,"distance":3100,"i_long":106.922662,"station_id":"BUA","time":2,"i_lat":-6.215568,"line":0},{"station_name":"Klenderbaru","line":1,"distance":1305,"transit":false,"station_id":"KLDB","i_lat":-6.217455,"i_long":106.939679,"time":1,"is_transit":false},{"i_long":106.951283,"is_transit":false,"time":8,"distance":1385,"station_name":"Cakung","transit":false,"station_id":"CUK","line":0,"i_lat":-6.219053}],[{"time":0,"i_lat":-6.242512,"station_id":"CW","distance":0,"i_long":106.856607,"line":0,"transit":false,"station_name":"Cawang","is_transit":false},{"station_name":"Tebet","station_id":"TEB","distance":1230,"transit":false,"time":2,"line":2,"is_transit":false,"i_lat":-6.226659,"i_long":106.857948},{"i_long":106.84912,"distance":2610,"station_id":"MRI","station_name":"Manggarai","is_transit":true,"line":0,"transit":true,"i_lat":-6.209883,"time":4},{"station_id":"SUD","station_name":"Sudirman","i_long":106.822649,"time":4,"line":1,"transit":false,"i_lat":-6.202263,"distance":3186,"is_transit":false},{"station_name":"Sudirman Baru","time":1,"i_long":106.819881,"distance":280,"line":1,"i_lat":-6.201433,"station_id":"SUDB","is_transit":false,"transit":false},{"time":1,"is_transit":false,"transit":false,"i_long":106.816351,"i_lat":-6.20132,"station_id":"KAT","distance":471,"line":1,"station_name":"Karet"},{"i_lat":-6.185545,"i_long":106.811091,"line":1,"is_transit":true,"time":5,"station_id":"THB","station_name":"Tanah Abang","distance":2029,"transit":false},{"i_lat":-6.155215,"station_name":"Duri","time":8,"distance":3632,"line":1,"transit":true,"is_transit":true,"i_long":106.800832,"station_id":"DU"},{"station_name":"Angke","time":4,"is_transit":false,"distance":1230,"i_lat":-6.144674,"line":0,"transit":false,"i_long":106.79867,"station_id":"AK"},{"distance":4102,"transit":true,"i_lat":-6.132549,"station_id":"KPB","i_long":106.826365,"is_transit":true,"time":9,"station_name":"Kampung Bandan","line":0},{"distance":1444,"i_lat":-6.14505,"i_long":106.836569,"line":11,"station_id":"RJW","is_transit":false,"station_name":"Rajawali","time":3,"transit":false},{"time":5,"station_name":"Kemayoran","distance":1901,"i_lat":-6.161728,"station_id":"KMO","line":11,"i_long":106.839204,"is_transit":false,"transit":false},{"line":11,"station_id":"PSE","is_transit":false,"transit":false,"i_long":106.84368,"distance":1436,"time":4,"i_lat":-6.174784,"station_name":"Pasar Senen"},{"time":8,"i_long":106.850107,"station_id":"GST","i_lat":-6.185975,"line":11,"distance":1567,"transit":false,"station_name":"Gang Sentiong","is_transit":false},{"transit":false,"is_transit":false,"station_name":"Kramat","time":1,"distance":973,"i_lat":-6.193792,"i_long":106.855437,"station_id":"KMT","line":11},{"distance":1829,"station_name":"Pondok Jati","i_lat":-6.209188,"time":2,"i_long":106.861737,"is_transit":false,"transit":false,"station_id":"POK","line":11},{"station_name":"Jatinegara","i_long":106.86807400000001,"i_lat":-6.215091,"line":0,"is_transit":true,"time":9,"transit":true,"distance":1236,"station_id":"JNG"},{"time":3,"is_transit":false,"distance":3395,"station_id":"KLD","i_lat":-6.2135,"transit":false,"i_long":106.899548,"station_name":"Klender","line":1},{"transit":false,"i_lat":-6.215568,"i_long":106.922662,"time":2,"is_transit":false,"station_id":"BUA","station_name":"Buaran","line":0,"distance":3100},{"station_id":"KLDB","i_lat":-6.217455,"line":1,"transit":false,"i_long":106.939679,"station_name":"Klenderbaru","distance":1305,"time":1,"is_transit":false},{"i_long":106.951283,"station_name":"Cakung","station_id":"CUK","is_transit":false,"time":8,"transit":false,"i_lat":-6.219053,"line":0,"distance":1385}],[{"station_id":"CW","time":0,"transit":false,"is_transit":false,"i_long":106.856607,"i_lat":-6.242512,"station_name":"Cawang","distance":0,"line":0},{"is_transit":false,"station_name":"Tebet","i_lat":-6.226659,"time":2,"station_id":"TEB","transit":false,"i_long":106.857948,"line":2,"distance":1230},{"transit":true,"i_lat":-6.209883,"station_name":"Manggarai","time":4,"distance":2610,"is_transit":true,"line":0,"station_id":"MRI","i_long":106.84912},{"is_transit":false,"station_id":"CKI","i_long":106.840169,"transit":false,"i_lat":-6.198556,"line":0,"station_name":"Cikini","distance":1590,"time":4},{"distance":1750,"transit":false,"i_lat":-6.186295,"station_name":"Gondangdia","station_id":"GDD","line":2,"is_transit":false,"time":3,"i_long":106.832183},{"i_lat":-6.166716,"i_long":106.828284,"transit":false,"distance":2015,"station_id":"JUA","time":4,"line":2,"is_transit":false,"station_name":"Juanda"},{"station_id":"SW","time":2,"distance":1149,"i_lat":-6.160725,"transit":false,"i_long":106.827103,"station_name":"Sawah Besar","is_transit":false,"line":2},{"time":2,"station_name":"Manggabesar","i_lat":-6.149769,"line":2,"i_long":106.82482,"transit":false,"station_id":"MGB","is_transit":false,"distance":906},{"distance":1080,"transit":false,"station_name":"Jayakarta","time":2,"i_lat":-6.141205,"i_long":106.820901,"line":7,"station_id":"JAY","is_transit":false},{"station_id":"JAKK","line":0,"transit":true,"i_long":106.812439,"time":4,"i_lat":-6.137569,"station_name":"Jakarta Kota","distance":1264,"is_transit":true},{"distance":1364,"transit":true,"i_lat":-6.132549,"station_id":"KPB","is_transit":true,"time":3,"i_long":106.826365,"station_name":"Kampung Bandan","line":0},{"station_name":"Rajawali","time":3,"station_id":"RJW","distance":1444,"i_lat":-6.14505,"i_long":106.836569,"line":11,"is_transit":false,"transit":false},{"transit":false,"time":5,"is_transit":false,"distance":1901,"i_long":106.839204,"line":11,"station_id":"KMO","i_lat":-6.161728,"station_name":"Kemayoran"},{"is_transit":false,"line":11,"distance":1436,"station_name":"Pasar Senen","transit":false,"station_id":"PSE","time":4,"i_long":106.84368,"i_lat":-6.174784},{"time":8,"station_name":"Gang Sentiong","i_lat":-6.185975,"distance":1567,"transit":false,"i_long":106.850107,"station_id":"GST","line":11,"is_transit":false},{"station_name":"Kramat","i_long":106.855437,"transit":false,"time":1,"distance":973,"station_id":"KMT","line":11,"i_lat":-6.193792,"is_transit":false},{"distance":1829,"station_id":"POK","transit":false,"line":11,"is_transit":false,"time":2,"i_long":106.861737,"i_lat":-6.209188,"station_name":"Pondok Jati"},{"i_lat":-6.215091,"is_transit":true,"distance":1236,"i_long":106.86807400000001,"time":9,"line":0,"station_name":"Jatinegara","transit":true,"station_id":"JNG"},{"i_long":106.899548,"distance":3395,"time":3,"transit":false,"station_name":"Klender","station_id":"KLD","i_lat":-6.2135,"line":1,"is_transit":false},{"i_lat":-6.215568,"station_name":"Buaran","station_id":"BUA","time":2,"line":0,"is_transit":false,"distance":3100,"i_long":106.922662,"transit":false},{"transit":false,"time":1,"station_name":"Klenderbaru","i_lat":-6.217455,"distance":1305,"station_id":"KLDB","is_transit":false,"i_long":106.939679,"line":1},{"i_long":106.951283,"station_id":"CUK","is_transit":false,"distance":1385,"i_lat":-6.219053,"time":8,"line":0,"transit":false,"station_name":"Cakung"}]]}