{"data":[[{"i_long":106.856607,"transit":false,"station_id":"CW","time":0,"distance":0,"is_transit":false,"line":2,"i_lat":-6.242512,"station_name":"Cawang"},{"station_id":"DRN","station_name":"Duren Kalibata","is_transit":false,"i_lat":-6.255332,"line":2,"time":3,"transit":false,"i_long":106.85449,"distance":1546},{"time":2,"line":2,"is_transit":false,"station_id":"PSMB","i_lat":-6.263214,"station_name":"Pasar Minggu Baru","i_long":106.851577,"distance":824,"transit":false},{"distance":2380,"i_lat":-6.2842400000000005,"time":2,"i_long":106.843999,"line":2,"transit":false,"station_name":"Pasar Minggu","station_id":"PSM","is_transit":false},{"i_lat":-6.3080680000000005,"station_name":"Tanjung Barat","i_long":106.838896,"is_transit":false,"station_id":"TNT","transit":false,"line":2,"time":4,"distance":2820},{"i_lat":-6.330363,"distance":2671,"i_long":106.832616,"transit":false,"station_id":"LNA","station_name":"Lenteng Agung","is_transit":false,"time":3,"line":2},{"station_name":"Univ. Pancasila","station_id":"UP","i_lat":-6.339291,"is_transit":false,"distance":1029,"time":2,"i_long":106.834175,"line":2,"transit":false},{"time":3,"line":2,"is_transit":false,"distance":2264,"i_long":106.831474,"station_id":"UI","station_name":"Univ. Indonesia","i_lat":-6.360749,"transit":false},{"station_name":"Pondok Cina","is_transit":false,"distance":1109,"station_id":"POC","transit":false,"i_lat":-6.369073,"time":2,"line":2,"i_long":106.831114},{"i_lat":-6.391065,"transit":false,"time":4,"distance":2727,"station_name":"Depokbaru","i_long":106.819451,"station_id":"DPB","is_transit":false,"line":2},{"station_id":"DP","transit":false,"station_name":"Depok","time":3,"i_lat":-6.405256,"distance":1584,"is_transit":false,"line":2,"i_long":106.816926},{"line":2,"i_long":106.800298,"is_transit":false,"time":6,"transit":false,"station_name":"Citayam","i_lat":-6.448811,"station_id":"CTA","distance":5084}]]}