{"data":[[{"time":0,"i_lat":-6.242512,"distance":0,"transit":false,"i_long":106.856607,"line":2,"is_transit":false,"station_name":"Cawang","station_id":"CW"},{"station_name":"Tebet","i_long":106.857948,"line":2,"station_id":"TEB","is_transit":false,"distance":1230,"transit":false,"i_lat":-6.226659,"time":2},{"line":2,"i_long":106.84912,"time":4,"station_id":"MRI","transit":true,"i_lat":-6.209883,"station_name":"Manggarai","distance":2610,"is_transit":true},{"station_name":"Sudirman","is_transit":false,"distance":3186,"line":1,"time":4,"i_lat":-6.202263,"i_long":106.822649,"station_id":"SUD","transit":false},{"station_id":"SUDB","i_long":106.819881,"station_name":"Sudirman Baru","transit":false,"distance":280,"is_transit":false,"i_lat":-6.201433,"line":1,"time":1},{"time":1,"station_name":"Karet","distance":471,"station_id":"KAT","line":1,"is_transit":false,"transit":false,"i_lat":-6.20132,"i_long":106.816351},{"i_long":106.811091,"is_transit":true,"time":5,"line":1,"transit":true,"station_name":"Tanah Abang","distance":2029,"i_lat":-6.185545,"station_id":"THB"},{"station_name":"Palmerah","line":6,"time":6,"station_id":"PLM","is_transit":false,"distance":3191,"transit":false,"i_lat":-6.207404,"i_long":106.79689},{"i_long":106.780334,"is_transit":false,"time":7,"distance":3737,"station_name":"Kebayoran","i_lat":-6.237242,"line":6,"station_id":"KBY","transit":false},{"i_lat":-6.276362,"is_transit":false,"i_long":106.74273,"distance":6218,"station_id":"PDJ","line":6,"time":8,"station_name":"Pondokranji","transit":false},{"i_long":106.728916,"line":6,"time":3,"distance":2179,"station_id":"JMU","is_transit":false,"transit":false,"station_name":"Jurangmangu","i_lat":-6.288927}],[{"line":2,"i_long":106.856607,"station_id":"CW","station_name":"Cawang","i_lat":-6.242512,"transit":false,"time":0,"distance":0,"is_transit":false},{"distance":1230,"is_transit":false,"transit":false,"time":2,"station_name":"Tebet","i_long":106.857948,"station_id":"TEB","i_lat":-6.226659,"line":2},{"i_lat":-6.209883,"time":4,"station_name":"Manggarai","is_transit":false,"transit":false,"station_id":"MRI","distance":2610,"i_long":106.84912,"line":2},{"station_name":"Cikini","station_id":"CKI","time":4,"i_long":106.840169,"transit":false,"is_transit":false,"i_lat":-6.198556,"line":2,"distance":1590},{"is_transit":false,"station_id":"GDD","station_name":"Gondangdia","time":3,"transit":false,"distance":1750,"i_lat":-6.186295,"line":2,"i_long":106.832183},{"station_name":"Juanda","i_lat":-6.166716,"i_long":106.828284,"transit":false,"time":4,"distance":2015,"is_transit":false,"line":2,"station_id":"JUA"},{"transit":false,"i_long":106.827103,"line":2,"station_id":"SW","is_transit":false,"distance":1149,"station_name":"Sawah Besar","i_lat":-6.160725,"time":2},{"i_long":106.82482,"is_transit":false,"line":2,"time":2,"station_name":"Manggabesar","i_lat":-6.149769,"distance":906,"station_id":"MGB","transit":false},{"i_lat":-6.141205,"i_long":106.820901,"time":2,"line":2,"station_name":"Jayakarta","is_transit":false,"distance":1080,"transit":false,"station_id":"JAY"},{"line":2,"i_long":106.812439,"time":4,"distance":1264,"station_id":"JAKK","is_transit":true,"transit":true,"i_lat":-6.137569,"station_name":"Jakarta Kota"},{"station_name":"Kampung Bandan","station_id":"KPB","transit":true,"i_long":106.826365,"is_transit":true,"i_lat":-6.132549,"line":4,"distance":1364,"time":3},{"i_lat":-6.144674,"is_transit":false,"i_long":106.79867,"line":1,"station_id":"AK","time":9,"distance":4102,"station_name":"Angke","transit":false},{"distance":1230,"line":1,"i_long":106.800832,"transit":false,"is_transit":false,"time":4,"station_id":"DU","station_name":"Duri","i_lat":-6.155215},{"is_transit":true,"station_name":"Tanah Abang","transit":true,"i_lat":-6.185545,"station_id":"THB","i_long":106.811091,"line":1,"time":8,"distance":3632},{"distance":3191,"time":6,"transit":false,"i_long":106.79689,"station_name":"Palmerah","is_transit":false,"station_id":"PLM","line":6,"i_lat":-6.207404},{"i_long":106.780334,"station_name":"Kebayoran","distance":3737,"station_id":"KBY","is_transit":false,"i_lat":-6.237242,"time":7,"transit":false,"line":6},{"station_id":"PDJ","distance":6218,"station_name":"Pondokranji","transit":false,"i_long":106.74273,"i_lat":-6.276362,"time":8,"line":6,"is_transit":false},{"line":6,"time":3,"distance":2179,"i_long":106.728916,"station_id":"JMU","transit":false,"i_lat":-6.288927,"station_name":"Jurangmangu","is_transit":false}],[{"station_id":"CW","time":0,"station_name":"Cawang","is_transit":false,"transit":false,"distance":0,"line":2,"i_lat":-6.242512,"i_long":106.856607},{"transit":false,"station_id":"TEB","station_name":"Tebet","distance":1230,"is_transit":false,"time":2,"i_lat":-6.226659,"i_long":106.857948,"line":2},{"transit":true,"line":2,"time":4,"station_name":"Manggarai","is_transit":true,"distance":2610,"station_id":"MRI","i_lat":-6.209883,"i_long":106.84912},{"is_transit":false,"distance":1275,"transit":false,"station_name":"Matraman","time":2,"i_lat":-6.212485,"station_id":"MTR","i_long":106.858896,"line":1},{"is_transit":true,"i_lat":-6.215091,"line":1,"transit":true,"i_long":106.86807400000001,"distance":1377,"station_id":"JNG","station_name":"Jatinegara","time":8},{"line":11,"time":2,"transit":false,"station_id":"POK","station_name":"Pondok Jati","distance":1236,"i_lat":-6.209188,"is_transit":false,"i_long":106.861737},{"is_transit":false,"station_id":"KMT","transit":false,"time":2,"distance":1829,"i_lat":-6.193792,"line":11,"i_long":106.855437,"station_name":"Kramat"},{"time":1,"is_transit":false,"line":11,"transit":false,"distance":973,"station_id":"GST","station_name":"Gang Sentiong","i_lat":-6.185975,"i_long":106.850107},{"i_long":106.84368,"line":11,"transit":false,"station_id":"PSE","station_name":"Pasar Senen","distance":1567,"is_transit":false,"i_lat":-6.174784,"time":8},{"i_long":106.839204,"distance":1436,"time":4,"station_name":"Kemayoran","transit":false,"i_lat":-6.161728,"line":11,"station_id":"KMO","is_transit":false},{"station_id":"RJW","i_lat":-6.14505,"time":5,"line":11,"is_transit":false,"i_long":106.836569,"transit":false,"station_name":"Rajawali","distance":1901},{"station_id":"KPB","distance":1444,"transit":true,"i_lat":-6.132549,"line":4,"is_transit":true,"i_long":106.826365,"time":3,"station_name":"Kampung Bandan"},{"is_transit":false,"station_name":"Angke","transit":false,"line":1,"distance":4102,"station_id":"AK","i_long":106.79867,"time":9,"i_lat":-6.144674},{"i_lat":-6.155215,"i_long":106.800832,"station_name":"Duri","is_transit":false,"transit":false,"line":1,"distance":1230,"time":4,"station_id":"DU"},{"line":1,"time":8,"is_transit":true,"i_long":106.811091,"station_id":"THB","station_name":"Tanah Abang","i_lat":-6.185545,"distance":3632,"transit":true},{"i_long":106.79689,"is_transit":false,"i_lat":-6.207404,"transit":false,"line":6,"station_id":"PLM","distance":3191,"station_name":"Palmerah","time":6},{"station_name":"Kebayoran","i_lat":-6.237242,"station_id":"KBY","is_transit":false,"distance":3737,"line":6,"i_long":106.780334,"transit":false,"time":7},{"transit":false,"line":6,"i_lat":-6.276362,"i_long":106.74273,"station_id":"PDJ","station_name":"Pondokranji","distance":6218,"time":8,"is_transit":false},{"line":6,"is_transit":false,"station_id":"JMU","i_lat":-6.288927,"distance":2179,"i_long":106.728916,"time":3,"station_name":"Jurangmangu","transit":false}]]}