{"data":[[{"time":0,"distance":0,"transit":false,"i_lat":-6.242512,"line":2,"i_long":106.856607,"station_name":"Cawang","is_transit":false,"station_id":"CW"},{"is_transit":false,"time":2,"station_id":"TEB","i_long":106.857948,"distance":1230,"line":2,"station_name":"Tebet","i_lat":-6.226659,"transit":false},{"i_lat":-6.209883,"transit":true,"station_id":"MRI","station_name":"Manggarai","i_long":106.84912,"time":4,"distance":2610,"line":2,"is_transit":true},{"station_id":"SUD","is_transit":false,"time":4,"line":1,"distance":3186,"i_lat":-6.202263,"station_name":"Sudirman","i_long":106.822649,"transit":false},{"station_id":"SUDB","i_long":106.819881,"i_lat":-6.201433,"transit":false,"time":1,"is_transit":false,"distance":280,"station_name":"Sudirman Baru","line":1},{"i_long":106.816351,"distance":471,"line":1,"transit":false,"i_lat":-6.20132,"time":1,"station_id":"KAT","station_name":"Karet","is_transit":false},{"is_transit":true,"station_id":"THB","transit":true,"station_name":"Tanah Abang","distance":2029,"i_long":106.811091,"time":5,"line":1,"i_lat":-6.185545},{"transit":false,"line":6,"time":6,"i_long":106.79689,"station_name":"Palmerah","station_id":"PLM","distance":3191,"is_transit":false,"i_lat":-6.207404},{"i_long":106.780334,"transit":false,"line":6,"station_id":"KBY","time":7,"distance":3737,"station_name":"Kebayoran","is_transit":false,"i_lat":-6.237242},{"time":8,"i_lat":-6.276362,"station_id":"PDJ","i_long":106.74273,"transit":false,"is_transit":false,"station_name":"Pondokranji","line":6,"distance":6218},{"time":3,"station_name":"Jurangmangu","distance":2179,"station_id":"JMU","is_transit":false,"i_long":106.728916,"transit":false,"i_lat":-6.288927,"line":6}],[{"i_long":106.856607,"station_name":"Cawang","i_lat":-6.242512,"is_transit":false,"station_id":"CW","distance":0,"line":2,"time":0,"transit":false},{"i_lat":-6.226659,"distance":1230,"line":2,"transit":false,"i_long":106.857948,"is_transit":false,"time":2,"station_id":"TEB","station_name":"Tebet"},{"i_lat":-6.209883,"distance":2610,"i_long":106.84912,"time":4,"transit":false,"is_transit":false,"line":2,"station_id":"MRI","station_name":"Manggarai"},{"time":4,"station_name":"Cikini","distance":1590,"station_id":"CKI","is_transit":false,"transit":false,"i_long":106.840169,"i_lat":-6.198556,"line":2},{"distance":1750,"station_name":"Gondangdia","time":3,"line":2,"transit":false,"is_transit":false,"i_lat":-6.186295,"station_id":"GDD","i_long":106.832183},{"time":4,"line":2,"station_name":"Juanda","distance":2015,"i_long":106.828284,"i_lat":-6.166716,"station_id":"JUA","transit":false,"is_transit":false},{"station_id":"SW","station_name":"Sawah Besar","line":2,"time":2,"i_lat":-6.160725,"i_long":106.827103,"distance":1149,"is_transit":false,"transit":false},{"station_id":"MGB","is_transit":false,"line":2,"i_long":106.82482,"i_lat":-6.149769,"distance":906,"time":2,"transit":false,"station_name":"Manggabesar"},{"is_transit":false,"transit":false,"i_lat":-6.141205,"line":2,"i_long":106.820901,"station_name":"Jayakarta","time":2,"station_id":"JAY","distance":1080},{"is_transit":true,"time":4,"i_long":106.812439,"station_name":"Jakarta Kota","transit":true,"i_lat":-6.137569,"distance":1264,"station_id":"JAKK","line":2},{"time":3,"transit":true,"is_transit":true,"station_id":"KPB","line":4,"distance":1364,"station_name":"Kampung Bandan","i_long":106.826365,"i_lat":-6.132549},{"station_id":"AK","transit":false,"distance":4102,"i_lat":-6.144674,"station_name":"Angke","line":1,"is_transit":false,"i_long":106.79867,"time":9},{"distance":1230,"station_id":"DU","i_lat":-6.155215,"transit":false,"time":4,"is_transit":false,"i_long":106.800832,"station_name":"Duri","line":1},{"distance":3632,"is_transit":true,"station_name":"Tanah Abang","time":8,"transit":true,"i_lat":-6.185545,"i_long":106.811091,"line":1,"station_id":"THB"},{"i_lat":-6.207404,"line":6,"time":6,"is_transit":false,"distance":3191,"transit":false,"station_id":"PLM","station_name":"Palmerah","i_long":106.79689},{"i_lat":-6.237242,"transit":false,"is_transit":false,"i_long":106.780334,"distance":3737,"station_id":"KBY","station_name":"Kebayoran","time":7,"line":6},{"line":6,"distance":6218,"station_name":"Pondokranji","is_transit":false,"time":8,"transit":false,"station_id":"PDJ","i_lat":-6.276362,"i_long":106.74273},{"line":6,"i_lat":-6.288927,"time":3,"distance":2179,"station_id":"JMU","transit":false,"station_name":"Jurangmangu","i_long":106.728916,"is_transit":false}],[{"transit":false,"time":0,"station_name":"Cawang","i_lat":-6.242512,"i_long":106.856607,"distance":0,"line":2,"is_transit":false,"station_id":"CW"},{"line":2,"is_transit":false,"distance":1230,"transit":false,"station_name":"Tebet","i_lat":-6.226659,"time":2,"station_id":"TEB","i_long":106.857948},{"transit":true,"station_name":"Manggarai","i_long":106.84912,"distance":2610,"line":2,"station_id":"MRI","time":4,"i_lat":-6.209883,"is_transit":true},{"time":2,"station_name":"Matraman","i_lat":-6.212485,"i_long":106.858896,"line":1,"station_id":"MTR","is_transit":false,"distance":1275,"transit":false},{"station_name":"Jatinegara","transit":true,"i_lat":-6.215091,"is_transit":true,"line":1,"i_long":106.86807400000001,"time":8,"distance":1377,"station_id":"JNG"},{"i_lat":-6.209188,"time":2,"station_name":"Pondok Jati","distance":1236,"station_id":"POK","line":11,"transit":false,"is_transit":false,"i_long":106.861737},{"distance":1829,"i_long":106.855437,"line":11,"i_lat":-6.193792,"station_id":"KMT","transit":false,"station_name":"Kramat","is_transit":false,"time":2},{"i_lat":-6.185975,"distance":973,"i_long":106.850107,"time":1,"is_transit":false,"station_id":"GST","transit":false,"line":11,"station_name":"Gang Sentiong"},{"station_name":"Pasar Senen","transit":false,"time":8,"distance":1567,"is_transit":false,"i_lat":-6.174784,"i_long":106.84368,"line":11,"station_id":"PSE"},{"i_lat":-6.161728,"is_transit":false,"i_long":106.839204,"time":4,"transit":false,"station_id":"KMO","line":11,"station_name":"Kemayoran","distance":1436},{"line":11,"is_transit":false,"station_id":"RJW","i_long":106.836569,"i_lat":-6.14505,"time":5,"distance":1901,"transit":false,"station_name":"Rajawali"},{"time":3,"station_name":"Kampung Bandan","i_lat":-6.132549,"is_transit":true,"i_long":106.826365,"transit":true,"distance":1444,"station_id":"KPB","line":4},{"station_name":"Angke","i_long":106.79867,"distance":4102,"line":1,"station_id":"AK","i_lat":-6.144674,"transit":false,"is_transit":false,"time":9},{"is_transit":false,"line":1,"time":4,"transit":false,"i_lat":-6.155215,"station_name":"Duri","i_long":106.800832,"distance":1230,"station_id":"DU"},{"time":8,"station_id":"THB","station_name":"Tanah Abang","distance":3632,"is_transit":true,"i_lat":-6.185545,"i_long":106.811091,"line":1,"transit":true},{"transit":false,"line":6,"is_transit":false,"i_lat":-6.207404,"time":6,"distance":3191,"station_id":"PLM","station_name":"Palmerah","i_long":106.79689},{"is_transit":false,"station_id":"KBY","distance":3737,"transit":false,"station_name":"Kebayoran","time":7,"line":6,"i_lat":-6.237242,"i_long":106.780334},{"station_id":"PDJ","distance":6218,"station_name":"Pondokranji","i_lat":-6.276362,"i_long":106.74273,"time":8,"line":6,"transit":false,"is_transit":false},{"time":3,"station_name":"Jurangmangu","i_long":106.728916,"i_lat":-6.288927,"station_id":"JMU","is_transit":false,"transit":false,"line":6,"distance":2179}]]}