{"data":[[{"time":0,"transit":false,"i_lat":-6.242512,"station_id":"CW","station_name":"Cawang","distance":0,"i_long":106.856607,"line":0,"is_transit":false},{"time":2,"i_lat":-6.226659,"i_long":106.857948,"line":2,"distance":1230,"station_id":"TEB","is_transit":false,"station_name":"Tebet","transit":false},{"time":4,"station_id":"MRI","distance":2610,"transit":true,"station_name":"Manggarai","line":0,"is_transit":true,"i_long":106.84912,"i_lat":-6.209883},{"station_id":"SUD","transit":false,"i_long":106.822649,"is_transit":false,"time":4,"distance":3186,"i_lat":-6.202263,"line":1,"station_name":"Sudirman"},{"i_lat":-6.201433,"distance":280,"time":1,"station_name":"Sudirman Baru","i_long":106.819881,"is_transit":false,"line":1,"station_id":"SUDB","transit":false},{"distance":471,"line":1,"station_name":"Karet","time":1,"station_id":"KAT","is_transit":false,"transit":false,"i_lat":-6.20132,"i_long":106.816351},{"station_id":"THB","distance":2029,"i_lat":-6.185545,"time":5,"line":1,"transit":true,"i_long":106.811091,"station_name":"Tanah Abang","is_transit":true},{"station_name":"Palmerah","station_id":"PLM","distance":3191,"i_long":106.79689,"transit":false,"line":6,"is_transit":false,"time":6,"i_lat":-6.207404},{"is_transit":false,"line":6,"i_long":106.780334,"time":7,"i_lat":-6.237242,"distance":3737,"transit":false,"station_id":"KBY","station_name":"Kebayoran"},{"station_id":"PDJ","station_name":"Pondokranji","i_long":106.74273,"time":8,"i_lat":-6.276362,"is_transit":false,"transit":false,"distance":6218,"line":6},{"is_transit":false,"time":3,"i_lat":-6.288927,"station_name":"Jurangmangu","station_id":"JMU","i_long":106.728916,"line":6,"distance":2179,"transit":false}],[{"transit":false,"station_name":"Cawang","distance":0,"i_lat":-6.242512,"line":0,"time":0,"station_id":"CW","i_long":106.856607,"is_transit":false},{"line":2,"i_long":106.857948,"is_transit":false,"station_name":"Tebet","transit":false,"i_lat":-6.226659,"station_id":"TEB","time":2,"distance":1230},{"i_long":106.84912,"transit":true,"i_lat":-6.209883,"line":0,"is_transit":true,"distance":2610,"station_id":"MRI","station_name":"Manggarai","time":4},{"time":4,"station_name":"Cikini","transit":false,"i_lat":-6.198556,"i_long":106.840169,"distance":1590,"line":0,"station_id":"CKI","is_transit":false},{"i_lat":-6.186295,"station_id":"GDD","is_transit":false,"distance":1750,"time":3,"station_name":"Gondangdia","transit":false,"i_long":106.832183,"line":2},{"station_name":"Juanda","transit":false,"station_id":"JUA","i_long":106.828284,"is_transit":false,"time":4,"i_lat":-6.166716,"line":2,"distance":2015},{"station_name":"Sawah Besar","i_lat":-6.160725,"distance":1149,"line":2,"time":2,"i_long":106.827103,"station_id":"SW","is_transit":false,"transit":false},{"station_id":"MGB","distance":906,"time":2,"i_lat":-6.149769,"line":2,"i_long":106.82482,"transit":false,"is_transit":false,"station_name":"Manggabesar"},{"line":7,"station_name":"Jayakarta","time":2,"transit":false,"i_long":106.820901,"i_lat":-6.141205,"station_id":"JAY","distance":1080,"is_transit":false},{"time":4,"i_lat":-6.137569,"distance":1264,"transit":true,"line":0,"i_long":106.812439,"station_id":"JAKK","station_name":"Jakarta Kota","is_transit":true},{"is_transit":true,"time":3,"station_id":"KPB","i_long":106.826365,"line":0,"station_name":"Kampung Bandan","transit":false,"i_lat":-6.132549,"distance":1364},{"station_id":"AK","is_transit":false,"transit":false,"time":9,"i_lat":-6.144674,"station_name":"Angke","i_long":106.79867,"line":0,"distance":4102},{"station_id":"DU","time":4,"i_long":106.800832,"transit":true,"i_lat":-6.155215,"station_name":"Duri","line":1,"distance":1230,"is_transit":true},{"distance":3632,"station_name":"Tanah Abang","station_id":"THB","i_long":106.811091,"time":8,"transit":true,"i_lat":-6.185545,"is_transit":true,"line":1},{"station_name":"Palmerah","line":6,"transit":false,"time":6,"station_id":"PLM","is_transit":false,"distance":3191,"i_lat":-6.207404,"i_long":106.79689},{"time":7,"distance":3737,"i_lat":-6.237242,"i_long":106.780334,"station_id":"KBY","transit":false,"line":6,"station_name":"Kebayoran","is_transit":false},{"station_id":"PDJ","line":6,"station_name":"Pondokranji","is_transit":false,"transit":false,"distance":6218,"time":8,"i_long":106.74273,"i_lat":-6.276362},{"i_lat":-6.288927,"line":6,"transit":false,"station_name":"Jurangmangu","time":3,"is_transit":false,"i_long":106.728916,"distance":2179,"station_id":"JMU"}],[{"i_long":106.856607,"station_id":"CW","station_name":"Cawang","is_transit":false,"i_lat":-6.242512,"distance":0,"time":0,"line":0,"transit":false},{"time":2,"i_lat":-6.226659,"station_name":"Tebet","distance":1230,"i_long":106.857948,"station_id":"TEB","line":2,"is_transit":false,"transit":false},{"transit":true,"time":4,"is_transit":true,"station_id":"MRI","station_name":"Manggarai","i_long":106.84912,"line":0,"i_lat":-6.209883,"distance":2610},{"is_transit":false,"i_long":106.858896,"time":2,"line":1,"station_name":"Matraman","station_id":"MTR","distance":1275,"i_lat":-6.212485,"transit":false},{"i_lat":-6.215091,"station_name":"Jatinegara","transit":true,"is_transit":true,"station_id":"JNG","time":8,"i_long":106.86807400000001,"distance":1377,"line":0},{"i_long":106.861737,"time":2,"is_transit":false,"station_id":"POK","station_name":"Pondok Jati","distance":1236,"transit":false,"line":11,"i_lat":-6.209188},{"time":2,"line":11,"i_lat":-6.193792,"station_name":"Kramat","i_long":106.855437,"distance":1829,"is_transit":false,"transit":false,"station_id":"KMT"},{"time":1,"distance":973,"i_lat":-6.185975,"station_name":"Gang Sentiong","is_transit":false,"i_long":106.850107,"line":11,"transit":false,"station_id":"GST"},{"station_id":"PSE","station_name":"Pasar Senen","i_long":106.84368,"is_transit":false,"distance":1567,"transit":false,"i_lat":-6.174784,"time":8,"line":11},{"i_long":106.839204,"line":11,"station_id":"KMO","transit":false,"is_transit":false,"time":4,"i_lat":-6.161728,"station_name":"Kemayoran","distance":1436},{"station_id":"RJW","station_name":"Rajawali","line":11,"distance":1901,"time":5,"i_long":106.836569,"i_lat":-6.14505,"is_transit":false,"transit":false},{"transit":true,"i_lat":-6.132549,"line":0,"station_name":"Kampung Bandan","i_long":106.826365,"station_id":"KPB","is_transit":true,"time":3,"distance":1444},{"line":0,"is_transit":false,"i_lat":-6.144674,"station_id":"AK","transit":false,"i_long":106.79867,"station_name":"Angke","time":9,"distance":4102},{"line":1,"station_name":"Duri","i_long":106.800832,"is_transit":true,"time":4,"transit":true,"i_lat":-6.155215,"station_id":"DU","distance":1230},{"i_long":106.811091,"is_transit":true,"distance":3632,"time":8,"station_name":"Tanah Abang","transit":true,"line":1,"station_id":"THB","i_lat":-6.185545},{"transit":false,"distance":3191,"line":6,"station_name":"Palmerah","time":6,"i_long":106.79689,"station_id":"PLM","is_transit":false,"i_lat":-6.207404},{"line":6,"time":7,"is_transit":false,"transit":false,"i_lat":-6.237242,"i_long":106.780334,"station_id":"KBY","station_name":"Kebayoran","distance":3737},{"is_transit":false,"i_lat":-6.276362,"station_id":"PDJ","time":8,"transit":false,"i_long":106.74273,"station_name":"Pondokranji","distance":6218,"line":6},{"distance":2179,"i_long":106.728916,"i_lat":-6.288927,"time":3,"station_id":"JMU","station_name":"Jurangmangu","line":6,"transit":false,"is_transit":false}]]}