{"data":[[{"i_long":106.856607,"transit":false,"distance":0,"line":2,"station_name":"Cawang","is_transit":false,"station_id":"CW","i_lat":-6.242512,"time":0},{"distance":1230,"station_id":"TEB","i_long":106.857948,"i_lat":-6.226659,"station_name":"Tebet","time":2,"line":2,"transit":false,"is_transit":false},{"time":4,"station_name":"Manggarai","i_lat":-6.209883,"station_id":"MRI","is_transit":true,"i_long":106.84912,"transit":true,"line":2,"distance":2610},{"line":1,"time":4,"i_lat":-6.202263,"distance":3186,"station_name":"Sudirman","station_id":"SUD","transit":false,"is_transit":false,"i_long":106.822649},{"is_transit":false,"i_long":106.819881,"distance":280,"transit":false,"line":1,"time":1,"station_name":"Sudirman Baru","station_id":"SUDB","i_lat":-6.201433},{"distance":471,"transit":false,"time":1,"station_id":"KAT","i_lat":-6.20132,"station_name":"Karet","i_long":106.816351,"is_transit":false,"line":1},{"transit":true,"time":5,"i_lat":-6.185545,"station_name":"Tanah Abang","i_long":106.811091,"line":1,"is_transit":true,"distance":2029,"station_id":"THB"},{"station_name":"Palmerah","distance":3191,"line":6,"transit":false,"is_transit":false,"station_id":"PLM","i_lat":-6.207404,"i_long":106.79689,"time":6},{"time":7,"transit":false,"station_id":"KBY","station_name":"Kebayoran","i_lat":-6.237242,"distance":3737,"i_long":106.780334,"is_transit":false,"line":6}],[{"time":0,"i_long":106.856607,"line":2,"transit":false,"distance":0,"is_transit":false,"station_id":"CW","station_name":"Cawang","i_lat":-6.242512},{"time":2,"is_transit":false,"distance":1230,"i_lat":-6.226659,"line":2,"transit":false,"i_long":106.857948,"station_name":"Tebet","station_id":"TEB"},{"line":2,"distance":2610,"i_long":106.84912,"i_lat":-6.209883,"is_transit":false,"time":4,"station_name":"Manggarai","station_id":"MRI","transit":false},{"transit":false,"i_lat":-6.198556,"i_long":106.840169,"is_transit":false,"time":4,"distance":1590,"station_name":"Cikini","station_id":"CKI","line":2},{"is_transit":false,"time":3,"i_lat":-6.186295,"distance":1750,"i_long":106.832183,"transit":false,"station_name":"Gondangdia","station_id":"GDD","line":2},{"is_transit":false,"station_name":"Juanda","line":2,"i_lat":-6.166716,"i_long":106.828284,"distance":2015,"time":4,"station_id":"JUA","transit":false},{"is_transit":false,"distance":1149,"i_lat":-6.160725,"line":2,"transit":false,"station_name":"Sawah Besar","time":2,"station_id":"SW","i_long":106.827103},{"station_name":"Manggabesar","is_transit":false,"station_id":"MGB","i_lat":-6.149769,"transit":false,"i_long":106.82482,"distance":906,"line":2,"time":2},{"distance":1080,"line":2,"i_lat":-6.141205,"station_id":"JAY","transit":false,"i_long":106.820901,"station_name":"Jayakarta","is_transit":false,"time":2},{"is_transit":true,"station_id":"JAKK","i_lat":-6.137569,"transit":true,"distance":1264,"station_name":"Jakarta Kota","time":4,"i_long":106.812439,"line":2},{"transit":true,"distance":1364,"time":3,"i_lat":-6.132549,"i_long":106.826365,"station_name":"Kampung Bandan","is_transit":true,"station_id":"KPB","line":4},{"station_id":"AK","station_name":"Angke","line":1,"distance":4102,"i_lat":-6.144674,"is_transit":false,"transit":false,"time":9,"i_long":106.79867},{"line":1,"is_transit":false,"i_lat":-6.155215,"distance":1230,"transit":false,"station_name":"Duri","i_long":106.800832,"time":4,"station_id":"DU"},{"station_id":"THB","station_name":"Tanah Abang","i_long":106.811091,"line":1,"time":8,"is_transit":true,"distance":3632,"i_lat":-6.185545,"transit":true},{"distance":3191,"i_long":106.79689,"time":6,"station_name":"Palmerah","is_transit":false,"i_lat":-6.207404,"station_id":"PLM","line":6,"transit":false},{"is_transit":false,"station_name":"Kebayoran","i_long":106.780334,"time":7,"station_id":"KBY","line":6,"transit":false,"distance":3737,"i_lat":-6.237242}],[{"is_transit":false,"station_name":"Cawang","time":0,"station_id":"CW","i_long":106.856607,"transit":false,"distance":0,"line":2,"i_lat":-6.242512},{"time":2,"station_name":"Tebet","station_id":"TEB","i_lat":-6.226659,"transit":false,"line":2,"i_long":106.857948,"distance":1230,"is_transit":false},{"is_transit":true,"line":2,"time":4,"station_id":"MRI","transit":true,"i_lat":-6.209883,"station_name":"Manggarai","i_long":106.84912,"distance":2610},{"is_transit":false,"time":2,"station_id":"MTR","transit":false,"i_lat":-6.212485,"line":1,"distance":1275,"station_name":"Matraman","i_long":106.858896},{"station_name":"Jatinegara","station_id":"JNG","i_long":106.86807400000001,"transit":true,"is_transit":true,"i_lat":-6.215091,"time":8,"line":1,"distance":1377},{"is_transit":false,"i_lat":-6.209188,"line":11,"time":2,"station_id":"POK","i_long":106.861737,"distance":1236,"station_name":"Pondok Jati","transit":false},{"distance":1829,"is_transit":false,"i_long":106.855437,"station_name":"Kramat","line":11,"transit":false,"i_lat":-6.193792,"time":2,"station_id":"KMT"},{"is_transit":false,"transit":false,"line":11,"i_lat":-6.185975,"distance":973,"station_name":"Gang Sentiong","station_id":"GST","i_long":106.850107,"time":1},{"i_lat":-6.174784,"station_id":"PSE","line":11,"transit":false,"station_name":"Pasar Senen","is_transit":false,"time":8,"i_long":106.84368,"distance":1567},{"time":4,"is_transit":false,"station_id":"KMO","transit":false,"station_name":"Kemayoran","i_lat":-6.161728,"i_long":106.839204,"line":11,"distance":1436},{"transit":false,"i_lat":-6.14505,"line":11,"is_transit":false,"i_long":106.836569,"time":5,"distance":1901,"station_name":"Rajawali","station_id":"RJW"},{"i_lat":-6.132549,"transit":true,"is_transit":true,"distance":1444,"station_name":"Kampung Bandan","i_long":106.826365,"station_id":"KPB","line":4,"time":3},{"distance":4102,"i_long":106.79867,"station_id":"AK","time":9,"station_name":"Angke","line":1,"transit":false,"is_transit":false,"i_lat":-6.144674},{"station_id":"DU","line":1,"time":4,"i_lat":-6.155215,"i_long":106.800832,"distance":1230,"is_transit":false,"station_name":"Duri","transit":false},{"i_lat":-6.185545,"i_long":106.811091,"station_id":"THB","distance":3632,"time":8,"station_name":"Tanah Abang","is_transit":true,"transit":true,"line":1},{"i_lat":-6.207404,"distance":3191,"time":6,"is_transit":false,"station_name":"Palmerah","i_long":106.79689,"line":6,"station_id":"PLM","transit":false},{"is_transit":false,"distance":3737,"i_long":106.780334,"transit":false,"station_id":"KBY","station_name":"Kebayoran","line":6,"i_lat":-6.237242,"time":7}]]}