{"data":[[{"is_transit":false,"transit":false,"station_id":"CW","time":0,"station_name":"Cawang","distance":0,"i_lat":-6.242512,"i_long":106.856607,"line":0},{"station_id":"TEB","i_lat":-6.226659,"station_name":"Tebet","is_transit":false,"transit":false,"time":2,"line":2,"distance":1230,"i_long":106.857948},{"transit":true,"line":0,"distance":2610,"station_name":"Manggarai","i_lat":-6.209883,"station_id":"MRI","i_long":106.84912,"is_transit":true,"time":4},{"station_id":"MTR","transit":false,"i_long":106.858896,"line":1,"i_lat":-6.212485,"is_transit":false,"station_name":"Matraman","time":2,"distance":1275},{"i_lat":-6.215091,"station_name":"Jatinegara","transit":false,"station_id":"JNG","is_transit":true,"time":8,"distance":1377,"i_long":106.86807400000001,"line":0},{"station_id":"KLD","i_long":106.899548,"line":1,"transit":false,"time":3,"i_lat":-6.2135,"station_name":"Klender","distance":3395,"is_transit":false},{"i_lat":-6.215568,"transit":false,"station_id":"BUA","line":0,"station_name":"Buaran","time":2,"is_transit":false,"distance":3100,"i_long":106.922662},{"i_long":106.939679,"is_transit":false,"time":1,"distance":1305,"station_name":"Klenderbaru","line":1,"station_id":"KLDB","transit":false,"i_lat":-6.217455}],[{"i_long":106.856607,"station_name":"Cawang","transit":false,"line":0,"distance":0,"is_transit":false,"station_id":"CW","time":0,"i_lat":-6.242512},{"i_long":106.857948,"time":2,"i_lat":-6.226659,"distance":1230,"line":2,"station_id":"TEB","station_name":"Tebet","is_transit":false,"transit":false},{"station_name":"Manggarai","line":0,"station_id":"MRI","time":4,"distance":2610,"is_transit":true,"transit":true,"i_lat":-6.209883,"i_long":106.84912},{"station_id":"SUD","station_name":"Sudirman","is_transit":false,"time":4,"transit":false,"i_lat":-6.202263,"distance":3186,"i_long":106.822649,"line":1},{"line":1,"transit":false,"distance":280,"i_lat":-6.201433,"time":1,"station_name":"Sudirman Baru","is_transit":false,"station_id":"SUDB","i_long":106.819881},{"i_long":106.816351,"station_name":"Karet","is_transit":false,"time":1,"i_lat":-6.20132,"line":1,"station_id":"KAT","distance":471,"transit":false},{"i_lat":-6.185545,"line":1,"is_transit":true,"transit":false,"i_long":106.811091,"station_id":"THB","time":5,"distance":2029,"station_name":"Tanah Abang"},{"is_transit":true,"station_id":"DU","i_lat":-6.155215,"i_long":106.800832,"line":1,"distance":3632,"time":8,"transit":true,"station_name":"Duri"},{"distance":1230,"station_id":"AK","is_transit":false,"station_name":"Angke","i_lat":-6.144674,"transit":false,"i_long":106.79867,"line":0,"time":4},{"station_id":"KPB","time":9,"distance":4102,"transit":true,"line":0,"is_transit":true,"station_name":"Kampung Bandan","i_lat":-6.132549,"i_long":106.826365},{"transit":false,"i_lat":-6.14505,"station_name":"Rajawali","time":3,"is_transit":false,"station_id":"RJW","distance":1444,"i_long":106.836569,"line":11},{"is_transit":false,"time":5,"i_long":106.839204,"station_name":"Kemayoran","transit":false,"station_id":"KMO","i_lat":-6.161728,"line":11,"distance":1901},{"time":4,"station_name":"Pasar Senen","is_transit":false,"transit":false,"distance":1436,"station_id":"PSE","i_long":106.84368,"i_lat":-6.174784,"line":11},{"time":8,"is_transit":false,"distance":1567,"station_id":"GST","station_name":"Gang Sentiong","line":11,"i_long":106.850107,"transit":false,"i_lat":-6.185975},{"i_long":106.855437,"station_id":"KMT","station_name":"Kramat","line":11,"is_transit":false,"time":1,"distance":973,"transit":false,"i_lat":-6.193792},{"i_lat":-6.209188,"line":11,"station_id":"POK","transit":false,"station_name":"Pondok Jati","distance":1829,"i_long":106.861737,"time":2,"is_transit":false},{"station_id":"JNG","transit":true,"line":0,"i_lat":-6.215091,"distance":1236,"time":9,"is_transit":true,"i_long":106.86807400000001,"station_name":"Jatinegara"},{"time":3,"station_id":"KLD","station_name":"Klender","transit":false,"i_lat":-6.2135,"i_long":106.899548,"line":1,"is_transit":false,"distance":3395},{"transit":false,"time":2,"station_name":"Buaran","is_transit":false,"station_id":"BUA","i_lat":-6.215568,"i_long":106.922662,"line":0,"distance":3100},{"transit":false,"is_transit":false,"i_long":106.939679,"distance":1305,"i_lat":-6.217455,"time":1,"station_id":"KLDB","line":1,"station_name":"Klenderbaru"}],[{"i_long":106.856607,"time":0,"transit":false,"line":0,"station_id":"CW","is_transit":false,"i_lat":-6.242512,"station_name":"Cawang","distance":0},{"station_name":"Tebet","station_id":"TEB","time":2,"i_long":106.857948,"distance":1230,"i_lat":-6.226659,"is_transit":false,"line":2,"transit":false},{"i_lat":-6.209883,"i_long":106.84912,"time":4,"station_id":"MRI","is_transit":true,"line":0,"station_name":"Manggarai","distance":2610,"transit":true},{"distance":1590,"line":0,"station_name":"Cikini","transit":false,"station_id":"CKI","i_long":106.840169,"i_lat":-6.198556,"is_transit":false,"time":4},{"transit":false,"station_id":"GDD","is_transit":false,"i_lat":-6.186295,"i_long":106.832183,"time":3,"station_name":"Gondangdia","distance":1750,"line":2},{"transit":false,"is_transit":false,"station_name":"Juanda","i_long":106.828284,"line":2,"station_id":"JUA","time":4,"distance":2015,"i_lat":-6.166716},{"transit":false,"distance":1149,"is_transit":false,"station_id":"SW","station_name":"Sawah Besar","i_lat":-6.160725,"line":2,"i_long":106.827103,"time":2},{"i_lat":-6.149769,"is_transit":false,"station_name":"Manggabesar","time":2,"station_id":"MGB","distance":906,"i_long":106.82482,"line":2,"transit":false},{"station_id":"JAY","distance":1080,"is_transit":false,"station_name":"Jayakarta","time":2,"transit":false,"i_lat":-6.141205,"i_long":106.820901,"line":7},{"i_long":106.812439,"is_transit":true,"distance":1264,"station_id":"JAKK","line":0,"transit":true,"station_name":"Jakarta Kota","i_lat":-6.137569,"time":4},{"line":0,"i_long":106.826365,"is_transit":true,"station_id":"KPB","station_name":"Kampung Bandan","time":3,"i_lat":-6.132549,"transit":true,"distance":1364},{"is_transit":false,"time":3,"transit":false,"i_long":106.836569,"station_name":"Rajawali","station_id":"RJW","distance":1444,"i_lat":-6.14505,"line":11},{"i_lat":-6.161728,"i_long":106.839204,"station_name":"Kemayoran","transit":false,"time":5,"line":11,"station_id":"KMO","is_transit":false,"distance":1901},{"line":11,"transit":false,"distance":1436,"station_id":"PSE","i_long":106.84368,"station_name":"Pasar Senen","time":4,"i_lat":-6.174784,"is_transit":false},{"line":11,"station_name":"Gang Sentiong","i_lat":-6.185975,"i_long":106.850107,"distance":1567,"time":8,"is_transit":false,"station_id":"GST","transit":false},{"is_transit":false,"i_lat":-6.193792,"distance":973,"station_id":"KMT","time":1,"station_name":"Kramat","line":11,"transit":false,"i_long":106.855437},{"time":2,"i_lat":-6.209188,"i_long":106.861737,"distance":1829,"line":11,"is_transit":false,"transit":false,"station_name":"Pondok Jati","station_id":"POK"},{"station_name":"Jatinegara","is_transit":true,"station_id":"JNG","distance":1236,"i_lat":-6.215091,"time":9,"line":0,"i_long":106.86807400000001,"transit":true},{"i_lat":-6.2135,"distance":3395,"time":3,"i_long":106.899548,"station_id":"KLD","is_transit":false,"transit":false,"station_name":"Klender","line":1},{"is_transit":false,"station_id":"BUA","i_long":106.922662,"line":0,"transit":false,"time":2,"distance":3100,"station_name":"Buaran","i_lat":-6.215568},{"station_id":"KLDB","station_name":"Klenderbaru","i_long":106.939679,"time":1,"line":1,"transit":false,"distance":1305,"is_transit":false,"i_lat":-6.217455}]]}