{"data":[[{"i_lat":-6.242512,"i_long":106.856607,"line":2,"transit":false,"station_id":"CW","time":0,"station_name":"Cawang","distance":0,"is_transit":false},{"time":2,"line":2,"distance":1230,"i_lat":-6.226659,"station_id":"TEB","station_name":"Tebet","transit":false,"is_transit":false,"i_long":106.857948},{"transit":true,"line":2,"i_lat":-6.209883,"station_id":"MRI","is_transit":true,"time":4,"i_long":106.84912,"station_name":"Manggarai","distance":2610},{"time":2,"i_lat":-6.212485,"line":1,"is_transit":false,"station_name":"Matraman","distance":1275,"station_id":"MTR","i_long":106.858896,"transit":false},{"i_long":106.86807400000001,"transit":false,"station_name":"Jatinegara","station_id":"JNG","i_lat":-6.215091,"time":8,"distance":1377,"is_transit":false,"line":1},{"station_name":"Klender","distance":3395,"i_long":106.899548,"line":1,"station_id":"KLD","is_transit":false,"time":3,"i_lat":-6.2135,"transit":false}],[{"i_lat":-6.242512,"station_id":"CW","distance":0,"i_long":106.856607,"line":2,"transit":false,"is_transit":false,"station_name":"Cawang","time":0},{"station_name":"Tebet","is_transit":false,"i_lat":-6.226659,"i_long":106.857948,"line":2,"station_id":"TEB","transit":false,"time":2,"distance":1230},{"i_long":106.84912,"line":2,"station_name":"Manggarai","is_transit":true,"time":4,"transit":true,"distance":2610,"station_id":"MRI","i_lat":-6.209883},{"i_long":106.822649,"line":1,"is_transit":false,"time":4,"distance":3186,"station_id":"SUD","i_lat":-6.202263,"station_name":"Sudirman","transit":false},{"i_long":106.819881,"line":1,"time":1,"transit":false,"is_transit":false,"i_lat":-6.201433,"station_name":"Sudirman Baru","distance":280,"station_id":"SUDB"},{"i_long":106.816351,"line":1,"station_id":"KAT","transit":false,"distance":471,"time":1,"station_name":"Karet","is_transit":false,"i_lat":-6.20132},{"transit":false,"i_long":106.811091,"time":5,"i_lat":-6.185545,"station_name":"Tanah Abang","station_id":"THB","is_transit":false,"distance":2029,"line":1},{"line":1,"station_name":"Duri","i_long":106.800832,"i_lat":-6.155215,"distance":3632,"time":8,"transit":false,"station_id":"DU","is_transit":false},{"i_lat":-6.144674,"is_transit":false,"i_long":106.79867,"time":4,"distance":1230,"station_id":"AK","transit":false,"station_name":"Angke","line":1},{"i_long":106.826365,"transit":true,"distance":4102,"is_transit":true,"time":9,"station_name":"Kampung Bandan","line":4,"station_id":"KPB","i_lat":-6.132549},{"i_long":106.836569,"line":11,"distance":1444,"is_transit":false,"i_lat":-6.14505,"transit":false,"station_id":"RJW","station_name":"Rajawali","time":3},{"is_transit":false,"distance":1901,"i_long":106.839204,"i_lat":-6.161728,"line":11,"transit":false,"station_name":"Kemayoran","station_id":"KMO","time":5},{"transit":false,"station_name":"Pasar Senen","distance":1436,"station_id":"PSE","is_transit":false,"i_long":106.84368,"time":4,"line":11,"i_lat":-6.174784},{"distance":1567,"i_long":106.850107,"station_name":"Gang Sentiong","is_transit":false,"time":8,"line":11,"transit":false,"i_lat":-6.185975,"station_id":"GST"},{"station_name":"Kramat","time":1,"distance":973,"line":11,"is_transit":false,"i_lat":-6.193792,"station_id":"KMT","i_long":106.855437,"transit":false},{"station_name":"Pondok Jati","line":11,"time":2,"station_id":"POK","is_transit":false,"i_lat":-6.209188,"distance":1829,"i_long":106.861737,"transit":false},{"i_long":106.86807400000001,"distance":1236,"is_transit":true,"station_name":"Jatinegara","i_lat":-6.215091,"line":1,"transit":true,"time":9,"station_id":"JNG"},{"station_name":"Klender","time":3,"station_id":"KLD","transit":false,"is_transit":false,"distance":3395,"i_long":106.899548,"i_lat":-6.2135,"line":1}],[{"distance":0,"line":2,"transit":false,"station_name":"Cawang","is_transit":false,"i_lat":-6.242512,"time":0,"i_long":106.856607,"station_id":"CW"},{"i_lat":-6.226659,"is_transit":false,"i_long":106.857948,"transit":false,"line":2,"time":2,"distance":1230,"station_name":"Tebet","station_id":"TEB"},{"is_transit":false,"time":4,"distance":2610,"station_name":"Manggarai","station_id":"MRI","i_lat":-6.209883,"line":2,"i_long":106.84912,"transit":false},{"distance":1590,"time":4,"line":2,"is_transit":false,"station_id":"CKI","station_name":"Cikini","transit":false,"i_long":106.840169,"i_lat":-6.198556},{"time":3,"line":2,"i_long":106.832183,"station_name":"Gondangdia","distance":1750,"i_lat":-6.186295,"transit":false,"is_transit":false,"station_id":"GDD"},{"station_id":"JUA","distance":2015,"time":4,"is_transit":false,"i_lat":-6.166716,"i_long":106.828284,"line":2,"station_name":"Juanda","transit":false},{"transit":false,"line":2,"station_name":"Sawah Besar","i_lat":-6.160725,"station_id":"SW","i_long":106.827103,"distance":1149,"is_transit":false,"time":2},{"i_lat":-6.149769,"transit":false,"i_long":106.82482,"time":2,"line":2,"station_name":"Manggabesar","distance":906,"station_id":"MGB","is_transit":false},{"time":2,"distance":1080,"i_lat":-6.141205,"station_id":"JAY","line":2,"i_long":106.820901,"transit":false,"is_transit":false,"station_name":"Jayakarta"},{"transit":true,"time":4,"i_lat":-6.137569,"station_id":"JAKK","station_name":"Jakarta Kota","i_long":106.812439,"is_transit":true,"distance":1264,"line":2},{"distance":1364,"station_name":"Kampung Bandan","is_transit":true,"i_lat":-6.132549,"i_long":106.826365,"line":4,"transit":true,"time":3,"station_id":"KPB"},{"station_id":"RJW","line":11,"distance":1444,"transit":false,"station_name":"Rajawali","time":3,"i_lat":-6.14505,"is_transit":false,"i_long":106.836569},{"station_id":"KMO","i_long":106.839204,"line":11,"distance":1901,"is_transit":false,"station_name":"Kemayoran","transit":false,"time":5,"i_lat":-6.161728},{"i_long":106.84368,"station_name":"Pasar Senen","transit":false,"station_id":"PSE","i_lat":-6.174784,"time":4,"line":11,"is_transit":false,"distance":1436},{"station_id":"GST","distance":1567,"station_name":"Gang Sentiong","i_long":106.850107,"i_lat":-6.185975,"transit":false,"is_transit":false,"line":11,"time":8},{"transit":false,"line":11,"is_transit":false,"distance":973,"time":1,"i_lat":-6.193792,"station_name":"Kramat","station_id":"KMT","i_long":106.855437},{"station_name":"Pondok Jati","station_id":"POK","is_transit":false,"i_long":106.861737,"transit":false,"i_lat":-6.209188,"distance":1829,"line":11,"time":2},{"line":1,"time":9,"i_long":106.86807400000001,"transit":true,"distance":1236,"i_lat":-6.215091,"station_name":"Jatinegara","station_id":"JNG","is_transit":true},{"i_lat":-6.2135,"line":1,"transit":false,"station_id":"KLD","is_transit":false,"station_name":"Klender","distance":3395,"i_long":106.899548,"time":3}]]}