{"data":[[{"transit":false,"distance":0,"time":0,"line":0,"is_transit":false,"i_lat":-6.242512,"i_long":106.856607,"station_name":"Cawang","station_id":"CW"},{"is_transit":false,"distance":1230,"station_id":"TEB","station_name":"Tebet","time":2,"i_lat":-6.226659,"transit":false,"i_long":106.857948,"line":2},{"i_long":106.84912,"line":0,"time":4,"station_name":"Manggarai","distance":2610,"station_id":"MRI","transit":true,"is_transit":true,"i_lat":-6.209883},{"transit":false,"distance":1275,"time":2,"i_long":106.858896,"station_id":"MTR","station_name":"Matraman","line":1,"is_transit":false,"i_lat":-6.212485},{"i_lat":-6.215091,"station_name":"Jatinegara","i_long":106.86807400000001,"station_id":"JNG","transit":false,"line":0,"distance":1377,"is_transit":true,"time":8},{"time":3,"is_transit":false,"transit":false,"station_id":"KLD","distance":3395,"station_name":"Klender","i_lat":-6.2135,"i_long":106.899548,"line":1}],[{"transit":false,"time":0,"i_lat":-6.242512,"distance":0,"station_name":"Cawang","i_long":106.856607,"line":0,"is_transit":false,"station_id":"CW"},{"i_long":106.857948,"time":2,"line":2,"is_transit":false,"station_id":"TEB","i_lat":-6.226659,"transit":false,"distance":1230,"station_name":"Tebet"},{"distance":2610,"station_id":"MRI","station_name":"Manggarai","i_long":106.84912,"transit":true,"line":0,"is_transit":true,"i_lat":-6.209883,"time":4},{"station_name":"Sudirman","line":1,"transit":false,"distance":3186,"is_transit":false,"time":4,"station_id":"SUD","i_long":106.822649,"i_lat":-6.202263},{"distance":280,"station_name":"Sudirman Baru","transit":false,"is_transit":false,"station_id":"SUDB","time":1,"i_lat":-6.201433,"line":1,"i_long":106.819881},{"transit":false,"time":1,"distance":471,"i_lat":-6.20132,"i_long":106.816351,"station_id":"KAT","is_transit":false,"line":1,"station_name":"Karet"},{"is_transit":true,"i_lat":-6.185545,"transit":false,"i_long":106.811091,"time":5,"station_id":"THB","line":1,"distance":2029,"station_name":"Tanah Abang"},{"i_lat":-6.155215,"is_transit":true,"i_long":106.800832,"line":1,"station_id":"DU","transit":true,"distance":3632,"station_name":"Duri","time":8},{"station_id":"AK","i_long":106.79867,"line":0,"transit":false,"i_lat":-6.144674,"is_transit":false,"station_name":"Angke","distance":1230,"time":4},{"is_transit":true,"time":9,"i_lat":-6.132549,"i_long":106.826365,"transit":true,"station_id":"KPB","distance":4102,"station_name":"Kampung Bandan","line":0},{"line":11,"distance":1444,"station_name":"Rajawali","station_id":"RJW","is_transit":false,"time":3,"i_lat":-6.14505,"i_long":106.836569,"transit":false},{"station_id":"KMO","time":5,"transit":false,"is_transit":false,"i_lat":-6.161728,"i_long":106.839204,"line":11,"station_name":"Kemayoran","distance":1901},{"distance":1436,"station_name":"Pasar Senen","is_transit":false,"station_id":"PSE","i_long":106.84368,"line":11,"i_lat":-6.174784,"transit":false,"time":4},{"station_id":"GST","i_long":106.850107,"is_transit":false,"i_lat":-6.185975,"transit":false,"distance":1567,"time":8,"line":11,"station_name":"Gang Sentiong"},{"time":1,"i_long":106.855437,"distance":973,"line":11,"transit":false,"is_transit":false,"station_id":"KMT","i_lat":-6.193792,"station_name":"Kramat"},{"distance":1829,"i_long":106.861737,"is_transit":false,"station_name":"Pondok Jati","transit":false,"i_lat":-6.209188,"time":2,"line":11,"station_id":"POK"},{"is_transit":true,"transit":true,"station_id":"JNG","time":9,"line":0,"i_lat":-6.215091,"i_long":106.86807400000001,"station_name":"Jatinegara","distance":1236},{"transit":false,"i_long":106.899548,"station_name":"Klender","station_id":"KLD","distance":3395,"is_transit":false,"time":3,"i_lat":-6.2135,"line":1}],[{"time":0,"i_lat":-6.242512,"station_name":"Cawang","i_long":106.856607,"transit":false,"distance":0,"line":0,"is_transit":false,"station_id":"CW"},{"time":2,"line":2,"is_transit":false,"distance":1230,"i_lat":-6.226659,"transit":false,"station_name":"Tebet","i_long":106.857948,"station_id":"TEB"},{"station_id":"MRI","is_transit":true,"line":0,"distance":2610,"transit":true,"i_lat":-6.209883,"i_long":106.84912,"time":4,"station_name":"Manggarai"},{"station_id":"CKI","is_transit":false,"station_name":"Cikini","i_lat":-6.198556,"i_long":106.840169,"line":0,"time":4,"distance":1590,"transit":false},{"transit":false,"distance":1750,"station_id":"GDD","i_lat":-6.186295,"is_transit":false,"i_long":106.832183,"line":2,"station_name":"Gondangdia","time":3},{"distance":2015,"is_transit":false,"transit":false,"station_name":"Juanda","station_id":"JUA","i_long":106.828284,"time":4,"line":2,"i_lat":-6.166716},{"distance":1149,"is_transit":false,"station_id":"SW","line":2,"i_lat":-6.160725,"time":2,"transit":false,"i_long":106.827103,"station_name":"Sawah Besar"},{"station_name":"Manggabesar","time":2,"is_transit":false,"station_id":"MGB","line":2,"distance":906,"transit":false,"i_long":106.82482,"i_lat":-6.149769},{"distance":1080,"is_transit":false,"i_long":106.820901,"station_name":"Jayakarta","station_id":"JAY","line":7,"i_lat":-6.141205,"transit":false,"time":2},{"distance":1264,"station_name":"Jakarta Kota","time":4,"is_transit":true,"i_long":106.812439,"i_lat":-6.137569,"transit":true,"line":0,"station_id":"JAKK"},{"i_lat":-6.132549,"i_long":106.826365,"transit":true,"line":0,"is_transit":true,"station_id":"KPB","distance":1364,"time":3,"station_name":"Kampung Bandan"},{"station_id":"RJW","is_transit":false,"i_long":106.836569,"line":11,"i_lat":-6.14505,"station_name":"Rajawali","time":3,"transit":false,"distance":1444},{"distance":1901,"transit":false,"time":5,"i_lat":-6.161728,"is_transit":false,"station_id":"KMO","station_name":"Kemayoran","line":11,"i_long":106.839204},{"station_id":"PSE","station_name":"Pasar Senen","time":4,"is_transit":false,"transit":false,"distance":1436,"i_lat":-6.174784,"line":11,"i_long":106.84368},{"station_name":"Gang Sentiong","distance":1567,"transit":false,"is_transit":false,"time":8,"line":11,"station_id":"GST","i_long":106.850107,"i_lat":-6.185975},{"station_name":"Kramat","distance":973,"is_transit":false,"i_lat":-6.193792,"transit":false,"line":11,"i_long":106.855437,"time":1,"station_id":"KMT"},{"distance":1829,"i_long":106.861737,"station_name":"Pondok Jati","time":2,"line":11,"station_id":"POK","transit":false,"is_transit":false,"i_lat":-6.209188},{"distance":1236,"is_transit":true,"station_id":"JNG","i_long":106.86807400000001,"time":9,"station_name":"Jatinegara","transit":true,"i_lat":-6.215091,"line":0},{"time":3,"line":1,"i_lat":-6.2135,"is_transit":false,"distance":3395,"station_id":"KLD","i_long":106.899548,"transit":false,"station_name":"Klender"}]]}