{"data":[[{"station_name":"Cawang","transit":false,"i_long":106.856607,"line":2,"station_id":"CW","time":0,"is_transit":false,"i_lat":-6.242512,"distance":0},{"distance":1230,"i_long":106.857948,"station_name":"Tebet","line":2,"transit":false,"time":2,"i_lat":-6.226659,"station_id":"TEB","is_transit":false},{"i_long":106.84912,"line":2,"station_id":"MRI","time":4,"distance":2610,"i_lat":-6.209883,"is_transit":true,"station_name":"Manggarai","transit":true},{"line":1,"station_name":"Sudirman","distance":3186,"is_transit":false,"station_id":"SUD","i_lat":-6.202263,"i_long":106.822649,"transit":false,"time":4},{"i_long":106.819881,"line":1,"transit":false,"time":1,"station_name":"Sudirman Baru","i_lat":-6.201433,"distance":280,"is_transit":false,"station_id":"SUDB"},{"transit":false,"time":1,"distance":471,"is_transit":false,"station_name":"Karet","i_long":106.816351,"station_id":"KAT","i_lat":-6.20132,"line":1}],[{"station_name":"Cawang","i_lat":-6.242512,"transit":false,"station_id":"CW","distance":0,"time":0,"i_long":106.856607,"is_transit":false,"line":2},{"is_transit":false,"i_lat":-6.226659,"station_id":"TEB","distance":1230,"transit":false,"station_name":"Tebet","line":2,"i_long":106.857948,"time":2},{"line":2,"station_name":"Manggarai","distance":2610,"transit":false,"i_lat":-6.209883,"i_long":106.84912,"time":4,"station_id":"MRI","is_transit":false},{"i_long":106.840169,"line":2,"transit":false,"is_transit":false,"i_lat":-6.198556,"distance":1590,"time":4,"station_name":"Cikini","station_id":"CKI"},{"line":2,"station_id":"GDD","i_lat":-6.186295,"transit":false,"is_transit":false,"time":3,"station_name":"Gondangdia","distance":1750,"i_long":106.832183},{"line":2,"time":4,"i_lat":-6.166716,"i_long":106.828284,"is_transit":false,"distance":2015,"transit":false,"station_id":"JUA","station_name":"Juanda"},{"is_transit":false,"station_name":"Sawah Besar","time":2,"distance":1149,"station_id":"SW","line":2,"i_lat":-6.160725,"i_long":106.827103,"transit":false},{"line":2,"i_lat":-6.149769,"is_transit":false,"transit":false,"station_name":"Manggabesar","time":2,"distance":906,"i_long":106.82482,"station_id":"MGB"},{"station_id":"JAY","transit":false,"is_transit":false,"distance":1080,"time":2,"i_lat":-6.141205,"station_name":"Jayakarta","line":2,"i_long":106.820901},{"line":2,"station_id":"JAKK","i_lat":-6.137569,"time":4,"is_transit":true,"transit":true,"distance":1264,"station_name":"Jakarta Kota","i_long":106.812439},{"station_name":"Kampung Bandan","station_id":"KPB","time":3,"distance":1364,"is_transit":true,"i_lat":-6.132549,"line":4,"i_long":106.826365,"transit":true},{"is_transit":false,"time":9,"station_id":"AK","line":1,"station_name":"Angke","i_long":106.79867,"transit":false,"distance":4102,"i_lat":-6.144674},{"line":1,"transit":false,"station_name":"Duri","station_id":"DU","time":4,"distance":1230,"i_lat":-6.155215,"i_long":106.800832,"is_transit":false},{"i_long":106.811091,"station_name":"Tanah Abang","is_transit":false,"transit":false,"line":1,"i_lat":-6.185545,"station_id":"THB","time":8,"distance":3632},{"is_transit":false,"i_lat":-6.20132,"distance":2029,"line":1,"station_name":"Karet","transit":false,"i_long":106.816351,"time":5,"station_id":"KAT"}],[{"time":0,"line":2,"is_transit":false,"station_id":"CW","i_lat":-6.242512,"transit":false,"distance":0,"i_long":106.856607,"station_name":"Cawang"},{"transit":false,"station_name":"Tebet","is_transit":false,"station_id":"TEB","i_lat":-6.226659,"distance":1230,"i_long":106.857948,"time":2,"line":2},{"i_long":106.84912,"station_name":"Manggarai","line":2,"is_transit":true,"station_id":"MRI","time":4,"i_lat":-6.209883,"transit":true,"distance":2610},{"station_name":"Matraman","i_lat":-6.212485,"i_long":106.858896,"station_id":"MTR","line":1,"transit":false,"is_transit":false,"time":2,"distance":1275},{"distance":1377,"line":1,"transit":true,"station_name":"Jatinegara","is_transit":true,"time":8,"i_long":106.86807400000001,"station_id":"JNG","i_lat":-6.215091},{"time":2,"station_id":"POK","station_name":"Pondok Jati","i_long":106.861737,"line":11,"transit":false,"i_lat":-6.209188,"distance":1236,"is_transit":false},{"i_long":106.855437,"line":11,"i_lat":-6.193792,"distance":1829,"is_transit":false,"station_name":"Kramat","station_id":"KMT","transit":false,"time":2},{"i_long":106.850107,"is_transit":false,"transit":false,"station_id":"GST","station_name":"Gang Sentiong","line":11,"i_lat":-6.185975,"time":1,"distance":973},{"distance":1567,"is_transit":false,"i_lat":-6.174784,"i_long":106.84368,"time":8,"station_name":"Pasar Senen","station_id":"PSE","transit":false,"line":11},{"i_lat":-6.161728,"i_long":106.839204,"line":11,"is_transit":false,"station_name":"Kemayoran","station_id":"KMO","time":4,"transit":false,"distance":1436},{"distance":1901,"station_name":"Rajawali","station_id":"RJW","time":5,"line":11,"is_transit":false,"i_long":106.836569,"transit":false,"i_lat":-6.14505},{"time":3,"i_long":106.826365,"line":4,"distance":1444,"i_lat":-6.132549,"station_id":"KPB","station_name":"Kampung Bandan","transit":true,"is_transit":true},{"transit":false,"station_id":"AK","line":1,"time":9,"station_name":"Angke","is_transit":false,"distance":4102,"i_lat":-6.144674,"i_long":106.79867},{"station_id":"DU","i_lat":-6.155215,"is_transit":false,"transit":false,"station_name":"Duri","i_long":106.800832,"time":4,"distance":1230,"line":1},{"distance":3632,"time":8,"i_long":106.811091,"line":1,"is_transit":false,"station_name":"Tanah Abang","station_id":"THB","i_lat":-6.185545,"transit":false},{"i_lat":-6.20132,"station_name":"Karet","station_id":"KAT","time":5,"transit":false,"distance":2029,"is_transit":false,"line":1,"i_long":106.816351}]]}