{"data":[[{"station_name":"Cawang","time":0,"is_transit":false,"i_lat":-6.242512,"i_long":106.856607,"station_id":"CW","distance":0,"transit":false,"line":2},{"distance":1230,"station_name":"Tebet","i_lat":-6.226659,"line":2,"transit":false,"station_id":"TEB","is_transit":false,"time":2,"i_long":106.857948},{"transit":true,"is_transit":true,"station_id":"MRI","distance":2610,"line":2,"i_lat":-6.209883,"time":4,"station_name":"Manggarai","i_long":106.84912},{"line":1,"station_name":"Matraman","i_long":106.858896,"transit":false,"i_lat":-6.212485,"station_id":"MTR","is_transit":false,"distance":1275,"time":2},{"line":1,"i_lat":-6.215091,"station_id":"JNG","i_long":106.86807400000001,"transit":false,"station_name":"Jatinegara","is_transit":false,"time":8,"distance":1377},{"i_long":106.899548,"line":1,"transit":false,"distance":3395,"is_transit":false,"station_id":"KLD","time":3,"station_name":"Klender","i_lat":-6.2135},{"i_long":106.922662,"line":1,"station_name":"Buaran","distance":3100,"time":2,"is_transit":false,"transit":false,"station_id":"BUA","i_lat":-6.215568},{"i_long":106.939679,"i_lat":-6.217455,"station_id":"KLDB","station_name":"Klenderbaru","line":1,"distance":1305,"time":1,"transit":false,"is_transit":false}],[{"i_long":106.856607,"station_name":"Cawang","is_transit":false,"i_lat":-6.242512,"line":2,"distance":0,"transit":false,"station_id":"CW","time":0},{"distance":1230,"transit":false,"time":2,"is_transit":false,"station_name":"Tebet","i_lat":-6.226659,"line":2,"station_id":"TEB","i_long":106.857948},{"station_name":"Manggarai","line":2,"station_id":"MRI","is_transit":true,"time":4,"distance":2610,"i_lat":-6.209883,"transit":true,"i_long":106.84912},{"is_transit":false,"i_lat":-6.202263,"i_long":106.822649,"distance":3186,"time":4,"line":1,"station_id":"SUD","transit":false,"station_name":"Sudirman"},{"station_id":"SUDB","time":1,"station_name":"Sudirman Baru","is_transit":false,"distance":280,"i_lat":-6.201433,"transit":false,"i_long":106.819881,"line":1},{"i_lat":-6.20132,"line":1,"time":1,"distance":471,"i_long":106.816351,"transit":false,"is_transit":false,"station_id":"KAT","station_name":"Karet"},{"i_long":106.811091,"distance":2029,"station_name":"Tanah Abang","transit":false,"i_lat":-6.185545,"time":5,"line":1,"station_id":"THB","is_transit":false},{"distance":3632,"station_id":"DU","time":8,"is_transit":false,"station_name":"Duri","transit":false,"i_long":106.800832,"i_lat":-6.155215,"line":1},{"station_name":"Angke","i_lat":-6.144674,"station_id":"AK","is_transit":false,"i_long":106.79867,"time":4,"distance":1230,"line":1,"transit":false},{"i_long":106.826365,"distance":4102,"is_transit":true,"i_lat":-6.132549,"transit":true,"time":9,"station_id":"KPB","line":4,"station_name":"Kampung Bandan"},{"is_transit":false,"time":3,"station_name":"Rajawali","station_id":"RJW","line":11,"i_long":106.836569,"i_lat":-6.14505,"transit":false,"distance":1444},{"i_lat":-6.161728,"i_long":106.839204,"station_name":"Kemayoran","station_id":"KMO","line":11,"is_transit":false,"transit":false,"time":5,"distance":1901},{"is_transit":false,"time":4,"line":11,"transit":false,"distance":1436,"station_id":"PSE","station_name":"Pasar Senen","i_long":106.84368,"i_lat":-6.174784},{"transit":false,"is_transit":false,"station_id":"GST","station_name":"Gang Sentiong","time":8,"i_lat":-6.185975,"line":11,"distance":1567,"i_long":106.850107},{"i_long":106.855437,"transit":false,"distance":973,"station_name":"Kramat","line":11,"station_id":"KMT","time":1,"i_lat":-6.193792,"is_transit":false},{"line":11,"i_long":106.861737,"time":2,"i_lat":-6.209188,"distance":1829,"transit":false,"is_transit":false,"station_id":"POK","station_name":"Pondok Jati"},{"station_name":"Jatinegara","line":1,"station_id":"JNG","distance":1236,"transit":true,"i_long":106.86807400000001,"is_transit":true,"i_lat":-6.215091,"time":9},{"time":3,"i_long":106.899548,"is_transit":false,"line":1,"distance":3395,"transit":false,"i_lat":-6.2135,"station_id":"KLD","station_name":"Klender"},{"station_name":"Buaran","is_transit":false,"time":2,"station_id":"BUA","distance":3100,"i_long":106.922662,"line":1,"i_lat":-6.215568,"transit":false},{"i_lat":-6.217455,"transit":false,"station_id":"KLDB","line":1,"is_transit":false,"i_long":106.939679,"distance":1305,"station_name":"Klenderbaru","time":1}],[{"station_name":"Cawang","transit":false,"time":0,"i_long":106.856607,"line":2,"i_lat":-6.242512,"is_transit":false,"station_id":"CW","distance":0},{"line":2,"station_name":"Tebet","transit":false,"is_transit":false,"station_id":"TEB","time":2,"distance":1230,"i_lat":-6.226659,"i_long":106.857948},{"transit":false,"station_id":"MRI","i_long":106.84912,"distance":2610,"is_transit":false,"time":4,"i_lat":-6.209883,"line":2,"station_name":"Manggarai"},{"is_transit":false,"station_id":"CKI","station_name":"Cikini","i_lat":-6.198556,"line":2,"transit":false,"distance":1590,"time":4,"i_long":106.840169},{"i_lat":-6.186295,"line":2,"transit":false,"time":3,"i_long":106.832183,"distance":1750,"is_transit":false,"station_name":"Gondangdia","station_id":"GDD"},{"is_transit":false,"time":4,"distance":2015,"station_name":"Juanda","i_long":106.828284,"station_id":"JUA","line":2,"transit":false,"i_lat":-6.166716},{"station_name":"Sawah Besar","is_transit":false,"time":2,"transit":false,"i_long":106.827103,"station_id":"SW","i_lat":-6.160725,"line":2,"distance":1149},{"transit":false,"time":2,"station_name":"Manggabesar","station_id":"MGB","i_long":106.82482,"i_lat":-6.149769,"line":2,"is_transit":false,"distance":906},{"time":2,"is_transit":false,"i_lat":-6.141205,"line":2,"transit":false,"i_long":106.820901,"station_id":"JAY","station_name":"Jayakarta","distance":1080},{"distance":1264,"is_transit":true,"transit":true,"station_id":"JAKK","time":4,"i_long":106.812439,"line":2,"station_name":"Jakarta Kota","i_lat":-6.137569},{"transit":true,"station_name":"Kampung Bandan","time":3,"station_id":"KPB","distance":1364,"is_transit":true,"i_lat":-6.132549,"line":4,"i_long":106.826365},{"station_name":"Rajawali","i_lat":-6.14505,"station_id":"RJW","is_transit":false,"distance":1444,"i_long":106.836569,"time":3,"transit":false,"line":11},{"i_long":106.839204,"is_transit":false,"distance":1901,"station_name":"Kemayoran","transit":false,"time":5,"line":11,"station_id":"KMO","i_lat":-6.161728},{"time":4,"station_name":"Pasar Senen","i_lat":-6.174784,"i_long":106.84368,"line":11,"station_id":"PSE","distance":1436,"is_transit":false,"transit":false},{"is_transit":false,"station_name":"Gang Sentiong","station_id":"GST","i_lat":-6.185975,"line":11,"i_long":106.850107,"transit":false,"time":8,"distance":1567},{"time":1,"line":11,"i_long":106.855437,"is_transit":false,"transit":false,"distance":973,"station_name":"Kramat","i_lat":-6.193792,"station_id":"KMT"},{"is_transit":false,"distance":1829,"line":11,"i_long":106.861737,"station_id":"POK","time":2,"station_name":"Pondok Jati","transit":false,"i_lat":-6.209188},{"line":1,"station_name":"Jatinegara","i_lat":-6.215091,"distance":1236,"is_transit":true,"i_long":106.86807400000001,"station_id":"JNG","time":9,"transit":true},{"transit":false,"station_id":"KLD","i_lat":-6.2135,"time":3,"i_long":106.899548,"station_name":"Klender","distance":3395,"is_transit":false,"line":1},{"distance":3100,"station_name":"Buaran","time":2,"is_transit":false,"line":1,"i_long":106.922662,"station_id":"BUA","transit":false,"i_lat":-6.215568},{"i_long":106.939679,"time":1,"line":1,"transit":false,"station_name":"Klenderbaru","station_id":"KLDB","distance":1305,"is_transit":false,"i_lat":-6.217455}]]}