{"data":[[{"line":2,"distance":0,"station_id":"CW","i_long":106.856607,"station_name":"Cawang","time":0,"transit":false,"is_transit":false,"i_lat":-6.242512},{"distance":1230,"station_id":"TEB","station_name":"Tebet","line":2,"i_long":106.857948,"transit":false,"i_lat":-6.226659,"time":2,"is_transit":false},{"transit":true,"is_transit":true,"line":2,"distance":2610,"i_lat":-6.209883,"station_id":"MRI","time":4,"i_long":106.84912,"station_name":"Manggarai"},{"station_name":"Matraman","station_id":"MTR","i_lat":-6.212485,"is_transit":false,"distance":1275,"time":2,"transit":false,"i_long":106.858896,"line":1},{"is_transit":false,"time":8,"distance":1377,"i_long":106.86807400000001,"station_name":"Jatinegara","transit":false,"i_lat":-6.215091,"line":1,"station_id":"JNG"},{"time":3,"station_id":"KLD","station_name":"Klender","line":1,"is_transit":false,"distance":3395,"i_lat":-6.2135,"i_long":106.899548,"transit":false}],[{"distance":0,"is_transit":false,"i_long":106.856607,"station_id":"CW","station_name":"Cawang","time":0,"transit":false,"i_lat":-6.242512,"line":2},{"i_long":106.857948,"line":2,"i_lat":-6.226659,"station_id":"TEB","is_transit":false,"time":2,"distance":1230,"station_name":"Tebet","transit":false},{"distance":2610,"i_lat":-6.209883,"transit":true,"is_transit":true,"i_long":106.84912,"time":4,"station_id":"MRI","line":2,"station_name":"Manggarai"},{"i_lat":-6.202263,"transit":false,"i_long":106.822649,"station_id":"SUD","time":4,"line":1,"distance":3186,"station_name":"Sudirman","is_transit":false},{"i_lat":-6.201433,"station_name":"Sudirman Baru","station_id":"SUDB","transit":false,"i_long":106.819881,"line":1,"is_transit":false,"time":1,"distance":280},{"i_lat":-6.20132,"i_long":106.816351,"station_id":"KAT","line":1,"distance":471,"time":1,"is_transit":false,"station_name":"Karet","transit":false},{"i_lat":-6.185545,"time":5,"i_long":106.811091,"is_transit":false,"distance":2029,"transit":false,"station_id":"THB","line":1,"station_name":"Tanah Abang"},{"station_name":"Duri","distance":3632,"station_id":"DU","is_transit":false,"time":8,"transit":false,"i_lat":-6.155215,"i_long":106.800832,"line":1},{"is_transit":false,"i_long":106.79867,"time":4,"distance":1230,"line":1,"station_id":"AK","station_name":"Angke","i_lat":-6.144674,"transit":false},{"is_transit":true,"i_lat":-6.132549,"transit":true,"i_long":106.826365,"station_id":"KPB","distance":4102,"time":9,"line":4,"station_name":"Kampung Bandan"},{"station_name":"Rajawali","is_transit":false,"i_long":106.836569,"line":11,"i_lat":-6.14505,"transit":false,"time":3,"distance":1444,"station_id":"RJW"},{"i_lat":-6.161728,"station_id":"KMO","time":5,"is_transit":false,"distance":1901,"station_name":"Kemayoran","transit":false,"i_long":106.839204,"line":11},{"station_id":"PSE","station_name":"Pasar Senen","is_transit":false,"transit":false,"i_lat":-6.174784,"i_long":106.84368,"distance":1436,"time":4,"line":11},{"line":11,"i_lat":-6.185975,"transit":false,"station_id":"GST","distance":1567,"i_long":106.850107,"is_transit":false,"station_name":"Gang Sentiong","time":8},{"transit":false,"station_id":"KMT","station_name":"Kramat","distance":973,"time":1,"i_lat":-6.193792,"i_long":106.855437,"is_transit":false,"line":11},{"station_name":"Pondok Jati","is_transit":false,"transit":false,"station_id":"POK","line":11,"distance":1829,"i_lat":-6.209188,"i_long":106.861737,"time":2},{"line":1,"time":9,"distance":1236,"is_transit":true,"station_id":"JNG","i_lat":-6.215091,"i_long":106.86807400000001,"station_name":"Jatinegara","transit":true},{"time":3,"station_id":"KLD","transit":false,"i_lat":-6.2135,"station_name":"Klender","distance":3395,"line":1,"is_transit":false,"i_long":106.899548}],[{"distance":0,"line":2,"station_id":"CW","station_name":"Cawang","is_transit":false,"time":0,"i_long":106.856607,"i_lat":-6.242512,"transit":false},{"transit":false,"i_long":106.857948,"i_lat":-6.226659,"station_name":"Tebet","line":2,"is_transit":false,"station_id":"TEB","time":2,"distance":1230},{"i_lat":-6.209883,"i_long":106.84912,"station_name":"Manggarai","line":2,"distance":2610,"time":4,"transit":false,"is_transit":false,"station_id":"MRI"},{"station_name":"Cikini","distance":1590,"time":4,"is_transit":false,"station_id":"CKI","i_lat":-6.198556,"i_long":106.840169,"line":2,"transit":false},{"i_long":106.832183,"line":2,"transit":false,"is_transit":false,"station_name":"Gondangdia","distance":1750,"station_id":"GDD","i_lat":-6.186295,"time":3},{"time":4,"i_long":106.828284,"station_name":"Juanda","i_lat":-6.166716,"is_transit":false,"transit":false,"station_id":"JUA","distance":2015,"line":2},{"i_lat":-6.160725,"time":2,"line":2,"i_long":106.827103,"station_name":"Sawah Besar","distance":1149,"is_transit":false,"transit":false,"station_id":"SW"},{"line":2,"i_long":106.82482,"transit":false,"time":2,"i_lat":-6.149769,"station_name":"Manggabesar","distance":906,"is_transit":false,"station_id":"MGB"},{"line":2,"transit":false,"time":2,"is_transit":false,"distance":1080,"i_lat":-6.141205,"station_id":"JAY","i_long":106.820901,"station_name":"Jayakarta"},{"station_id":"JAKK","i_lat":-6.137569,"is_transit":true,"line":2,"transit":true,"station_name":"Jakarta Kota","distance":1264,"i_long":106.812439,"time":4},{"transit":true,"i_lat":-6.132549,"is_transit":true,"line":4,"station_name":"Kampung Bandan","i_long":106.826365,"distance":1364,"station_id":"KPB","time":3},{"transit":false,"station_id":"RJW","i_long":106.836569,"distance":1444,"station_name":"Rajawali","line":11,"i_lat":-6.14505,"is_transit":false,"time":3},{"i_long":106.839204,"distance":1901,"i_lat":-6.161728,"station_id":"KMO","station_name":"Kemayoran","time":5,"line":11,"is_transit":false,"transit":false},{"station_id":"PSE","i_lat":-6.174784,"i_long":106.84368,"is_transit":false,"transit":false,"time":4,"station_name":"Pasar Senen","line":11,"distance":1436},{"line":11,"distance":1567,"station_name":"Gang Sentiong","time":8,"i_long":106.850107,"is_transit":false,"station_id":"GST","transit":false,"i_lat":-6.185975},{"transit":false,"station_name":"Kramat","i_long":106.855437,"station_id":"KMT","i_lat":-6.193792,"distance":973,"is_transit":false,"line":11,"time":1},{"station_name":"Pondok Jati","time":2,"i_long":106.861737,"is_transit":false,"i_lat":-6.209188,"line":11,"station_id":"POK","transit":false,"distance":1829},{"station_id":"JNG","line":1,"i_long":106.86807400000001,"is_transit":true,"transit":true,"time":9,"i_lat":-6.215091,"distance":1236,"station_name":"Jatinegara"},{"transit":false,"station_id":"KLD","i_lat":-6.2135,"time":3,"i_long":106.899548,"distance":3395,"station_name":"Klender","line":1,"is_transit":false}]]}