{"data":[[{"i_lat":-6.242512,"line":2,"transit":false,"i_long":106.856607,"station_id":"CW","distance":0,"is_transit":false,"station_name":"Cawang","time":0},{"i_lat":-6.226659,"i_long":106.857948,"station_name":"Tebet","time":2,"distance":1230,"line":2,"transit":false,"is_transit":false,"station_id":"TEB"},{"i_lat":-6.209883,"i_long":106.84912,"line":2,"is_transit":true,"station_name":"Manggarai","station_id":"MRI","time":4,"distance":2610,"transit":true},{"distance":1275,"station_name":"Matraman","time":2,"i_lat":-6.212485,"is_transit":false,"line":1,"transit":false,"station_id":"MTR","i_long":106.858896},{"distance":1377,"line":1,"transit":false,"station_id":"JNG","i_lat":-6.215091,"station_name":"Jatinegara","i_long":106.86807400000001,"is_transit":false,"time":8},{"station_id":"KLD","i_long":106.899548,"time":3,"transit":false,"distance":3395,"station_name":"Klender","i_lat":-6.2135,"line":1,"is_transit":false}],[{"distance":0,"is_transit":false,"station_id":"CW","station_name":"Cawang","i_lat":-6.242512,"time":0,"transit":false,"i_long":106.856607,"line":2},{"time":2,"station_name":"Tebet","i_lat":-6.226659,"line":2,"is_transit":false,"distance":1230,"i_long":106.857948,"transit":false,"station_id":"TEB"},{"distance":2610,"transit":true,"station_id":"MRI","time":4,"station_name":"Manggarai","line":2,"i_long":106.84912,"is_transit":true,"i_lat":-6.209883},{"station_name":"Sudirman","distance":3186,"station_id":"SUD","line":1,"i_lat":-6.202263,"transit":false,"is_transit":false,"i_long":106.822649,"time":4},{"station_id":"SUDB","station_name":"Sudirman Baru","is_transit":false,"i_lat":-6.201433,"i_long":106.819881,"distance":280,"transit":false,"line":1,"time":1},{"i_lat":-6.20132,"is_transit":false,"station_id":"KAT","i_long":106.816351,"distance":471,"time":1,"station_name":"Karet","line":1,"transit":false},{"transit":false,"distance":2029,"station_id":"THB","i_lat":-6.185545,"is_transit":false,"station_name":"Tanah Abang","i_long":106.811091,"line":1,"time":5},{"distance":3632,"i_long":106.800832,"time":8,"station_id":"DU","i_lat":-6.155215,"line":1,"transit":false,"station_name":"Duri","is_transit":false},{"is_transit":false,"i_lat":-6.144674,"line":1,"i_long":106.79867,"time":4,"transit":false,"station_name":"Angke","station_id":"AK","distance":1230},{"station_name":"Kampung Bandan","i_long":106.826365,"time":9,"station_id":"KPB","transit":true,"distance":4102,"i_lat":-6.132549,"is_transit":true,"line":4},{"station_id":"RJW","distance":1444,"station_name":"Rajawali","line":11,"time":3,"transit":false,"is_transit":false,"i_long":106.836569,"i_lat":-6.14505},{"transit":false,"station_id":"KMO","i_long":106.839204,"time":5,"distance":1901,"is_transit":false,"station_name":"Kemayoran","i_lat":-6.161728,"line":11},{"is_transit":false,"i_lat":-6.174784,"i_long":106.84368,"time":4,"line":11,"transit":false,"station_id":"PSE","station_name":"Pasar Senen","distance":1436},{"is_transit":false,"station_name":"Gang Sentiong","distance":1567,"station_id":"GST","transit":false,"i_long":106.850107,"time":8,"i_lat":-6.185975,"line":11},{"i_lat":-6.193792,"i_long":106.855437,"station_id":"KMT","distance":973,"transit":false,"time":1,"line":11,"station_name":"Kramat","is_transit":false},{"i_long":106.861737,"time":2,"is_transit":false,"distance":1829,"line":11,"i_lat":-6.209188,"station_name":"Pondok Jati","transit":false,"station_id":"POK"},{"station_name":"Jatinegara","i_lat":-6.215091,"transit":true,"line":1,"station_id":"JNG","i_long":106.86807400000001,"time":9,"is_transit":true,"distance":1236},{"transit":false,"time":3,"station_id":"KLD","i_lat":-6.2135,"is_transit":false,"station_name":"Klender","distance":3395,"i_long":106.899548,"line":1}],[{"distance":0,"line":2,"station_id":"CW","i_lat":-6.242512,"time":0,"station_name":"Cawang","transit":false,"is_transit":false,"i_long":106.856607},{"line":2,"time":2,"i_long":106.857948,"distance":1230,"is_transit":false,"station_name":"Tebet","i_lat":-6.226659,"transit":false,"station_id":"TEB"},{"distance":2610,"station_id":"MRI","line":2,"i_long":106.84912,"i_lat":-6.209883,"time":4,"is_transit":false,"station_name":"Manggarai","transit":false},{"station_name":"Cikini","time":4,"i_lat":-6.198556,"is_transit":false,"station_id":"CKI","transit":false,"distance":1590,"i_long":106.840169,"line":2},{"station_name":"Gondangdia","station_id":"GDD","transit":false,"line":2,"distance":1750,"i_lat":-6.186295,"is_transit":false,"time":3,"i_long":106.832183},{"i_long":106.828284,"line":2,"is_transit":false,"transit":false,"i_lat":-6.166716,"station_id":"JUA","distance":2015,"time":4,"station_name":"Juanda"},{"i_lat":-6.160725,"station_id":"SW","time":2,"distance":1149,"is_transit":false,"transit":false,"station_name":"Sawah Besar","i_long":106.827103,"line":2},{"time":2,"i_lat":-6.149769,"distance":906,"transit":false,"is_transit":false,"station_id":"MGB","station_name":"Manggabesar","i_long":106.82482,"line":2},{"time":2,"i_lat":-6.141205,"transit":false,"i_long":106.820901,"station_id":"JAY","line":2,"distance":1080,"is_transit":false,"station_name":"Jayakarta"},{"is_transit":true,"distance":1264,"station_id":"JAKK","station_name":"Jakarta Kota","i_lat":-6.137569,"transit":true,"i_long":106.812439,"time":4,"line":2},{"i_lat":-6.132549,"is_transit":true,"line":4,"i_long":106.826365,"transit":true,"station_name":"Kampung Bandan","station_id":"KPB","time":3,"distance":1364},{"time":3,"distance":1444,"is_transit":false,"transit":false,"station_id":"RJW","line":11,"station_name":"Rajawali","i_lat":-6.14505,"i_long":106.836569},{"i_long":106.839204,"is_transit":false,"distance":1901,"station_name":"Kemayoran","i_lat":-6.161728,"line":11,"time":5,"transit":false,"station_id":"KMO"},{"i_long":106.84368,"station_id":"PSE","transit":false,"i_lat":-6.174784,"line":11,"time":4,"is_transit":false,"distance":1436,"station_name":"Pasar Senen"},{"line":11,"station_name":"Gang Sentiong","station_id":"GST","i_lat":-6.185975,"distance":1567,"is_transit":false,"i_long":106.850107,"transit":false,"time":8},{"station_name":"Kramat","station_id":"KMT","distance":973,"transit":false,"i_long":106.855437,"time":1,"is_transit":false,"line":11,"i_lat":-6.193792},{"i_lat":-6.209188,"time":2,"station_name":"Pondok Jati","i_long":106.861737,"transit":false,"distance":1829,"station_id":"POK","line":11,"is_transit":false},{"line":1,"is_transit":true,"station_id":"JNG","transit":true,"time":9,"station_name":"Jatinegara","i_lat":-6.215091,"i_long":106.86807400000001,"distance":1236},{"is_transit":false,"distance":3395,"station_id":"KLD","i_lat":-6.2135,"line":1,"station_name":"Klender","time":3,"transit":false,"i_long":106.899548}]]}