{"data":[[{"i_long":106.856607,"line":2,"time":0,"distance":0,"is_transit":false,"i_lat":-6.242512,"transit":false,"station_name":"Cawang","station_id":"CW"},{"line":2,"station_name":"Tebet","is_transit":false,"time":2,"transit":false,"station_id":"TEB","i_long":106.857948,"i_lat":-6.226659,"distance":1230},{"station_name":"Manggarai","transit":true,"time":4,"is_transit":true,"distance":2610,"i_lat":-6.209883,"station_id":"MRI","i_long":106.84912,"line":2},{"i_long":106.858896,"station_id":"MTR","station_name":"Matraman","distance":1275,"line":1,"is_transit":false,"i_lat":-6.212485,"transit":false,"time":2},{"i_long":106.86807400000001,"line":1,"is_transit":true,"i_lat":-6.215091,"station_name":"Jatinegara","station_id":"JNG","transit":true,"distance":1377,"time":8},{"i_long":106.861737,"distance":1236,"is_transit":false,"i_lat":-6.209188,"line":11,"station_id":"POK","transit":false,"station_name":"Pondok Jati","time":2},{"is_transit":false,"i_lat":-6.193792,"station_name":"Kramat","transit":false,"distance":1829,"station_id":"KMT","time":2,"i_long":106.855437,"line":11}],[{"distance":0,"i_long":106.856607,"line":2,"is_transit":false,"station_id":"CW","i_lat":-6.242512,"transit":false,"station_name":"Cawang","time":0},{"time":2,"is_transit":false,"distance":1230,"i_long":106.857948,"line":2,"station_name":"Tebet","transit":false,"station_id":"TEB","i_lat":-6.226659},{"line":2,"transit":true,"is_transit":true,"time":4,"i_lat":-6.209883,"station_id":"MRI","distance":2610,"station_name":"Manggarai","i_long":106.84912},{"station_id":"SUD","time":4,"distance":3186,"i_lat":-6.202263,"station_name":"Sudirman","i_long":106.822649,"line":1,"is_transit":false,"transit":false},{"transit":false,"distance":280,"i_long":106.819881,"station_id":"SUDB","is_transit":false,"time":1,"station_name":"Sudirman Baru","i_lat":-6.201433,"line":1},{"transit":false,"line":1,"station_id":"KAT","i_long":106.816351,"time":1,"station_name":"Karet","is_transit":false,"distance":471,"i_lat":-6.20132},{"time":5,"distance":2029,"transit":false,"station_id":"THB","line":1,"is_transit":false,"i_long":106.811091,"station_name":"Tanah Abang","i_lat":-6.185545},{"distance":3632,"line":1,"i_long":106.800832,"station_name":"Duri","time":8,"station_id":"DU","i_lat":-6.155215,"is_transit":false,"transit":false},{"time":4,"is_transit":false,"distance":1230,"i_lat":-6.144674,"i_long":106.79867,"station_id":"AK","station_name":"Angke","line":1,"transit":false},{"i_long":106.826365,"transit":true,"station_id":"KPB","is_transit":true,"station_name":"Kampung Bandan","distance":4102,"line":4,"time":9,"i_lat":-6.132549},{"station_id":"RJW","station_name":"Rajawali","is_transit":false,"i_long":106.836569,"i_lat":-6.14505,"distance":1444,"transit":false,"time":3,"line":11},{"is_transit":false,"station_name":"Kemayoran","line":11,"transit":false,"station_id":"KMO","distance":1901,"i_long":106.839204,"time":5,"i_lat":-6.161728},{"station_id":"PSE","is_transit":false,"time":4,"i_lat":-6.174784,"station_name":"Pasar Senen","transit":false,"line":11,"distance":1436,"i_long":106.84368},{"station_id":"GST","station_name":"Gang Sentiong","time":8,"line":11,"is_transit":false,"transit":false,"distance":1567,"i_long":106.850107,"i_lat":-6.185975},{"line":11,"station_id":"KMT","i_long":106.855437,"i_lat":-6.193792,"station_name":"Kramat","is_transit":false,"distance":973,"time":1,"transit":false}],[{"line":2,"transit":false,"i_lat":-6.242512,"is_transit":false,"time":0,"distance":0,"i_long":106.856607,"station_id":"CW","station_name":"Cawang"},{"i_lat":-6.226659,"station_name":"Tebet","station_id":"TEB","transit":false,"time":2,"distance":1230,"is_transit":false,"line":2,"i_long":106.857948},{"time":4,"i_lat":-6.209883,"transit":false,"station_name":"Manggarai","distance":2610,"i_long":106.84912,"station_id":"MRI","is_transit":false,"line":2},{"line":2,"i_lat":-6.198556,"transit":false,"is_transit":false,"distance":1590,"time":4,"station_id":"CKI","station_name":"Cikini","i_long":106.840169},{"is_transit":false,"station_id":"GDD","i_long":106.832183,"transit":false,"line":2,"distance":1750,"i_lat":-6.186295,"time":3,"station_name":"Gondangdia"},{"line":2,"transit":false,"time":4,"i_lat":-6.166716,"is_transit":false,"i_long":106.828284,"distance":2015,"station_id":"JUA","station_name":"Juanda"},{"distance":1149,"is_transit":false,"i_lat":-6.160725,"line":2,"station_id":"SW","station_name":"Sawah Besar","time":2,"i_long":106.827103,"transit":false},{"station_id":"MGB","is_transit":false,"station_name":"Manggabesar","i_lat":-6.149769,"transit":false,"time":2,"distance":906,"i_long":106.82482,"line":2},{"time":2,"station_id":"JAY","i_long":106.820901,"distance":1080,"i_lat":-6.141205,"station_name":"Jayakarta","transit":false,"is_transit":false,"line":2},{"distance":1264,"transit":true,"station_name":"Jakarta Kota","i_lat":-6.137569,"i_long":106.812439,"line":2,"time":4,"station_id":"JAKK","is_transit":true},{"i_long":106.826365,"i_lat":-6.132549,"is_transit":true,"transit":true,"station_name":"Kampung Bandan","line":4,"station_id":"KPB","time":3,"distance":1364},{"station_id":"RJW","i_lat":-6.14505,"time":3,"transit":false,"station_name":"Rajawali","distance":1444,"i_long":106.836569,"line":11,"is_transit":false},{"is_transit":false,"line":11,"transit":false,"i_long":106.839204,"station_name":"Kemayoran","station_id":"KMO","time":5,"distance":1901,"i_lat":-6.161728},{"station_name":"Pasar Senen","station_id":"PSE","distance":1436,"line":11,"time":4,"transit":false,"is_transit":false,"i_long":106.84368,"i_lat":-6.174784},{"i_lat":-6.185975,"transit":false,"is_transit":false,"line":11,"time":8,"station_name":"Gang Sentiong","station_id":"GST","i_long":106.850107,"distance":1567},{"station_id":"KMT","i_long":106.855437,"transit":false,"station_name":"Kramat","line":11,"distance":973,"time":1,"i_lat":-6.193792,"is_transit":false}]]}