{"data":[[{"i_long":106.856607,"transit":false,"station_name":"Cawang","station_id":"CW","is_transit":false,"time":0,"distance":0,"i_lat":-6.242512,"line":2},{"station_name":"Tebet","i_lat":-6.226659,"time":2,"i_long":106.857948,"transit":false,"station_id":"TEB","distance":1230,"is_transit":false,"line":2},{"line":2,"station_name":"Manggarai","is_transit":true,"i_long":106.84912,"i_lat":-6.209883,"station_id":"MRI","transit":true,"time":4,"distance":2610},{"transit":false,"time":2,"i_lat":-6.212485,"station_id":"MTR","line":1,"is_transit":false,"i_long":106.858896,"distance":1275,"station_name":"Matraman"},{"station_name":"Jatinegara","is_transit":false,"time":8,"distance":1377,"i_long":106.86807400000001,"line":1,"i_lat":-6.215091,"transit":false,"station_id":"JNG"},{"station_id":"KLD","distance":3395,"i_lat":-6.2135,"station_name":"Klender","is_transit":false,"transit":false,"time":3,"i_long":106.899548,"line":1},{"station_name":"Buaran","is_transit":false,"i_lat":-6.215568,"i_long":106.922662,"station_id":"BUA","time":2,"line":1,"transit":false,"distance":3100},{"time":1,"i_long":106.939679,"transit":false,"distance":1305,"i_lat":-6.217455,"station_id":"KLDB","station_name":"Klenderbaru","is_transit":false,"line":1}],[{"transit":false,"line":2,"distance":0,"station_name":"Cawang","is_transit":false,"time":0,"i_long":106.856607,"station_id":"CW","i_lat":-6.242512},{"line":2,"time":2,"transit":false,"i_lat":-6.226659,"i_long":106.857948,"station_name":"Tebet","station_id":"TEB","is_transit":false,"distance":1230},{"is_transit":true,"time":4,"transit":true,"station_id":"MRI","i_long":106.84912,"line":2,"distance":2610,"station_name":"Manggarai","i_lat":-6.209883},{"station_name":"Sudirman","i_long":106.822649,"station_id":"SUD","i_lat":-6.202263,"is_transit":false,"line":1,"time":4,"distance":3186,"transit":false},{"line":1,"station_name":"Sudirman Baru","distance":280,"is_transit":false,"i_long":106.819881,"time":1,"transit":false,"station_id":"SUDB","i_lat":-6.201433},{"is_transit":false,"line":1,"station_id":"KAT","transit":false,"i_lat":-6.20132,"i_long":106.816351,"time":1,"distance":471,"station_name":"Karet"},{"is_transit":false,"i_long":106.811091,"distance":2029,"station_name":"Tanah Abang","line":1,"transit":false,"i_lat":-6.185545,"station_id":"THB","time":5},{"distance":3632,"is_transit":false,"i_lat":-6.155215,"i_long":106.800832,"line":1,"station_name":"Duri","station_id":"DU","transit":false,"time":8},{"transit":false,"line":1,"station_id":"AK","distance":1230,"i_lat":-6.144674,"is_transit":false,"station_name":"Angke","time":4,"i_long":106.79867},{"transit":true,"station_id":"KPB","time":9,"i_lat":-6.132549,"station_name":"Kampung Bandan","is_transit":true,"distance":4102,"i_long":106.826365,"line":4},{"line":11,"station_id":"RJW","time":3,"distance":1444,"is_transit":false,"transit":false,"i_lat":-6.14505,"station_name":"Rajawali","i_long":106.836569},{"time":5,"i_long":106.839204,"is_transit":false,"station_id":"KMO","line":11,"distance":1901,"station_name":"Kemayoran","transit":false,"i_lat":-6.161728},{"station_id":"PSE","station_name":"Pasar Senen","time":4,"line":11,"i_lat":-6.174784,"distance":1436,"is_transit":false,"i_long":106.84368,"transit":false},{"distance":1567,"transit":false,"is_transit":false,"time":8,"i_lat":-6.185975,"station_id":"GST","line":11,"station_name":"Gang Sentiong","i_long":106.850107},{"i_lat":-6.193792,"is_transit":false,"distance":973,"transit":false,"i_long":106.855437,"station_id":"KMT","line":11,"station_name":"Kramat","time":1},{"distance":1829,"time":2,"i_lat":-6.209188,"station_name":"Pondok Jati","line":11,"station_id":"POK","is_transit":false,"transit":false,"i_long":106.861737},{"line":1,"station_name":"Jatinegara","distance":1236,"i_lat":-6.215091,"station_id":"JNG","i_long":106.86807400000001,"is_transit":true,"transit":true,"time":9},{"distance":3395,"i_lat":-6.2135,"i_long":106.899548,"transit":false,"station_id":"KLD","is_transit":false,"time":3,"station_name":"Klender","line":1},{"transit":false,"station_name":"Buaran","time":2,"distance":3100,"i_long":106.922662,"is_transit":false,"line":1,"i_lat":-6.215568,"station_id":"BUA"},{"station_name":"Klenderbaru","line":1,"is_transit":false,"i_lat":-6.217455,"i_long":106.939679,"distance":1305,"station_id":"KLDB","time":1,"transit":false}],[{"station_id":"CW","time":0,"transit":false,"is_transit":false,"distance":0,"i_lat":-6.242512,"i_long":106.856607,"line":2,"station_name":"Cawang"},{"station_id":"TEB","i_lat":-6.226659,"is_transit":false,"transit":false,"distance":1230,"i_long":106.857948,"line":2,"station_name":"Tebet","time":2},{"transit":false,"is_transit":false,"station_id":"MRI","i_long":106.84912,"line":2,"time":4,"station_name":"Manggarai","distance":2610,"i_lat":-6.209883},{"i_lat":-6.198556,"line":2,"is_transit":false,"i_long":106.840169,"time":4,"transit":false,"station_name":"Cikini","station_id":"CKI","distance":1590},{"station_name":"Gondangdia","time":3,"line":2,"i_long":106.832183,"transit":false,"distance":1750,"is_transit":false,"i_lat":-6.186295,"station_id":"GDD"},{"line":2,"i_lat":-6.166716,"station_id":"JUA","is_transit":false,"time":4,"i_long":106.828284,"transit":false,"station_name":"Juanda","distance":2015},{"time":2,"line":2,"i_long":106.827103,"transit":false,"is_transit":false,"i_lat":-6.160725,"distance":1149,"station_id":"SW","station_name":"Sawah Besar"},{"is_transit":false,"station_name":"Manggabesar","i_lat":-6.149769,"line":2,"time":2,"i_long":106.82482,"station_id":"MGB","distance":906,"transit":false},{"distance":1080,"station_id":"JAY","i_long":106.820901,"time":2,"line":2,"i_lat":-6.141205,"transit":false,"is_transit":false,"station_name":"Jayakarta"},{"is_transit":true,"time":4,"i_long":106.812439,"station_id":"JAKK","distance":1264,"i_lat":-6.137569,"station_name":"Jakarta Kota","line":2,"transit":true},{"i_long":106.826365,"is_transit":true,"station_name":"Kampung Bandan","station_id":"KPB","distance":1364,"transit":true,"i_lat":-6.132549,"line":4,"time":3},{"i_lat":-6.14505,"station_name":"Rajawali","station_id":"RJW","time":3,"transit":false,"distance":1444,"is_transit":false,"i_long":106.836569,"line":11},{"i_lat":-6.161728,"distance":1901,"station_name":"Kemayoran","line":11,"station_id":"KMO","is_transit":false,"time":5,"i_long":106.839204,"transit":false},{"is_transit":false,"line":11,"transit":false,"distance":1436,"i_lat":-6.174784,"station_id":"PSE","i_long":106.84368,"time":4,"station_name":"Pasar Senen"},{"station_name":"Gang Sentiong","station_id":"GST","is_transit":false,"distance":1567,"line":11,"i_lat":-6.185975,"i_long":106.850107,"time":8,"transit":false},{"transit":false,"distance":973,"i_lat":-6.193792,"i_long":106.855437,"line":11,"station_name":"Kramat","time":1,"station_id":"KMT","is_transit":false},{"line":11,"station_id":"POK","i_lat":-6.209188,"station_name":"Pondok Jati","transit":false,"time":2,"distance":1829,"i_long":106.861737,"is_transit":false},{"line":1,"is_transit":true,"station_id":"JNG","transit":true,"i_long":106.86807400000001,"i_lat":-6.215091,"station_name":"Jatinegara","time":9,"distance":1236},{"station_name":"Klender","line":1,"is_transit":false,"time":3,"transit":false,"i_lat":-6.2135,"station_id":"KLD","distance":3395,"i_long":106.899548},{"station_id":"BUA","time":2,"distance":3100,"i_long":106.922662,"line":1,"station_name":"Buaran","transit":false,"is_transit":false,"i_lat":-6.215568},{"station_id":"KLDB","transit":false,"line":1,"i_long":106.939679,"station_name":"Klenderbaru","is_transit":false,"distance":1305,"i_lat":-6.217455,"time":1}]]}