{"data":[[{"distance":0,"i_long":106.856607,"i_lat":-6.242512,"station_id":"CW","transit":false,"is_transit":false,"time":0,"station_name":"Cawang","line":0},{"distance":1230,"i_long":106.857948,"station_name":"Tebet","station_id":"TEB","transit":false,"line":2,"time":2,"i_lat":-6.226659,"is_transit":false},{"i_long":106.84912,"transit":true,"station_name":"Manggarai","station_id":"MRI","time":4,"distance":2610,"i_lat":-6.209883,"line":0,"is_transit":true},{"i_lat":-6.202263,"distance":3186,"station_name":"Sudirman","time":4,"i_long":106.822649,"line":1,"is_transit":false,"station_id":"SUD","transit":false},{"i_lat":-6.201433,"transit":false,"station_name":"Sudirman Baru","time":1,"distance":280,"i_long":106.819881,"line":1,"station_id":"SUDB","is_transit":false},{"is_transit":false,"station_id":"KAT","time":1,"distance":471,"station_name":"Karet","i_lat":-6.20132,"transit":false,"i_long":106.816351,"line":1},{"transit":true,"is_transit":true,"i_lat":-6.185545,"line":1,"distance":2029,"station_name":"Tanah Abang","station_id":"THB","i_long":106.811091,"time":5},{"line":6,"i_lat":-6.207404,"is_transit":false,"time":6,"distance":3191,"station_id":"PLM","station_name":"Palmerah","transit":false,"i_long":106.79689},{"station_name":"Kebayoran","station_id":"KBY","i_lat":-6.237242,"time":7,"i_long":106.780334,"line":6,"distance":3737,"is_transit":false,"transit":false}],[{"station_id":"CW","i_long":106.856607,"time":0,"transit":false,"distance":0,"is_transit":false,"station_name":"Cawang","i_lat":-6.242512,"line":0},{"i_long":106.857948,"line":2,"station_name":"Tebet","distance":1230,"transit":false,"time":2,"station_id":"TEB","is_transit":false,"i_lat":-6.226659},{"station_name":"Manggarai","time":4,"distance":2610,"transit":true,"i_lat":-6.209883,"i_long":106.84912,"station_id":"MRI","is_transit":true,"line":0},{"line":0,"station_name":"Cikini","is_transit":false,"station_id":"CKI","i_long":106.840169,"distance":1590,"time":4,"transit":false,"i_lat":-6.198556},{"distance":1750,"station_name":"Gondangdia","i_long":106.832183,"station_id":"GDD","line":2,"is_transit":false,"i_lat":-6.186295,"transit":false,"time":3},{"distance":2015,"i_lat":-6.166716,"station_name":"Juanda","transit":false,"is_transit":false,"line":2,"station_id":"JUA","time":4,"i_long":106.828284},{"transit":false,"is_transit":false,"time":2,"line":2,"distance":1149,"station_name":"Sawah Besar","station_id":"SW","i_lat":-6.160725,"i_long":106.827103},{"i_long":106.82482,"time":2,"i_lat":-6.149769,"distance":906,"station_id":"MGB","transit":false,"line":2,"is_transit":false,"station_name":"Manggabesar"},{"station_id":"JAY","line":7,"time":2,"station_name":"Jayakarta","distance":1080,"i_lat":-6.141205,"i_long":106.820901,"transit":false,"is_transit":false},{"time":4,"line":0,"distance":1264,"i_long":106.812439,"i_lat":-6.137569,"station_id":"JAKK","is_transit":true,"transit":true,"station_name":"Jakarta Kota"},{"line":0,"station_name":"Kampung Bandan","distance":1364,"i_long":106.826365,"i_lat":-6.132549,"transit":false,"time":3,"station_id":"KPB","is_transit":true},{"station_name":"Angke","time":9,"is_transit":false,"line":0,"station_id":"AK","distance":4102,"i_long":106.79867,"i_lat":-6.144674,"transit":false},{"i_long":106.800832,"line":1,"i_lat":-6.155215,"time":4,"distance":1230,"station_name":"Duri","station_id":"DU","transit":true,"is_transit":true},{"time":8,"station_name":"Tanah Abang","i_long":106.811091,"line":1,"transit":true,"distance":3632,"i_lat":-6.185545,"station_id":"THB","is_transit":true},{"transit":false,"time":6,"is_transit":false,"distance":3191,"i_long":106.79689,"station_name":"Palmerah","i_lat":-6.207404,"line":6,"station_id":"PLM"},{"i_long":106.780334,"station_id":"KBY","line":6,"distance":3737,"time":7,"station_name":"Kebayoran","transit":false,"i_lat":-6.237242,"is_transit":false}],[{"distance":0,"time":0,"line":0,"is_transit":false,"i_lat":-6.242512,"station_name":"Cawang","transit":false,"i_long":106.856607,"station_id":"CW"},{"is_transit":false,"i_long":106.857948,"i_lat":-6.226659,"transit":false,"distance":1230,"station_id":"TEB","station_name":"Tebet","time":2,"line":2},{"i_long":106.84912,"station_id":"MRI","station_name":"Manggarai","distance":2610,"time":4,"is_transit":true,"line":0,"transit":true,"i_lat":-6.209883},{"station_name":"Matraman","distance":1275,"line":1,"time":2,"transit":false,"i_long":106.858896,"station_id":"MTR","i_lat":-6.212485,"is_transit":false},{"station_id":"JNG","transit":true,"is_transit":true,"line":0,"distance":1377,"i_lat":-6.215091,"time":8,"station_name":"Jatinegara","i_long":106.86807400000001},{"station_name":"Pondok Jati","transit":false,"i_lat":-6.209188,"i_long":106.861737,"time":2,"station_id":"POK","is_transit":false,"distance":1236,"line":11},{"line":11,"station_name":"Kramat","transit":false,"is_transit":false,"distance":1829,"i_lat":-6.193792,"station_id":"KMT","i_long":106.855437,"time":2},{"station_name":"Gang Sentiong","line":11,"distance":973,"time":1,"transit":false,"station_id":"GST","i_lat":-6.185975,"i_long":106.850107,"is_transit":false},{"distance":1567,"is_transit":false,"station_name":"Pasar Senen","station_id":"PSE","transit":false,"line":11,"i_long":106.84368,"time":8,"i_lat":-6.174784},{"time":4,"distance":1436,"transit":false,"is_transit":false,"station_name":"Kemayoran","i_lat":-6.161728,"i_long":106.839204,"station_id":"KMO","line":11},{"station_name":"Rajawali","station_id":"RJW","transit":false,"distance":1901,"time":5,"is_transit":false,"i_lat":-6.14505,"i_long":106.836569,"line":11},{"line":0,"station_name":"Kampung Bandan","time":3,"distance":1444,"transit":true,"is_transit":true,"i_lat":-6.132549,"i_long":106.826365,"station_id":"KPB"},{"i_long":106.79867,"station_name":"Angke","line":0,"time":9,"is_transit":false,"transit":false,"distance":4102,"station_id":"AK","i_lat":-6.144674},{"station_name":"Duri","transit":true,"is_transit":true,"i_lat":-6.155215,"time":4,"distance":1230,"i_long":106.800832,"station_id":"DU","line":1},{"distance":3632,"transit":true,"line":1,"i_lat":-6.185545,"time":8,"i_long":106.811091,"is_transit":true,"station_id":"THB","station_name":"Tanah Abang"},{"station_id":"PLM","distance":3191,"time":6,"station_name":"Palmerah","is_transit":false,"i_long":106.79689,"line":6,"i_lat":-6.207404,"transit":false},{"i_long":106.780334,"distance":3737,"is_transit":false,"transit":false,"station_id":"KBY","line":6,"time":7,"i_lat":-6.237242,"station_name":"Kebayoran"}]]}