{"data":[[{"is_transit":false,"station_name":"Cawang","distance":0,"time":0,"transit":false,"i_long":106.856607,"station_id":"CW","i_lat":-6.242512,"line":2},{"is_transit":false,"station_id":"TEB","line":2,"transit":false,"distance":1230,"i_lat":-6.226659,"time":2,"i_long":106.857948,"station_name":"Tebet"},{"line":2,"distance":2610,"station_id":"MRI","time":4,"is_transit":true,"i_lat":-6.209883,"i_long":106.84912,"station_name":"Manggarai","transit":true},{"i_long":106.822649,"time":4,"transit":false,"distance":3186,"is_transit":false,"station_name":"Sudirman","station_id":"SUD","i_lat":-6.202263,"line":1},{"is_transit":false,"station_id":"SUDB","i_lat":-6.201433,"transit":false,"distance":280,"time":1,"line":1,"station_name":"Sudirman Baru","i_long":106.819881},{"distance":471,"is_transit":false,"station_id":"KAT","i_lat":-6.20132,"i_long":106.816351,"transit":false,"time":1,"line":1,"station_name":"Karet"}],[{"station_name":"Cawang","station_id":"CW","i_lat":-6.242512,"time":0,"is_transit":false,"distance":0,"line":2,"transit":false,"i_long":106.856607},{"station_name":"Tebet","i_lat":-6.226659,"station_id":"TEB","line":2,"distance":1230,"i_long":106.857948,"time":2,"is_transit":false,"transit":false},{"line":2,"is_transit":false,"i_lat":-6.209883,"transit":false,"station_name":"Manggarai","distance":2610,"time":4,"station_id":"MRI","i_long":106.84912},{"i_long":106.840169,"line":2,"station_id":"CKI","time":4,"station_name":"Cikini","distance":1590,"transit":false,"is_transit":false,"i_lat":-6.198556},{"time":3,"is_transit":false,"i_lat":-6.186295,"distance":1750,"line":2,"transit":false,"i_long":106.832183,"station_id":"GDD","station_name":"Gondangdia"},{"i_lat":-6.166716,"i_long":106.828284,"distance":2015,"station_name":"Juanda","station_id":"JUA","time":4,"transit":false,"is_transit":false,"line":2},{"i_lat":-6.160725,"i_long":106.827103,"station_id":"SW","time":2,"line":2,"distance":1149,"station_name":"Sawah Besar","is_transit":false,"transit":false},{"distance":906,"time":2,"i_long":106.82482,"station_name":"Manggabesar","station_id":"MGB","i_lat":-6.149769,"is_transit":false,"transit":false,"line":2},{"distance":1080,"station_name":"Jayakarta","is_transit":false,"transit":false,"line":2,"i_long":106.820901,"time":2,"station_id":"JAY","i_lat":-6.141205},{"distance":1264,"line":2,"transit":true,"is_transit":true,"i_long":106.812439,"station_name":"Jakarta Kota","station_id":"JAKK","time":4,"i_lat":-6.137569},{"distance":1364,"i_long":106.826365,"transit":true,"station_name":"Kampung Bandan","time":3,"is_transit":true,"station_id":"KPB","i_lat":-6.132549,"line":4},{"station_name":"Angke","i_long":106.79867,"is_transit":false,"distance":4102,"station_id":"AK","i_lat":-6.144674,"line":1,"time":9,"transit":false},{"station_id":"DU","station_name":"Duri","distance":1230,"transit":false,"i_lat":-6.155215,"line":1,"time":4,"i_long":106.800832,"is_transit":false},{"time":8,"distance":3632,"i_lat":-6.185545,"line":1,"station_name":"Tanah Abang","station_id":"THB","is_transit":false,"i_long":106.811091,"transit":false},{"i_long":106.816351,"line":1,"time":5,"transit":false,"distance":2029,"station_name":"Karet","i_lat":-6.20132,"station_id":"KAT","is_transit":false}],[{"i_lat":-6.242512,"station_name":"Cawang","i_long":106.856607,"transit":false,"distance":0,"station_id":"CW","is_transit":false,"line":2,"time":0},{"i_long":106.857948,"line":2,"is_transit":false,"station_id":"TEB","transit":false,"time":2,"distance":1230,"i_lat":-6.226659,"station_name":"Tebet"},{"i_lat":-6.209883,"i_long":106.84912,"transit":true,"station_name":"Manggarai","distance":2610,"line":2,"time":4,"is_transit":true,"station_id":"MRI"},{"station_name":"Matraman","i_lat":-6.212485,"transit":false,"time":2,"station_id":"MTR","distance":1275,"i_long":106.858896,"is_transit":false,"line":1},{"line":1,"i_lat":-6.215091,"distance":1377,"time":8,"station_id":"JNG","transit":true,"i_long":106.86807400000001,"station_name":"Jatinegara","is_transit":true},{"distance":1236,"time":2,"i_long":106.861737,"i_lat":-6.209188,"station_name":"Pondok Jati","line":11,"transit":false,"is_transit":false,"station_id":"POK"},{"is_transit":false,"i_lat":-6.193792,"i_long":106.855437,"station_name":"Kramat","transit":false,"time":2,"station_id":"KMT","line":11,"distance":1829},{"is_transit":false,"transit":false,"i_lat":-6.185975,"i_long":106.850107,"line":11,"time":1,"station_id":"GST","distance":973,"station_name":"Gang Sentiong"},{"is_transit":false,"i_long":106.84368,"time":8,"station_name":"Pasar Senen","distance":1567,"transit":false,"line":11,"i_lat":-6.174784,"station_id":"PSE"},{"distance":1436,"is_transit":false,"transit":false,"i_lat":-6.161728,"station_id":"KMO","i_long":106.839204,"line":11,"station_name":"Kemayoran","time":4},{"distance":1901,"station_id":"RJW","transit":false,"is_transit":false,"time":5,"i_long":106.836569,"station_name":"Rajawali","i_lat":-6.14505,"line":11},{"station_name":"Kampung Bandan","transit":true,"time":3,"i_lat":-6.132549,"i_long":106.826365,"distance":1444,"line":4,"is_transit":true,"station_id":"KPB"},{"transit":false,"is_transit":false,"time":9,"i_long":106.79867,"line":1,"station_name":"Angke","station_id":"AK","i_lat":-6.144674,"distance":4102},{"i_long":106.800832,"line":1,"station_id":"DU","time":4,"transit":false,"i_lat":-6.155215,"station_name":"Duri","is_transit":false,"distance":1230},{"transit":false,"station_name":"Tanah Abang","time":8,"is_transit":false,"i_long":106.811091,"distance":3632,"station_id":"THB","i_lat":-6.185545,"line":1},{"distance":2029,"i_lat":-6.20132,"is_transit":false,"time":5,"line":1,"transit":false,"station_name":"Karet","station_id":"KAT","i_long":106.816351}]]}