{"data":[[{"i_long":106.856607,"transit":false,"i_lat":-6.242512,"time":0,"distance":0,"station_id":"CW","is_transit":false,"line":2,"station_name":"Cawang"},{"is_transit":false,"transit":false,"station_name":"Tebet","time":2,"distance":1230,"i_lat":-6.226659,"i_long":106.857948,"line":2,"station_id":"TEB"},{"i_lat":-6.209883,"station_id":"MRI","line":2,"i_long":106.84912,"station_name":"Manggarai","distance":2610,"time":4,"is_transit":true,"transit":true},{"distance":1275,"station_name":"Matraman","station_id":"MTR","is_transit":false,"i_lat":-6.212485,"i_long":106.858896,"time":2,"transit":false,"line":1},{"i_long":106.86807400000001,"line":1,"i_lat":-6.215091,"station_id":"JNG","transit":true,"distance":1377,"is_transit":true,"station_name":"Jatinegara","time":8},{"is_transit":false,"transit":false,"station_id":"POK","time":2,"station_name":"Pondok Jati","distance":1236,"i_long":106.861737,"line":11,"i_lat":-6.209188},{"station_id":"KMT","i_lat":-6.193792,"distance":1829,"transit":false,"i_long":106.855437,"line":11,"station_name":"Kramat","is_transit":false,"time":2}],[{"distance":0,"station_name":"Cawang","time":0,"i_lat":-6.242512,"transit":false,"station_id":"CW","line":2,"i_long":106.856607,"is_transit":false},{"is_transit":false,"station_name":"Tebet","transit":false,"line":2,"distance":1230,"station_id":"TEB","time":2,"i_lat":-6.226659,"i_long":106.857948},{"station_id":"MRI","station_name":"Manggarai","is_transit":true,"i_long":106.84912,"line":2,"time":4,"transit":true,"i_lat":-6.209883,"distance":2610},{"i_long":106.822649,"line":1,"time":4,"station_id":"SUD","is_transit":false,"transit":false,"distance":3186,"i_lat":-6.202263,"station_name":"Sudirman"},{"is_transit":false,"station_id":"SUDB","distance":280,"time":1,"station_name":"Sudirman Baru","i_lat":-6.201433,"transit":false,"line":1,"i_long":106.819881},{"is_transit":false,"station_id":"KAT","station_name":"Karet","transit":false,"i_long":106.816351,"line":1,"distance":471,"time":1,"i_lat":-6.20132},{"distance":2029,"i_long":106.811091,"station_name":"Tanah Abang","time":5,"i_lat":-6.185545,"station_id":"THB","transit":false,"line":1,"is_transit":false},{"i_lat":-6.155215,"i_long":106.800832,"line":1,"transit":false,"distance":3632,"station_id":"DU","is_transit":false,"time":8,"station_name":"Duri"},{"time":4,"line":1,"transit":false,"distance":1230,"station_name":"Angke","station_id":"AK","is_transit":false,"i_long":106.79867,"i_lat":-6.144674},{"i_lat":-6.132549,"line":4,"station_name":"Kampung Bandan","is_transit":true,"transit":true,"i_long":106.826365,"distance":4102,"station_id":"KPB","time":9},{"i_lat":-6.14505,"i_long":106.836569,"time":3,"station_id":"RJW","transit":false,"line":11,"station_name":"Rajawali","distance":1444,"is_transit":false},{"i_long":106.839204,"line":11,"distance":1901,"time":5,"station_name":"Kemayoran","i_lat":-6.161728,"station_id":"KMO","transit":false,"is_transit":false},{"station_id":"PSE","is_transit":false,"station_name":"Pasar Senen","distance":1436,"i_lat":-6.174784,"line":11,"i_long":106.84368,"transit":false,"time":4},{"i_long":106.850107,"distance":1567,"line":11,"station_name":"Gang Sentiong","is_transit":false,"time":8,"transit":false,"station_id":"GST","i_lat":-6.185975},{"transit":false,"station_id":"KMT","line":11,"is_transit":false,"i_long":106.855437,"distance":973,"i_lat":-6.193792,"time":1,"station_name":"Kramat"}],[{"station_id":"CW","i_long":106.856607,"distance":0,"station_name":"Cawang","is_transit":false,"transit":false,"i_lat":-6.242512,"time":0,"line":2},{"station_id":"TEB","is_transit":false,"transit":false,"i_long":106.857948,"i_lat":-6.226659,"station_name":"Tebet","distance":1230,"line":2,"time":2},{"distance":2610,"i_long":106.84912,"line":2,"i_lat":-6.209883,"is_transit":false,"station_name":"Manggarai","transit":false,"time":4,"station_id":"MRI"},{"is_transit":false,"transit":false,"time":4,"line":2,"station_id":"CKI","station_name":"Cikini","i_lat":-6.198556,"i_long":106.840169,"distance":1590},{"transit":false,"i_long":106.832183,"station_name":"Gondangdia","time":3,"distance":1750,"i_lat":-6.186295,"is_transit":false,"line":2,"station_id":"GDD"},{"station_id":"JUA","time":4,"transit":false,"i_lat":-6.166716,"distance":2015,"is_transit":false,"i_long":106.828284,"line":2,"station_name":"Juanda"},{"station_id":"SW","transit":false,"i_lat":-6.160725,"line":2,"station_name":"Sawah Besar","is_transit":false,"distance":1149,"i_long":106.827103,"time":2},{"i_long":106.82482,"station_id":"MGB","transit":false,"line":2,"station_name":"Manggabesar","is_transit":false,"time":2,"distance":906,"i_lat":-6.149769},{"i_long":106.820901,"distance":1080,"line":2,"is_transit":false,"i_lat":-6.141205,"station_name":"Jayakarta","station_id":"JAY","transit":false,"time":2},{"line":2,"station_id":"JAKK","i_lat":-6.137569,"is_transit":true,"distance":1264,"i_long":106.812439,"station_name":"Jakarta Kota","transit":true,"time":4},{"distance":1364,"line":4,"is_transit":true,"station_name":"Kampung Bandan","time":3,"transit":true,"station_id":"KPB","i_lat":-6.132549,"i_long":106.826365},{"i_long":106.836569,"station_name":"Rajawali","is_transit":false,"transit":false,"time":3,"i_lat":-6.14505,"distance":1444,"line":11,"station_id":"RJW"},{"station_id":"KMO","is_transit":false,"station_name":"Kemayoran","transit":false,"distance":1901,"i_long":106.839204,"time":5,"i_lat":-6.161728,"line":11},{"time":4,"is_transit":false,"station_id":"PSE","transit":false,"distance":1436,"station_name":"Pasar Senen","i_lat":-6.174784,"i_long":106.84368,"line":11},{"i_lat":-6.185975,"transit":false,"line":11,"i_long":106.850107,"station_name":"Gang Sentiong","is_transit":false,"time":8,"distance":1567,"station_id":"GST"},{"time":1,"station_id":"KMT","distance":973,"line":11,"i_lat":-6.193792,"transit":false,"station_name":"Kramat","is_transit":false,"i_long":106.855437}]]}