{"data":[[{"is_transit":false,"i_lat":-6.242512,"i_long":106.856607,"time":0,"distance":0,"transit":false,"station_id":"CW","station_name":"Cawang","line":2},{"distance":1230,"i_lat":-6.226659,"i_long":106.857948,"station_id":"TEB","time":2,"station_name":"Tebet","line":2,"is_transit":false,"transit":false},{"transit":true,"station_id":"MRI","is_transit":true,"station_name":"Manggarai","time":4,"distance":2610,"i_lat":-6.209883,"i_long":106.84912,"line":2},{"station_name":"Sudirman","station_id":"SUD","is_transit":false,"time":4,"i_long":106.822649,"line":1,"transit":false,"distance":3186,"i_lat":-6.202263},{"transit":false,"time":1,"line":1,"i_long":106.819881,"station_name":"Sudirman Baru","station_id":"SUDB","is_transit":false,"distance":280,"i_lat":-6.201433},{"distance":471,"i_lat":-6.20132,"station_name":"Karet","station_id":"KAT","is_transit":false,"transit":false,"time":1,"i_long":106.816351,"line":1},{"distance":2029,"i_lat":-6.185545,"i_long":106.811091,"transit":true,"station_id":"THB","line":1,"station_name":"Tanah Abang","time":5,"is_transit":true},{"station_name":"Palmerah","is_transit":false,"time":6,"i_long":106.79689,"line":6,"transit":false,"station_id":"PLM","distance":3191,"i_lat":-6.207404},{"time":7,"is_transit":false,"transit":false,"distance":3737,"i_lat":-6.237242,"i_long":106.780334,"line":6,"station_name":"Kebayoran","station_id":"KBY"}],[{"transit":false,"i_lat":-6.242512,"i_long":106.856607,"station_name":"Cawang","station_id":"CW","line":2,"is_transit":false,"time":0,"distance":0},{"time":2,"transit":false,"station_id":"TEB","is_transit":false,"i_lat":-6.226659,"station_name":"Tebet","i_long":106.857948,"line":2,"distance":1230},{"transit":false,"time":4,"distance":2610,"i_lat":-6.209883,"is_transit":false,"i_long":106.84912,"line":2,"station_id":"MRI","station_name":"Manggarai"},{"i_lat":-6.198556,"transit":false,"station_name":"Cikini","i_long":106.840169,"line":2,"distance":1590,"is_transit":false,"station_id":"CKI","time":4},{"is_transit":false,"i_lat":-6.186295,"station_name":"Gondangdia","time":3,"distance":1750,"transit":false,"station_id":"GDD","line":2,"i_long":106.832183},{"is_transit":false,"distance":2015,"station_name":"Juanda","time":4,"i_lat":-6.166716,"line":2,"station_id":"JUA","transit":false,"i_long":106.828284},{"transit":false,"is_transit":false,"station_name":"Sawah Besar","station_id":"SW","i_long":106.827103,"time":2,"line":2,"distance":1149,"i_lat":-6.160725},{"i_long":106.82482,"station_id":"MGB","line":2,"i_lat":-6.149769,"is_transit":false,"time":2,"distance":906,"transit":false,"station_name":"Manggabesar"},{"is_transit":false,"i_long":106.820901,"line":2,"station_id":"JAY","time":2,"i_lat":-6.141205,"station_name":"Jayakarta","distance":1080,"transit":false},{"station_name":"Jakarta Kota","distance":1264,"i_long":106.812439,"i_lat":-6.137569,"line":2,"transit":true,"time":4,"is_transit":true,"station_id":"JAKK"},{"is_transit":true,"i_long":106.826365,"time":3,"distance":1364,"station_name":"Kampung Bandan","transit":true,"i_lat":-6.132549,"line":4,"station_id":"KPB"},{"transit":false,"station_name":"Angke","station_id":"AK","distance":4102,"i_lat":-6.144674,"time":9,"line":1,"i_long":106.79867,"is_transit":false},{"i_long":106.800832,"station_id":"DU","time":4,"station_name":"Duri","i_lat":-6.155215,"distance":1230,"transit":false,"line":1,"is_transit":false},{"time":8,"is_transit":true,"line":1,"transit":true,"station_name":"Tanah Abang","i_long":106.811091,"distance":3632,"station_id":"THB","i_lat":-6.185545},{"line":6,"i_lat":-6.207404,"station_name":"Palmerah","is_transit":false,"station_id":"PLM","distance":3191,"i_long":106.79689,"transit":false,"time":6},{"transit":false,"distance":3737,"station_name":"Kebayoran","i_lat":-6.237242,"is_transit":false,"line":6,"station_id":"KBY","i_long":106.780334,"time":7}],[{"is_transit":false,"station_name":"Cawang","station_id":"CW","time":0,"i_lat":-6.242512,"transit":false,"i_long":106.856607,"line":2,"distance":0},{"station_name":"Tebet","time":2,"is_transit":false,"i_lat":-6.226659,"distance":1230,"transit":false,"i_long":106.857948,"line":2,"station_id":"TEB"},{"distance":2610,"transit":true,"station_name":"Manggarai","time":4,"line":2,"station_id":"MRI","i_long":106.84912,"is_transit":true,"i_lat":-6.209883},{"transit":false,"i_long":106.858896,"is_transit":false,"i_lat":-6.212485,"station_name":"Matraman","station_id":"MTR","time":2,"line":1,"distance":1275},{"station_id":"JNG","line":1,"is_transit":true,"transit":true,"time":8,"i_long":106.86807400000001,"station_name":"Jatinegara","distance":1377,"i_lat":-6.215091},{"i_long":106.861737,"station_id":"POK","i_lat":-6.209188,"distance":1236,"transit":false,"is_transit":false,"station_name":"Pondok Jati","line":11,"time":2},{"transit":false,"i_lat":-6.193792,"station_name":"Kramat","is_transit":false,"i_long":106.855437,"station_id":"KMT","time":2,"distance":1829,"line":11},{"time":1,"line":11,"i_lat":-6.185975,"station_name":"Gang Sentiong","transit":false,"i_long":106.850107,"distance":973,"station_id":"GST","is_transit":false},{"station_name":"Pasar Senen","i_long":106.84368,"is_transit":false,"time":8,"i_lat":-6.174784,"transit":false,"distance":1567,"station_id":"PSE","line":11},{"station_id":"KMO","line":11,"station_name":"Kemayoran","i_long":106.839204,"is_transit":false,"distance":1436,"transit":false,"time":4,"i_lat":-6.161728},{"line":11,"i_long":106.836569,"station_name":"Rajawali","time":5,"i_lat":-6.14505,"transit":false,"is_transit":false,"station_id":"RJW","distance":1901},{"station_name":"Kampung Bandan","transit":true,"distance":1444,"line":4,"i_lat":-6.132549,"time":3,"i_long":106.826365,"is_transit":true,"station_id":"KPB"},{"i_lat":-6.144674,"transit":false,"station_name":"Angke","time":9,"station_id":"AK","is_transit":false,"line":1,"distance":4102,"i_long":106.79867},{"is_transit":false,"i_lat":-6.155215,"distance":1230,"time":4,"line":1,"station_name":"Duri","transit":false,"station_id":"DU","i_long":106.800832},{"is_transit":true,"station_name":"Tanah Abang","time":8,"station_id":"THB","distance":3632,"i_long":106.811091,"transit":true,"i_lat":-6.185545,"line":1},{"station_name":"Palmerah","time":6,"i_long":106.79689,"is_transit":false,"distance":3191,"i_lat":-6.207404,"line":6,"station_id":"PLM","transit":false},{"transit":false,"station_id":"KBY","station_name":"Kebayoran","i_long":106.780334,"distance":3737,"is_transit":false,"time":7,"line":6,"i_lat":-6.237242}]]}