{"data":[[{"station_name":"Cawang","distance":0,"station_id":"CW","time":0,"transit":false,"is_transit":false,"i_lat":-6.242512,"i_long":106.856607,"line":0},{"time":2,"is_transit":false,"distance":1230,"station_name":"Tebet","i_lat":-6.226659,"line":2,"i_long":106.857948,"station_id":"TEB","transit":false},{"transit":true,"line":0,"time":4,"station_id":"MRI","distance":2610,"i_long":106.84912,"i_lat":-6.209883,"station_name":"Manggarai","is_transit":true},{"station_name":"Sudirman","transit":false,"i_long":106.822649,"station_id":"SUD","i_lat":-6.202263,"is_transit":false,"line":1,"distance":3186,"time":4},{"time":1,"i_lat":-6.201433,"i_long":106.819881,"is_transit":false,"station_name":"Sudirman Baru","station_id":"SUDB","transit":false,"line":1,"distance":280},{"i_long":106.816351,"distance":471,"line":1,"is_transit":false,"transit":false,"i_lat":-6.20132,"station_name":"Karet","station_id":"KAT","time":1}],[{"distance":0,"line":0,"is_transit":false,"i_long":106.856607,"time":0,"i_lat":-6.242512,"transit":false,"station_id":"CW","station_name":"Cawang"},{"distance":1230,"station_name":"Tebet","transit":false,"time":2,"line":2,"station_id":"TEB","is_transit":false,"i_long":106.857948,"i_lat":-6.226659},{"line":0,"station_name":"Manggarai","distance":2610,"time":4,"station_id":"MRI","transit":true,"i_lat":-6.209883,"is_transit":true,"i_long":106.84912},{"transit":false,"distance":1590,"i_lat":-6.198556,"i_long":106.840169,"time":4,"line":0,"is_transit":false,"station_name":"Cikini","station_id":"CKI"},{"is_transit":false,"station_id":"GDD","i_lat":-6.186295,"transit":false,"time":3,"i_long":106.832183,"distance":1750,"station_name":"Gondangdia","line":2},{"station_name":"Juanda","station_id":"JUA","time":4,"i_long":106.828284,"is_transit":false,"i_lat":-6.166716,"distance":2015,"line":2,"transit":false},{"station_id":"SW","i_long":106.827103,"distance":1149,"station_name":"Sawah Besar","is_transit":false,"transit":false,"time":2,"i_lat":-6.160725,"line":2},{"time":2,"i_lat":-6.149769,"line":2,"station_id":"MGB","is_transit":false,"station_name":"Manggabesar","distance":906,"i_long":106.82482,"transit":false},{"i_long":106.820901,"distance":1080,"station_id":"JAY","line":7,"station_name":"Jayakarta","is_transit":false,"transit":false,"time":2,"i_lat":-6.141205},{"transit":true,"time":4,"station_name":"Jakarta Kota","is_transit":true,"i_lat":-6.137569,"line":0,"station_id":"JAKK","i_long":106.812439,"distance":1264},{"line":0,"transit":false,"station_name":"Kampung Bandan","time":3,"is_transit":true,"i_lat":-6.132549,"i_long":106.826365,"station_id":"KPB","distance":1364},{"station_name":"Angke","i_long":106.79867,"distance":4102,"time":9,"is_transit":false,"i_lat":-6.144674,"station_id":"AK","transit":false,"line":0},{"time":4,"station_name":"Duri","distance":1230,"line":1,"i_lat":-6.155215,"transit":true,"is_transit":true,"i_long":106.800832,"station_id":"DU"},{"transit":false,"distance":3632,"is_transit":true,"station_name":"Tanah Abang","i_long":106.811091,"line":1,"station_id":"THB","i_lat":-6.185545,"time":8},{"transit":false,"i_lat":-6.20132,"is_transit":false,"time":5,"i_long":106.816351,"station_id":"KAT","line":1,"distance":2029,"station_name":"Karet"}],[{"i_long":106.856607,"station_id":"CW","i_lat":-6.242512,"line":0,"is_transit":false,"time":0,"distance":0,"transit":false,"station_name":"Cawang"},{"time":2,"line":2,"i_long":106.857948,"transit":false,"i_lat":-6.226659,"is_transit":false,"station_name":"Tebet","distance":1230,"station_id":"TEB"},{"station_id":"MRI","time":4,"i_long":106.84912,"station_name":"Manggarai","distance":2610,"line":0,"transit":true,"i_lat":-6.209883,"is_transit":true},{"time":2,"station_name":"Matraman","i_lat":-6.212485,"distance":1275,"transit":false,"is_transit":false,"station_id":"MTR","i_long":106.858896,"line":1},{"distance":1377,"station_name":"Jatinegara","station_id":"JNG","is_transit":true,"line":0,"i_lat":-6.215091,"time":8,"i_long":106.86807400000001,"transit":true},{"i_long":106.861737,"distance":1236,"station_id":"POK","i_lat":-6.209188,"line":11,"transit":false,"station_name":"Pondok Jati","is_transit":false,"time":2},{"i_long":106.855437,"transit":false,"line":11,"is_transit":false,"i_lat":-6.193792,"station_name":"Kramat","distance":1829,"station_id":"KMT","time":2},{"i_long":106.850107,"station_name":"Gang Sentiong","transit":false,"i_lat":-6.185975,"line":11,"distance":973,"is_transit":false,"time":1,"station_id":"GST"},{"is_transit":false,"i_lat":-6.174784,"transit":false,"station_id":"PSE","time":8,"i_long":106.84368,"station_name":"Pasar Senen","distance":1567,"line":11},{"station_id":"KMO","is_transit":false,"i_long":106.839204,"time":4,"station_name":"Kemayoran","distance":1436,"line":11,"transit":false,"i_lat":-6.161728},{"time":5,"distance":1901,"i_long":106.836569,"line":11,"station_id":"RJW","i_lat":-6.14505,"transit":false,"is_transit":false,"station_name":"Rajawali"},{"transit":true,"distance":1444,"time":3,"i_lat":-6.132549,"is_transit":true,"i_long":106.826365,"station_id":"KPB","line":0,"station_name":"Kampung Bandan"},{"line":0,"station_name":"Angke","i_long":106.79867,"distance":4102,"station_id":"AK","transit":false,"is_transit":false,"i_lat":-6.144674,"time":9},{"transit":true,"distance":1230,"i_long":106.800832,"i_lat":-6.155215,"line":1,"is_transit":true,"station_id":"DU","station_name":"Duri","time":4},{"distance":3632,"time":8,"i_lat":-6.185545,"station_name":"Tanah Abang","i_long":106.811091,"is_transit":true,"station_id":"THB","transit":false,"line":1},{"line":1,"i_long":106.816351,"station_id":"KAT","transit":false,"i_lat":-6.20132,"is_transit":false,"distance":2029,"station_name":"Karet","time":5}]]}