{"data":[[{"is_transit":false,"i_lat":-6.242512,"distance":0,"time":0,"station_name":"Cawang","transit":false,"station_id":"CW","i_long":106.856607,"line":2},{"distance":1230,"station_id":"TEB","is_transit":false,"time":2,"line":2,"station_name":"Tebet","i_long":106.857948,"i_lat":-6.226659,"transit":false},{"distance":2610,"i_lat":-6.209883,"i_long":106.84912,"line":2,"time":4,"is_transit":true,"transit":true,"station_id":"MRI","station_name":"Manggarai"},{"station_id":"MTR","i_lat":-6.212485,"is_transit":false,"station_name":"Matraman","distance":1275,"time":2,"i_long":106.858896,"line":1,"transit":false},{"i_long":106.86807400000001,"distance":1377,"time":8,"station_id":"JNG","transit":true,"is_transit":true,"station_name":"Jatinegara","i_lat":-6.215091,"line":1},{"i_lat":-6.209188,"distance":1236,"time":2,"station_name":"Pondok Jati","station_id":"POK","line":11,"transit":false,"i_long":106.861737,"is_transit":false},{"i_lat":-6.193792,"i_long":106.855437,"line":11,"is_transit":false,"station_name":"Kramat","transit":false,"station_id":"KMT","time":2,"distance":1829}],[{"transit":false,"station_name":"Cawang","i_lat":-6.242512,"line":2,"time":0,"i_long":106.856607,"station_id":"CW","is_transit":false,"distance":0},{"i_long":106.857948,"transit":false,"station_id":"TEB","i_lat":-6.226659,"time":2,"line":2,"is_transit":false,"distance":1230,"station_name":"Tebet"},{"i_lat":-6.209883,"transit":true,"i_long":106.84912,"station_id":"MRI","line":2,"station_name":"Manggarai","distance":2610,"is_transit":true,"time":4},{"i_long":106.822649,"distance":3186,"is_transit":false,"station_name":"Sudirman","station_id":"SUD","line":1,"transit":false,"time":4,"i_lat":-6.202263},{"line":1,"station_id":"SUDB","is_transit":false,"time":1,"i_long":106.819881,"transit":false,"distance":280,"i_lat":-6.201433,"station_name":"Sudirman Baru"},{"distance":471,"line":1,"station_name":"Karet","i_long":106.816351,"is_transit":false,"transit":false,"station_id":"KAT","time":1,"i_lat":-6.20132},{"i_lat":-6.185545,"line":1,"is_transit":false,"transit":false,"distance":2029,"station_id":"THB","time":5,"station_name":"Tanah Abang","i_long":106.811091},{"is_transit":false,"station_name":"Duri","distance":3632,"time":8,"line":1,"transit":false,"station_id":"DU","i_lat":-6.155215,"i_long":106.800832},{"time":4,"station_id":"AK","transit":false,"i_lat":-6.144674,"distance":1230,"is_transit":false,"i_long":106.79867,"line":1,"station_name":"Angke"},{"is_transit":true,"i_lat":-6.132549,"distance":4102,"line":4,"station_id":"KPB","transit":true,"station_name":"Kampung Bandan","i_long":106.826365,"time":9},{"station_id":"RJW","i_lat":-6.14505,"distance":1444,"transit":false,"is_transit":false,"station_name":"Rajawali","i_long":106.836569,"line":11,"time":3},{"is_transit":false,"i_lat":-6.161728,"distance":1901,"station_id":"KMO","transit":false,"time":5,"station_name":"Kemayoran","i_long":106.839204,"line":11},{"station_name":"Pasar Senen","is_transit":false,"time":4,"line":11,"transit":false,"i_long":106.84368,"distance":1436,"i_lat":-6.174784,"station_id":"PSE"},{"station_name":"Gang Sentiong","time":8,"i_lat":-6.185975,"transit":false,"distance":1567,"i_long":106.850107,"is_transit":false,"station_id":"GST","line":11},{"line":11,"i_lat":-6.193792,"distance":973,"station_id":"KMT","transit":false,"i_long":106.855437,"is_transit":false,"station_name":"Kramat","time":1}],[{"transit":false,"is_transit":false,"i_long":106.856607,"line":2,"station_name":"Cawang","distance":0,"station_id":"CW","time":0,"i_lat":-6.242512},{"time":2,"i_lat":-6.226659,"station_name":"Tebet","station_id":"TEB","i_long":106.857948,"distance":1230,"transit":false,"is_transit":false,"line":2},{"line":2,"transit":false,"station_name":"Manggarai","time":4,"i_long":106.84912,"i_lat":-6.209883,"station_id":"MRI","is_transit":false,"distance":2610},{"is_transit":false,"station_id":"CKI","i_long":106.840169,"time":4,"line":2,"transit":false,"i_lat":-6.198556,"station_name":"Cikini","distance":1590},{"time":3,"i_long":106.832183,"distance":1750,"i_lat":-6.186295,"transit":false,"is_transit":false,"station_id":"GDD","line":2,"station_name":"Gondangdia"},{"is_transit":false,"i_lat":-6.166716,"distance":2015,"station_id":"JUA","station_name":"Juanda","time":4,"line":2,"transit":false,"i_long":106.828284},{"line":2,"i_lat":-6.160725,"is_transit":false,"station_name":"Sawah Besar","distance":1149,"time":2,"i_long":106.827103,"station_id":"SW","transit":false},{"line":2,"time":2,"station_id":"MGB","station_name":"Manggabesar","distance":906,"transit":false,"i_lat":-6.149769,"is_transit":false,"i_long":106.82482},{"is_transit":false,"time":2,"line":2,"distance":1080,"transit":false,"i_long":106.820901,"station_name":"Jayakarta","i_lat":-6.141205,"station_id":"JAY"},{"i_lat":-6.137569,"i_long":106.812439,"is_transit":true,"time":4,"line":2,"station_id":"JAKK","distance":1264,"transit":true,"station_name":"Jakarta Kota"},{"distance":1364,"i_lat":-6.132549,"i_long":106.826365,"time":3,"station_name":"Kampung Bandan","transit":true,"is_transit":true,"line":4,"station_id":"KPB"},{"station_name":"Rajawali","time":3,"line":11,"is_transit":false,"station_id":"RJW","i_lat":-6.14505,"i_long":106.836569,"distance":1444,"transit":false},{"line":11,"station_name":"Kemayoran","is_transit":false,"time":5,"station_id":"KMO","i_long":106.839204,"transit":false,"distance":1901,"i_lat":-6.161728},{"distance":1436,"is_transit":false,"transit":false,"time":4,"station_name":"Pasar Senen","i_lat":-6.174784,"station_id":"PSE","i_long":106.84368,"line":11},{"distance":1567,"station_id":"GST","i_long":106.850107,"time":8,"is_transit":false,"line":11,"station_name":"Gang Sentiong","transit":false,"i_lat":-6.185975},{"line":11,"transit":false,"station_name":"Kramat","time":1,"station_id":"KMT","i_lat":-6.193792,"i_long":106.855437,"is_transit":false,"distance":973}]]}