{"data":[[{"station_name":"Cawang","line":0,"transit":false,"i_long":106.856607,"distance":0,"time":0,"station_id":"CW","i_lat":-6.242512,"is_transit":false},{"i_lat":-6.226659,"station_id":"TEB","is_transit":false,"transit":false,"distance":1230,"i_long":106.857948,"time":2,"line":2,"station_name":"Tebet"},{"time":4,"i_long":106.84912,"transit":true,"distance":2610,"line":0,"i_lat":-6.209883,"station_id":"MRI","is_transit":true,"station_name":"Manggarai"},{"is_transit":false,"station_id":"MTR","station_name":"Matraman","distance":1275,"time":2,"transit":false,"i_lat":-6.212485,"line":1,"i_long":106.858896},{"i_long":106.86807400000001,"station_name":"Jatinegara","time":8,"distance":1377,"transit":true,"is_transit":true,"station_id":"JNG","i_lat":-6.215091,"line":0},{"transit":false,"station_id":"POK","distance":1236,"i_lat":-6.209188,"is_transit":false,"i_long":106.861737,"line":11,"time":2,"station_name":"Pondok Jati"},{"is_transit":false,"distance":1829,"i_long":106.855437,"station_id":"KMT","station_name":"Kramat","time":2,"transit":false,"line":11,"i_lat":-6.193792}],[{"distance":0,"station_name":"Cawang","i_lat":-6.242512,"is_transit":false,"time":0,"transit":false,"i_long":106.856607,"line":0,"station_id":"CW"},{"station_name":"Tebet","line":2,"distance":1230,"i_long":106.857948,"station_id":"TEB","is_transit":false,"time":2,"i_lat":-6.226659,"transit":false},{"station_name":"Manggarai","i_long":106.84912,"line":0,"distance":2610,"time":4,"transit":true,"i_lat":-6.209883,"is_transit":true,"station_id":"MRI"},{"transit":false,"i_long":106.822649,"time":4,"distance":3186,"line":1,"i_lat":-6.202263,"station_name":"Sudirman","station_id":"SUD","is_transit":false},{"time":1,"distance":280,"station_name":"Sudirman Baru","i_long":106.819881,"station_id":"SUDB","is_transit":false,"line":1,"transit":false,"i_lat":-6.201433},{"is_transit":false,"time":1,"transit":false,"i_lat":-6.20132,"i_long":106.816351,"line":1,"station_name":"Karet","distance":471,"station_id":"KAT"},{"station_id":"THB","transit":false,"station_name":"Tanah Abang","is_transit":true,"time":5,"i_lat":-6.185545,"distance":2029,"i_long":106.811091,"line":1},{"transit":true,"line":1,"is_transit":true,"station_name":"Duri","i_long":106.800832,"time":8,"station_id":"DU","distance":3632,"i_lat":-6.155215},{"transit":false,"i_lat":-6.144674,"line":0,"station_id":"AK","time":4,"is_transit":false,"distance":1230,"station_name":"Angke","i_long":106.79867},{"i_long":106.826365,"station_id":"KPB","time":9,"distance":4102,"transit":true,"station_name":"Kampung Bandan","i_lat":-6.132549,"line":0,"is_transit":true},{"transit":false,"line":11,"station_id":"RJW","station_name":"Rajawali","i_lat":-6.14505,"time":3,"is_transit":false,"distance":1444,"i_long":106.836569},{"station_name":"Kemayoran","time":5,"transit":false,"line":11,"station_id":"KMO","i_long":106.839204,"distance":1901,"is_transit":false,"i_lat":-6.161728},{"transit":false,"station_name":"Pasar Senen","is_transit":false,"time":4,"line":11,"i_lat":-6.174784,"distance":1436,"station_id":"PSE","i_long":106.84368},{"line":11,"station_id":"GST","station_name":"Gang Sentiong","time":8,"transit":false,"i_lat":-6.185975,"distance":1567,"i_long":106.850107,"is_transit":false},{"distance":973,"time":1,"transit":false,"station_id":"KMT","line":11,"i_long":106.855437,"station_name":"Kramat","is_transit":false,"i_lat":-6.193792}],[{"station_name":"Cawang","transit":false,"station_id":"CW","i_long":106.856607,"time":0,"line":0,"i_lat":-6.242512,"is_transit":false,"distance":0},{"time":2,"distance":1230,"transit":false,"i_long":106.857948,"is_transit":false,"i_lat":-6.226659,"station_id":"TEB","station_name":"Tebet","line":2},{"transit":true,"is_transit":true,"station_name":"Manggarai","station_id":"MRI","time":4,"distance":2610,"i_long":106.84912,"line":0,"i_lat":-6.209883},{"transit":false,"i_lat":-6.198556,"i_long":106.840169,"line":0,"station_name":"Cikini","is_transit":false,"station_id":"CKI","time":4,"distance":1590},{"line":2,"station_name":"Gondangdia","is_transit":false,"distance":1750,"time":3,"i_lat":-6.186295,"station_id":"GDD","transit":false,"i_long":106.832183},{"time":4,"transit":false,"station_name":"Juanda","station_id":"JUA","i_lat":-6.166716,"line":2,"distance":2015,"i_long":106.828284,"is_transit":false},{"station_id":"SW","line":2,"distance":1149,"is_transit":false,"time":2,"station_name":"Sawah Besar","transit":false,"i_lat":-6.160725,"i_long":106.827103},{"station_name":"Manggabesar","station_id":"MGB","time":2,"distance":906,"is_transit":false,"i_long":106.82482,"line":2,"transit":false,"i_lat":-6.149769},{"distance":1080,"is_transit":false,"time":2,"station_id":"JAY","i_lat":-6.141205,"transit":false,"line":7,"i_long":106.820901,"station_name":"Jayakarta"},{"line":0,"transit":true,"i_long":106.812439,"is_transit":true,"station_name":"Jakarta Kota","distance":1264,"i_lat":-6.137569,"time":4,"station_id":"JAKK"},{"distance":1364,"i_long":106.826365,"is_transit":true,"i_lat":-6.132549,"line":0,"station_id":"KPB","time":3,"station_name":"Kampung Bandan","transit":true},{"station_id":"RJW","time":3,"is_transit":false,"transit":false,"i_lat":-6.14505,"i_long":106.836569,"distance":1444,"line":11,"station_name":"Rajawali"},{"i_lat":-6.161728,"line":11,"is_transit":false,"time":5,"station_id":"KMO","transit":false,"i_long":106.839204,"station_name":"Kemayoran","distance":1901},{"station_id":"PSE","station_name":"Pasar Senen","time":4,"distance":1436,"i_lat":-6.174784,"i_long":106.84368,"transit":false,"is_transit":false,"line":11},{"line":11,"transit":false,"distance":1567,"station_id":"GST","time":8,"i_long":106.850107,"is_transit":false,"i_lat":-6.185975,"station_name":"Gang Sentiong"},{"time":1,"line":11,"transit":false,"station_name":"Kramat","distance":973,"station_id":"KMT","i_lat":-6.193792,"is_transit":false,"i_long":106.855437}]]}