{"data":[[{"station_id":"CW","station_name":"Cawang","i_lat":-6.242512,"i_long":106.856607,"line":2,"time":0,"is_transit":false,"distance":0,"transit":false},{"line":2,"i_lat":-6.226659,"time":2,"distance":1230,"transit":false,"i_long":106.857948,"station_id":"TEB","station_name":"Tebet","is_transit":false},{"is_transit":true,"station_name":"Manggarai","transit":true,"i_lat":-6.209883,"time":4,"line":2,"station_id":"MRI","i_long":106.84912,"distance":2610},{"distance":3186,"transit":false,"i_long":106.822649,"is_transit":false,"station_id":"SUD","station_name":"Sudirman","line":1,"time":4,"i_lat":-6.202263},{"station_id":"SUDB","i_long":106.819881,"line":1,"station_name":"Sudirman Baru","i_lat":-6.201433,"transit":false,"is_transit":false,"distance":280,"time":1},{"station_name":"Karet","line":1,"time":1,"station_id":"KAT","transit":false,"i_lat":-6.20132,"distance":471,"i_long":106.816351,"is_transit":false}],[{"time":0,"station_name":"Cawang","i_long":106.856607,"station_id":"CW","is_transit":false,"transit":false,"distance":0,"i_lat":-6.242512,"line":2},{"transit":false,"distance":1230,"time":2,"is_transit":false,"station_name":"Tebet","i_long":106.857948,"station_id":"TEB","i_lat":-6.226659,"line":2},{"distance":2610,"is_transit":false,"line":2,"i_long":106.84912,"i_lat":-6.209883,"transit":false,"time":4,"station_name":"Manggarai","station_id":"MRI"},{"line":2,"i_long":106.840169,"station_name":"Cikini","is_transit":false,"i_lat":-6.198556,"time":4,"station_id":"CKI","transit":false,"distance":1590},{"station_id":"GDD","i_lat":-6.186295,"time":3,"station_name":"Gondangdia","transit":false,"is_transit":false,"i_long":106.832183,"distance":1750,"line":2},{"time":4,"distance":2015,"station_name":"Juanda","i_lat":-6.166716,"i_long":106.828284,"is_transit":false,"transit":false,"station_id":"JUA","line":2},{"station_name":"Sawah Besar","time":2,"line":2,"distance":1149,"i_lat":-6.160725,"i_long":106.827103,"station_id":"SW","transit":false,"is_transit":false},{"i_lat":-6.149769,"distance":906,"time":2,"line":2,"station_name":"Manggabesar","station_id":"MGB","transit":false,"i_long":106.82482,"is_transit":false},{"i_long":106.820901,"station_id":"JAY","i_lat":-6.141205,"is_transit":false,"transit":false,"station_name":"Jayakarta","time":2,"line":2,"distance":1080},{"distance":1264,"station_id":"JAKK","is_transit":true,"i_lat":-6.137569,"transit":true,"time":4,"station_name":"Jakarta Kota","i_long":106.812439,"line":2},{"i_long":106.826365,"i_lat":-6.132549,"is_transit":true,"line":4,"time":3,"station_id":"KPB","station_name":"Kampung Bandan","distance":1364,"transit":true},{"is_transit":false,"line":1,"time":9,"i_lat":-6.144674,"transit":false,"i_long":106.79867,"distance":4102,"station_name":"Angke","station_id":"AK"},{"line":1,"i_lat":-6.155215,"i_long":106.800832,"station_name":"Duri","is_transit":false,"transit":false,"station_id":"DU","time":4,"distance":1230},{"transit":false,"station_name":"Tanah Abang","i_long":106.811091,"station_id":"THB","time":8,"is_transit":false,"line":1,"i_lat":-6.185545,"distance":3632},{"time":5,"distance":2029,"is_transit":false,"transit":false,"i_long":106.816351,"i_lat":-6.20132,"station_id":"KAT","station_name":"Karet","line":1}],[{"is_transit":false,"transit":false,"time":0,"i_lat":-6.242512,"i_long":106.856607,"station_id":"CW","distance":0,"line":2,"station_name":"Cawang"},{"is_transit":false,"i_lat":-6.226659,"distance":1230,"station_name":"Tebet","time":2,"station_id":"TEB","i_long":106.857948,"transit":false,"line":2},{"station_name":"Manggarai","station_id":"MRI","i_lat":-6.209883,"time":4,"i_long":106.84912,"line":2,"distance":2610,"is_transit":true,"transit":true},{"distance":1275,"transit":false,"i_long":106.858896,"i_lat":-6.212485,"time":2,"station_name":"Matraman","is_transit":false,"line":1,"station_id":"MTR"},{"time":8,"i_lat":-6.215091,"distance":1377,"station_id":"JNG","is_transit":true,"line":1,"station_name":"Jatinegara","transit":true,"i_long":106.86807400000001},{"line":11,"transit":false,"i_lat":-6.209188,"time":2,"station_id":"POK","is_transit":false,"i_long":106.861737,"station_name":"Pondok Jati","distance":1236},{"station_id":"KMT","transit":false,"i_long":106.855437,"distance":1829,"station_name":"Kramat","i_lat":-6.193792,"line":11,"time":2,"is_transit":false},{"distance":973,"i_lat":-6.185975,"time":1,"transit":false,"is_transit":false,"line":11,"station_id":"GST","station_name":"Gang Sentiong","i_long":106.850107},{"is_transit":false,"station_name":"Pasar Senen","distance":1567,"transit":false,"station_id":"PSE","i_lat":-6.174784,"i_long":106.84368,"time":8,"line":11},{"distance":1436,"transit":false,"station_id":"KMO","station_name":"Kemayoran","time":4,"is_transit":false,"i_lat":-6.161728,"i_long":106.839204,"line":11},{"i_long":106.836569,"time":5,"transit":false,"distance":1901,"is_transit":false,"line":11,"station_name":"Rajawali","i_lat":-6.14505,"station_id":"RJW"},{"line":4,"i_lat":-6.132549,"transit":true,"time":3,"station_name":"Kampung Bandan","distance":1444,"station_id":"KPB","is_transit":true,"i_long":106.826365},{"line":1,"i_long":106.79867,"time":9,"i_lat":-6.144674,"distance":4102,"station_name":"Angke","transit":false,"station_id":"AK","is_transit":false},{"line":1,"i_long":106.800832,"station_name":"Duri","time":4,"station_id":"DU","distance":1230,"is_transit":false,"transit":false,"i_lat":-6.155215},{"distance":3632,"i_long":106.811091,"time":8,"transit":false,"station_id":"THB","is_transit":false,"i_lat":-6.185545,"station_name":"Tanah Abang","line":1},{"station_id":"KAT","station_name":"Karet","is_transit":false,"distance":2029,"transit":false,"time":5,"i_lat":-6.20132,"line":1,"i_long":106.816351}]]}