{"data":[[{"i_lat":-6.242512,"time":0,"station_id":"CW","station_name":"Cawang","transit":false,"distance":0,"i_long":106.856607,"line":2,"is_transit":false},{"station_id":"TEB","transit":false,"i_long":106.857948,"is_transit":false,"i_lat":-6.226659,"time":2,"distance":1230,"station_name":"Tebet","line":2},{"i_long":106.84912,"distance":2610,"time":4,"i_lat":-6.209883,"line":2,"station_id":"MRI","transit":true,"station_name":"Manggarai","is_transit":true},{"transit":false,"station_id":"SUD","station_name":"Sudirman","is_transit":false,"line":1,"distance":3186,"i_long":106.822649,"i_lat":-6.202263,"time":4},{"station_id":"SUDB","line":1,"station_name":"Sudirman Baru","is_transit":false,"i_lat":-6.201433,"transit":false,"i_long":106.819881,"time":1,"distance":280},{"i_long":106.816351,"transit":false,"station_id":"KAT","i_lat":-6.20132,"distance":471,"line":1,"time":1,"is_transit":false,"station_name":"Karet"},{"transit":true,"i_long":106.811091,"is_transit":true,"i_lat":-6.185545,"line":1,"station_id":"THB","time":5,"distance":2029,"station_name":"Tanah Abang"},{"distance":3191,"i_long":106.79689,"time":6,"is_transit":false,"line":6,"station_id":"PLM","station_name":"Palmerah","transit":false,"i_lat":-6.207404},{"time":7,"station_id":"KBY","i_lat":-6.237242,"station_name":"Kebayoran","transit":false,"i_long":106.780334,"line":6,"is_transit":false,"distance":3737}],[{"transit":false,"line":2,"station_name":"Cawang","i_long":106.856607,"distance":0,"i_lat":-6.242512,"time":0,"station_id":"CW","is_transit":false},{"station_id":"TEB","distance":1230,"is_transit":false,"transit":false,"station_name":"Tebet","line":2,"i_lat":-6.226659,"i_long":106.857948,"time":2},{"station_id":"MRI","transit":false,"i_long":106.84912,"line":2,"distance":2610,"i_lat":-6.209883,"time":4,"is_transit":false,"station_name":"Manggarai"},{"line":2,"station_name":"Cikini","station_id":"CKI","is_transit":false,"i_lat":-6.198556,"i_long":106.840169,"time":4,"distance":1590,"transit":false},{"i_lat":-6.186295,"is_transit":false,"i_long":106.832183,"station_id":"GDD","transit":false,"time":3,"distance":1750,"station_name":"Gondangdia","line":2},{"transit":false,"i_lat":-6.166716,"time":4,"line":2,"station_id":"JUA","is_transit":false,"distance":2015,"i_long":106.828284,"station_name":"Juanda"},{"transit":false,"station_name":"Sawah Besar","is_transit":false,"i_lat":-6.160725,"i_long":106.827103,"line":2,"distance":1149,"station_id":"SW","time":2},{"distance":906,"transit":false,"station_id":"MGB","time":2,"i_lat":-6.149769,"line":2,"station_name":"Manggabesar","is_transit":false,"i_long":106.82482},{"station_name":"Jayakarta","transit":false,"i_long":106.820901,"line":2,"time":2,"is_transit":false,"distance":1080,"station_id":"JAY","i_lat":-6.141205},{"distance":1264,"i_long":106.812439,"is_transit":true,"station_name":"Jakarta Kota","transit":true,"i_lat":-6.137569,"line":2,"station_id":"JAKK","time":4},{"line":4,"is_transit":true,"i_lat":-6.132549,"station_name":"Kampung Bandan","distance":1364,"time":3,"transit":true,"i_long":106.826365,"station_id":"KPB"},{"distance":4102,"station_name":"Angke","is_transit":false,"line":1,"station_id":"AK","i_lat":-6.144674,"transit":false,"i_long":106.79867,"time":9},{"time":4,"transit":false,"i_lat":-6.155215,"line":1,"station_id":"DU","station_name":"Duri","is_transit":false,"distance":1230,"i_long":106.800832},{"distance":3632,"transit":true,"i_lat":-6.185545,"station_id":"THB","is_transit":true,"line":1,"station_name":"Tanah Abang","time":8,"i_long":106.811091},{"distance":3191,"station_id":"PLM","time":6,"station_name":"Palmerah","transit":false,"is_transit":false,"line":6,"i_long":106.79689,"i_lat":-6.207404},{"line":6,"distance":3737,"i_long":106.780334,"transit":false,"station_id":"KBY","i_lat":-6.237242,"time":7,"station_name":"Kebayoran","is_transit":false}],[{"station_id":"CW","is_transit":false,"station_name":"Cawang","i_long":106.856607,"distance":0,"line":2,"transit":false,"i_lat":-6.242512,"time":0},{"i_lat":-6.226659,"time":2,"distance":1230,"station_name":"Tebet","station_id":"TEB","is_transit":false,"i_long":106.857948,"transit":false,"line":2},{"i_long":106.84912,"line":2,"is_transit":true,"time":4,"distance":2610,"station_name":"Manggarai","transit":true,"i_lat":-6.209883,"station_id":"MRI"},{"is_transit":false,"time":2,"station_name":"Matraman","transit":false,"i_lat":-6.212485,"distance":1275,"i_long":106.858896,"line":1,"station_id":"MTR"},{"i_lat":-6.215091,"i_long":106.86807400000001,"is_transit":true,"distance":1377,"station_id":"JNG","line":1,"transit":true,"time":8,"station_name":"Jatinegara"},{"station_name":"Pondok Jati","distance":1236,"i_lat":-6.209188,"i_long":106.861737,"transit":false,"line":11,"time":2,"is_transit":false,"station_id":"POK"},{"i_long":106.855437,"line":11,"distance":1829,"transit":false,"station_name":"Kramat","is_transit":false,"time":2,"station_id":"KMT","i_lat":-6.193792},{"transit":false,"i_long":106.850107,"distance":973,"i_lat":-6.185975,"station_name":"Gang Sentiong","line":11,"time":1,"is_transit":false,"station_id":"GST"},{"distance":1567,"station_name":"Pasar Senen","is_transit":false,"i_lat":-6.174784,"i_long":106.84368,"station_id":"PSE","time":8,"transit":false,"line":11},{"station_id":"KMO","line":11,"is_transit":false,"i_lat":-6.161728,"distance":1436,"i_long":106.839204,"station_name":"Kemayoran","transit":false,"time":4},{"station_id":"RJW","i_lat":-6.14505,"i_long":106.836569,"time":5,"distance":1901,"transit":false,"line":11,"station_name":"Rajawali","is_transit":false},{"is_transit":true,"station_name":"Kampung Bandan","i_lat":-6.132549,"i_long":106.826365,"station_id":"KPB","line":4,"distance":1444,"transit":true,"time":3},{"station_id":"AK","i_lat":-6.144674,"distance":4102,"line":1,"is_transit":false,"time":9,"station_name":"Angke","transit":false,"i_long":106.79867},{"transit":false,"distance":1230,"station_id":"DU","i_lat":-6.155215,"i_long":106.800832,"line":1,"is_transit":false,"station_name":"Duri","time":4},{"time":8,"line":1,"station_name":"Tanah Abang","is_transit":true,"transit":true,"distance":3632,"i_long":106.811091,"i_lat":-6.185545,"station_id":"THB"},{"station_name":"Palmerah","is_transit":false,"time":6,"transit":false,"station_id":"PLM","line":6,"i_long":106.79689,"distance":3191,"i_lat":-6.207404},{"transit":false,"line":6,"i_lat":-6.237242,"i_long":106.780334,"station_id":"KBY","distance":3737,"station_name":"Kebayoran","time":7,"is_transit":false}]]}