{"data":[[{"station_name":"Cawang","line":2,"station_id":"CW","i_lat":-6.242512,"time":0,"transit":false,"i_long":106.856607,"distance":0,"is_transit":false},{"transit":false,"station_id":"TEB","station_name":"Tebet","is_transit":false,"time":2,"line":2,"i_long":106.857948,"i_lat":-6.226659,"distance":1230},{"station_id":"MRI","line":2,"is_transit":true,"i_long":106.84912,"i_lat":-6.209883,"distance":2610,"time":4,"transit":true,"station_name":"Manggarai"},{"time":4,"i_long":106.822649,"station_id":"SUD","i_lat":-6.202263,"distance":3186,"line":1,"transit":false,"is_transit":false,"station_name":"Sudirman"},{"time":1,"distance":280,"transit":false,"station_name":"Sudirman Baru","is_transit":false,"line":1,"i_long":106.819881,"station_id":"SUDB","i_lat":-6.201433},{"i_long":106.816351,"line":1,"station_name":"Karet","transit":false,"time":1,"i_lat":-6.20132,"distance":471,"station_id":"KAT","is_transit":false},{"i_lat":-6.185545,"is_transit":true,"transit":true,"distance":2029,"i_long":106.811091,"line":1,"station_id":"THB","time":5,"station_name":"Tanah Abang"},{"transit":false,"time":6,"is_transit":false,"distance":3191,"i_lat":-6.207404,"i_long":106.79689,"line":6,"station_name":"Palmerah","station_id":"PLM"},{"line":6,"time":7,"station_name":"Kebayoran","distance":3737,"station_id":"KBY","transit":false,"is_transit":false,"i_long":106.780334,"i_lat":-6.237242},{"i_long":106.74273,"line":6,"i_lat":-6.276362,"is_transit":false,"station_name":"Pondokranji","transit":false,"station_id":"PDJ","time":8,"distance":6218},{"time":3,"line":6,"is_transit":false,"station_name":"Jurangmangu","transit":false,"station_id":"JMU","distance":2179,"i_lat":-6.288927,"i_long":106.728916},{"distance":1994,"station_id":"SDM","time":4,"station_name":"Sudimara","i_lat":-6.296963,"i_long":106.712277,"transit":false,"is_transit":false,"line":6},{"i_lat":-6.314823,"line":6,"distance":4566,"is_transit":false,"station_name":"Rawa Buntu","i_long":106.675475,"transit":false,"station_id":"RU","time":6},{"station_name":"Serpong","time":4,"distance":2413,"is_transit":false,"i_lat":-6.319871,"i_long":106.66566,"line":6,"transit":false,"station_id":"SRP"},{"station_name":"Cisauk","station_id":"CSK","is_transit":false,"transit":false,"i_long":106.640411,"time":4,"distance":1784,"line":3,"i_lat":-6.32484},{"station_id":"CC","distance":2519,"line":3,"time":4,"station_name":"Cicayur","transit":false,"is_transit":false,"i_lat":-6.329547,"i_long":106.617853},{"i_long":106.568863,"line":6,"distance":5968,"i_lat":-6.3441410000000005,"transit":false,"station_name":"Parung Panjang","station_id":"PRP","is_transit":false,"time":8},{"station_name":"Cilejit","i_long":106.508482,"is_transit":false,"distance":7025,"line":3,"transit":false,"station_id":"CJT","time":9,"i_lat":-6.354349},{"station_name":"Daru","distance":2675,"station_id":"DAR","i_long":106.491338,"i_lat":-6.338021,"is_transit":false,"line":0,"time":6,"transit":false},{"i_lat":-6.327251,"station_id":"TEJ","is_transit":false,"line":6,"time":5,"i_long":106.460812,"distance":3902,"station_name":"Tenjo","transit":false},{"transit":false,"i_lat":-6.328533,"station_id":"TGS","distance":2974,"is_transit":false,"station_name":"Tigaraksa","i_long":106.425991,"time":5,"line":6},{"station_name":"Cikoya","station_id":"CKY","is_transit":false,"line":3,"transit":false,"i_long":106.411216,"time":3,"i_lat":-6.33561,"distance":2651},{"i_lat":-6.332307,"i_long":106.394373,"station_name":"Maja","time":4,"transit":false,"is_transit":false,"line":6,"station_id":"MJ","distance":1853}],[{"transit":false,"distance":0,"i_lat":-6.242512,"station_name":"Cawang","station_id":"CW","is_transit":false,"line":2,"i_long":106.856607,"time":0},{"distance":1230,"i_lat":-6.226659,"transit":false,"i_long":106.857948,"line":2,"station_id":"TEB","station_name":"Tebet","is_transit":false,"time":2},{"transit":false,"is_transit":false,"i_lat":-6.209883,"line":2,"distance":2610,"station_name":"Manggarai","i_long":106.84912,"time":4,"station_id":"MRI"},{"is_transit":false,"time":4,"transit":false,"line":2,"distance":1590,"i_lat":-6.198556,"station_id":"CKI","i_long":106.840169,"station_name":"Cikini"},{"station_name":"Gondangdia","transit":false,"station_id":"GDD","is_transit":false,"time":3,"distance":1750,"line":2,"i_lat":-6.186295,"i_long":106.832183},{"distance":2015,"i_long":106.828284,"station_id":"JUA","i_lat":-6.166716,"time":4,"line":2,"transit":false,"station_name":"Juanda","is_transit":false},{"station_name":"Sawah Besar","time":2,"distance":1149,"i_long":106.827103,"is_transit":false,"station_id":"SW","line":2,"transit":false,"i_lat":-6.160725},{"transit":false,"i_long":106.82482,"is_transit":false,"time":2,"station_id":"MGB","i_lat":-6.149769,"distance":906,"station_name":"Manggabesar","line":2},{"station_id":"JAY","is_transit":false,"time":2,"i_long":106.820901,"station_name":"Jayakarta","distance":1080,"i_lat":-6.141205,"transit":false,"line":2},{"i_long":106.812439,"is_transit":true,"time":4,"distance":1264,"i_lat":-6.137569,"station_id":"JAKK","line":2,"transit":true,"station_name":"Jakarta Kota"},{"is_transit":true,"distance":1364,"line":4,"station_id":"KPB","time":3,"station_name":"Kampung Bandan","transit":true,"i_lat":-6.132549,"i_long":106.826365},{"time":9,"i_lat":-6.144674,"i_long":106.79867,"distance":4102,"is_transit":false,"station_id":"AK","station_name":"Angke","transit":false,"line":1},{"station_name":"Duri","time":4,"transit":false,"line":1,"is_transit":false,"i_long":106.800832,"distance":1230,"i_lat":-6.155215,"station_id":"DU"},{"is_transit":true,"transit":true,"distance":3632,"station_id":"THB","i_long":106.811091,"line":1,"station_name":"Tanah Abang","time":8,"i_lat":-6.185545},{"i_lat":-6.207404,"i_long":106.79689,"station_name":"Palmerah","line":6,"station_id":"PLM","time":6,"transit":false,"is_transit":false,"distance":3191},{"i_long":106.780334,"time":7,"station_id":"KBY","distance":3737,"transit":false,"is_transit":false,"i_lat":-6.237242,"line":6,"station_name":"Kebayoran"},{"line":6,"is_transit":false,"transit":false,"time":8,"distance":6218,"i_long":106.74273,"i_lat":-6.276362,"station_name":"Pondokranji","station_id":"PDJ"},{"is_transit":false,"distance":2179,"i_lat":-6.288927,"station_name":"Jurangmangu","line":6,"time":3,"station_id":"JMU","transit":false,"i_long":106.728916},{"station_name":"Sudimara","is_transit":false,"distance":1994,"station_id":"SDM","line":6,"transit":false,"i_lat":-6.296963,"time":4,"i_long":106.712277},{"line":6,"distance":4566,"i_long":106.675475,"is_transit":false,"transit":false,"station_name":"Rawa Buntu","i_lat":-6.314823,"station_id":"RU","time":6},{"transit":false,"distance":2413,"time":4,"line":6,"i_long":106.66566,"i_lat":-6.319871,"station_id":"SRP","is_transit":false,"station_name":"Serpong"},{"line":3,"transit":false,"station_name":"Cisauk","station_id":"CSK","is_transit":false,"time":4,"i_lat":-6.32484,"i_long":106.640411,"distance":1784},{"time":4,"station_id":"CC","distance":2519,"i_long":106.617853,"line":3,"station_name":"Cicayur","transit":false,"is_transit":false,"i_lat":-6.329547},{"time":8,"transit":false,"station_name":"Parung Panjang","station_id":"PRP","line":6,"i_lat":-6.3441410000000005,"i_long":106.568863,"is_transit":false,"distance":5968},{"station_name":"Cilejit","i_lat":-6.354349,"i_long":106.508482,"is_transit":false,"line":3,"distance":7025,"station_id":"CJT","time":9,"transit":false},{"transit":false,"is_transit":false,"time":6,"distance":2675,"i_lat":-6.338021,"line":0,"station_id":"DAR","station_name":"Daru","i_long":106.491338},{"is_transit":false,"distance":3902,"i_lat":-6.327251,"i_long":106.460812,"station_name":"Tenjo","time":5,"transit":false,"station_id":"TEJ","line":6},{"i_lat":-6.328533,"transit":false,"i_long":106.425991,"time":5,"line":6,"station_name":"Tigaraksa","station_id":"TGS","is_transit":false,"distance":2974},{"station_id":"CKY","station_name":"Cikoya","time":3,"transit":false,"i_long":106.411216,"is_transit":false,"i_lat":-6.33561,"distance":2651,"line":3},{"i_lat":-6.332307,"station_name":"Maja","distance":1853,"i_long":106.394373,"time":4,"transit":false,"line":6,"is_transit":false,"station_id":"MJ"}],[{"i_long":106.856607,"line":2,"is_transit":false,"i_lat":-6.242512,"transit":false,"time":0,"station_name":"Cawang","station_id":"CW","distance":0},{"line":2,"time":2,"i_lat":-6.226659,"station_name":"Tebet","transit":false,"is_transit":false,"i_long":106.857948,"station_id":"TEB","distance":1230},{"i_lat":-6.209883,"line":2,"distance":2610,"station_id":"MRI","time":4,"i_long":106.84912,"is_transit":true,"station_name":"Manggarai","transit":true},{"distance":1275,"line":1,"station_name":"Matraman","i_long":106.858896,"transit":false,"is_transit":false,"i_lat":-6.212485,"station_id":"MTR","time":2},{"i_long":106.86807400000001,"is_transit":true,"line":1,"transit":true,"station_name":"Jatinegara","time":8,"distance":1377,"i_lat":-6.215091,"station_id":"JNG"},{"i_lat":-6.209188,"line":11,"station_name":"Pondok Jati","i_long":106.861737,"is_transit":false,"distance":1236,"transit":false,"station_id":"POK","time":2},{"time":2,"is_transit":false,"line":11,"transit":false,"distance":1829,"station_name":"Kramat","station_id":"KMT","i_long":106.855437,"i_lat":-6.193792},{"i_lat":-6.185975,"station_name":"Gang Sentiong","distance":973,"transit":false,"station_id":"GST","time":1,"i_long":106.850107,"line":11,"is_transit":false},{"transit":false,"i_long":106.84368,"station_name":"Pasar Senen","distance":1567,"line":11,"i_lat":-6.174784,"station_id":"PSE","time":8,"is_transit":false},{"line":11,"time":4,"station_id":"KMO","distance":1436,"station_name":"Kemayoran","i_long":106.839204,"is_transit":false,"i_lat":-6.161728,"transit":false},{"transit":false,"i_lat":-6.14505,"i_long":106.836569,"line":11,"station_name":"Rajawali","station_id":"RJW","is_transit":false,"time":5,"distance":1901},{"is_transit":true,"station_name":"Kampung Bandan","i_lat":-6.132549,"station_id":"KPB","time":3,"transit":true,"distance":1444,"i_long":106.826365,"line":4},{"is_transit":false,"line":1,"station_id":"AK","station_name":"Angke","i_lat":-6.144674,"distance":4102,"i_long":106.79867,"transit":false,"time":9},{"is_transit":false,"time":4,"i_lat":-6.155215,"station_id":"DU","station_name":"Duri","distance":1230,"i_long":106.800832,"transit":false,"line":1},{"line":1,"is_transit":true,"station_name":"Tanah Abang","time":8,"distance":3632,"i_lat":-6.185545,"i_long":106.811091,"station_id":"THB","transit":true},{"i_lat":-6.207404,"station_id":"PLM","time":6,"line":6,"transit":false,"distance":3191,"is_transit":false,"station_name":"Palmerah","i_long":106.79689},{"transit":false,"line":6,"station_name":"Kebayoran","distance":3737,"is_transit":false,"time":7,"station_id":"KBY","i_lat":-6.237242,"i_long":106.780334},{"station_id":"PDJ","is_transit":false,"station_name":"Pondokranji","time":8,"distance":6218,"i_lat":-6.276362,"i_long":106.74273,"transit":false,"line":6},{"i_long":106.728916,"station_name":"Jurangmangu","is_transit":false,"transit":false,"i_lat":-6.288927,"distance":2179,"time":3,"line":6,"station_id":"JMU"},{"i_lat":-6.296963,"i_long":106.712277,"distance":1994,"time":4,"is_transit":false,"line":6,"transit":false,"station_name":"Sudimara","station_id":"SDM"},{"distance":4566,"transit":false,"i_lat":-6.314823,"i_long":106.675475,"line":6,"time":6,"station_name":"Rawa Buntu","station_id":"RU","is_transit":false},{"i_long":106.66566,"distance":2413,"line":6,"station_name":"Serpong","transit":false,"station_id":"SRP","time":4,"is_transit":false,"i_lat":-6.319871},{"transit":false,"time":4,"distance":1784,"station_id":"CSK","line":3,"station_name":"Cisauk","i_lat":-6.32484,"is_transit":false,"i_long":106.640411},{"distance":2519,"line":3,"i_lat":-6.329547,"time":4,"station_name":"Cicayur","i_long":106.617853,"transit":false,"is_transit":false,"station_id":"CC"},{"time":8,"i_lat":-6.3441410000000005,"transit":false,"line":6,"station_id":"PRP","is_transit":false,"station_name":"Parung Panjang","distance":5968,"i_long":106.568863},{"station_id":"CJT","time":9,"station_name":"Cilejit","distance":7025,"i_lat":-6.354349,"i_long":106.508482,"transit":false,"line":3,"is_transit":false},{"is_transit":false,"i_long":106.491338,"station_name":"Daru","distance":2675,"station_id":"DAR","time":6,"transit":false,"line":0,"i_lat":-6.338021},{"station_name":"Tenjo","i_lat":-6.327251,"time":5,"line":6,"i_long":106.460812,"is_transit":false,"station_id":"TEJ","transit":false,"distance":3902},{"time":5,"i_long":106.425991,"distance":2974,"i_lat":-6.328533,"station_name":"Tigaraksa","station_id":"TGS","line":6,"transit":false,"is_transit":false},{"station_name":"Cikoya","is_transit":false,"i_lat":-6.33561,"station_id":"CKY","distance":2651,"transit":false,"i_long":106.411216,"line":3,"time":3},{"i_long":106.394373,"time":4,"is_transit":false,"station_name":"Maja","station_id":"MJ","line":6,"transit":false,"distance":1853,"i_lat":-6.332307}]]}