{"data":[[{"is_transit":false,"i_long":106.856607,"i_lat":-6.242512,"distance":0,"time":0,"station_id":"CW","transit":false,"station_name":"Cawang","line":2},{"line":2,"station_name":"Tebet","distance":1230,"is_transit":false,"station_id":"TEB","i_lat":-6.226659,"time":2,"transit":false,"i_long":106.857948},{"distance":2610,"is_transit":true,"i_long":106.84912,"time":4,"line":2,"station_id":"MRI","transit":true,"station_name":"Manggarai","i_lat":-6.209883},{"i_long":106.822649,"is_transit":false,"station_name":"Sudirman","line":1,"station_id":"SUD","distance":3186,"i_lat":-6.202263,"transit":false,"time":4},{"time":1,"line":1,"station_id":"SUDB","i_lat":-6.201433,"transit":false,"station_name":"Sudirman Baru","distance":280,"is_transit":false,"i_long":106.819881},{"line":1,"distance":471,"station_id":"KAT","is_transit":false,"i_long":106.816351,"i_lat":-6.20132,"time":1,"transit":false,"station_name":"Karet"},{"is_transit":true,"i_long":106.811091,"station_id":"THB","distance":2029,"line":1,"transit":true,"i_lat":-6.185545,"station_name":"Tanah Abang","time":5},{"i_long":106.79689,"station_name":"Palmerah","is_transit":false,"distance":3191,"station_id":"PLM","i_lat":-6.207404,"time":6,"line":6,"transit":false},{"distance":3737,"i_lat":-6.237242,"i_long":106.780334,"station_id":"KBY","line":6,"time":7,"transit":false,"station_name":"Kebayoran","is_transit":false},{"time":8,"transit":false,"station_name":"Pondokranji","is_transit":false,"station_id":"PDJ","i_long":106.74273,"line":6,"i_lat":-6.276362,"distance":6218},{"time":3,"station_id":"JMU","is_transit":false,"station_name":"Jurangmangu","line":6,"transit":false,"i_lat":-6.288927,"i_long":106.728916,"distance":2179},{"is_transit":false,"distance":1994,"station_id":"SDM","i_long":106.712277,"i_lat":-6.296963,"line":6,"transit":false,"time":4,"station_name":"Sudimara"},{"distance":4566,"time":6,"line":6,"i_long":106.675475,"transit":false,"i_lat":-6.314823,"is_transit":false,"station_name":"Rawa Buntu","station_id":"RU"},{"distance":2413,"station_name":"Serpong","time":4,"station_id":"SRP","transit":false,"line":6,"is_transit":false,"i_lat":-6.319871,"i_long":106.66566},{"station_name":"Cisauk","transit":false,"is_transit":false,"time":4,"distance":1784,"line":3,"station_id":"CSK","i_long":106.640411,"i_lat":-6.32484},{"station_name":"Cicayur","time":4,"distance":2519,"transit":false,"i_long":106.617853,"is_transit":false,"i_lat":-6.329547,"line":3,"station_id":"CC"},{"station_name":"Parung Panjang","line":6,"is_transit":false,"distance":5968,"i_lat":-6.3441410000000005,"station_id":"PRP","time":8,"transit":false,"i_long":106.568863},{"line":3,"i_long":106.508482,"time":9,"i_lat":-6.354349,"distance":7025,"station_id":"CJT","transit":false,"is_transit":false,"station_name":"Cilejit"},{"station_name":"Daru","line":0,"station_id":"DAR","distance":2675,"transit":false,"i_long":106.491338,"is_transit":false,"i_lat":-6.338021,"time":6},{"is_transit":false,"distance":3902,"transit":false,"i_long":106.460812,"station_id":"TEJ","station_name":"Tenjo","i_lat":-6.327251,"time":5,"line":6},{"time":5,"i_long":106.425991,"line":6,"i_lat":-6.328533,"is_transit":false,"transit":false,"station_id":"TGS","station_name":"Tigaraksa","distance":2974},{"station_name":"Cikoya","time":3,"station_id":"CKY","line":3,"i_long":106.411216,"distance":2651,"i_lat":-6.33561,"transit":false,"is_transit":false},{"is_transit":false,"transit":false,"station_name":"Maja","distance":1853,"i_long":106.394373,"line":6,"i_lat":-6.332307,"station_id":"MJ","time":4}],[{"transit":false,"station_id":"CW","station_name":"Cawang","is_transit":false,"distance":0,"i_long":106.856607,"line":2,"i_lat":-6.242512,"time":0},{"distance":1230,"station_name":"Tebet","time":2,"transit":false,"station_id":"TEB","i_long":106.857948,"line":2,"is_transit":false,"i_lat":-6.226659},{"station_id":"MRI","time":4,"line":2,"is_transit":false,"distance":2610,"station_name":"Manggarai","transit":false,"i_lat":-6.209883,"i_long":106.84912},{"is_transit":false,"i_lat":-6.198556,"i_long":106.840169,"distance":1590,"station_id":"CKI","time":4,"transit":false,"station_name":"Cikini","line":2},{"line":2,"time":3,"station_id":"GDD","distance":1750,"transit":false,"station_name":"Gondangdia","i_lat":-6.186295,"is_transit":false,"i_long":106.832183},{"line":2,"station_name":"Juanda","station_id":"JUA","i_lat":-6.166716,"transit":false,"i_long":106.828284,"is_transit":false,"time":4,"distance":2015},{"is_transit":false,"line":2,"transit":false,"i_long":106.827103,"time":2,"station_id":"SW","station_name":"Sawah Besar","distance":1149,"i_lat":-6.160725},{"station_id":"MGB","is_transit":false,"time":2,"station_name":"Manggabesar","distance":906,"i_long":106.82482,"transit":false,"line":2,"i_lat":-6.149769},{"time":2,"transit":false,"i_lat":-6.141205,"distance":1080,"i_long":106.820901,"is_transit":false,"station_name":"Jayakarta","line":2,"station_id":"JAY"},{"time":4,"station_name":"Jakarta Kota","distance":1264,"i_long":106.812439,"transit":true,"station_id":"JAKK","i_lat":-6.137569,"is_transit":true,"line":2},{"time":3,"i_lat":-6.132549,"line":4,"station_id":"KPB","i_long":106.826365,"station_name":"Kampung Bandan","transit":true,"distance":1364,"is_transit":true},{"line":1,"station_name":"Angke","is_transit":false,"transit":false,"time":9,"distance":4102,"i_long":106.79867,"station_id":"AK","i_lat":-6.144674},{"station_name":"Duri","i_lat":-6.155215,"distance":1230,"i_long":106.800832,"line":1,"station_id":"DU","transit":false,"time":4,"is_transit":false},{"time":8,"transit":true,"i_lat":-6.185545,"station_id":"THB","station_name":"Tanah Abang","distance":3632,"i_long":106.811091,"line":1,"is_transit":true},{"i_lat":-6.207404,"is_transit":false,"distance":3191,"time":6,"transit":false,"station_id":"PLM","i_long":106.79689,"station_name":"Palmerah","line":6},{"i_lat":-6.237242,"station_id":"KBY","i_long":106.780334,"line":6,"transit":false,"distance":3737,"time":7,"station_name":"Kebayoran","is_transit":false},{"station_id":"PDJ","station_name":"Pondokranji","transit":false,"is_transit":false,"distance":6218,"time":8,"i_long":106.74273,"i_lat":-6.276362,"line":6},{"i_long":106.728916,"station_id":"JMU","distance":2179,"time":3,"is_transit":false,"i_lat":-6.288927,"station_name":"Jurangmangu","transit":false,"line":6},{"i_long":106.712277,"transit":false,"distance":1994,"station_id":"SDM","time":4,"i_lat":-6.296963,"line":6,"is_transit":false,"station_name":"Sudimara"},{"time":6,"i_lat":-6.314823,"station_name":"Rawa Buntu","distance":4566,"i_long":106.675475,"transit":false,"station_id":"RU","line":6,"is_transit":false},{"station_id":"SRP","transit":false,"time":4,"station_name":"Serpong","i_lat":-6.319871,"line":6,"is_transit":false,"distance":2413,"i_long":106.66566},{"distance":1784,"station_name":"Cisauk","i_lat":-6.32484,"time":4,"line":3,"station_id":"CSK","i_long":106.640411,"is_transit":false,"transit":false},{"station_name":"Cicayur","time":4,"is_transit":false,"line":3,"i_lat":-6.329547,"station_id":"CC","distance":2519,"i_long":106.617853,"transit":false},{"station_id":"PRP","station_name":"Parung Panjang","line":6,"transit":false,"is_transit":false,"distance":5968,"time":8,"i_lat":-6.3441410000000005,"i_long":106.568863},{"time":9,"line":3,"i_long":106.508482,"i_lat":-6.354349,"station_id":"CJT","is_transit":false,"transit":false,"station_name":"Cilejit","distance":7025},{"time":6,"distance":2675,"i_lat":-6.338021,"i_long":106.491338,"line":0,"station_id":"DAR","station_name":"Daru","is_transit":false,"transit":false},{"transit":false,"i_lat":-6.327251,"time":5,"is_transit":false,"i_long":106.460812,"line":6,"distance":3902,"station_id":"TEJ","station_name":"Tenjo"},{"i_lat":-6.328533,"station_id":"TGS","line":6,"transit":false,"distance":2974,"i_long":106.425991,"is_transit":false,"time":5,"station_name":"Tigaraksa"},{"i_lat":-6.33561,"is_transit":false,"line":3,"transit":false,"distance":2651,"station_name":"Cikoya","i_long":106.411216,"time":3,"station_id":"CKY"},{"line":6,"time":4,"station_id":"MJ","is_transit":false,"distance":1853,"transit":false,"i_long":106.394373,"station_name":"Maja","i_lat":-6.332307}],[{"i_long":106.856607,"line":2,"distance":0,"is_transit":false,"time":0,"i_lat":-6.242512,"transit":false,"station_id":"CW","station_name":"Cawang"},{"time":2,"i_lat":-6.226659,"is_transit":false,"transit":false,"distance":1230,"i_long":106.857948,"station_id":"TEB","station_name":"Tebet","line":2},{"i_long":106.84912,"distance":2610,"line":2,"is_transit":true,"station_id":"MRI","transit":true,"i_lat":-6.209883,"station_name":"Manggarai","time":4},{"station_id":"MTR","i_long":106.858896,"is_transit":false,"i_lat":-6.212485,"line":1,"transit":false,"distance":1275,"time":2,"station_name":"Matraman"},{"i_lat":-6.215091,"time":8,"station_id":"JNG","i_long":106.86807400000001,"line":1,"station_name":"Jatinegara","transit":true,"is_transit":true,"distance":1377},{"is_transit":false,"i_long":106.861737,"station_id":"POK","i_lat":-6.209188,"transit":false,"station_name":"Pondok Jati","distance":1236,"time":2,"line":11},{"station_name":"Kramat","distance":1829,"i_long":106.855437,"is_transit":false,"line":11,"i_lat":-6.193792,"time":2,"station_id":"KMT","transit":false},{"line":11,"station_name":"Gang Sentiong","station_id":"GST","is_transit":false,"distance":973,"i_lat":-6.185975,"i_long":106.850107,"transit":false,"time":1},{"distance":1567,"transit":false,"is_transit":false,"i_lat":-6.174784,"line":11,"time":8,"station_id":"PSE","station_name":"Pasar Senen","i_long":106.84368},{"distance":1436,"station_id":"KMO","i_long":106.839204,"line":11,"transit":false,"i_lat":-6.161728,"time":4,"station_name":"Kemayoran","is_transit":false},{"i_lat":-6.14505,"station_name":"Rajawali","time":5,"station_id":"RJW","is_transit":false,"i_long":106.836569,"line":11,"transit":false,"distance":1901},{"transit":true,"distance":1444,"station_id":"KPB","line":4,"station_name":"Kampung Bandan","i_lat":-6.132549,"is_transit":true,"time":3,"i_long":106.826365},{"station_id":"AK","i_long":106.79867,"line":1,"station_name":"Angke","is_transit":false,"time":9,"distance":4102,"transit":false,"i_lat":-6.144674},{"i_lat":-6.155215,"is_transit":false,"i_long":106.800832,"distance":1230,"time":4,"station_id":"DU","transit":false,"line":1,"station_name":"Duri"},{"is_transit":true,"time":8,"distance":3632,"i_long":106.811091,"transit":true,"line":1,"i_lat":-6.185545,"station_id":"THB","station_name":"Tanah Abang"},{"station_name":"Palmerah","transit":false,"distance":3191,"i_long":106.79689,"i_lat":-6.207404,"time":6,"line":6,"station_id":"PLM","is_transit":false},{"station_name":"Kebayoran","station_id":"KBY","i_lat":-6.237242,"i_long":106.780334,"line":6,"transit":false,"is_transit":false,"time":7,"distance":3737},{"station_id":"PDJ","station_name":"Pondokranji","distance":6218,"i_lat":-6.276362,"line":6,"i_long":106.74273,"transit":false,"time":8,"is_transit":false},{"time":3,"transit":false,"i_long":106.728916,"line":6,"station_name":"Jurangmangu","i_lat":-6.288927,"is_transit":false,"distance":2179,"station_id":"JMU"},{"transit":false,"station_name":"Sudimara","distance":1994,"line":6,"time":4,"is_transit":false,"station_id":"SDM","i_long":106.712277,"i_lat":-6.296963},{"line":6,"i_lat":-6.314823,"station_name":"Rawa Buntu","is_transit":false,"distance":4566,"time":6,"transit":false,"station_id":"RU","i_long":106.675475},{"i_long":106.66566,"station_id":"SRP","station_name":"Serpong","transit":false,"distance":2413,"line":6,"i_lat":-6.319871,"is_transit":false,"time":4},{"is_transit":false,"i_long":106.640411,"line":3,"station_id":"CSK","time":4,"transit":false,"station_name":"Cisauk","distance":1784,"i_lat":-6.32484},{"transit":false,"station_name":"Cicayur","time":4,"station_id":"CC","distance":2519,"is_transit":false,"i_long":106.617853,"line":3,"i_lat":-6.329547},{"line":6,"i_long":106.568863,"time":8,"transit":false,"station_name":"Parung Panjang","station_id":"PRP","is_transit":false,"distance":5968,"i_lat":-6.3441410000000005},{"station_id":"CJT","line":3,"is_transit":false,"station_name":"Cilejit","distance":7025,"i_lat":-6.354349,"transit":false,"i_long":106.508482,"time":9},{"is_transit":false,"station_id":"DAR","distance":2675,"line":0,"time":6,"i_long":106.491338,"transit":false,"station_name":"Daru","i_lat":-6.338021},{"station_name":"Tenjo","transit":false,"distance":3902,"line":6,"time":5,"is_transit":false,"i_long":106.460812,"station_id":"TEJ","i_lat":-6.327251},{"i_lat":-6.328533,"distance":2974,"i_long":106.425991,"time":5,"station_id":"TGS","is_transit":false,"line":6,"station_name":"Tigaraksa","transit":false},{"transit":false,"i_long":106.411216,"distance":2651,"time":3,"station_id":"CKY","is_transit":false,"station_name":"Cikoya","i_lat":-6.33561,"line":3},{"time":4,"is_transit":false,"line":6,"distance":1853,"i_long":106.394373,"transit":false,"station_name":"Maja","i_lat":-6.332307,"station_id":"MJ"}]]}