{"data":[[{"distance":0,"i_lat":-6.242512,"time":0,"is_transit":false,"i_long":106.856607,"transit":false,"line":0,"station_name":"Cawang","station_id":"CW"},{"is_transit":false,"station_name":"Tebet","time":2,"i_lat":-6.226659,"transit":false,"line":2,"i_long":106.857948,"distance":1230,"station_id":"TEB"},{"time":4,"station_name":"Manggarai","i_lat":-6.209883,"i_long":106.84912,"transit":true,"line":0,"is_transit":true,"distance":2610,"station_id":"MRI"},{"is_transit":false,"line":1,"station_name":"Sudirman","time":4,"distance":3186,"i_lat":-6.202263,"station_id":"SUD","transit":false,"i_long":106.822649},{"station_name":"Sudirman Baru","i_long":106.819881,"station_id":"SUDB","is_transit":false,"line":1,"time":1,"transit":false,"i_lat":-6.201433,"distance":280},{"station_name":"Karet","station_id":"KAT","transit":false,"is_transit":false,"time":1,"distance":471,"line":1,"i_long":106.816351,"i_lat":-6.20132},{"station_id":"THB","time":5,"i_lat":-6.185545,"line":1,"transit":true,"distance":2029,"is_transit":true,"i_long":106.811091,"station_name":"Tanah Abang"},{"i_long":106.79689,"line":6,"station_id":"PLM","i_lat":-6.207404,"station_name":"Palmerah","transit":false,"time":6,"is_transit":false,"distance":3191},{"is_transit":false,"distance":3737,"station_id":"KBY","i_long":106.780334,"i_lat":-6.237242,"station_name":"Kebayoran","transit":false,"line":6,"time":7},{"transit":false,"time":8,"station_id":"PDJ","station_name":"Pondokranji","distance":6218,"line":6,"i_lat":-6.276362,"i_long":106.74273,"is_transit":false},{"transit":false,"line":6,"is_transit":false,"i_long":106.728916,"station_name":"Jurangmangu","i_lat":-6.288927,"distance":2179,"station_id":"JMU","time":3},{"i_long":106.712277,"is_transit":false,"distance":1994,"time":4,"station_name":"Sudimara","line":6,"transit":false,"station_id":"SDM","i_lat":-6.296963},{"station_name":"Rawa Buntu","i_long":106.675475,"line":6,"distance":4566,"station_id":"RU","i_lat":-6.314823,"is_transit":false,"time":6,"transit":false},{"station_name":"Serpong","is_transit":false,"station_id":"SRP","time":4,"line":6,"transit":false,"i_lat":-6.319871,"i_long":106.66566,"distance":2413},{"i_lat":-6.32484,"line":0,"is_transit":false,"distance":1784,"time":4,"i_long":106.640411,"transit":false,"station_id":"CSK","station_name":"Cisauk"},{"line":0,"transit":false,"i_long":106.617853,"station_id":"CC","time":4,"distance":2519,"i_lat":-6.329547,"is_transit":false,"station_name":"Cicayur"},{"transit":false,"is_transit":false,"i_long":106.568863,"distance":5968,"line":6,"station_name":"Parung Panjang","time":8,"station_id":"PRP","i_lat":-6.3441410000000005},{"station_id":"CJT","distance":7025,"time":9,"station_name":"Cilejit","i_lat":-6.354349,"i_long":106.508482,"is_transit":false,"line":0,"transit":false},{"distance":2675,"line":0,"station_name":"Daru","i_lat":-6.338021,"i_long":106.491338,"transit":false,"time":6,"is_transit":false,"station_id":"DAR"},{"station_name":"Tenjo","is_transit":false,"i_lat":-6.327251,"line":6,"time":5,"i_long":106.460812,"distance":3902,"transit":false,"station_id":"TEJ"},{"i_long":106.425991,"i_lat":-6.328533,"time":5,"station_id":"TGS","line":6,"station_name":"Tigaraksa","is_transit":false,"transit":false,"distance":2974},{"line":0,"i_long":106.411216,"is_transit":false,"station_id":"CKY","station_name":"Cikoya","i_lat":-6.33561,"time":3,"distance":2651,"transit":false},{"station_id":"MJ","i_long":106.394373,"time":4,"station_name":"Maja","i_lat":-6.332307,"transit":false,"distance":1853,"is_transit":false,"line":6}],[{"distance":0,"line":0,"station_name":"Cawang","time":0,"i_long":106.856607,"is_transit":false,"i_lat":-6.242512,"station_id":"CW","transit":false},{"station_name":"Tebet","is_transit":false,"i_long":106.857948,"distance":1230,"transit":false,"time":2,"line":2,"station_id":"TEB","i_lat":-6.226659},{"transit":true,"i_long":106.84912,"station_name":"Manggarai","i_lat":-6.209883,"time":4,"line":0,"is_transit":true,"station_id":"MRI","distance":2610},{"i_long":106.840169,"station_id":"CKI","time":4,"distance":1590,"station_name":"Cikini","transit":false,"is_transit":false,"i_lat":-6.198556,"line":0},{"time":3,"i_lat":-6.186295,"station_name":"Gondangdia","i_long":106.832183,"station_id":"GDD","distance":1750,"is_transit":false,"transit":false,"line":2},{"time":4,"i_long":106.828284,"station_id":"JUA","transit":false,"is_transit":false,"line":2,"station_name":"Juanda","distance":2015,"i_lat":-6.166716},{"line":2,"station_name":"Sawah Besar","distance":1149,"i_long":106.827103,"transit":false,"time":2,"i_lat":-6.160725,"station_id":"SW","is_transit":false},{"transit":false,"is_transit":false,"time":2,"distance":906,"station_name":"Manggabesar","i_lat":-6.149769,"station_id":"MGB","line":2,"i_long":106.82482},{"i_lat":-6.141205,"distance":1080,"station_name":"Jayakarta","time":2,"station_id":"JAY","transit":false,"i_long":106.820901,"line":7,"is_transit":false},{"station_id":"JAKK","station_name":"Jakarta Kota","time":4,"line":0,"i_long":106.812439,"distance":1264,"transit":true,"i_lat":-6.137569,"is_transit":true},{"i_long":106.826365,"station_name":"Kampung Bandan","distance":1364,"is_transit":true,"time":3,"transit":false,"line":0,"station_id":"KPB","i_lat":-6.132549},{"i_lat":-6.144674,"transit":false,"line":0,"station_name":"Angke","distance":4102,"i_long":106.79867,"time":9,"is_transit":false,"station_id":"AK"},{"distance":1230,"transit":true,"station_id":"DU","i_long":106.800832,"line":1,"time":4,"i_lat":-6.155215,"is_transit":true,"station_name":"Duri"},{"station_id":"THB","station_name":"Tanah Abang","i_long":106.811091,"line":1,"distance":3632,"time":8,"is_transit":true,"transit":true,"i_lat":-6.185545},{"i_long":106.79689,"line":6,"distance":3191,"station_id":"PLM","station_name":"Palmerah","time":6,"i_lat":-6.207404,"is_transit":false,"transit":false},{"line":6,"time":7,"station_name":"Kebayoran","distance":3737,"i_lat":-6.237242,"station_id":"KBY","is_transit":false,"transit":false,"i_long":106.780334},{"time":8,"is_transit":false,"transit":false,"station_name":"Pondokranji","line":6,"station_id":"PDJ","i_long":106.74273,"distance":6218,"i_lat":-6.276362},{"i_lat":-6.288927,"transit":false,"line":6,"i_long":106.728916,"is_transit":false,"station_name":"Jurangmangu","station_id":"JMU","distance":2179,"time":3},{"distance":1994,"station_id":"SDM","time":4,"is_transit":false,"i_lat":-6.296963,"line":6,"transit":false,"i_long":106.712277,"station_name":"Sudimara"},{"station_id":"RU","distance":4566,"time":6,"transit":false,"is_transit":false,"i_lat":-6.314823,"i_long":106.675475,"line":6,"station_name":"Rawa Buntu"},{"distance":2413,"is_transit":false,"station_name":"Serpong","time":4,"i_lat":-6.319871,"line":6,"station_id":"SRP","transit":false,"i_long":106.66566},{"transit":false,"is_transit":false,"distance":1784,"line":0,"i_long":106.640411,"station_id":"CSK","time":4,"i_lat":-6.32484,"station_name":"Cisauk"},{"is_transit":false,"time":4,"transit":false,"distance":2519,"station_id":"CC","i_long":106.617853,"i_lat":-6.329547,"station_name":"Cicayur","line":0},{"distance":5968,"line":6,"is_transit":false,"station_id":"PRP","transit":false,"i_lat":-6.3441410000000005,"i_long":106.568863,"time":8,"station_name":"Parung Panjang"},{"i_long":106.508482,"i_lat":-6.354349,"station_id":"CJT","station_name":"Cilejit","distance":7025,"is_transit":false,"time":9,"line":0,"transit":false},{"i_long":106.491338,"station_name":"Daru","is_transit":false,"time":6,"line":0,"i_lat":-6.338021,"transit":false,"distance":2675,"station_id":"DAR"},{"line":6,"station_id":"TEJ","transit":false,"is_transit":false,"time":5,"i_lat":-6.327251,"i_long":106.460812,"station_name":"Tenjo","distance":3902},{"time":5,"station_name":"Tigaraksa","transit":false,"is_transit":false,"i_lat":-6.328533,"distance":2974,"i_long":106.425991,"line":6,"station_id":"TGS"},{"i_long":106.411216,"line":0,"i_lat":-6.33561,"transit":false,"station_id":"CKY","is_transit":false,"time":3,"distance":2651,"station_name":"Cikoya"},{"i_long":106.394373,"time":4,"station_name":"Maja","i_lat":-6.332307,"station_id":"MJ","transit":false,"is_transit":false,"distance":1853,"line":6}],[{"transit":false,"i_lat":-6.242512,"station_name":"Cawang","is_transit":false,"time":0,"distance":0,"line":0,"station_id":"CW","i_long":106.856607},{"transit":false,"station_id":"TEB","i_lat":-6.226659,"line":2,"distance":1230,"station_name":"Tebet","time":2,"i_long":106.857948,"is_transit":false},{"station_name":"Manggarai","station_id":"MRI","is_transit":true,"transit":true,"line":0,"i_long":106.84912,"distance":2610,"time":4,"i_lat":-6.209883},{"i_lat":-6.212485,"line":1,"i_long":106.858896,"transit":false,"distance":1275,"station_id":"MTR","is_transit":false,"time":2,"station_name":"Matraman"},{"time":8,"line":0,"is_transit":true,"transit":true,"distance":1377,"station_id":"JNG","station_name":"Jatinegara","i_lat":-6.215091,"i_long":106.86807400000001},{"i_long":106.861737,"station_name":"Pondok Jati","time":2,"transit":false,"station_id":"POK","distance":1236,"i_lat":-6.209188,"is_transit":false,"line":11},{"line":11,"distance":1829,"i_lat":-6.193792,"station_name":"Kramat","is_transit":false,"station_id":"KMT","time":2,"transit":false,"i_long":106.855437},{"distance":973,"i_long":106.850107,"is_transit":false,"time":1,"transit":false,"station_name":"Gang Sentiong","line":11,"i_lat":-6.185975,"station_id":"GST"},{"time":8,"i_long":106.84368,"transit":false,"station_id":"PSE","station_name":"Pasar Senen","distance":1567,"is_transit":false,"i_lat":-6.174784,"line":11},{"i_long":106.839204,"is_transit":false,"station_name":"Kemayoran","distance":1436,"time":4,"i_lat":-6.161728,"line":11,"station_id":"KMO","transit":false},{"station_name":"Rajawali","time":5,"distance":1901,"i_lat":-6.14505,"transit":false,"line":11,"i_long":106.836569,"is_transit":false,"station_id":"RJW"},{"station_id":"KPB","station_name":"Kampung Bandan","is_transit":true,"time":3,"distance":1444,"i_long":106.826365,"i_lat":-6.132549,"line":0,"transit":true},{"distance":4102,"time":9,"transit":false,"station_id":"AK","is_transit":false,"i_long":106.79867,"line":0,"i_lat":-6.144674,"station_name":"Angke"},{"distance":1230,"line":1,"time":4,"station_name":"Duri","i_long":106.800832,"i_lat":-6.155215,"transit":true,"station_id":"DU","is_transit":true},{"transit":true,"i_long":106.811091,"line":1,"station_name":"Tanah Abang","distance":3632,"i_lat":-6.185545,"station_id":"THB","is_transit":true,"time":8},{"distance":3191,"is_transit":false,"station_name":"Palmerah","time":6,"i_lat":-6.207404,"i_long":106.79689,"transit":false,"line":6,"station_id":"PLM"},{"is_transit":false,"line":6,"transit":false,"station_id":"KBY","station_name":"Kebayoran","distance":3737,"i_long":106.780334,"time":7,"i_lat":-6.237242},{"i_lat":-6.276362,"i_long":106.74273,"line":6,"station_id":"PDJ","time":8,"is_transit":false,"transit":false,"distance":6218,"station_name":"Pondokranji"},{"is_transit":false,"i_lat":-6.288927,"time":3,"i_long":106.728916,"line":6,"station_name":"Jurangmangu","distance":2179,"transit":false,"station_id":"JMU"},{"i_lat":-6.296963,"i_long":106.712277,"distance":1994,"is_transit":false,"station_name":"Sudimara","station_id":"SDM","line":6,"time":4,"transit":false},{"distance":4566,"line":6,"station_id":"RU","i_long":106.675475,"station_name":"Rawa Buntu","is_transit":false,"transit":false,"i_lat":-6.314823,"time":6},{"transit":false,"station_name":"Serpong","is_transit":false,"time":4,"i_lat":-6.319871,"distance":2413,"i_long":106.66566,"line":6,"station_id":"SRP"},{"station_id":"CSK","distance":1784,"transit":false,"time":4,"is_transit":false,"i_lat":-6.32484,"i_long":106.640411,"line":0,"station_name":"Cisauk"},{"i_lat":-6.329547,"line":0,"station_id":"CC","i_long":106.617853,"station_name":"Cicayur","is_transit":false,"transit":false,"time":4,"distance":2519},{"i_lat":-6.3441410000000005,"is_transit":false,"i_long":106.568863,"time":8,"distance":5968,"line":6,"station_name":"Parung Panjang","station_id":"PRP","transit":false},{"station_name":"Cilejit","is_transit":false,"i_lat":-6.354349,"distance":7025,"transit":false,"time":9,"station_id":"CJT","i_long":106.508482,"line":0},{"i_lat":-6.338021,"station_name":"Daru","distance":2675,"station_id":"DAR","time":6,"transit":false,"is_transit":false,"i_long":106.491338,"line":0},{"i_long":106.460812,"line":6,"station_name":"Tenjo","is_transit":false,"distance":3902,"time":5,"i_lat":-6.327251,"transit":false,"station_id":"TEJ"},{"i_long":106.425991,"is_transit":false,"distance":2974,"station_id":"TGS","line":6,"time":5,"station_name":"Tigaraksa","i_lat":-6.328533,"transit":false},{"is_transit":false,"i_lat":-6.33561,"transit":false,"i_long":106.411216,"station_id":"CKY","line":0,"station_name":"Cikoya","time":3,"distance":2651},{"is_transit":false,"transit":false,"distance":1853,"time":4,"i_lat":-6.332307,"line":6,"i_long":106.394373,"station_name":"Maja","station_id":"MJ"}]]}