{"data":[[{"distance":0,"i_lat":-6.242512,"is_transit":false,"station_id":"CW","station_name":"Cawang","transit":false,"i_long":106.856607,"line":2,"time":0},{"distance":1230,"station_name":"Tebet","i_lat":-6.226659,"i_long":106.857948,"time":2,"station_id":"TEB","is_transit":false,"transit":false,"line":2},{"transit":true,"station_id":"MRI","line":2,"station_name":"Manggarai","distance":2610,"time":4,"i_lat":-6.209883,"i_long":106.84912,"is_transit":true},{"i_long":106.822649,"station_id":"SUD","line":1,"transit":false,"distance":3186,"is_transit":false,"time":4,"i_lat":-6.202263,"station_name":"Sudirman"},{"i_long":106.819881,"distance":280,"line":1,"time":1,"station_name":"Sudirman Baru","is_transit":false,"transit":false,"station_id":"SUDB","i_lat":-6.201433},{"distance":471,"i_lat":-6.20132,"transit":false,"time":1,"station_id":"KAT","station_name":"Karet","is_transit":false,"i_long":106.816351,"line":1},{"i_lat":-6.185545,"transit":true,"is_transit":true,"station_name":"Tanah Abang","station_id":"THB","line":1,"time":5,"distance":2029,"i_long":106.811091},{"time":6,"station_name":"Palmerah","station_id":"PLM","is_transit":false,"i_long":106.79689,"line":6,"i_lat":-6.207404,"distance":3191,"transit":false},{"station_name":"Kebayoran","is_transit":false,"i_lat":-6.237242,"line":6,"time":7,"distance":3737,"transit":false,"i_long":106.780334,"station_id":"KBY"},{"is_transit":false,"station_name":"Pondokranji","transit":false,"i_long":106.74273,"distance":6218,"line":6,"i_lat":-6.276362,"time":8,"station_id":"PDJ"},{"transit":false,"station_name":"Jurangmangu","line":6,"station_id":"JMU","i_long":106.728916,"distance":2179,"time":3,"i_lat":-6.288927,"is_transit":false},{"station_id":"SDM","station_name":"Sudimara","i_long":106.712277,"distance":1994,"i_lat":-6.296963,"transit":false,"line":6,"time":4,"is_transit":false},{"i_long":106.675475,"line":6,"i_lat":-6.314823,"station_name":"Rawa Buntu","time":6,"distance":4566,"station_id":"RU","is_transit":false,"transit":false},{"time":4,"distance":2413,"i_long":106.66566,"i_lat":-6.319871,"station_id":"SRP","station_name":"Serpong","line":6,"is_transit":false,"transit":false},{"transit":false,"is_transit":false,"i_lat":-6.32484,"distance":1784,"i_long":106.640411,"line":3,"station_name":"Cisauk","time":4,"station_id":"CSK"},{"time":4,"distance":2519,"transit":false,"station_name":"Cicayur","i_long":106.617853,"station_id":"CC","is_transit":false,"i_lat":-6.329547,"line":3},{"station_id":"PRP","distance":5968,"is_transit":false,"station_name":"Parung Panjang","time":8,"i_long":106.568863,"line":6,"transit":false,"i_lat":-6.3441410000000005},{"time":9,"i_lat":-6.354349,"i_long":106.508482,"station_id":"CJT","station_name":"Cilejit","transit":false,"is_transit":false,"line":3,"distance":7025},{"is_transit":false,"i_long":106.491338,"station_name":"Daru","distance":2675,"station_id":"DAR","time":6,"i_lat":-6.338021,"line":0,"transit":false},{"time":5,"is_transit":false,"i_lat":-6.327251,"i_long":106.460812,"distance":3902,"transit":false,"line":6,"station_id":"TEJ","station_name":"Tenjo"},{"distance":2974,"station_id":"TGS","transit":false,"i_lat":-6.328533,"time":5,"line":6,"is_transit":false,"station_name":"Tigaraksa","i_long":106.425991},{"i_long":106.411216,"i_lat":-6.33561,"transit":false,"station_name":"Cikoya","station_id":"CKY","time":3,"line":3,"is_transit":false,"distance":2651},{"line":6,"i_long":106.394373,"station_id":"MJ","time":4,"station_name":"Maja","distance":1853,"i_lat":-6.332307,"is_transit":false,"transit":false}],[{"distance":0,"is_transit":false,"station_name":"Cawang","transit":false,"line":2,"station_id":"CW","time":0,"i_lat":-6.242512,"i_long":106.856607},{"is_transit":false,"distance":1230,"i_lat":-6.226659,"transit":false,"station_id":"TEB","line":2,"i_long":106.857948,"time":2,"station_name":"Tebet"},{"station_id":"MRI","distance":2610,"is_transit":false,"i_long":106.84912,"i_lat":-6.209883,"station_name":"Manggarai","line":2,"transit":false,"time":4},{"station_name":"Cikini","line":2,"distance":1590,"time":4,"i_lat":-6.198556,"i_long":106.840169,"transit":false,"is_transit":false,"station_id":"CKI"},{"line":2,"station_name":"Gondangdia","station_id":"GDD","transit":false,"distance":1750,"is_transit":false,"time":3,"i_lat":-6.186295,"i_long":106.832183},{"station_id":"JUA","distance":2015,"i_lat":-6.166716,"time":4,"station_name":"Juanda","transit":false,"line":2,"is_transit":false,"i_long":106.828284},{"station_id":"SW","is_transit":false,"transit":false,"i_lat":-6.160725,"line":2,"time":2,"distance":1149,"station_name":"Sawah Besar","i_long":106.827103},{"i_long":106.82482,"is_transit":false,"station_name":"Manggabesar","station_id":"MGB","line":2,"i_lat":-6.149769,"time":2,"distance":906,"transit":false},{"line":2,"time":2,"transit":false,"station_id":"JAY","i_lat":-6.141205,"distance":1080,"station_name":"Jayakarta","is_transit":false,"i_long":106.820901},{"distance":1264,"station_name":"Jakarta Kota","station_id":"JAKK","time":4,"i_lat":-6.137569,"transit":true,"i_long":106.812439,"line":2,"is_transit":true},{"i_long":106.826365,"line":4,"i_lat":-6.132549,"distance":1364,"transit":true,"station_id":"KPB","time":3,"is_transit":true,"station_name":"Kampung Bandan"},{"transit":false,"station_id":"AK","time":9,"i_long":106.79867,"is_transit":false,"i_lat":-6.144674,"line":1,"station_name":"Angke","distance":4102},{"line":1,"time":4,"station_id":"DU","station_name":"Duri","distance":1230,"is_transit":false,"transit":false,"i_lat":-6.155215,"i_long":106.800832},{"station_name":"Tanah Abang","i_long":106.811091,"time":8,"line":1,"is_transit":true,"i_lat":-6.185545,"transit":true,"distance":3632,"station_id":"THB"},{"station_id":"PLM","i_lat":-6.207404,"time":6,"distance":3191,"line":6,"station_name":"Palmerah","transit":false,"i_long":106.79689,"is_transit":false},{"i_long":106.780334,"station_id":"KBY","transit":false,"station_name":"Kebayoran","distance":3737,"i_lat":-6.237242,"is_transit":false,"line":6,"time":7},{"line":6,"i_long":106.74273,"time":8,"station_name":"Pondokranji","station_id":"PDJ","is_transit":false,"distance":6218,"transit":false,"i_lat":-6.276362},{"line":6,"is_transit":false,"station_id":"JMU","i_lat":-6.288927,"distance":2179,"station_name":"Jurangmangu","time":3,"i_long":106.728916,"transit":false},{"distance":1994,"station_id":"SDM","i_lat":-6.296963,"station_name":"Sudimara","is_transit":false,"time":4,"i_long":106.712277,"transit":false,"line":6},{"station_id":"RU","station_name":"Rawa Buntu","time":6,"i_lat":-6.314823,"line":6,"is_transit":false,"transit":false,"distance":4566,"i_long":106.675475},{"station_id":"SRP","time":4,"station_name":"Serpong","distance":2413,"is_transit":false,"line":6,"i_long":106.66566,"i_lat":-6.319871,"transit":false},{"line":3,"is_transit":false,"station_id":"CSK","i_long":106.640411,"time":4,"station_name":"Cisauk","distance":1784,"i_lat":-6.32484,"transit":false},{"transit":false,"time":4,"distance":2519,"line":3,"is_transit":false,"i_lat":-6.329547,"i_long":106.617853,"station_id":"CC","station_name":"Cicayur"},{"is_transit":false,"i_lat":-6.3441410000000005,"station_name":"Parung Panjang","i_long":106.568863,"station_id":"PRP","transit":false,"line":6,"time":8,"distance":5968},{"i_long":106.508482,"distance":7025,"is_transit":false,"station_id":"CJT","time":9,"line":3,"station_name":"Cilejit","transit":false,"i_lat":-6.354349},{"station_id":"DAR","time":6,"station_name":"Daru","distance":2675,"transit":false,"i_long":106.491338,"is_transit":false,"i_lat":-6.338021,"line":0},{"line":6,"transit":false,"i_lat":-6.327251,"is_transit":false,"station_id":"TEJ","time":5,"i_long":106.460812,"station_name":"Tenjo","distance":3902},{"time":5,"station_id":"TGS","i_long":106.425991,"distance":2974,"transit":false,"station_name":"Tigaraksa","is_transit":false,"line":6,"i_lat":-6.328533},{"distance":2651,"time":3,"i_lat":-6.33561,"i_long":106.411216,"line":3,"station_name":"Cikoya","is_transit":false,"station_id":"CKY","transit":false},{"station_id":"MJ","transit":false,"distance":1853,"line":6,"i_long":106.394373,"time":4,"station_name":"Maja","i_lat":-6.332307,"is_transit":false}],[{"transit":false,"station_name":"Cawang","line":2,"time":0,"is_transit":false,"station_id":"CW","distance":0,"i_lat":-6.242512,"i_long":106.856607},{"station_name":"Tebet","station_id":"TEB","line":2,"i_long":106.857948,"transit":false,"distance":1230,"is_transit":false,"time":2,"i_lat":-6.226659},{"line":2,"station_name":"Manggarai","time":4,"station_id":"MRI","i_lat":-6.209883,"i_long":106.84912,"distance":2610,"is_transit":true,"transit":true},{"station_name":"Matraman","distance":1275,"station_id":"MTR","transit":false,"i_lat":-6.212485,"is_transit":false,"i_long":106.858896,"time":2,"line":1},{"station_name":"Jatinegara","i_lat":-6.215091,"time":8,"distance":1377,"transit":true,"line":1,"station_id":"JNG","i_long":106.86807400000001,"is_transit":true},{"is_transit":false,"station_id":"POK","distance":1236,"station_name":"Pondok Jati","time":2,"i_long":106.861737,"transit":false,"i_lat":-6.209188,"line":11},{"station_name":"Kramat","distance":1829,"time":2,"is_transit":false,"transit":false,"i_long":106.855437,"line":11,"station_id":"KMT","i_lat":-6.193792},{"i_lat":-6.185975,"transit":false,"line":11,"i_long":106.850107,"is_transit":false,"station_name":"Gang Sentiong","station_id":"GST","time":1,"distance":973},{"i_long":106.84368,"time":8,"distance":1567,"is_transit":false,"line":11,"transit":false,"i_lat":-6.174784,"station_id":"PSE","station_name":"Pasar Senen"},{"distance":1436,"station_name":"Kemayoran","i_lat":-6.161728,"i_long":106.839204,"line":11,"is_transit":false,"time":4,"transit":false,"station_id":"KMO"},{"line":11,"station_name":"Rajawali","time":5,"i_lat":-6.14505,"is_transit":false,"transit":false,"station_id":"RJW","distance":1901,"i_long":106.836569},{"line":4,"station_name":"Kampung Bandan","i_long":106.826365,"station_id":"KPB","distance":1444,"time":3,"is_transit":true,"i_lat":-6.132549,"transit":true},{"transit":false,"i_long":106.79867,"i_lat":-6.144674,"station_id":"AK","time":9,"distance":4102,"line":1,"station_name":"Angke","is_transit":false},{"station_id":"DU","i_lat":-6.155215,"i_long":106.800832,"line":1,"distance":1230,"is_transit":false,"transit":false,"station_name":"Duri","time":4},{"station_id":"THB","distance":3632,"i_long":106.811091,"line":1,"transit":true,"station_name":"Tanah Abang","is_transit":true,"time":8,"i_lat":-6.185545},{"transit":false,"line":6,"is_transit":false,"station_id":"PLM","time":6,"i_long":106.79689,"station_name":"Palmerah","distance":3191,"i_lat":-6.207404},{"distance":3737,"station_name":"Kebayoran","i_lat":-6.237242,"transit":false,"time":7,"i_long":106.780334,"station_id":"KBY","is_transit":false,"line":6},{"station_name":"Pondokranji","time":8,"distance":6218,"is_transit":false,"i_lat":-6.276362,"station_id":"PDJ","transit":false,"i_long":106.74273,"line":6},{"line":6,"station_name":"Jurangmangu","station_id":"JMU","i_long":106.728916,"transit":false,"i_lat":-6.288927,"distance":2179,"is_transit":false,"time":3},{"line":6,"i_lat":-6.296963,"is_transit":false,"transit":false,"time":4,"distance":1994,"i_long":106.712277,"station_name":"Sudimara","station_id":"SDM"},{"station_id":"RU","station_name":"Rawa Buntu","line":6,"transit":false,"i_long":106.675475,"time":6,"is_transit":false,"distance":4566,"i_lat":-6.314823},{"station_name":"Serpong","distance":2413,"is_transit":false,"time":4,"i_long":106.66566,"line":6,"transit":false,"i_lat":-6.319871,"station_id":"SRP"},{"transit":false,"i_lat":-6.32484,"station_name":"Cisauk","line":3,"station_id":"CSK","i_long":106.640411,"distance":1784,"time":4,"is_transit":false},{"transit":false,"time":4,"distance":2519,"line":3,"i_long":106.617853,"i_lat":-6.329547,"station_name":"Cicayur","station_id":"CC","is_transit":false},{"station_name":"Parung Panjang","station_id":"PRP","time":8,"distance":5968,"i_long":106.568863,"is_transit":false,"line":6,"i_lat":-6.3441410000000005,"transit":false},{"station_id":"CJT","i_long":106.508482,"is_transit":false,"station_name":"Cilejit","i_lat":-6.354349,"line":3,"time":9,"transit":false,"distance":7025},{"transit":false,"station_id":"DAR","i_lat":-6.338021,"station_name":"Daru","distance":2675,"is_transit":false,"time":6,"i_long":106.491338,"line":0},{"is_transit":false,"time":5,"line":6,"station_id":"TEJ","station_name":"Tenjo","i_lat":-6.327251,"transit":false,"i_long":106.460812,"distance":3902},{"is_transit":false,"station_id":"TGS","transit":false,"i_lat":-6.328533,"line":6,"time":5,"distance":2974,"i_long":106.425991,"station_name":"Tigaraksa"},{"transit":false,"i_lat":-6.33561,"station_id":"CKY","is_transit":false,"time":3,"line":3,"station_name":"Cikoya","i_long":106.411216,"distance":2651},{"i_long":106.394373,"time":4,"station_name":"Maja","is_transit":false,"station_id":"MJ","transit":false,"line":6,"i_lat":-6.332307,"distance":1853}]]}