{"data":[[{"transit":false,"station_id":"CW","time":0,"station_name":"Cawang","line":2,"i_lat":-6.242512,"i_long":106.856607,"distance":0,"is_transit":false},{"station_id":"TEB","time":2,"distance":1230,"station_name":"Tebet","line":2,"i_long":106.857948,"i_lat":-6.226659,"transit":false,"is_transit":false},{"line":2,"time":4,"station_name":"Manggarai","distance":2610,"station_id":"MRI","is_transit":true,"transit":true,"i_long":106.84912,"i_lat":-6.209883},{"time":4,"station_id":"SUD","is_transit":false,"i_long":106.822649,"station_name":"Sudirman","line":1,"transit":false,"i_lat":-6.202263,"distance":3186},{"transit":false,"i_lat":-6.201433,"distance":280,"station_id":"SUDB","time":1,"station_name":"Sudirman Baru","is_transit":false,"i_long":106.819881,"line":1},{"transit":false,"station_name":"Karet","i_lat":-6.20132,"i_long":106.816351,"line":1,"time":1,"station_id":"KAT","is_transit":false,"distance":471},{"i_long":106.811091,"distance":2029,"is_transit":false,"station_id":"THB","i_lat":-6.185545,"line":1,"station_name":"Tanah Abang","transit":false,"time":5},{"distance":3632,"time":8,"is_transit":true,"i_lat":-6.155215,"line":1,"station_name":"Duri","station_id":"DU","transit":true,"i_long":106.800832},{"i_long":106.788277,"station_name":"Grogol","line":5,"station_id":"GRG","is_transit":false,"distance":1700,"time":3,"transit":false,"i_lat":-6.162021},{"time":2,"distance":2036,"station_id":"PSG","transit":false,"i_lat":-6.161433,"station_name":"Pesing","i_long":106.771379,"line":5,"is_transit":false},{"station_name":"Taman Kota","i_long":106.756522,"transit":false,"i_lat":-6.1587309999999995,"line":5,"time":2,"distance":1614,"station_id":"TKO","is_transit":false},{"transit":false,"distance":2334,"station_name":"Bojongindah","line":5,"time":2,"i_lat":-6.159876,"station_id":"BOI","i_long":106.737035,"is_transit":false},{"i_long":106.723064,"station_name":"Rawa Buaya","line":5,"station_id":"RW","distance":1152,"transit":false,"is_transit":false,"time":4,"i_lat":-6.162758}],[{"i_long":106.856607,"time":0,"i_lat":-6.242512,"is_transit":false,"distance":0,"station_id":"CW","line":2,"transit":false,"station_name":"Cawang"},{"distance":1230,"station_name":"Tebet","is_transit":false,"i_lat":-6.226659,"line":2,"time":2,"i_long":106.857948,"transit":false,"station_id":"TEB"},{"time":4,"i_long":106.84912,"station_name":"Manggarai","is_transit":false,"i_lat":-6.209883,"distance":2610,"station_id":"MRI","transit":false,"line":2},{"station_id":"CKI","i_lat":-6.198556,"is_transit":false,"transit":false,"station_name":"Cikini","time":4,"i_long":106.840169,"line":2,"distance":1590},{"station_name":"Gondangdia","is_transit":false,"transit":false,"i_long":106.832183,"line":2,"distance":1750,"time":3,"i_lat":-6.186295,"station_id":"GDD"},{"time":4,"transit":false,"station_name":"Juanda","i_lat":-6.166716,"distance":2015,"station_id":"JUA","is_transit":false,"i_long":106.828284,"line":2},{"is_transit":false,"i_long":106.827103,"line":2,"distance":1149,"station_id":"SW","transit":false,"time":2,"i_lat":-6.160725,"station_name":"Sawah Besar"},{"line":2,"i_lat":-6.149769,"station_id":"MGB","i_long":106.82482,"transit":false,"time":2,"station_name":"Manggabesar","distance":906,"is_transit":false},{"time":2,"i_long":106.820901,"distance":1080,"line":2,"transit":false,"station_name":"Jayakarta","is_transit":false,"i_lat":-6.141205,"station_id":"JAY"},{"station_name":"Jakarta Kota","i_long":106.812439,"is_transit":true,"i_lat":-6.137569,"station_id":"JAKK","time":4,"line":2,"distance":1264,"transit":true},{"line":4,"is_transit":true,"transit":true,"i_lat":-6.132549,"i_long":106.826365,"station_id":"KPB","station_name":"Kampung Bandan","distance":1364,"time":3},{"i_lat":-6.144674,"is_transit":false,"station_name":"Angke","line":1,"station_id":"AK","transit":false,"distance":4102,"time":9,"i_long":106.79867},{"line":1,"is_transit":true,"i_long":106.800832,"station_id":"DU","transit":true,"distance":1230,"station_name":"Duri","time":4,"i_lat":-6.155215},{"i_lat":-6.162021,"i_long":106.788277,"distance":1700,"station_id":"GRG","line":5,"station_name":"Grogol","time":3,"is_transit":false,"transit":false},{"station_id":"PSG","is_transit":false,"distance":2036,"station_name":"Pesing","time":2,"i_long":106.771379,"i_lat":-6.161433,"transit":false,"line":5},{"station_name":"Taman Kota","is_transit":false,"time":2,"transit":false,"distance":1614,"station_id":"TKO","i_lat":-6.1587309999999995,"i_long":106.756522,"line":5},{"i_lat":-6.159876,"line":5,"time":2,"station_id":"BOI","transit":false,"distance":2334,"i_long":106.737035,"is_transit":false,"station_name":"Bojongindah"},{"station_id":"RW","line":5,"is_transit":false,"i_lat":-6.162758,"distance":1152,"i_long":106.723064,"transit":false,"time":4,"station_name":"Rawa Buaya"}],[{"distance":0,"i_long":106.856607,"is_transit":false,"i_lat":-6.242512,"station_name":"Cawang","station_id":"CW","time":0,"transit":false,"line":2},{"is_transit":false,"station_id":"TEB","station_name":"Tebet","i_lat":-6.226659,"line":2,"distance":1230,"transit":false,"i_long":106.857948,"time":2},{"line":2,"station_id":"MRI","i_lat":-6.209883,"time":4,"transit":true,"distance":2610,"is_transit":true,"station_name":"Manggarai","i_long":106.84912},{"is_transit":false,"time":2,"distance":1275,"line":1,"transit":false,"i_long":106.858896,"station_name":"Matraman","i_lat":-6.212485,"station_id":"MTR"},{"i_long":106.86807400000001,"station_name":"Jatinegara","is_transit":true,"time":8,"distance":1377,"station_id":"JNG","i_lat":-6.215091,"line":1,"transit":true},{"distance":1236,"time":2,"transit":false,"station_name":"Pondok Jati","station_id":"POK","i_lat":-6.209188,"i_long":106.861737,"line":11,"is_transit":false},{"station_id":"KMT","distance":1829,"transit":false,"i_lat":-6.193792,"is_transit":false,"i_long":106.855437,"time":2,"station_name":"Kramat","line":11},{"i_long":106.850107,"time":1,"transit":false,"is_transit":false,"i_lat":-6.185975,"distance":973,"line":11,"station_name":"Gang Sentiong","station_id":"GST"},{"time":8,"i_long":106.84368,"is_transit":false,"distance":1567,"station_id":"PSE","i_lat":-6.174784,"transit":false,"line":11,"station_name":"Pasar Senen"},{"i_lat":-6.161728,"line":11,"station_name":"Kemayoran","station_id":"KMO","is_transit":false,"i_long":106.839204,"time":4,"distance":1436,"transit":false},{"i_lat":-6.14505,"transit":false,"station_id":"RJW","i_long":106.836569,"station_name":"Rajawali","time":5,"distance":1901,"is_transit":false,"line":11},{"station_name":"Kampung Bandan","transit":true,"time":3,"line":4,"is_transit":true,"i_long":106.826365,"distance":1444,"station_id":"KPB","i_lat":-6.132549},{"station_id":"AK","is_transit":false,"i_lat":-6.144674,"transit":false,"distance":4102,"line":1,"station_name":"Angke","i_long":106.79867,"time":9},{"station_id":"DU","station_name":"Duri","distance":1230,"line":1,"is_transit":true,"i_lat":-6.155215,"time":4,"i_long":106.800832,"transit":true},{"i_lat":-6.162021,"transit":false,"i_long":106.788277,"is_transit":false,"station_name":"Grogol","distance":1700,"line":5,"time":3,"station_id":"GRG"},{"is_transit":false,"distance":2036,"station_id":"PSG","i_lat":-6.161433,"station_name":"Pesing","transit":false,"i_long":106.771379,"time":2,"line":5},{"is_transit":false,"transit":false,"station_name":"Taman Kota","i_lat":-6.1587309999999995,"line":5,"i_long":106.756522,"distance":1614,"time":2,"station_id":"TKO"},{"transit":false,"station_id":"BOI","is_transit":false,"time":2,"distance":2334,"i_long":106.737035,"line":5,"station_name":"Bojongindah","i_lat":-6.159876},{"distance":1152,"station_id":"RW","time":4,"i_lat":-6.162758,"is_transit":false,"station_name":"Rawa Buaya","line":5,"transit":false,"i_long":106.723064}]]}