{"data":[[{"station_id":"CW","distance":0,"station_name":"Cawang","transit":false,"is_transit":false,"time":0,"i_lat":-6.242512,"i_long":106.856607,"line":2},{"transit":false,"time":2,"station_id":"TEB","distance":1230,"station_name":"Tebet","i_lat":-6.226659,"line":2,"is_transit":false,"i_long":106.857948},{"line":2,"transit":true,"distance":2610,"i_long":106.84912,"is_transit":true,"time":4,"station_name":"Manggarai","i_lat":-6.209883,"station_id":"MRI"},{"station_id":"SUD","distance":3186,"is_transit":false,"i_long":106.822649,"line":1,"transit":false,"time":4,"i_lat":-6.202263,"station_name":"Sudirman"},{"station_id":"SUDB","transit":false,"station_name":"Sudirman Baru","line":1,"i_lat":-6.201433,"i_long":106.819881,"is_transit":false,"time":1,"distance":280},{"is_transit":false,"distance":471,"transit":false,"line":1,"station_id":"KAT","station_name":"Karet","time":1,"i_long":106.816351,"i_lat":-6.20132},{"transit":false,"time":5,"line":1,"station_name":"Tanah Abang","distance":2029,"station_id":"THB","is_transit":false,"i_lat":-6.185545,"i_long":106.811091},{"station_id":"DU","distance":3632,"station_name":"Duri","line":1,"is_transit":true,"i_lat":-6.155215,"transit":true,"time":8,"i_long":106.800832},{"i_long":106.788277,"transit":false,"station_name":"Grogol","distance":1700,"time":3,"station_id":"GGL","is_transit":false,"line":5,"i_lat":-6.162021},{"line":5,"is_transit":false,"station_id":"PSG","transit":false,"i_long":106.771379,"i_lat":-6.161433,"station_name":"Pesing","time":2,"distance":2036},{"station_name":"Taman Kota","line":5,"is_transit":false,"time":2,"transit":false,"i_lat":-6.1587309999999995,"station_id":"TKO","distance":1614,"i_long":106.756522},{"station_id":"BOI","time":2,"distance":2334,"i_long":106.737035,"line":5,"station_name":"Bojongindah","transit":false,"is_transit":false,"i_lat":-6.159876},{"station_id":"RW","transit":false,"line":5,"i_long":106.723064,"station_name":"Rawa Buaya","is_transit":false,"distance":1152,"i_lat":-6.162758,"time":4}],[{"i_long":106.856607,"station_name":"Cawang","is_transit":false,"time":0,"i_lat":-6.242512,"line":2,"distance":0,"transit":false,"station_id":"CW"},{"is_transit":false,"line":2,"station_name":"Tebet","distance":1230,"i_lat":-6.226659,"i_long":106.857948,"transit":false,"station_id":"TEB","time":2},{"station_name":"Manggarai","distance":2610,"time":4,"i_lat":-6.209883,"i_long":106.84912,"line":2,"station_id":"MRI","transit":false,"is_transit":false},{"i_long":106.840169,"station_id":"CKI","distance":1590,"station_name":"Cikini","i_lat":-6.198556,"is_transit":false,"time":4,"line":2,"transit":false},{"line":2,"transit":false,"time":3,"is_transit":false,"station_id":"GDD","distance":1750,"station_name":"Gondangdia","i_lat":-6.186295,"i_long":106.832183},{"time":4,"i_long":106.828284,"distance":2015,"station_name":"Juanda","station_id":"JUA","line":2,"i_lat":-6.166716,"transit":false,"is_transit":false},{"line":2,"i_lat":-6.160725,"distance":1149,"time":2,"i_long":106.827103,"station_name":"Sawah Besar","station_id":"SW","transit":false,"is_transit":false},{"time":2,"distance":906,"i_long":106.82482,"line":2,"i_lat":-6.149769,"station_name":"Manggabesar","is_transit":false,"station_id":"MGB","transit":false},{"transit":false,"i_lat":-6.141205,"station_name":"Jayakarta","line":2,"station_id":"JAY","is_transit":false,"i_long":106.820901,"distance":1080,"time":2},{"station_id":"JAKK","distance":1264,"time":4,"is_transit":true,"i_long":106.812439,"station_name":"Jakarta Kota","line":2,"transit":true,"i_lat":-6.137569},{"time":3,"transit":true,"i_long":106.826365,"distance":1364,"line":4,"is_transit":true,"station_id":"KPB","station_name":"Kampung Bandan","i_lat":-6.132549},{"time":9,"station_id":"AK","line":1,"i_lat":-6.144674,"is_transit":false,"transit":false,"distance":4102,"station_name":"Angke","i_long":106.79867},{"is_transit":true,"station_name":"Duri","time":4,"line":1,"distance":1230,"transit":true,"i_lat":-6.155215,"station_id":"DU","i_long":106.800832},{"station_id":"GGL","station_name":"Grogol","time":3,"line":5,"transit":false,"distance":1700,"is_transit":false,"i_long":106.788277,"i_lat":-6.162021},{"station_name":"Pesing","is_transit":false,"station_id":"PSG","time":2,"distance":2036,"line":5,"transit":false,"i_long":106.771379,"i_lat":-6.161433},{"distance":1614,"i_lat":-6.1587309999999995,"station_id":"TKO","transit":false,"is_transit":false,"line":5,"station_name":"Taman Kota","i_long":106.756522,"time":2},{"transit":false,"station_id":"BOI","time":2,"i_lat":-6.159876,"is_transit":false,"distance":2334,"i_long":106.737035,"line":5,"station_name":"Bojongindah"},{"is_transit":false,"station_name":"Rawa Buaya","station_id":"RW","i_lat":-6.162758,"distance":1152,"time":4,"line":5,"i_long":106.723064,"transit":false}],[{"station_id":"CW","distance":0,"is_transit":false,"transit":false,"station_name":"Cawang","i_long":106.856607,"time":0,"line":2,"i_lat":-6.242512},{"i_lat":-6.226659,"distance":1230,"station_name":"Tebet","line":2,"station_id":"TEB","transit":false,"i_long":106.857948,"time":2,"is_transit":false},{"distance":2610,"i_lat":-6.209883,"time":4,"line":2,"transit":true,"station_name":"Manggarai","is_transit":true,"i_long":106.84912,"station_id":"MRI"},{"station_name":"Matraman","line":1,"i_long":106.858896,"transit":false,"time":2,"i_lat":-6.212485,"station_id":"MTR","is_transit":false,"distance":1275},{"transit":true,"station_id":"JNG","line":1,"distance":1377,"i_long":106.86807400000001,"i_lat":-6.215091,"time":8,"station_name":"Jatinegara","is_transit":true},{"station_name":"Pondok Jati","time":2,"transit":false,"i_lat":-6.209188,"i_long":106.861737,"distance":1236,"is_transit":false,"station_id":"POK","line":11},{"transit":false,"station_name":"Kramat","i_long":106.855437,"i_lat":-6.193792,"time":2,"distance":1829,"station_id":"KMT","line":11,"is_transit":false},{"line":11,"station_id":"GST","is_transit":false,"time":1,"distance":973,"transit":false,"i_long":106.850107,"i_lat":-6.185975,"station_name":"Gang Sentiong"},{"is_transit":false,"transit":false,"distance":1567,"station_id":"PSE","i_long":106.84368,"line":11,"i_lat":-6.174784,"station_name":"Pasar Senen","time":8},{"station_name":"Kemayoran","distance":1436,"line":11,"transit":false,"time":4,"is_transit":false,"i_lat":-6.161728,"station_id":"KMO","i_long":106.839204},{"station_id":"RJW","time":5,"station_name":"Rajawali","is_transit":false,"i_long":106.836569,"line":11,"i_lat":-6.14505,"transit":false,"distance":1901},{"distance":1444,"transit":true,"station_name":"Kampung Bandan","station_id":"KPB","time":3,"i_long":106.826365,"i_lat":-6.132549,"is_transit":true,"line":4},{"time":9,"distance":4102,"transit":false,"i_long":106.79867,"i_lat":-6.144674,"station_name":"Angke","is_transit":false,"line":1,"station_id":"AK"},{"station_name":"Duri","distance":1230,"line":1,"transit":true,"station_id":"DU","time":4,"i_long":106.800832,"i_lat":-6.155215,"is_transit":true},{"transit":false,"is_transit":false,"distance":1700,"i_lat":-6.162021,"i_long":106.788277,"line":5,"station_id":"GGL","time":3,"station_name":"Grogol"},{"station_id":"PSG","i_lat":-6.161433,"is_transit":false,"i_long":106.771379,"line":5,"transit":false,"distance":2036,"station_name":"Pesing","time":2},{"station_name":"Taman Kota","i_long":106.756522,"is_transit":false,"line":5,"time":2,"i_lat":-6.1587309999999995,"transit":false,"distance":1614,"station_id":"TKO"},{"distance":2334,"time":2,"station_id":"BOI","is_transit":false,"station_name":"Bojongindah","transit":false,"i_lat":-6.159876,"i_long":106.737035,"line":5},{"i_lat":-6.162758,"is_transit":false,"line":5,"station_id":"RW","transit":false,"distance":1152,"i_long":106.723064,"station_name":"Rawa Buaya","time":4}]]}