{"data":[[{"station_name":"Cawang","line":2,"station_id":"CW","distance":0,"transit":false,"is_transit":false,"i_lat":-6.242512,"i_long":106.856607,"time":0},{"transit":false,"i_long":106.857948,"station_id":"TEB","time":2,"line":2,"i_lat":-6.226659,"distance":1230,"station_name":"Tebet","is_transit":false},{"i_long":106.84912,"station_id":"MRI","transit":true,"distance":2610,"i_lat":-6.209883,"station_name":"Manggarai","line":2,"time":4,"is_transit":true},{"distance":3186,"station_id":"SUD","line":1,"is_transit":false,"transit":false,"station_name":"Sudirman","i_lat":-6.202263,"time":4,"i_long":106.822649},{"transit":false,"time":1,"is_transit":false,"station_id":"SUDB","distance":280,"station_name":"Sudirman Baru","i_lat":-6.201433,"i_long":106.819881,"line":1},{"transit":false,"station_name":"Karet","distance":471,"line":1,"is_transit":false,"station_id":"KAT","time":1,"i_lat":-6.20132,"i_long":106.816351},{"i_lat":-6.185545,"time":5,"is_transit":false,"distance":2029,"station_name":"Tanah Abang","transit":false,"i_long":106.811091,"line":1,"station_id":"THB"},{"is_transit":true,"station_id":"DU","time":8,"station_name":"Duri","distance":3632,"line":1,"i_long":106.800832,"transit":true,"i_lat":-6.155215},{"transit":false,"time":3,"i_long":106.788277,"distance":1700,"station_name":"Grogol","station_id":"GGL","is_transit":false,"i_lat":-6.162021,"line":5},{"station_id":"PSG","transit":false,"time":2,"station_name":"Pesing","distance":2036,"i_long":106.771379,"i_lat":-6.161433,"line":5,"is_transit":false},{"line":5,"time":2,"station_name":"Taman Kota","transit":false,"i_lat":-6.1587309999999995,"distance":1614,"station_id":"TKO","i_long":106.756522,"is_transit":false},{"distance":2334,"time":2,"is_transit":false,"line":5,"transit":false,"station_name":"Bojongindah","i_long":106.737035,"i_lat":-6.159876,"station_id":"BOI"},{"station_id":"RW","transit":false,"i_lat":-6.162758,"distance":1152,"i_long":106.723064,"line":5,"station_name":"Rawa Buaya","time":4,"is_transit":false}],[{"station_name":"Cawang","distance":0,"transit":false,"i_lat":-6.242512,"i_long":106.856607,"line":2,"time":0,"station_id":"CW","is_transit":false},{"station_id":"TEB","station_name":"Tebet","i_long":106.857948,"distance":1230,"time":2,"transit":false,"i_lat":-6.226659,"is_transit":false,"line":2},{"is_transit":false,"station_name":"Manggarai","distance":2610,"station_id":"MRI","line":2,"time":4,"i_long":106.84912,"i_lat":-6.209883,"transit":false},{"i_lat":-6.198556,"station_id":"CKI","distance":1590,"transit":false,"time":4,"i_long":106.840169,"station_name":"Cikini","is_transit":false,"line":2},{"transit":false,"is_transit":false,"station_name":"Gondangdia","time":3,"distance":1750,"line":2,"i_lat":-6.186295,"station_id":"GDD","i_long":106.832183},{"i_lat":-6.166716,"station_id":"JUA","distance":2015,"transit":false,"station_name":"Juanda","is_transit":false,"time":4,"i_long":106.828284,"line":2},{"i_lat":-6.160725,"transit":false,"time":2,"distance":1149,"i_long":106.827103,"station_id":"SW","station_name":"Sawah Besar","line":2,"is_transit":false},{"time":2,"is_transit":false,"i_lat":-6.149769,"distance":906,"station_name":"Manggabesar","line":2,"i_long":106.82482,"station_id":"MGB","transit":false},{"is_transit":false,"transit":false,"time":2,"distance":1080,"line":2,"i_lat":-6.141205,"station_id":"JAY","station_name":"Jayakarta","i_long":106.820901},{"i_long":106.812439,"transit":true,"station_id":"JAKK","distance":1264,"station_name":"Jakarta Kota","is_transit":true,"time":4,"i_lat":-6.137569,"line":2},{"time":3,"i_long":106.826365,"i_lat":-6.132549,"station_name":"Kampung Bandan","line":4,"is_transit":true,"distance":1364,"station_id":"KPB","transit":true},{"time":9,"transit":false,"station_name":"Angke","i_long":106.79867,"distance":4102,"station_id":"AK","i_lat":-6.144674,"is_transit":false,"line":1},{"time":4,"is_transit":true,"i_lat":-6.155215,"i_long":106.800832,"station_id":"DU","distance":1230,"transit":true,"station_name":"Duri","line":1},{"time":3,"station_id":"GGL","distance":1700,"station_name":"Grogol","is_transit":false,"line":5,"transit":false,"i_lat":-6.162021,"i_long":106.788277},{"time":2,"i_lat":-6.161433,"is_transit":false,"station_id":"PSG","i_long":106.771379,"distance":2036,"transit":false,"station_name":"Pesing","line":5},{"transit":false,"station_name":"Taman Kota","line":5,"time":2,"distance":1614,"is_transit":false,"station_id":"TKO","i_lat":-6.1587309999999995,"i_long":106.756522},{"station_name":"Bojongindah","is_transit":false,"station_id":"BOI","i_long":106.737035,"distance":2334,"time":2,"transit":false,"i_lat":-6.159876,"line":5},{"station_name":"Rawa Buaya","station_id":"RW","is_transit":false,"distance":1152,"transit":false,"i_lat":-6.162758,"i_long":106.723064,"line":5,"time":4}],[{"transit":false,"i_long":106.856607,"distance":0,"station_name":"Cawang","line":2,"i_lat":-6.242512,"station_id":"CW","time":0,"is_transit":false},{"transit":false,"station_id":"TEB","i_lat":-6.226659,"distance":1230,"time":2,"station_name":"Tebet","i_long":106.857948,"line":2,"is_transit":false},{"transit":true,"line":2,"distance":2610,"time":4,"station_id":"MRI","is_transit":true,"station_name":"Manggarai","i_lat":-6.209883,"i_long":106.84912},{"line":1,"station_id":"MTR","is_transit":false,"distance":1275,"station_name":"Matraman","transit":false,"i_lat":-6.212485,"i_long":106.858896,"time":2},{"line":1,"station_id":"JNG","i_lat":-6.215091,"station_name":"Jatinegara","i_long":106.86807400000001,"time":8,"distance":1377,"transit":true,"is_transit":true},{"time":2,"is_transit":false,"station_name":"Pondok Jati","i_lat":-6.209188,"line":11,"distance":1236,"station_id":"POK","i_long":106.861737,"transit":false},{"line":11,"time":2,"is_transit":false,"station_id":"KMT","station_name":"Kramat","distance":1829,"i_lat":-6.193792,"i_long":106.855437,"transit":false},{"station_name":"Gang Sentiong","time":1,"distance":973,"transit":false,"is_transit":false,"i_long":106.850107,"line":11,"station_id":"GST","i_lat":-6.185975},{"is_transit":false,"time":8,"station_id":"PSE","distance":1567,"station_name":"Pasar Senen","i_long":106.84368,"transit":false,"line":11,"i_lat":-6.174784},{"distance":1436,"station_name":"Kemayoran","i_lat":-6.161728,"is_transit":false,"time":4,"i_long":106.839204,"station_id":"KMO","transit":false,"line":11},{"station_name":"Rajawali","distance":1901,"i_lat":-6.14505,"time":5,"is_transit":false,"station_id":"RJW","transit":false,"line":11,"i_long":106.836569},{"station_id":"KPB","is_transit":true,"transit":true,"distance":1444,"i_lat":-6.132549,"i_long":106.826365,"station_name":"Kampung Bandan","time":3,"line":4},{"i_long":106.79867,"line":1,"is_transit":false,"i_lat":-6.144674,"station_id":"AK","transit":false,"time":9,"distance":4102,"station_name":"Angke"},{"transit":true,"time":4,"line":1,"is_transit":true,"distance":1230,"station_name":"Duri","i_lat":-6.155215,"i_long":106.800832,"station_id":"DU"},{"line":5,"station_name":"Grogol","time":3,"is_transit":false,"transit":false,"i_lat":-6.162021,"distance":1700,"station_id":"GGL","i_long":106.788277},{"time":2,"is_transit":false,"i_lat":-6.161433,"i_long":106.771379,"line":5,"station_id":"PSG","distance":2036,"transit":false,"station_name":"Pesing"},{"time":2,"distance":1614,"i_lat":-6.1587309999999995,"line":5,"is_transit":false,"station_id":"TKO","transit":false,"station_name":"Taman Kota","i_long":106.756522},{"line":5,"time":2,"distance":2334,"station_name":"Bojongindah","i_long":106.737035,"station_id":"BOI","transit":false,"i_lat":-6.159876,"is_transit":false},{"time":4,"distance":1152,"station_name":"Rawa Buaya","line":5,"i_long":106.723064,"i_lat":-6.162758,"station_id":"RW","transit":false,"is_transit":false}]]}