{"data":[[{"distance":0,"station_id":"CW","is_transit":false,"station_name":"Cawang","i_long":106.856607,"time":0,"transit":false,"line":0,"i_lat":-6.242512},{"station_id":"TEB","i_lat":-6.226659,"time":2,"line":2,"i_long":106.857948,"is_transit":false,"station_name":"Tebet","transit":false,"distance":1230},{"line":0,"time":4,"distance":2610,"station_name":"Manggarai","station_id":"MRI","is_transit":true,"transit":true,"i_lat":-6.209883,"i_long":106.84912},{"station_id":"SUD","distance":3186,"station_name":"Sudirman","i_long":106.822649,"is_transit":false,"time":4,"line":1,"transit":false,"i_lat":-6.202263},{"is_transit":false,"line":1,"i_long":106.819881,"station_name":"Sudirman Baru","i_lat":-6.201433,"station_id":"SUDB","transit":false,"time":1,"distance":280},{"transit":false,"line":1,"station_id":"KAT","time":1,"station_name":"Karet","is_transit":false,"i_lat":-6.20132,"i_long":106.816351,"distance":471},{"line":1,"station_id":"THB","station_name":"Tanah Abang","transit":false,"i_long":106.811091,"i_lat":-6.185545,"time":5,"is_transit":true,"distance":2029},{"i_long":106.800832,"distance":3632,"station_name":"Duri","is_transit":true,"time":8,"transit":true,"i_lat":-6.155215,"station_id":"DU","line":1},{"i_lat":-6.162021,"station_id":"GGL","time":3,"station_name":"Grogol","is_transit":false,"transit":false,"i_long":106.788277,"distance":1700,"line":5},{"i_long":106.771379,"line":5,"distance":2036,"station_id":"PSG","is_transit":false,"i_lat":-6.161433,"station_name":"Pesing","transit":false,"time":2},{"transit":false,"i_lat":-6.1587309999999995,"station_name":"Taman Kota","is_transit":false,"distance":1614,"line":5,"station_id":"TKO","i_long":106.756522,"time":2},{"time":2,"station_id":"BOI","is_transit":false,"distance":2334,"transit":false,"i_long":106.737035,"station_name":"Bojongindah","i_lat":-6.159876,"line":0},{"is_transit":false,"time":4,"line":5,"transit":false,"distance":1152,"station_name":"Rawa Buaya","i_lat":-6.162758,"i_long":106.723064,"station_id":"RW"}],[{"i_lat":-6.242512,"station_name":"Cawang","i_long":106.856607,"line":0,"time":0,"is_transit":false,"distance":0,"transit":false,"station_id":"CW"},{"station_name":"Tebet","station_id":"TEB","time":2,"i_lat":-6.226659,"is_transit":false,"distance":1230,"i_long":106.857948,"line":2,"transit":false},{"station_id":"MRI","time":4,"transit":true,"station_name":"Manggarai","i_long":106.84912,"i_lat":-6.209883,"is_transit":true,"distance":2610,"line":0},{"station_id":"CKI","is_transit":false,"station_name":"Cikini","i_lat":-6.198556,"transit":false,"i_long":106.840169,"distance":1590,"line":0,"time":4},{"time":3,"line":2,"distance":1750,"station_id":"GDD","transit":false,"station_name":"Gondangdia","i_long":106.832183,"is_transit":false,"i_lat":-6.186295},{"station_name":"Juanda","transit":false,"i_long":106.828284,"is_transit":false,"distance":2015,"station_id":"JUA","time":4,"line":2,"i_lat":-6.166716},{"station_name":"Sawah Besar","time":2,"line":2,"is_transit":false,"transit":false,"station_id":"SW","i_lat":-6.160725,"i_long":106.827103,"distance":1149},{"is_transit":false,"station_name":"Manggabesar","i_long":106.82482,"i_lat":-6.149769,"station_id":"MGB","distance":906,"transit":false,"line":2,"time":2},{"i_lat":-6.141205,"i_long":106.820901,"transit":false,"is_transit":false,"station_name":"Jayakarta","line":7,"station_id":"JAY","distance":1080,"time":2},{"transit":true,"i_lat":-6.137569,"station_id":"JAKK","time":4,"line":0,"distance":1264,"station_name":"Jakarta Kota","is_transit":true,"i_long":106.812439},{"time":3,"station_name":"Kampung Bandan","transit":false,"station_id":"KPB","distance":1364,"i_lat":-6.132549,"is_transit":true,"i_long":106.826365,"line":0},{"station_name":"Angke","time":9,"line":0,"i_lat":-6.144674,"station_id":"AK","is_transit":false,"i_long":106.79867,"distance":4102,"transit":false},{"distance":1230,"is_transit":true,"station_id":"DU","station_name":"Duri","i_lat":-6.155215,"time":4,"i_long":106.800832,"transit":true,"line":1},{"time":3,"station_name":"Grogol","i_lat":-6.162021,"line":5,"i_long":106.788277,"station_id":"GGL","transit":false,"distance":1700,"is_transit":false},{"i_long":106.771379,"station_name":"Pesing","i_lat":-6.161433,"transit":false,"line":5,"is_transit":false,"distance":2036,"time":2,"station_id":"PSG"},{"station_id":"TKO","is_transit":false,"station_name":"Taman Kota","transit":false,"distance":1614,"i_lat":-6.1587309999999995,"line":5,"i_long":106.756522,"time":2},{"is_transit":false,"distance":2334,"transit":false,"i_long":106.737035,"station_id":"BOI","time":2,"station_name":"Bojongindah","i_lat":-6.159876,"line":0},{"station_id":"RW","station_name":"Rawa Buaya","i_lat":-6.162758,"is_transit":false,"transit":false,"distance":1152,"line":5,"time":4,"i_long":106.723064}],[{"is_transit":false,"station_id":"CW","distance":0,"line":0,"i_lat":-6.242512,"station_name":"Cawang","transit":false,"i_long":106.856607,"time":0},{"is_transit":false,"time":2,"distance":1230,"station_id":"TEB","station_name":"Tebet","line":2,"transit":false,"i_lat":-6.226659,"i_long":106.857948},{"i_long":106.84912,"line":0,"station_id":"MRI","time":4,"distance":2610,"station_name":"Manggarai","transit":true,"i_lat":-6.209883,"is_transit":true},{"station_id":"MTR","distance":1275,"is_transit":false,"transit":false,"line":1,"i_lat":-6.212485,"time":2,"i_long":106.858896,"station_name":"Matraman"},{"station_id":"JNG","i_long":106.86807400000001,"distance":1377,"line":0,"transit":true,"time":8,"i_lat":-6.215091,"is_transit":true,"station_name":"Jatinegara"},{"line":11,"is_transit":false,"transit":false,"station_id":"POK","time":2,"distance":1236,"station_name":"Pondok Jati","i_lat":-6.209188,"i_long":106.861737},{"time":2,"i_long":106.855437,"transit":false,"station_id":"KMT","station_name":"Kramat","is_transit":false,"distance":1829,"i_lat":-6.193792,"line":11},{"i_long":106.850107,"time":1,"distance":973,"i_lat":-6.185975,"station_name":"Gang Sentiong","is_transit":false,"line":11,"transit":false,"station_id":"GST"},{"station_name":"Pasar Senen","time":8,"distance":1567,"transit":false,"i_long":106.84368,"line":11,"station_id":"PSE","i_lat":-6.174784,"is_transit":false},{"is_transit":false,"i_lat":-6.161728,"station_id":"KMO","time":4,"station_name":"Kemayoran","line":11,"distance":1436,"transit":false,"i_long":106.839204},{"time":5,"line":11,"distance":1901,"transit":false,"station_id":"RJW","is_transit":false,"station_name":"Rajawali","i_long":106.836569,"i_lat":-6.14505},{"line":0,"distance":1444,"transit":true,"station_name":"Kampung Bandan","station_id":"KPB","is_transit":true,"time":3,"i_lat":-6.132549,"i_long":106.826365},{"distance":4102,"i_long":106.79867,"is_transit":false,"station_name":"Angke","transit":false,"time":9,"station_id":"AK","i_lat":-6.144674,"line":0},{"line":1,"time":4,"i_lat":-6.155215,"transit":true,"station_id":"DU","distance":1230,"i_long":106.800832,"is_transit":true,"station_name":"Duri"},{"i_lat":-6.162021,"is_transit":false,"i_long":106.788277,"time":3,"transit":false,"distance":1700,"line":5,"station_name":"Grogol","station_id":"GGL"},{"i_lat":-6.161433,"station_name":"Pesing","station_id":"PSG","transit":false,"i_long":106.771379,"line":5,"time":2,"is_transit":false,"distance":2036},{"time":2,"distance":1614,"transit":false,"i_long":106.756522,"station_id":"TKO","i_lat":-6.1587309999999995,"is_transit":false,"line":5,"station_name":"Taman Kota"},{"i_long":106.737035,"is_transit":false,"i_lat":-6.159876,"station_name":"Bojongindah","time":2,"line":0,"station_id":"BOI","distance":2334,"transit":false},{"line":5,"station_name":"Rawa Buaya","is_transit":false,"time":4,"transit":false,"station_id":"RW","distance":1152,"i_lat":-6.162758,"i_long":106.723064}]]}