{"data":[[{"i_long":106.856607,"i_lat":-6.242512,"station_id":"CW","station_name":"Cawang","distance":0,"time":0,"is_transit":false,"transit":false,"line":2},{"transit":false,"distance":1230,"is_transit":false,"time":2,"i_lat":-6.226659,"i_long":106.857948,"station_id":"TEB","station_name":"Tebet","line":2},{"time":4,"transit":false,"line":2,"i_lat":-6.209883,"distance":2610,"station_id":"MRI","is_transit":false,"i_long":106.84912,"station_name":"Manggarai"},{"time":4,"station_id":"CKI","i_lat":-6.198556,"is_transit":false,"i_long":106.840169,"line":2,"station_name":"Cikini","distance":1590,"transit":false},{"station_id":"GDD","i_lat":-6.186295,"distance":1750,"transit":false,"is_transit":false,"i_long":106.832183,"station_name":"Gondangdia","time":3,"line":2},{"time":4,"transit":false,"i_lat":-6.166716,"distance":2015,"station_name":"Juanda","i_long":106.828284,"station_id":"JUA","line":2,"is_transit":false},{"transit":false,"station_id":"SW","time":2,"line":2,"is_transit":false,"distance":1149,"station_name":"Sawah Besar","i_lat":-6.160725,"i_long":106.827103}],[{"i_long":106.856607,"line":2,"station_name":"Cawang","is_transit":false,"i_lat":-6.242512,"station_id":"CW","distance":0,"time":0,"transit":false},{"transit":false,"i_lat":-6.226659,"line":2,"station_name":"Tebet","is_transit":false,"i_long":106.857948,"time":2,"distance":1230,"station_id":"TEB"},{"distance":2610,"station_name":"Manggarai","i_long":106.84912,"time":4,"i_lat":-6.209883,"is_transit":true,"transit":true,"station_id":"MRI","line":2},{"distance":3186,"time":4,"station_id":"SUD","i_long":106.822649,"station_name":"Sudirman","is_transit":false,"i_lat":-6.202263,"line":1,"transit":false},{"distance":280,"station_id":"SUDB","i_long":106.819881,"line":1,"station_name":"Sudirman Baru","time":1,"transit":false,"i_lat":-6.201433,"is_transit":false},{"station_id":"KAT","time":1,"station_name":"Karet","is_transit":false,"i_long":106.816351,"transit":false,"line":1,"i_lat":-6.20132,"distance":471},{"station_id":"THB","station_name":"Tanah Abang","line":1,"time":5,"i_lat":-6.185545,"transit":false,"i_long":106.811091,"is_transit":false,"distance":2029},{"transit":false,"station_name":"Duri","distance":3632,"time":8,"is_transit":false,"line":1,"i_long":106.800832,"station_id":"DU","i_lat":-6.155215},{"line":1,"station_name":"Angke","distance":1230,"time":4,"transit":false,"is_transit":false,"i_lat":-6.144674,"i_long":106.79867,"station_id":"AK"},{"station_name":"Kampung Bandan","time":9,"is_transit":true,"station_id":"KPB","i_lat":-6.132549,"line":4,"distance":4102,"transit":true,"i_long":106.826365},{"time":3,"distance":1364,"is_transit":true,"station_name":"Jakarta Kota","i_lat":-6.137569,"i_long":106.812439,"transit":true,"station_id":"JAKK","line":2},{"distance":1264,"line":2,"transit":false,"is_transit":false,"station_name":"Jayakarta","time":4,"i_long":106.820901,"station_id":"JAY","i_lat":-6.141205},{"time":2,"transit":false,"i_lat":-6.149769,"is_transit":false,"station_id":"MGB","i_long":106.82482,"line":2,"distance":1080,"station_name":"Manggabesar"},{"i_lat":-6.160725,"time":2,"line":2,"is_transit":false,"station_id":"SW","distance":906,"station_name":"Sawah Besar","i_long":106.827103,"transit":false}],[{"station_id":"CW","distance":0,"time":0,"station_name":"Cawang","i_lat":-6.242512,"i_long":106.856607,"is_transit":false,"line":2,"transit":false},{"time":2,"transit":false,"i_lat":-6.226659,"is_transit":false,"station_id":"TEB","i_long":106.857948,"distance":1230,"station_name":"Tebet","line":2},{"station_name":"Manggarai","time":4,"distance":2610,"transit":true,"line":2,"i_lat":-6.209883,"i_long":106.84912,"is_transit":true,"station_id":"MRI"},{"i_long":106.858896,"line":1,"station_name":"Matraman","transit":false,"time":2,"distance":1275,"is_transit":false,"i_lat":-6.212485,"station_id":"MTR"},{"distance":1377,"station_id":"JNG","time":8,"station_name":"Jatinegara","transit":true,"is_transit":true,"i_long":106.86807400000001,"line":1,"i_lat":-6.215091},{"station_id":"POK","i_lat":-6.209188,"distance":1236,"time":2,"i_long":106.861737,"line":11,"is_transit":false,"station_name":"Pondok Jati","transit":false},{"is_transit":false,"time":2,"transit":false,"station_name":"Kramat","i_lat":-6.193792,"i_long":106.855437,"line":11,"distance":1829,"station_id":"KMT"},{"station_id":"GST","is_transit":false,"i_long":106.850107,"i_lat":-6.185975,"distance":973,"time":1,"station_name":"Gang Sentiong","transit":false,"line":11},{"is_transit":false,"distance":1567,"station_name":"Pasar Senen","line":11,"i_lat":-6.174784,"transit":false,"station_id":"PSE","i_long":106.84368,"time":8},{"is_transit":false,"i_lat":-6.161728,"station_name":"Kemayoran","station_id":"KMO","i_long":106.839204,"line":11,"time":4,"transit":false,"distance":1436},{"transit":false,"line":11,"i_lat":-6.14505,"is_transit":false,"i_long":106.836569,"station_id":"RJW","distance":1901,"station_name":"Rajawali","time":5},{"station_id":"KPB","station_name":"Kampung Bandan","distance":1444,"time":3,"line":4,"transit":true,"is_transit":true,"i_long":106.826365,"i_lat":-6.132549},{"transit":true,"station_id":"JAKK","station_name":"Jakarta Kota","is_transit":true,"time":3,"distance":1364,"i_long":106.812439,"i_lat":-6.137569,"line":2},{"time":4,"distance":1264,"station_id":"JAY","station_name":"Jayakarta","i_lat":-6.141205,"i_long":106.820901,"transit":false,"line":2,"is_transit":false},{"is_transit":false,"transit":false,"line":2,"i_lat":-6.149769,"time":2,"station_id":"MGB","i_long":106.82482,"distance":1080,"station_name":"Manggabesar"},{"i_long":106.827103,"station_name":"Sawah Besar","transit":false,"station_id":"SW","i_lat":-6.160725,"time":2,"distance":906,"line":2,"is_transit":false}]]}