{"data":[[{"distance":0,"station_name":"Cawang","station_id":"CW","time":0,"i_lat":-6.242512,"transit":false,"i_long":106.856607,"line":2,"is_transit":false},{"i_long":106.857948,"line":2,"i_lat":-6.226659,"distance":1230,"transit":false,"time":2,"station_id":"TEB","is_transit":false,"station_name":"Tebet"},{"transit":false,"station_id":"MRI","time":4,"i_long":106.84912,"is_transit":false,"i_lat":-6.209883,"line":2,"distance":2610,"station_name":"Manggarai"},{"line":2,"time":4,"station_id":"CKI","station_name":"Cikini","distance":1590,"is_transit":false,"transit":false,"i_lat":-6.198556,"i_long":106.840169},{"station_name":"Gondangdia","i_long":106.832183,"time":3,"line":2,"is_transit":false,"i_lat":-6.186295,"transit":false,"distance":1750,"station_id":"GDD"},{"station_id":"JUA","i_lat":-6.166716,"time":4,"distance":2015,"line":2,"station_name":"Juanda","transit":false,"i_long":106.828284,"is_transit":false},{"i_long":106.827103,"station_id":"SW","distance":1149,"station_name":"Sawah Besar","transit":false,"i_lat":-6.160725,"is_transit":false,"line":2,"time":2}],[{"line":2,"i_long":106.856607,"time":0,"station_name":"Cawang","station_id":"CW","is_transit":false,"distance":0,"transit":false,"i_lat":-6.242512},{"transit":false,"i_long":106.857948,"line":2,"i_lat":-6.226659,"is_transit":false,"station_name":"Tebet","station_id":"TEB","distance":1230,"time":2},{"i_long":106.84912,"distance":2610,"time":4,"station_name":"Manggarai","transit":true,"is_transit":true,"station_id":"MRI","line":2,"i_lat":-6.209883},{"i_lat":-6.202263,"station_name":"Sudirman","is_transit":false,"transit":false,"i_long":106.822649,"line":1,"station_id":"SUD","time":4,"distance":3186},{"i_lat":-6.201433,"i_long":106.819881,"station_name":"Sudirman Baru","is_transit":false,"distance":280,"transit":false,"line":1,"time":1,"station_id":"SUDB"},{"line":1,"transit":false,"distance":471,"time":1,"station_name":"Karet","is_transit":false,"station_id":"KAT","i_lat":-6.20132,"i_long":106.816351},{"distance":2029,"transit":false,"station_id":"THB","is_transit":false,"station_name":"Tanah Abang","i_lat":-6.185545,"line":1,"time":5,"i_long":106.811091},{"station_id":"DU","is_transit":false,"i_lat":-6.155215,"station_name":"Duri","i_long":106.800832,"time":8,"transit":false,"line":1,"distance":3632},{"i_lat":-6.144674,"station_id":"AK","i_long":106.79867,"line":1,"station_name":"Angke","time":4,"distance":1230,"is_transit":false,"transit":false},{"station_id":"KPB","i_long":106.826365,"time":9,"line":4,"i_lat":-6.132549,"distance":4102,"is_transit":true,"transit":true,"station_name":"Kampung Bandan"},{"station_id":"JAKK","station_name":"Jakarta Kota","is_transit":true,"distance":1364,"transit":true,"time":3,"i_lat":-6.137569,"i_long":106.812439,"line":2},{"time":4,"transit":false,"distance":1264,"is_transit":false,"station_name":"Jayakarta","line":2,"station_id":"JAY","i_lat":-6.141205,"i_long":106.820901},{"is_transit":false,"transit":false,"line":2,"station_name":"Manggabesar","i_lat":-6.149769,"distance":1080,"time":2,"i_long":106.82482,"station_id":"MGB"},{"i_lat":-6.160725,"is_transit":false,"time":2,"station_id":"SW","station_name":"Sawah Besar","transit":false,"distance":906,"i_long":106.827103,"line":2}],[{"line":2,"time":0,"is_transit":false,"i_lat":-6.242512,"station_name":"Cawang","distance":0,"i_long":106.856607,"station_id":"CW","transit":false},{"station_name":"Tebet","i_lat":-6.226659,"station_id":"TEB","is_transit":false,"line":2,"time":2,"distance":1230,"transit":false,"i_long":106.857948},{"line":2,"transit":true,"distance":2610,"i_long":106.84912,"station_name":"Manggarai","i_lat":-6.209883,"is_transit":true,"time":4,"station_id":"MRI"},{"time":2,"distance":1275,"station_name":"Matraman","transit":false,"i_lat":-6.212485,"i_long":106.858896,"station_id":"MTR","line":1,"is_transit":false},{"station_id":"JNG","time":8,"is_transit":true,"transit":true,"station_name":"Jatinegara","i_lat":-6.215091,"line":1,"i_long":106.86807400000001,"distance":1377},{"line":11,"time":2,"distance":1236,"i_lat":-6.209188,"transit":false,"station_name":"Pondok Jati","is_transit":false,"i_long":106.861737,"station_id":"POK"},{"i_lat":-6.193792,"station_name":"Kramat","is_transit":false,"line":11,"transit":false,"i_long":106.855437,"station_id":"KMT","time":2,"distance":1829},{"station_id":"GST","i_lat":-6.185975,"i_long":106.850107,"transit":false,"is_transit":false,"line":11,"station_name":"Gang Sentiong","time":1,"distance":973},{"time":8,"is_transit":false,"line":11,"distance":1567,"i_lat":-6.174784,"station_id":"PSE","station_name":"Pasar Senen","transit":false,"i_long":106.84368},{"station_id":"KMO","i_long":106.839204,"line":11,"time":4,"is_transit":false,"i_lat":-6.161728,"station_name":"Kemayoran","transit":false,"distance":1436},{"i_long":106.836569,"i_lat":-6.14505,"line":11,"distance":1901,"is_transit":false,"transit":false,"time":5,"station_id":"RJW","station_name":"Rajawali"},{"transit":true,"i_lat":-6.132549,"distance":1444,"i_long":106.826365,"is_transit":true,"line":4,"station_id":"KPB","station_name":"Kampung Bandan","time":3},{"line":2,"time":3,"transit":true,"i_lat":-6.137569,"station_name":"Jakarta Kota","distance":1364,"station_id":"JAKK","i_long":106.812439,"is_transit":true},{"time":4,"station_id":"JAY","i_lat":-6.141205,"transit":false,"station_name":"Jayakarta","i_long":106.820901,"distance":1264,"is_transit":false,"line":2},{"station_id":"MGB","i_lat":-6.149769,"transit":false,"line":2,"distance":1080,"station_name":"Manggabesar","is_transit":false,"time":2,"i_long":106.82482},{"station_id":"SW","i_long":106.827103,"transit":false,"i_lat":-6.160725,"time":2,"station_name":"Sawah Besar","line":2,"distance":906,"is_transit":false}]]}