{"data":[[{"time":0,"i_lat":-6.242512,"station_name":"Cawang","line":2,"station_id":"CW","distance":0,"is_transit":false,"i_long":106.856607,"transit":false},{"station_name":"Tebet","is_transit":false,"transit":false,"station_id":"TEB","time":2,"distance":1230,"i_lat":-6.226659,"i_long":106.857948,"line":2},{"transit":false,"station_name":"Manggarai","station_id":"MRI","distance":2610,"time":4,"line":2,"is_transit":false,"i_long":106.84912,"i_lat":-6.209883},{"line":2,"i_lat":-6.198556,"station_name":"Cikini","is_transit":false,"transit":false,"station_id":"CKI","distance":1590,"i_long":106.840169,"time":4},{"i_lat":-6.186295,"is_transit":false,"distance":1750,"station_id":"GDD","station_name":"Gondangdia","i_long":106.832183,"line":2,"transit":false,"time":3},{"i_long":106.828284,"time":4,"distance":2015,"transit":false,"station_name":"Juanda","station_id":"JUA","is_transit":false,"i_lat":-6.166716,"line":2},{"transit":false,"i_lat":-6.160725,"station_id":"SW","is_transit":false,"distance":1149,"i_long":106.827103,"line":2,"station_name":"Sawah Besar","time":2}],[{"transit":false,"i_long":106.856607,"station_name":"Cawang","i_lat":-6.242512,"line":2,"distance":0,"station_id":"CW","time":0,"is_transit":false},{"transit":false,"distance":1230,"time":2,"i_lat":-6.226659,"station_id":"TEB","line":2,"is_transit":false,"station_name":"Tebet","i_long":106.857948},{"distance":2610,"i_long":106.84912,"time":4,"transit":true,"station_name":"Manggarai","line":2,"is_transit":true,"station_id":"MRI","i_lat":-6.209883},{"station_id":"SUD","station_name":"Sudirman","transit":false,"time":4,"distance":3186,"line":1,"is_transit":false,"i_lat":-6.202263,"i_long":106.822649},{"i_long":106.819881,"transit":false,"distance":280,"station_name":"Sudirman Baru","i_lat":-6.201433,"station_id":"SUDB","time":1,"is_transit":false,"line":1},{"transit":false,"time":1,"line":1,"i_long":106.816351,"station_id":"KAT","distance":471,"i_lat":-6.20132,"is_transit":false,"station_name":"Karet"},{"i_long":106.811091,"station_name":"Tanah Abang","is_transit":false,"line":1,"transit":false,"i_lat":-6.185545,"station_id":"THB","distance":2029,"time":5},{"distance":3632,"is_transit":false,"line":1,"station_name":"Duri","i_lat":-6.155215,"time":8,"transit":false,"station_id":"DU","i_long":106.800832},{"i_long":106.79867,"is_transit":false,"time":4,"line":1,"distance":1230,"station_id":"AK","i_lat":-6.144674,"transit":false,"station_name":"Angke"},{"station_id":"KPB","line":4,"time":9,"is_transit":true,"distance":4102,"transit":true,"station_name":"Kampung Bandan","i_lat":-6.132549,"i_long":106.826365},{"station_id":"JAKK","i_long":106.812439,"station_name":"Jakarta Kota","is_transit":true,"distance":1364,"line":2,"transit":true,"time":3,"i_lat":-6.137569},{"time":4,"distance":1264,"line":2,"i_lat":-6.141205,"transit":false,"i_long":106.820901,"is_transit":false,"station_name":"Jayakarta","station_id":"JAY"},{"station_name":"Manggabesar","i_lat":-6.149769,"i_long":106.82482,"transit":false,"station_id":"MGB","line":2,"time":2,"is_transit":false,"distance":1080},{"time":2,"i_long":106.827103,"i_lat":-6.160725,"station_id":"SW","station_name":"Sawah Besar","distance":906,"transit":false,"line":2,"is_transit":false}],[{"distance":0,"i_lat":-6.242512,"is_transit":false,"time":0,"transit":false,"station_name":"Cawang","station_id":"CW","line":2,"i_long":106.856607},{"station_name":"Tebet","time":2,"i_long":106.857948,"distance":1230,"line":2,"i_lat":-6.226659,"transit":false,"is_transit":false,"station_id":"TEB"},{"station_id":"MRI","time":4,"line":2,"transit":true,"distance":2610,"i_lat":-6.209883,"i_long":106.84912,"is_transit":true,"station_name":"Manggarai"},{"is_transit":false,"line":1,"i_lat":-6.212485,"station_id":"MTR","transit":false,"time":2,"i_long":106.858896,"station_name":"Matraman","distance":1275},{"is_transit":true,"transit":true,"station_name":"Jatinegara","station_id":"JNG","time":8,"distance":1377,"line":1,"i_lat":-6.215091,"i_long":106.86807400000001},{"time":2,"is_transit":false,"i_lat":-6.209188,"station_id":"POK","transit":false,"station_name":"Pondok Jati","distance":1236,"i_long":106.861737,"line":11},{"time":2,"station_id":"KMT","is_transit":false,"station_name":"Kramat","transit":false,"distance":1829,"i_lat":-6.193792,"i_long":106.855437,"line":11},{"line":11,"station_name":"Gang Sentiong","time":1,"transit":false,"station_id":"GST","i_lat":-6.185975,"i_long":106.850107,"is_transit":false,"distance":973},{"line":11,"i_lat":-6.174784,"station_name":"Pasar Senen","i_long":106.84368,"transit":false,"station_id":"PSE","distance":1567,"is_transit":false,"time":8},{"station_id":"KMO","station_name":"Kemayoran","transit":false,"time":4,"is_transit":false,"i_lat":-6.161728,"i_long":106.839204,"line":11,"distance":1436},{"distance":1901,"station_name":"Rajawali","i_lat":-6.14505,"i_long":106.836569,"transit":false,"time":5,"line":11,"station_id":"RJW","is_transit":false},{"station_name":"Kampung Bandan","distance":1444,"i_long":106.826365,"transit":true,"station_id":"KPB","is_transit":true,"time":3,"i_lat":-6.132549,"line":4},{"i_long":106.812439,"i_lat":-6.137569,"line":2,"time":3,"is_transit":true,"station_name":"Jakarta Kota","distance":1364,"transit":true,"station_id":"JAKK"},{"time":4,"distance":1264,"i_lat":-6.141205,"station_id":"JAY","transit":false,"i_long":106.820901,"line":2,"station_name":"Jayakarta","is_transit":false},{"station_name":"Manggabesar","time":2,"distance":1080,"station_id":"MGB","i_long":106.82482,"line":2,"i_lat":-6.149769,"transit":false,"is_transit":false},{"station_id":"SW","time":2,"distance":906,"is_transit":false,"transit":false,"i_lat":-6.160725,"station_name":"Sawah Besar","i_long":106.827103,"line":2}]]}