{"data":[[{"is_transit":false,"line":0,"transit":false,"station_id":"CW","distance":0,"time":0,"station_name":"Cawang","i_lat":-6.242512,"i_long":106.856607},{"i_long":106.857948,"station_name":"Tebet","transit":false,"time":2,"line":2,"i_lat":-6.226659,"is_transit":false,"station_id":"TEB","distance":1230},{"is_transit":true,"transit":true,"station_name":"Manggarai","distance":2610,"i_lat":-6.209883,"line":0,"time":4,"station_id":"MRI","i_long":106.84912},{"i_lat":-6.198556,"is_transit":false,"station_name":"Cikini","transit":false,"i_long":106.840169,"station_id":"CKI","distance":1590,"line":0,"time":4},{"distance":1750,"i_lat":-6.186295,"station_id":"GDD","line":2,"i_long":106.832183,"station_name":"Gondangdia","transit":false,"time":3,"is_transit":false},{"distance":2015,"time":4,"station_id":"JUA","station_name":"Juanda","i_lat":-6.166716,"transit":false,"line":2,"i_long":106.828284,"is_transit":false},{"i_long":106.827103,"station_id":"SW","line":2,"transit":false,"distance":1149,"i_lat":-6.160725,"is_transit":false,"time":2,"station_name":"Sawah Besar"}],[{"i_long":106.856607,"transit":false,"station_id":"CW","is_transit":false,"distance":0,"i_lat":-6.242512,"time":0,"line":0,"station_name":"Cawang"},{"i_lat":-6.226659,"station_name":"Tebet","distance":1230,"line":2,"i_long":106.857948,"station_id":"TEB","transit":false,"time":2,"is_transit":false},{"i_lat":-6.209883,"i_long":106.84912,"station_name":"Manggarai","line":0,"time":4,"is_transit":true,"station_id":"MRI","distance":2610,"transit":true},{"station_name":"Sudirman","station_id":"SUD","i_long":106.822649,"is_transit":false,"distance":3186,"time":4,"i_lat":-6.202263,"line":1,"transit":false},{"line":1,"station_name":"Sudirman Baru","i_lat":-6.201433,"distance":280,"is_transit":false,"station_id":"SUDB","i_long":106.819881,"time":1,"transit":false},{"station_id":"KAT","i_long":106.816351,"is_transit":false,"line":1,"transit":false,"time":1,"i_lat":-6.20132,"station_name":"Karet","distance":471},{"i_long":106.811091,"i_lat":-6.185545,"line":1,"transit":false,"station_name":"Tanah Abang","distance":2029,"station_id":"THB","is_transit":true,"time":5},{"distance":3632,"station_id":"DU","station_name":"Duri","line":1,"i_long":106.800832,"transit":true,"time":8,"is_transit":true,"i_lat":-6.155215},{"station_name":"Angke","distance":1230,"i_lat":-6.144674,"transit":false,"line":0,"is_transit":false,"time":4,"station_id":"AK","i_long":106.79867},{"i_lat":-6.132549,"i_long":106.826365,"station_id":"KPB","station_name":"Kampung Bandan","transit":false,"is_transit":true,"line":0,"time":9,"distance":4102},{"is_transit":true,"distance":1364,"line":0,"transit":true,"time":3,"i_lat":-6.137569,"station_name":"Jakarta Kota","i_long":106.812439,"station_id":"JAKK"},{"station_name":"Jayakarta","is_transit":false,"time":4,"station_id":"JAY","distance":1264,"i_lat":-6.141205,"line":7,"i_long":106.820901,"transit":false},{"line":2,"transit":false,"distance":1080,"is_transit":false,"station_id":"MGB","station_name":"Manggabesar","i_long":106.82482,"time":2,"i_lat":-6.149769},{"transit":false,"station_name":"Sawah Besar","time":2,"station_id":"SW","is_transit":false,"line":2,"distance":906,"i_long":106.827103,"i_lat":-6.160725}],[{"line":0,"i_lat":-6.242512,"transit":false,"station_name":"Cawang","station_id":"CW","is_transit":false,"i_long":106.856607,"distance":0,"time":0},{"i_long":106.857948,"i_lat":-6.226659,"line":2,"station_name":"Tebet","transit":false,"is_transit":false,"distance":1230,"station_id":"TEB","time":2},{"station_name":"Manggarai","is_transit":true,"distance":2610,"i_long":106.84912,"line":0,"time":4,"i_lat":-6.209883,"station_id":"MRI","transit":true},{"station_name":"Matraman","time":2,"i_long":106.858896,"line":1,"is_transit":false,"i_lat":-6.212485,"distance":1275,"transit":false,"station_id":"MTR"},{"distance":1377,"station_id":"JNG","line":0,"time":8,"i_lat":-6.215091,"station_name":"Jatinegara","i_long":106.86807400000001,"transit":true,"is_transit":true},{"transit":false,"station_name":"Pondok Jati","i_lat":-6.209188,"i_long":106.861737,"line":11,"time":2,"is_transit":false,"station_id":"POK","distance":1236},{"station_name":"Kramat","transit":false,"time":2,"line":11,"distance":1829,"station_id":"KMT","i_lat":-6.193792,"i_long":106.855437,"is_transit":false},{"is_transit":false,"station_name":"Gang Sentiong","transit":false,"distance":973,"i_lat":-6.185975,"i_long":106.850107,"line":11,"station_id":"GST","time":1},{"i_lat":-6.174784,"distance":1567,"line":11,"i_long":106.84368,"is_transit":false,"station_name":"Pasar Senen","transit":false,"station_id":"PSE","time":8},{"station_name":"Kemayoran","transit":false,"station_id":"KMO","i_lat":-6.161728,"time":4,"line":11,"is_transit":false,"distance":1436,"i_long":106.839204},{"transit":false,"time":5,"is_transit":false,"distance":1901,"i_lat":-6.14505,"i_long":106.836569,"line":11,"station_id":"RJW","station_name":"Rajawali"},{"transit":true,"distance":1444,"station_id":"KPB","i_long":106.826365,"time":3,"i_lat":-6.132549,"line":0,"station_name":"Kampung Bandan","is_transit":true},{"time":3,"distance":1364,"i_lat":-6.137569,"transit":true,"i_long":106.812439,"line":0,"station_name":"Jakarta Kota","is_transit":true,"station_id":"JAKK"},{"i_lat":-6.141205,"transit":false,"distance":1264,"station_name":"Jayakarta","is_transit":false,"i_long":106.820901,"time":4,"line":7,"station_id":"JAY"},{"station_name":"Manggabesar","transit":false,"station_id":"MGB","is_transit":false,"distance":1080,"i_lat":-6.149769,"line":2,"i_long":106.82482,"time":2},{"is_transit":false,"line":2,"distance":906,"i_long":106.827103,"station_id":"SW","time":2,"i_lat":-6.160725,"transit":false,"station_name":"Sawah Besar"}]]}