{"data":[[{"transit":false,"station_name":"Cawang","distance":0,"i_lat":-6.242512,"is_transit":false,"i_long":106.856607,"time":0,"station_id":"CW","line":2},{"transit":false,"line":2,"i_long":106.857948,"is_transit":false,"station_id":"TEB","time":2,"distance":1230,"i_lat":-6.226659,"station_name":"Tebet"},{"i_lat":-6.209883,"distance":2610,"i_long":106.84912,"transit":true,"time":4,"station_name":"Manggarai","station_id":"MRI","is_transit":true,"line":2},{"i_long":106.822649,"line":1,"transit":false,"station_id":"SUD","time":4,"i_lat":-6.202263,"is_transit":false,"station_name":"Sudirman","distance":3186},{"line":1,"transit":false,"i_long":106.819881,"time":1,"is_transit":false,"station_name":"Sudirman Baru","i_lat":-6.201433,"station_id":"SUDB","distance":280},{"i_long":106.816351,"line":1,"distance":471,"transit":false,"station_id":"KAT","time":1,"i_lat":-6.20132,"station_name":"Karet","is_transit":false},{"transit":false,"station_name":"Tanah Abang","is_transit":false,"i_lat":-6.185545,"line":1,"distance":2029,"station_id":"THB","time":5,"i_long":106.811091},{"distance":3632,"i_lat":-6.155215,"station_id":"DU","is_transit":true,"transit":true,"time":8,"line":1,"station_name":"Duri","i_long":106.800832},{"distance":1700,"i_long":106.788277,"line":5,"i_lat":-6.162021,"is_transit":false,"time":3,"transit":false,"station_id":"GGL","station_name":"Grogol"},{"i_long":106.771379,"station_id":"PSG","is_transit":false,"transit":false,"distance":2036,"time":2,"i_lat":-6.161433,"line":5,"station_name":"Pesing"},{"distance":1614,"station_name":"Taman Kota","station_id":"TKO","i_long":106.756522,"line":5,"is_transit":false,"time":2,"transit":false,"i_lat":-6.1587309999999995},{"time":2,"i_lat":-6.159876,"line":5,"distance":2334,"is_transit":false,"station_id":"BOI","i_long":106.737035,"station_name":"Bojongindah","transit":false},{"transit":false,"line":5,"i_lat":-6.162758,"time":4,"i_long":106.723064,"distance":1152,"station_id":"RW","station_name":"Rawa Buaya","is_transit":false},{"time":3,"station_id":"KDS","is_transit":false,"line":5,"transit":false,"station_name":"Kalideres","distance":2504,"i_lat":-6.166068,"i_long":106.701612},{"i_long":106.679458,"line":5,"i_lat":-6.169933,"distance":2548,"station_id":"PI","is_transit":false,"transit":false,"time":3,"station_name":"Poris"},{"line":5,"transit":false,"is_transit":false,"station_name":"Batuceper","distance":1834,"i_lat":-6.171811,"time":3,"station_id":"BPR","i_long":106.665036},{"transit":false,"time":3,"distance":2028,"i_long":106.64657,"line":5,"station_name":"Tanah Tinggi","station_id":"TTI","i_lat":-6.17331,"is_transit":false}],[{"is_transit":false,"transit":false,"station_id":"CW","distance":0,"station_name":"Cawang","time":0,"i_long":106.856607,"i_lat":-6.242512,"line":2},{"station_id":"TEB","time":2,"i_long":106.857948,"i_lat":-6.226659,"line":2,"distance":1230,"is_transit":false,"station_name":"Tebet","transit":false},{"station_id":"MRI","time":4,"is_transit":false,"i_long":106.84912,"transit":false,"i_lat":-6.209883,"distance":2610,"line":2,"station_name":"Manggarai"},{"line":2,"transit":false,"i_lat":-6.198556,"station_name":"Cikini","i_long":106.840169,"station_id":"CKI","is_transit":false,"distance":1590,"time":4},{"i_lat":-6.186295,"time":3,"line":2,"is_transit":false,"i_long":106.832183,"transit":false,"station_id":"GDD","station_name":"Gondangdia","distance":1750},{"station_id":"JUA","time":4,"distance":2015,"is_transit":false,"station_name":"Juanda","i_lat":-6.166716,"transit":false,"i_long":106.828284,"line":2},{"distance":1149,"station_name":"Sawah Besar","is_transit":false,"time":2,"i_lat":-6.160725,"line":2,"i_long":106.827103,"transit":false,"station_id":"SW"},{"i_lat":-6.149769,"station_name":"Manggabesar","is_transit":false,"transit":false,"line":2,"time":2,"i_long":106.82482,"station_id":"MGB","distance":906},{"station_id":"JAY","is_transit":false,"transit":false,"distance":1080,"i_long":106.820901,"line":2,"station_name":"Jayakarta","time":2,"i_lat":-6.141205},{"transit":true,"station_name":"Jakarta Kota","time":4,"is_transit":true,"i_lat":-6.137569,"i_long":106.812439,"station_id":"JAKK","line":2,"distance":1264},{"station_id":"KPB","line":4,"i_long":106.826365,"i_lat":-6.132549,"transit":true,"time":3,"is_transit":true,"station_name":"Kampung Bandan","distance":1364},{"i_long":106.79867,"is_transit":false,"station_name":"Angke","station_id":"AK","i_lat":-6.144674,"time":9,"transit":false,"distance":4102,"line":1},{"station_id":"DU","transit":true,"distance":1230,"is_transit":true,"time":4,"station_name":"Duri","i_long":106.800832,"line":1,"i_lat":-6.155215},{"station_name":"Grogol","i_long":106.788277,"time":3,"distance":1700,"is_transit":false,"line":5,"i_lat":-6.162021,"station_id":"GGL","transit":false},{"station_name":"Pesing","line":5,"time":2,"distance":2036,"i_lat":-6.161433,"is_transit":false,"i_long":106.771379,"station_id":"PSG","transit":false},{"station_id":"TKO","transit":false,"station_name":"Taman Kota","is_transit":false,"i_lat":-6.1587309999999995,"line":5,"distance":1614,"i_long":106.756522,"time":2},{"station_name":"Bojongindah","line":5,"i_long":106.737035,"distance":2334,"station_id":"BOI","transit":false,"time":2,"i_lat":-6.159876,"is_transit":false},{"is_transit":false,"distance":1152,"transit":false,"station_id":"RW","i_long":106.723064,"line":5,"time":4,"i_lat":-6.162758,"station_name":"Rawa Buaya"},{"line":5,"i_long":106.701612,"station_id":"KDS","time":3,"i_lat":-6.166068,"station_name":"Kalideres","transit":false,"is_transit":false,"distance":2504},{"time":3,"is_transit":false,"station_name":"Poris","station_id":"PI","transit":false,"i_long":106.679458,"distance":2548,"i_lat":-6.169933,"line":5},{"time":3,"i_lat":-6.171811,"is_transit":false,"distance":1834,"i_long":106.665036,"station_name":"Batuceper","transit":false,"line":5,"station_id":"BPR"},{"time":3,"transit":false,"i_lat":-6.17331,"station_name":"Tanah Tinggi","line":5,"is_transit":false,"distance":2028,"station_id":"TTI","i_long":106.64657}],[{"transit":false,"station_name":"Cawang","i_lat":-6.242512,"station_id":"CW","time":0,"distance":0,"i_long":106.856607,"is_transit":false,"line":2},{"i_lat":-6.226659,"station_id":"TEB","time":2,"station_name":"Tebet","line":2,"distance":1230,"transit":false,"i_long":106.857948,"is_transit":false},{"line":2,"transit":true,"station_name":"Manggarai","distance":2610,"i_long":106.84912,"station_id":"MRI","time":4,"i_lat":-6.209883,"is_transit":true},{"station_id":"MTR","is_transit":false,"transit":false,"station_name":"Matraman","i_long":106.858896,"time":2,"i_lat":-6.212485,"line":1,"distance":1275},{"station_name":"Jatinegara","is_transit":true,"time":8,"i_lat":-6.215091,"transit":true,"i_long":106.86807400000001,"station_id":"JNG","distance":1377,"line":1},{"i_lat":-6.209188,"i_long":106.861737,"distance":1236,"line":11,"transit":false,"station_name":"Pondok Jati","station_id":"POK","is_transit":false,"time":2},{"i_lat":-6.193792,"station_name":"Kramat","line":11,"is_transit":false,"time":2,"i_long":106.855437,"station_id":"KMT","transit":false,"distance":1829},{"distance":973,"line":11,"is_transit":false,"transit":false,"station_id":"GST","station_name":"Gang Sentiong","i_lat":-6.185975,"i_long":106.850107,"time":1},{"is_transit":false,"transit":false,"station_id":"PSE","i_lat":-6.174784,"i_long":106.84368,"station_name":"Pasar Senen","time":8,"distance":1567,"line":11},{"i_lat":-6.161728,"is_transit":false,"time":4,"transit":false,"distance":1436,"i_long":106.839204,"line":11,"station_name":"Kemayoran","station_id":"KMO"},{"line":11,"station_id":"RJW","station_name":"Rajawali","transit":false,"i_long":106.836569,"distance":1901,"time":5,"is_transit":false,"i_lat":-6.14505},{"i_lat":-6.132549,"is_transit":true,"i_long":106.826365,"transit":true,"distance":1444,"station_id":"KPB","line":4,"time":3,"station_name":"Kampung Bandan"},{"i_long":106.79867,"is_transit":false,"distance":4102,"transit":false,"station_id":"AK","time":9,"i_lat":-6.144674,"station_name":"Angke","line":1},{"transit":true,"time":4,"is_transit":true,"station_name":"Duri","i_lat":-6.155215,"line":1,"station_id":"DU","distance":1230,"i_long":106.800832},{"station_id":"GGL","i_lat":-6.162021,"transit":false,"time":3,"station_name":"Grogol","is_transit":false,"distance":1700,"i_long":106.788277,"line":5},{"line":5,"i_long":106.771379,"transit":false,"is_transit":false,"distance":2036,"time":2,"station_name":"Pesing","i_lat":-6.161433,"station_id":"PSG"},{"line":5,"station_id":"TKO","time":2,"distance":1614,"i_long":106.756522,"station_name":"Taman Kota","is_transit":false,"i_lat":-6.1587309999999995,"transit":false},{"station_name":"Bojongindah","is_transit":false,"i_lat":-6.159876,"time":2,"transit":false,"i_long":106.737035,"station_id":"BOI","line":5,"distance":2334},{"time":4,"distance":1152,"transit":false,"is_transit":false,"station_name":"Rawa Buaya","station_id":"RW","line":5,"i_long":106.723064,"i_lat":-6.162758},{"station_name":"Kalideres","time":3,"i_lat":-6.166068,"i_long":106.701612,"station_id":"KDS","line":5,"is_transit":false,"distance":2504,"transit":false},{"station_id":"PI","time":3,"i_lat":-6.169933,"is_transit":false,"station_name":"Poris","i_long":106.679458,"line":5,"distance":2548,"transit":false},{"line":5,"distance":1834,"station_id":"BPR","station_name":"Batuceper","i_lat":-6.171811,"transit":false,"i_long":106.665036,"is_transit":false,"time":3},{"transit":false,"i_lat":-6.17331,"station_id":"TTI","station_name":"Tanah Tinggi","line":5,"i_long":106.64657,"is_transit":false,"distance":2028,"time":3}]]}