{"data":[[{"i_lat":-6.242512,"i_long":106.856607,"station_id":"CW","station_name":"Cawang","transit":false,"is_transit":false,"distance":0,"line":2,"time":0},{"i_long":106.85449,"distance":1546,"time":3,"transit":false,"i_lat":-6.255332,"is_transit":false,"station_id":"DRN","line":2,"station_name":"Duren Kalibata"},{"distance":824,"transit":false,"time":2,"station_id":"PSMB","station_name":"Pasar Minggu Baru","is_transit":false,"i_lat":-6.263214,"i_long":106.851577,"line":2},{"time":2,"station_name":"Pasar Minggu","is_transit":false,"station_id":"PSM","i_long":106.843999,"transit":false,"distance":2380,"line":2,"i_lat":-6.2842400000000005},{"distance":2820,"is_transit":false,"i_lat":-6.3080680000000005,"station_name":"Tanjung Barat","i_long":106.838896,"line":2,"time":4,"station_id":"TNT","transit":false}]]}