{"data":[[{"station_name":"Cawang","transit":false,"time":0,"distance":0,"i_long":106.856607,"line":0,"station_id":"CW","is_transit":false,"i_lat":-6.242512},{"i_lat":-6.255332,"i_long":106.85449,"station_name":"Duren Kalibata","station_id":"DRN","time":3,"line":0,"is_transit":false,"transit":false,"distance":1546},{"transit":false,"distance":824,"time":2,"station_name":"Pasar Minggu Baru","i_long":106.851577,"station_id":"PSMB","line":2,"is_transit":false,"i_lat":-6.263214},{"i_lat":-6.2842400000000005,"is_transit":false,"distance":2380,"i_long":106.843999,"line":2,"station_name":"Pasar Minggu","station_id":"PSM","transit":false,"time":2},{"distance":2820,"i_long":106.838896,"is_transit":false,"station_id":"TNT","line":2,"time":4,"transit":false,"i_lat":-6.3080680000000005,"station_name":"Tanjung Barat"}]]}