{"data":[[{"transit":false,"station_id":"CW","station_name":"Cawang","time":0,"i_long":106.856607,"distance":0,"line":0,"i_lat":-6.242512,"is_transit":false},{"line":2,"is_transit":false,"station_id":"TEB","i_lat":-6.226659,"distance":1230,"transit":false,"time":2,"station_name":"Tebet","i_long":106.857948},{"station_id":"MRI","distance":2610,"i_long":106.84912,"is_transit":true,"time":4,"station_name":"Manggarai","i_lat":-6.209883,"transit":true,"line":0},{"transit":false,"line":1,"i_long":106.822649,"time":4,"station_name":"Sudirman","is_transit":false,"station_id":"SUD","i_lat":-6.202263,"distance":3186},{"is_transit":false,"station_name":"Sudirman Baru","time":1,"distance":280,"transit":false,"station_id":"SUDB","i_long":106.819881,"line":1,"i_lat":-6.201433},{"line":1,"i_long":106.816351,"is_transit":false,"distance":471,"time":1,"station_id":"KAT","station_name":"Karet","transit":false,"i_lat":-6.20132},{"is_transit":true,"i_lat":-6.185545,"station_id":"THB","station_name":"Tanah Abang","line":1,"transit":true,"i_long":106.811091,"time":5,"distance":2029},{"distance":3191,"time":6,"is_transit":false,"i_lat":-6.207404,"transit":false,"line":6,"station_id":"PLM","station_name":"Palmerah","i_long":106.79689},{"i_long":106.780334,"time":7,"station_id":"KBY","is_transit":false,"transit":false,"line":6,"station_name":"Kebayoran","i_lat":-6.237242,"distance":3737},{"time":8,"station_id":"PDJ","i_long":106.74273,"station_name":"Pondokranji","i_lat":-6.276362,"line":6,"distance":6218,"is_transit":false,"transit":false},{"station_id":"JMU","station_name":"Jurangmangu","transit":false,"i_long":106.728916,"line":6,"i_lat":-6.288927,"is_transit":false,"time":3,"distance":2179},{"time":4,"distance":1994,"is_transit":false,"station_id":"SDM","i_long":106.712277,"station_name":"Sudimara","transit":false,"line":6,"i_lat":-6.296963},{"time":6,"station_id":"RU","transit":false,"line":6,"station_name":"Rawa Buntu","is_transit":false,"distance":4566,"i_lat":-6.314823,"i_long":106.675475},{"is_transit":false,"i_lat":-6.319871,"distance":2413,"i_long":106.66566,"station_id":"SRP","station_name":"Serpong","transit":false,"line":6,"time":4},{"transit":false,"i_long":106.640411,"line":0,"i_lat":-6.32484,"station_id":"CSK","time":4,"distance":1784,"station_name":"Cisauk","is_transit":false},{"station_name":"Cicayur","transit":false,"time":4,"station_id":"CC","is_transit":false,"i_lat":-6.329547,"i_long":106.617853,"line":0,"distance":2519},{"station_name":"Parung Panjang","distance":5968,"i_lat":-6.3441410000000005,"i_long":106.568863,"station_id":"PRP","is_transit":false,"time":8,"line":6,"transit":false},{"i_lat":-6.354349,"station_name":"Cilejit","distance":7025,"time":9,"i_long":106.508482,"line":0,"station_id":"CJT","is_transit":false,"transit":false},{"is_transit":false,"distance":2675,"transit":false,"station_name":"Daru","i_long":106.491338,"time":6,"line":0,"station_id":"DAR","i_lat":-6.338021},{"station_name":"Tenjo","i_long":106.460812,"distance":3902,"is_transit":false,"station_id":"TEJ","time":5,"i_lat":-6.327251,"line":6,"transit":false},{"time":5,"line":6,"i_long":106.425991,"station_id":"TGS","transit":false,"i_lat":-6.328533,"station_name":"Tigaraksa","is_transit":false,"distance":2974}],[{"time":0,"transit":false,"is_transit":false,"station_name":"Cawang","station_id":"CW","line":0,"i_long":106.856607,"i_lat":-6.242512,"distance":0},{"is_transit":false,"distance":1230,"transit":false,"i_lat":-6.226659,"i_long":106.857948,"time":2,"station_name":"Tebet","line":2,"station_id":"TEB"},{"i_long":106.84912,"distance":2610,"transit":true,"is_transit":true,"station_id":"MRI","station_name":"Manggarai","i_lat":-6.209883,"line":0,"time":4},{"i_long":106.840169,"time":4,"station_id":"CKI","transit":false,"line":0,"station_name":"Cikini","distance":1590,"i_lat":-6.198556,"is_transit":false},{"station_name":"Gondangdia","transit":false,"line":2,"station_id":"GDD","distance":1750,"i_lat":-6.186295,"i_long":106.832183,"is_transit":false,"time":3},{"time":4,"i_long":106.828284,"i_lat":-6.166716,"station_name":"Juanda","transit":false,"line":2,"distance":2015,"is_transit":false,"station_id":"JUA"},{"distance":1149,"station_id":"SW","is_transit":false,"time":2,"i_long":106.827103,"station_name":"Sawah Besar","transit":false,"line":2,"i_lat":-6.160725},{"distance":906,"i_lat":-6.149769,"station_name":"Manggabesar","transit":false,"station_id":"MGB","i_long":106.82482,"time":2,"is_transit":false,"line":2},{"transit":false,"station_name":"Jayakarta","i_lat":-6.141205,"i_long":106.820901,"line":7,"distance":1080,"station_id":"JAY","time":2,"is_transit":false},{"is_transit":true,"distance":1264,"time":4,"station_id":"JAKK","line":0,"i_lat":-6.137569,"i_long":106.812439,"transit":true,"station_name":"Jakarta Kota"},{"line":0,"time":3,"transit":false,"distance":1364,"station_name":"Kampung Bandan","i_long":106.826365,"is_transit":true,"i_lat":-6.132549,"station_id":"KPB"},{"i_long":106.79867,"distance":4102,"station_name":"Angke","station_id":"AK","i_lat":-6.144674,"time":9,"line":0,"is_transit":false,"transit":false},{"time":4,"transit":true,"i_lat":-6.155215,"is_transit":true,"line":1,"distance":1230,"station_name":"Duri","station_id":"DU","i_long":106.800832},{"transit":true,"i_long":106.811091,"is_transit":true,"station_name":"Tanah Abang","time":8,"station_id":"THB","distance":3632,"i_lat":-6.185545,"line":1},{"time":6,"transit":false,"i_lat":-6.207404,"line":6,"i_long":106.79689,"station_name":"Palmerah","is_transit":false,"distance":3191,"station_id":"PLM"},{"is_transit":false,"time":7,"transit":false,"i_lat":-6.237242,"i_long":106.780334,"line":6,"station_name":"Kebayoran","distance":3737,"station_id":"KBY"},{"station_id":"PDJ","distance":6218,"is_transit":false,"time":8,"transit":false,"station_name":"Pondokranji","i_lat":-6.276362,"i_long":106.74273,"line":6},{"line":6,"station_id":"JMU","transit":false,"station_name":"Jurangmangu","is_transit":false,"i_lat":-6.288927,"time":3,"distance":2179,"i_long":106.728916},{"distance":1994,"station_name":"Sudimara","i_lat":-6.296963,"line":6,"is_transit":false,"i_long":106.712277,"station_id":"SDM","time":4,"transit":false},{"is_transit":false,"station_id":"RU","station_name":"Rawa Buntu","transit":false,"i_long":106.675475,"distance":4566,"i_lat":-6.314823,"line":6,"time":6},{"transit":false,"station_id":"SRP","time":4,"i_lat":-6.319871,"station_name":"Serpong","line":6,"distance":2413,"is_transit":false,"i_long":106.66566},{"is_transit":false,"station_id":"CSK","i_lat":-6.32484,"i_long":106.640411,"distance":1784,"line":0,"time":4,"transit":false,"station_name":"Cisauk"},{"distance":2519,"station_id":"CC","i_long":106.617853,"station_name":"Cicayur","is_transit":false,"line":0,"time":4,"i_lat":-6.329547,"transit":false},{"line":6,"is_transit":false,"time":8,"station_name":"Parung Panjang","station_id":"PRP","transit":false,"distance":5968,"i_lat":-6.3441410000000005,"i_long":106.568863},{"station_id":"CJT","is_transit":false,"i_lat":-6.354349,"line":0,"time":9,"i_long":106.508482,"station_name":"Cilejit","transit":false,"distance":7025},{"transit":false,"is_transit":false,"distance":2675,"station_name":"Daru","line":0,"i_lat":-6.338021,"time":6,"i_long":106.491338,"station_id":"DAR"},{"station_id":"TEJ","station_name":"Tenjo","i_long":106.460812,"i_lat":-6.327251,"line":6,"is_transit":false,"distance":3902,"transit":false,"time":5},{"station_id":"TGS","transit":false,"i_long":106.425991,"distance":2974,"is_transit":false,"line":6,"time":5,"station_name":"Tigaraksa","i_lat":-6.328533}],[{"line":0,"is_transit":false,"station_id":"CW","transit":false,"i_lat":-6.242512,"distance":0,"station_name":"Cawang","i_long":106.856607,"time":0},{"is_transit":false,"distance":1230,"time":2,"transit":false,"station_id":"TEB","station_name":"Tebet","i_lat":-6.226659,"i_long":106.857948,"line":2},{"station_name":"Manggarai","i_lat":-6.209883,"i_long":106.84912,"line":0,"distance":2610,"time":4,"station_id":"MRI","is_transit":true,"transit":true},{"time":2,"i_lat":-6.212485,"distance":1275,"station_id":"MTR","is_transit":false,"station_name":"Matraman","i_long":106.858896,"transit":false,"line":1},{"transit":true,"i_long":106.86807400000001,"time":8,"station_name":"Jatinegara","line":0,"is_transit":true,"distance":1377,"station_id":"JNG","i_lat":-6.215091},{"is_transit":false,"transit":false,"i_long":106.861737,"station_name":"Pondok Jati","distance":1236,"station_id":"POK","i_lat":-6.209188,"time":2,"line":11},{"distance":1829,"transit":false,"i_long":106.855437,"is_transit":false,"station_id":"KMT","line":11,"i_lat":-6.193792,"time":2,"station_name":"Kramat"},{"station_id":"GST","i_long":106.850107,"is_transit":false,"i_lat":-6.185975,"line":11,"station_name":"Gang Sentiong","distance":973,"time":1,"transit":false},{"i_long":106.84368,"is_transit":false,"distance":1567,"i_lat":-6.174784,"transit":false,"station_id":"PSE","line":11,"station_name":"Pasar Senen","time":8},{"is_transit":false,"station_id":"KMO","i_lat":-6.161728,"distance":1436,"line":11,"station_name":"Kemayoran","transit":false,"time":4,"i_long":106.839204},{"station_name":"Rajawali","is_transit":false,"distance":1901,"station_id":"RJW","transit":false,"time":5,"i_lat":-6.14505,"i_long":106.836569,"line":11},{"station_name":"Kampung Bandan","transit":true,"i_long":106.826365,"line":0,"station_id":"KPB","i_lat":-6.132549,"is_transit":true,"distance":1444,"time":3},{"is_transit":false,"i_lat":-6.144674,"time":9,"transit":false,"line":0,"station_id":"AK","distance":4102,"i_long":106.79867,"station_name":"Angke"},{"i_lat":-6.155215,"station_id":"DU","transit":true,"i_long":106.800832,"line":1,"distance":1230,"is_transit":true,"station_name":"Duri","time":4},{"time":8,"i_long":106.811091,"station_id":"THB","transit":true,"i_lat":-6.185545,"is_transit":true,"station_name":"Tanah Abang","distance":3632,"line":1},{"line":6,"is_transit":false,"time":6,"i_lat":-6.207404,"station_id":"PLM","transit":false,"station_name":"Palmerah","distance":3191,"i_long":106.79689},{"i_lat":-6.237242,"is_transit":false,"line":6,"distance":3737,"time":7,"i_long":106.780334,"station_name":"Kebayoran","transit":false,"station_id":"KBY"},{"time":8,"i_lat":-6.276362,"is_transit":false,"station_id":"PDJ","distance":6218,"line":6,"i_long":106.74273,"station_name":"Pondokranji","transit":false},{"time":3,"is_transit":false,"line":6,"station_name":"Jurangmangu","transit":false,"station_id":"JMU","i_lat":-6.288927,"distance":2179,"i_long":106.728916},{"is_transit":false,"transit":false,"i_lat":-6.296963,"distance":1994,"station_id":"SDM","time":4,"station_name":"Sudimara","i_long":106.712277,"line":6},{"is_transit":false,"transit":false,"time":6,"line":6,"station_name":"Rawa Buntu","distance":4566,"station_id":"RU","i_long":106.675475,"i_lat":-6.314823},{"station_id":"SRP","time":4,"i_long":106.66566,"is_transit":false,"station_name":"Serpong","transit":false,"i_lat":-6.319871,"distance":2413,"line":6},{"is_transit":false,"line":0,"distance":1784,"time":4,"station_id":"CSK","station_name":"Cisauk","transit":false,"i_long":106.640411,"i_lat":-6.32484},{"i_lat":-6.329547,"is_transit":false,"line":0,"distance":2519,"i_long":106.617853,"station_name":"Cicayur","transit":false,"station_id":"CC","time":4},{"time":8,"station_id":"PRP","transit":false,"line":6,"distance":5968,"station_name":"Parung Panjang","i_long":106.568863,"is_transit":false,"i_lat":-6.3441410000000005},{"is_transit":false,"line":0,"time":9,"station_id":"CJT","distance":7025,"transit":false,"i_long":106.508482,"station_name":"Cilejit","i_lat":-6.354349},{"i_lat":-6.338021,"line":0,"i_long":106.491338,"time":6,"distance":2675,"station_name":"Daru","is_transit":false,"station_id":"DAR","transit":false},{"i_lat":-6.327251,"distance":3902,"time":5,"station_name":"Tenjo","i_long":106.460812,"station_id":"TEJ","transit":false,"line":6,"is_transit":false},{"i_lat":-6.328533,"i_long":106.425991,"is_transit":false,"time":5,"line":6,"station_name":"Tigaraksa","transit":false,"station_id":"TGS","distance":2974}]]}