{"data":[[{"transit":false,"time":0,"line":2,"i_lat":-6.242512,"i_long":106.856607,"is_transit":false,"distance":0,"station_name":"Cawang","station_id":"CW"},{"i_lat":-6.255332,"station_name":"Duren Kalibata","distance":1546,"line":2,"i_long":106.85449,"station_id":"DRN","transit":false,"is_transit":false,"time":3},{"station_name":"Pasar Minggu Baru","is_transit":false,"station_id":"PSMB","time":2,"i_lat":-6.263214,"line":2,"transit":false,"distance":824,"i_long":106.851577},{"station_id":"PSM","station_name":"Pasar Minggu","transit":false,"time":2,"i_long":106.843999,"distance":2380,"is_transit":false,"i_lat":-6.2842400000000005,"line":2},{"transit":false,"is_transit":false,"station_name":"Tanjung Barat","time":4,"line":2,"i_lat":-6.3080680000000005,"station_id":"TNT","distance":2820,"i_long":106.838896}]]}