{"data":[[{"station_name":"Cawang","is_transit":false,"time":0,"i_lat":-6.242512,"distance":0,"i_long":106.856607,"line":2,"transit":false,"station_id":"CW"},{"time":2,"station_id":"TEB","i_long":106.857948,"transit":false,"station_name":"Tebet","is_transit":false,"line":2,"i_lat":-6.226659,"distance":1230},{"station_name":"Manggarai","is_transit":true,"time":4,"transit":true,"i_lat":-6.209883,"distance":2610,"station_id":"MRI","i_long":106.84912,"line":2},{"is_transit":false,"station_name":"Sudirman","i_long":106.822649,"distance":3186,"transit":false,"station_id":"SUD","time":4,"line":1,"i_lat":-6.202263},{"time":1,"i_long":106.819881,"i_lat":-6.201433,"transit":false,"line":1,"station_name":"Sudirman Baru","distance":280,"station_id":"SUDB","is_transit":false},{"distance":471,"time":1,"station_id":"KAT","i_lat":-6.20132,"is_transit":false,"line":1,"transit":false,"station_name":"Karet","i_long":106.816351},{"station_id":"THB","is_transit":true,"line":1,"distance":2029,"i_lat":-6.185545,"time":5,"station_name":"Tanah Abang","i_long":106.811091,"transit":true},{"i_lat":-6.207404,"i_long":106.79689,"transit":false,"distance":3191,"station_name":"Palmerah","line":6,"station_id":"PLM","time":6,"is_transit":false},{"time":7,"i_long":106.780334,"distance":3737,"is_transit":false,"station_name":"Kebayoran","line":6,"station_id":"KBY","i_lat":-6.237242,"transit":false},{"transit":false,"station_name":"Pondokranji","is_transit":false,"line":6,"time":8,"i_lat":-6.276362,"distance":6218,"i_long":106.74273,"station_id":"PDJ"},{"i_long":106.728916,"station_id":"JMU","is_transit":false,"distance":2179,"time":3,"station_name":"Jurangmangu","line":6,"i_lat":-6.288927,"transit":false},{"line":6,"transit":false,"i_lat":-6.296963,"distance":1994,"station_name":"Sudimara","is_transit":false,"station_id":"SDM","i_long":106.712277,"time":4},{"is_transit":false,"station_id":"RU","i_long":106.675475,"distance":4566,"time":6,"station_name":"Rawa Buntu","i_lat":-6.314823,"line":6,"transit":false},{"i_lat":-6.319871,"station_id":"SRP","is_transit":false,"i_long":106.66566,"time":4,"transit":false,"distance":2413,"line":6,"station_name":"Serpong"},{"line":3,"i_lat":-6.32484,"station_id":"CSK","time":4,"is_transit":false,"transit":false,"station_name":"Cisauk","distance":1784,"i_long":106.640411},{"i_lat":-6.329547,"is_transit":false,"station_id":"CC","station_name":"Cicayur","transit":false,"line":3,"distance":2519,"i_long":106.617853,"time":4},{"i_lat":-6.3441410000000005,"transit":false,"distance":5968,"station_id":"PRP","station_name":"Parung Panjang","i_long":106.568863,"line":6,"time":8,"is_transit":false},{"i_lat":-6.354349,"is_transit":false,"i_long":106.508482,"transit":false,"line":3,"station_id":"CJT","time":9,"station_name":"Cilejit","distance":7025},{"i_long":106.491338,"i_lat":-6.338021,"station_id":"DAR","time":6,"distance":2675,"is_transit":false,"transit":false,"station_name":"Daru","line":0},{"station_name":"Tenjo","is_transit":false,"transit":false,"line":6,"i_lat":-6.327251,"i_long":106.460812,"station_id":"TEJ","time":5,"distance":3902},{"station_name":"Tigaraksa","i_long":106.425991,"distance":2974,"is_transit":false,"station_id":"TGS","time":5,"i_lat":-6.328533,"line":6,"transit":false}],[{"i_lat":-6.242512,"transit":false,"station_id":"CW","time":0,"distance":0,"line":2,"is_transit":false,"i_long":106.856607,"station_name":"Cawang"},{"distance":1230,"is_transit":false,"time":2,"i_lat":-6.226659,"station_name":"Tebet","i_long":106.857948,"transit":false,"line":2,"station_id":"TEB"},{"time":4,"distance":2610,"station_name":"Manggarai","transit":false,"is_transit":false,"i_lat":-6.209883,"i_long":106.84912,"line":2,"station_id":"MRI"},{"time":4,"i_long":106.840169,"distance":1590,"station_name":"Cikini","line":2,"is_transit":false,"i_lat":-6.198556,"transit":false,"station_id":"CKI"},{"station_id":"GDD","transit":false,"station_name":"Gondangdia","is_transit":false,"i_lat":-6.186295,"distance":1750,"line":2,"i_long":106.832183,"time":3},{"i_long":106.828284,"i_lat":-6.166716,"transit":false,"station_id":"JUA","line":2,"time":4,"distance":2015,"is_transit":false,"station_name":"Juanda"},{"is_transit":false,"transit":false,"station_id":"SW","distance":1149,"station_name":"Sawah Besar","time":2,"line":2,"i_long":106.827103,"i_lat":-6.160725},{"time":2,"transit":false,"i_long":106.82482,"station_name":"Manggabesar","i_lat":-6.149769,"station_id":"MGB","distance":906,"line":2,"is_transit":false},{"transit":false,"time":2,"distance":1080,"station_id":"JAY","line":2,"station_name":"Jayakarta","i_lat":-6.141205,"is_transit":false,"i_long":106.820901},{"line":2,"time":4,"is_transit":true,"station_name":"Jakarta Kota","i_lat":-6.137569,"transit":true,"distance":1264,"station_id":"JAKK","i_long":106.812439},{"station_name":"Kampung Bandan","i_lat":-6.132549,"distance":1364,"station_id":"KPB","line":4,"time":3,"i_long":106.826365,"transit":true,"is_transit":true},{"time":9,"station_name":"Angke","line":1,"distance":4102,"station_id":"AK","transit":false,"is_transit":false,"i_lat":-6.144674,"i_long":106.79867},{"transit":false,"station_id":"DU","i_lat":-6.155215,"station_name":"Duri","distance":1230,"time":4,"is_transit":false,"i_long":106.800832,"line":1},{"i_lat":-6.185545,"i_long":106.811091,"time":8,"is_transit":true,"distance":3632,"transit":true,"station_name":"Tanah Abang","line":1,"station_id":"THB"},{"time":6,"station_id":"PLM","line":6,"transit":false,"is_transit":false,"i_lat":-6.207404,"distance":3191,"station_name":"Palmerah","i_long":106.79689},{"is_transit":false,"line":6,"i_long":106.780334,"distance":3737,"transit":false,"station_id":"KBY","time":7,"i_lat":-6.237242,"station_name":"Kebayoran"},{"is_transit":false,"transit":false,"line":6,"station_id":"PDJ","time":8,"i_long":106.74273,"station_name":"Pondokranji","i_lat":-6.276362,"distance":6218},{"is_transit":false,"i_lat":-6.288927,"line":6,"distance":2179,"i_long":106.728916,"station_name":"Jurangmangu","time":3,"transit":false,"station_id":"JMU"},{"time":4,"line":6,"station_id":"SDM","distance":1994,"is_transit":false,"station_name":"Sudimara","i_lat":-6.296963,"i_long":106.712277,"transit":false},{"line":6,"i_lat":-6.314823,"time":6,"station_name":"Rawa Buntu","is_transit":false,"station_id":"RU","transit":false,"i_long":106.675475,"distance":4566},{"station_id":"SRP","i_long":106.66566,"distance":2413,"station_name":"Serpong","i_lat":-6.319871,"is_transit":false,"transit":false,"line":6,"time":4},{"transit":false,"time":4,"i_long":106.640411,"distance":1784,"station_id":"CSK","station_name":"Cisauk","is_transit":false,"i_lat":-6.32484,"line":3},{"time":4,"i_long":106.617853,"transit":false,"distance":2519,"i_lat":-6.329547,"station_id":"CC","station_name":"Cicayur","is_transit":false,"line":3},{"time":8,"line":6,"station_name":"Parung Panjang","distance":5968,"station_id":"PRP","transit":false,"is_transit":false,"i_lat":-6.3441410000000005,"i_long":106.568863},{"i_long":106.508482,"distance":7025,"i_lat":-6.354349,"station_id":"CJT","station_name":"Cilejit","transit":false,"time":9,"is_transit":false,"line":3},{"transit":false,"is_transit":false,"time":6,"distance":2675,"station_name":"Daru","line":0,"station_id":"DAR","i_lat":-6.338021,"i_long":106.491338},{"distance":3902,"time":5,"i_lat":-6.327251,"station_name":"Tenjo","line":6,"transit":false,"station_id":"TEJ","is_transit":false,"i_long":106.460812},{"distance":2974,"station_name":"Tigaraksa","line":6,"transit":false,"is_transit":false,"i_long":106.425991,"station_id":"TGS","i_lat":-6.328533,"time":5}],[{"i_long":106.856607,"time":0,"distance":0,"station_name":"Cawang","is_transit":false,"transit":false,"station_id":"CW","line":2,"i_lat":-6.242512},{"station_name":"Tebet","distance":1230,"time":2,"is_transit":false,"i_lat":-6.226659,"station_id":"TEB","i_long":106.857948,"line":2,"transit":false},{"i_long":106.84912,"time":4,"station_name":"Manggarai","distance":2610,"line":2,"is_transit":true,"transit":true,"station_id":"MRI","i_lat":-6.209883},{"transit":false,"is_transit":false,"station_id":"MTR","station_name":"Matraman","line":1,"distance":1275,"i_long":106.858896,"time":2,"i_lat":-6.212485},{"station_name":"Jatinegara","time":8,"i_long":106.86807400000001,"station_id":"JNG","is_transit":true,"line":1,"transit":true,"distance":1377,"i_lat":-6.215091},{"i_long":106.861737,"is_transit":false,"distance":1236,"i_lat":-6.209188,"station_id":"POK","transit":false,"station_name":"Pondok Jati","line":11,"time":2},{"time":2,"i_long":106.855437,"station_id":"KMT","transit":false,"station_name":"Kramat","i_lat":-6.193792,"is_transit":false,"line":11,"distance":1829},{"time":1,"station_name":"Gang Sentiong","is_transit":false,"i_long":106.850107,"distance":973,"transit":false,"line":11,"i_lat":-6.185975,"station_id":"GST"},{"distance":1567,"station_name":"Pasar Senen","i_lat":-6.174784,"line":11,"time":8,"transit":false,"station_id":"PSE","is_transit":false,"i_long":106.84368},{"distance":1436,"station_id":"KMO","is_transit":false,"time":4,"station_name":"Kemayoran","transit":false,"i_lat":-6.161728,"i_long":106.839204,"line":11},{"line":11,"time":5,"i_lat":-6.14505,"distance":1901,"station_name":"Rajawali","is_transit":false,"i_long":106.836569,"station_id":"RJW","transit":false},{"i_lat":-6.132549,"station_name":"Kampung Bandan","station_id":"KPB","i_long":106.826365,"line":4,"distance":1444,"time":3,"is_transit":true,"transit":true},{"distance":4102,"is_transit":false,"station_name":"Angke","transit":false,"line":1,"time":9,"i_lat":-6.144674,"station_id":"AK","i_long":106.79867},{"time":4,"station_name":"Duri","transit":false,"is_transit":false,"i_long":106.800832,"distance":1230,"station_id":"DU","i_lat":-6.155215,"line":1},{"is_transit":true,"i_long":106.811091,"i_lat":-6.185545,"station_name":"Tanah Abang","line":1,"time":8,"station_id":"THB","transit":true,"distance":3632},{"i_lat":-6.207404,"time":6,"distance":3191,"station_id":"PLM","is_transit":false,"line":6,"station_name":"Palmerah","i_long":106.79689,"transit":false},{"i_long":106.780334,"time":7,"distance":3737,"station_name":"Kebayoran","line":6,"transit":false,"station_id":"KBY","is_transit":false,"i_lat":-6.237242},{"line":6,"i_long":106.74273,"station_id":"PDJ","i_lat":-6.276362,"transit":false,"distance":6218,"is_transit":false,"station_name":"Pondokranji","time":8},{"is_transit":false,"transit":false,"i_lat":-6.288927,"station_name":"Jurangmangu","distance":2179,"i_long":106.728916,"line":6,"time":3,"station_id":"JMU"},{"i_long":106.712277,"time":4,"station_id":"SDM","i_lat":-6.296963,"distance":1994,"line":6,"station_name":"Sudimara","transit":false,"is_transit":false},{"time":6,"station_name":"Rawa Buntu","station_id":"RU","distance":4566,"is_transit":false,"i_lat":-6.314823,"i_long":106.675475,"line":6,"transit":false},{"i_long":106.66566,"distance":2413,"line":6,"transit":false,"is_transit":false,"time":4,"station_name":"Serpong","i_lat":-6.319871,"station_id":"SRP"},{"station_name":"Cisauk","i_long":106.640411,"station_id":"CSK","transit":false,"is_transit":false,"i_lat":-6.32484,"distance":1784,"line":3,"time":4},{"i_long":106.617853,"time":4,"transit":false,"line":3,"distance":2519,"station_name":"Cicayur","i_lat":-6.329547,"station_id":"CC","is_transit":false},{"line":6,"distance":5968,"i_lat":-6.3441410000000005,"time":8,"station_name":"Parung Panjang","is_transit":false,"station_id":"PRP","transit":false,"i_long":106.568863},{"line":3,"station_id":"CJT","i_lat":-6.354349,"transit":false,"i_long":106.508482,"is_transit":false,"time":9,"distance":7025,"station_name":"Cilejit"},{"i_lat":-6.338021,"station_name":"Daru","line":0,"distance":2675,"transit":false,"time":6,"is_transit":false,"i_long":106.491338,"station_id":"DAR"},{"distance":3902,"line":6,"time":5,"station_name":"Tenjo","is_transit":false,"transit":false,"i_lat":-6.327251,"station_id":"TEJ","i_long":106.460812},{"distance":2974,"station_name":"Tigaraksa","transit":false,"station_id":"TGS","line":6,"is_transit":false,"time":5,"i_lat":-6.328533,"i_long":106.425991}]]}