{"data":[[{"i_lat":-6.242512,"station_name":"Cawang","line":2,"time":0,"distance":0,"station_id":"CW","transit":false,"is_transit":false,"i_long":106.856607},{"station_id":"TEB","is_transit":false,"station_name":"Tebet","transit":false,"time":2,"i_long":106.857948,"line":2,"i_lat":-6.226659,"distance":1230},{"i_long":106.84912,"station_name":"Manggarai","time":4,"station_id":"MRI","is_transit":true,"distance":2610,"transit":true,"i_lat":-6.209883,"line":2},{"transit":false,"distance":3186,"station_name":"Sudirman","time":4,"station_id":"SUD","is_transit":false,"i_lat":-6.202263,"i_long":106.822649,"line":1},{"time":1,"i_long":106.819881,"is_transit":false,"distance":280,"station_name":"Sudirman Baru","line":1,"transit":false,"station_id":"SUDB","i_lat":-6.201433},{"station_name":"Karet","is_transit":false,"i_lat":-6.20132,"transit":false,"station_id":"KAT","line":1,"distance":471,"time":1,"i_long":106.816351},{"line":1,"time":5,"station_id":"THB","i_lat":-6.185545,"station_name":"Tanah Abang","i_long":106.811091,"distance":2029,"is_transit":false,"transit":false},{"line":1,"station_id":"DU","distance":3632,"i_lat":-6.155215,"station_name":"Duri","is_transit":true,"i_long":106.800832,"time":8,"transit":true},{"station_name":"Grogol","i_lat":-6.162021,"station_id":"GGL","is_transit":false,"transit":false,"distance":1700,"time":3,"line":5,"i_long":106.788277},{"station_id":"PSG","distance":2036,"station_name":"Pesing","i_lat":-6.161433,"transit":false,"line":5,"time":2,"i_long":106.771379,"is_transit":false},{"i_long":106.756522,"station_name":"Taman Kota","time":2,"line":5,"i_lat":-6.1587309999999995,"station_id":"TKO","distance":1614,"transit":false,"is_transit":false},{"transit":false,"station_id":"BOI","station_name":"Bojongindah","time":2,"line":5,"is_transit":false,"i_lat":-6.159876,"distance":2334,"i_long":106.737035},{"line":5,"transit":false,"distance":1152,"station_id":"RW","i_lat":-6.162758,"is_transit":false,"time":4,"station_name":"Rawa Buaya","i_long":106.723064},{"line":5,"distance":2504,"station_id":"KDS","transit":false,"station_name":"Kalideres","time":3,"is_transit":false,"i_lat":-6.166068,"i_long":106.701612},{"station_id":"PI","i_long":106.679458,"transit":false,"distance":2548,"is_transit":false,"line":5,"time":3,"i_lat":-6.169933,"station_name":"Poris"},{"line":5,"time":3,"is_transit":false,"station_id":"BPR","i_long":106.665036,"distance":1834,"station_name":"Batuceper","transit":false,"i_lat":-6.171811},{"station_name":"Tanah Tinggi","is_transit":false,"i_lat":-6.17331,"line":5,"transit":false,"distance":2028,"i_long":106.64657,"station_id":"TTI","time":3}],[{"i_long":106.856607,"line":2,"station_name":"Cawang","time":0,"station_id":"CW","distance":0,"transit":false,"is_transit":false,"i_lat":-6.242512},{"transit":false,"line":2,"distance":1230,"station_id":"TEB","is_transit":false,"station_name":"Tebet","i_lat":-6.226659,"time":2,"i_long":106.857948},{"line":2,"station_name":"Manggarai","station_id":"MRI","i_lat":-6.209883,"distance":2610,"transit":false,"is_transit":false,"i_long":106.84912,"time":4},{"time":4,"is_transit":false,"station_id":"CKI","distance":1590,"line":2,"station_name":"Cikini","transit":false,"i_lat":-6.198556,"i_long":106.840169},{"i_long":106.832183,"is_transit":false,"time":3,"station_name":"Gondangdia","i_lat":-6.186295,"distance":1750,"station_id":"GDD","transit":false,"line":2},{"time":4,"i_lat":-6.166716,"i_long":106.828284,"distance":2015,"transit":false,"line":2,"station_id":"JUA","station_name":"Juanda","is_transit":false},{"station_name":"Sawah Besar","transit":false,"time":2,"distance":1149,"station_id":"SW","line":2,"is_transit":false,"i_long":106.827103,"i_lat":-6.160725},{"station_id":"MGB","station_name":"Manggabesar","transit":false,"line":2,"i_lat":-6.149769,"i_long":106.82482,"time":2,"distance":906,"is_transit":false},{"i_lat":-6.141205,"transit":false,"is_transit":false,"i_long":106.820901,"line":2,"distance":1080,"station_name":"Jayakarta","station_id":"JAY","time":2},{"station_id":"JAKK","station_name":"Jakarta Kota","time":4,"transit":true,"is_transit":true,"i_long":106.812439,"distance":1264,"i_lat":-6.137569,"line":2},{"distance":1364,"time":3,"i_long":106.826365,"line":4,"i_lat":-6.132549,"transit":true,"is_transit":true,"station_id":"KPB","station_name":"Kampung Bandan"},{"transit":false,"station_name":"Angke","distance":4102,"station_id":"AK","is_transit":false,"i_lat":-6.144674,"i_long":106.79867,"time":9,"line":1},{"transit":true,"time":4,"i_long":106.800832,"station_id":"DU","station_name":"Duri","distance":1230,"is_transit":true,"line":1,"i_lat":-6.155215},{"i_long":106.788277,"line":5,"distance":1700,"station_id":"GGL","time":3,"transit":false,"is_transit":false,"station_name":"Grogol","i_lat":-6.162021},{"distance":2036,"time":2,"station_id":"PSG","station_name":"Pesing","transit":false,"i_lat":-6.161433,"i_long":106.771379,"line":5,"is_transit":false},{"line":5,"i_lat":-6.1587309999999995,"station_id":"TKO","distance":1614,"time":2,"i_long":106.756522,"transit":false,"station_name":"Taman Kota","is_transit":false},{"is_transit":false,"line":5,"i_lat":-6.159876,"station_id":"BOI","transit":false,"station_name":"Bojongindah","i_long":106.737035,"time":2,"distance":2334},{"i_lat":-6.162758,"station_name":"Rawa Buaya","station_id":"RW","line":5,"i_long":106.723064,"transit":false,"distance":1152,"time":4,"is_transit":false},{"distance":2504,"is_transit":false,"i_lat":-6.166068,"line":5,"time":3,"transit":false,"i_long":106.701612,"station_name":"Kalideres","station_id":"KDS"},{"station_name":"Poris","station_id":"PI","time":3,"i_lat":-6.169933,"i_long":106.679458,"transit":false,"distance":2548,"is_transit":false,"line":5},{"line":5,"distance":1834,"i_long":106.665036,"time":3,"is_transit":false,"transit":false,"station_name":"Batuceper","station_id":"BPR","i_lat":-6.171811},{"line":5,"is_transit":false,"station_name":"Tanah Tinggi","transit":false,"distance":2028,"i_lat":-6.17331,"time":3,"station_id":"TTI","i_long":106.64657}],[{"station_id":"CW","is_transit":false,"i_long":106.856607,"station_name":"Cawang","distance":0,"line":2,"time":0,"i_lat":-6.242512,"transit":false},{"transit":false,"i_lat":-6.226659,"station_name":"Tebet","i_long":106.857948,"distance":1230,"line":2,"is_transit":false,"station_id":"TEB","time":2},{"distance":2610,"station_name":"Manggarai","i_lat":-6.209883,"i_long":106.84912,"transit":true,"line":2,"time":4,"station_id":"MRI","is_transit":true},{"i_long":106.858896,"transit":false,"station_name":"Matraman","distance":1275,"is_transit":false,"line":1,"time":2,"station_id":"MTR","i_lat":-6.212485},{"distance":1377,"time":8,"station_name":"Jatinegara","transit":true,"i_lat":-6.215091,"i_long":106.86807400000001,"station_id":"JNG","is_transit":true,"line":1},{"transit":false,"station_id":"POK","line":11,"i_lat":-6.209188,"is_transit":false,"distance":1236,"i_long":106.861737,"time":2,"station_name":"Pondok Jati"},{"is_transit":false,"transit":false,"i_lat":-6.193792,"station_name":"Kramat","distance":1829,"station_id":"KMT","time":2,"line":11,"i_long":106.855437},{"distance":973,"time":1,"station_id":"GST","i_long":106.850107,"line":11,"transit":false,"station_name":"Gang Sentiong","i_lat":-6.185975,"is_transit":false},{"station_name":"Pasar Senen","i_long":106.84368,"distance":1567,"line":11,"station_id":"PSE","transit":false,"is_transit":false,"i_lat":-6.174784,"time":8},{"station_id":"KMO","distance":1436,"line":11,"time":4,"is_transit":false,"i_long":106.839204,"i_lat":-6.161728,"station_name":"Kemayoran","transit":false},{"transit":false,"distance":1901,"station_id":"RJW","is_transit":false,"i_lat":-6.14505,"line":11,"station_name":"Rajawali","i_long":106.836569,"time":5},{"is_transit":true,"line":4,"transit":true,"i_long":106.826365,"i_lat":-6.132549,"station_id":"KPB","distance":1444,"time":3,"station_name":"Kampung Bandan"},{"is_transit":false,"line":1,"transit":false,"i_lat":-6.144674,"station_name":"Angke","i_long":106.79867,"station_id":"AK","time":9,"distance":4102},{"i_long":106.800832,"time":4,"transit":true,"is_transit":true,"station_name":"Duri","i_lat":-6.155215,"line":1,"distance":1230,"station_id":"DU"},{"distance":1700,"i_lat":-6.162021,"time":3,"line":5,"transit":false,"station_name":"Grogol","is_transit":false,"i_long":106.788277,"station_id":"GGL"},{"station_name":"Pesing","station_id":"PSG","line":5,"time":2,"distance":2036,"is_transit":false,"transit":false,"i_lat":-6.161433,"i_long":106.771379},{"distance":1614,"is_transit":false,"time":2,"i_long":106.756522,"line":5,"transit":false,"station_name":"Taman Kota","station_id":"TKO","i_lat":-6.1587309999999995},{"i_long":106.737035,"station_name":"Bojongindah","line":5,"station_id":"BOI","transit":false,"distance":2334,"time":2,"i_lat":-6.159876,"is_transit":false},{"i_long":106.723064,"station_id":"RW","time":4,"i_lat":-6.162758,"transit":false,"station_name":"Rawa Buaya","is_transit":false,"line":5,"distance":1152},{"station_name":"Kalideres","line":5,"is_transit":false,"distance":2504,"station_id":"KDS","time":3,"i_lat":-6.166068,"i_long":106.701612,"transit":false},{"is_transit":false,"station_id":"PI","i_long":106.679458,"i_lat":-6.169933,"line":5,"distance":2548,"station_name":"Poris","time":3,"transit":false},{"station_name":"Batuceper","distance":1834,"line":5,"time":3,"is_transit":false,"i_lat":-6.171811,"transit":false,"station_id":"BPR","i_long":106.665036},{"line":5,"i_long":106.64657,"distance":2028,"station_name":"Tanah Tinggi","time":3,"transit":false,"i_lat":-6.17331,"station_id":"TTI","is_transit":false}]]}