{"data":[[{"station_id":"CW","is_transit":false,"station_name":"Cawang","transit":false,"i_long":106.856607,"distance":0,"line":0,"time":0,"i_lat":-6.242512},{"station_name":"Tebet","time":2,"station_id":"TEB","is_transit":false,"distance":1230,"transit":false,"i_lat":-6.226659,"i_long":106.857948,"line":2},{"transit":true,"line":0,"i_long":106.84912,"station_id":"MRI","station_name":"Manggarai","i_lat":-6.209883,"is_transit":true,"time":4,"distance":2610},{"transit":false,"is_transit":false,"i_long":106.822649,"distance":3186,"station_id":"SUD","line":1,"station_name":"Sudirman","time":4,"i_lat":-6.202263},{"distance":280,"line":1,"station_name":"Sudirman Baru","time":1,"i_long":106.819881,"station_id":"SUDB","is_transit":false,"transit":false,"i_lat":-6.201433},{"i_lat":-6.20132,"station_name":"Karet","line":1,"station_id":"KAT","i_long":106.816351,"time":1,"transit":false,"distance":471,"is_transit":false},{"time":5,"is_transit":true,"distance":2029,"transit":false,"station_name":"Tanah Abang","i_lat":-6.185545,"line":1,"i_long":106.811091,"station_id":"THB"},{"is_transit":true,"i_long":106.800832,"station_id":"DU","time":8,"distance":3632,"line":1,"station_name":"Duri","transit":true,"i_lat":-6.155215},{"station_id":"GGL","line":5,"distance":1700,"is_transit":false,"time":3,"station_name":"Grogol","i_lat":-6.162021,"i_long":106.788277,"transit":false},{"station_id":"PSG","time":2,"is_transit":false,"i_lat":-6.161433,"i_long":106.771379,"line":5,"station_name":"Pesing","transit":false,"distance":2036},{"i_long":106.756522,"line":5,"is_transit":false,"time":2,"i_lat":-6.1587309999999995,"station_id":"TKO","station_name":"Taman Kota","distance":1614,"transit":false},{"station_name":"Bojongindah","station_id":"BOI","i_long":106.737035,"time":2,"i_lat":-6.159876,"transit":false,"is_transit":false,"line":0,"distance":2334},{"i_long":106.723064,"is_transit":false,"distance":1152,"station_name":"Rawa Buaya","transit":false,"i_lat":-6.162758,"line":5,"station_id":"RW","time":4},{"distance":2504,"station_name":"Kalideres","time":3,"transit":false,"i_lat":-6.166068,"line":5,"is_transit":false,"station_id":"KDS","i_long":106.701612},{"is_transit":false,"distance":2548,"i_lat":-6.169933,"station_id":"PI","station_name":"Poris","time":3,"i_long":106.679458,"line":5,"transit":false},{"station_name":"Batuceper","is_transit":false,"time":3,"station_id":"BPR","distance":1834,"i_long":106.665036,"line":0,"transit":false,"i_lat":-6.171811},{"i_lat":-6.17331,"station_name":"Tanah Tinggi","station_id":"TTI","i_long":106.64657,"is_transit":false,"distance":2028,"transit":false,"time":3,"line":5}],[{"distance":0,"station_name":"Cawang","transit":false,"i_lat":-6.242512,"station_id":"CW","i_long":106.856607,"line":0,"is_transit":false,"time":0},{"transit":false,"station_id":"TEB","i_long":106.857948,"is_transit":false,"time":2,"distance":1230,"station_name":"Tebet","i_lat":-6.226659,"line":2},{"i_lat":-6.209883,"line":0,"transit":true,"is_transit":true,"distance":2610,"station_name":"Manggarai","i_long":106.84912,"time":4,"station_id":"MRI"},{"distance":1590,"i_long":106.840169,"transit":false,"line":0,"time":4,"station_name":"Cikini","is_transit":false,"i_lat":-6.198556,"station_id":"CKI"},{"i_lat":-6.186295,"station_id":"GDD","time":3,"station_name":"Gondangdia","transit":false,"distance":1750,"is_transit":false,"line":2,"i_long":106.832183},{"transit":false,"i_long":106.828284,"station_id":"JUA","distance":2015,"time":4,"station_name":"Juanda","i_lat":-6.166716,"line":2,"is_transit":false},{"line":2,"i_lat":-6.160725,"is_transit":false,"distance":1149,"station_id":"SW","i_long":106.827103,"transit":false,"time":2,"station_name":"Sawah Besar"},{"distance":906,"i_long":106.82482,"station_id":"MGB","time":2,"transit":false,"i_lat":-6.149769,"line":2,"station_name":"Manggabesar","is_transit":false},{"distance":1080,"i_long":106.820901,"time":2,"station_name":"Jayakarta","station_id":"JAY","transit":false,"i_lat":-6.141205,"is_transit":false,"line":7},{"transit":true,"station_id":"JAKK","time":4,"i_long":106.812439,"line":0,"is_transit":true,"station_name":"Jakarta Kota","i_lat":-6.137569,"distance":1264},{"distance":1364,"transit":false,"i_lat":-6.132549,"station_id":"KPB","station_name":"Kampung Bandan","i_long":106.826365,"line":0,"time":3,"is_transit":true},{"distance":4102,"is_transit":false,"station_name":"Angke","i_long":106.79867,"time":9,"transit":false,"line":0,"i_lat":-6.144674,"station_id":"AK"},{"time":4,"distance":1230,"line":1,"i_long":106.800832,"station_name":"Duri","is_transit":true,"i_lat":-6.155215,"transit":true,"station_id":"DU"},{"distance":1700,"is_transit":false,"i_long":106.788277,"line":5,"time":3,"transit":false,"station_name":"Grogol","i_lat":-6.162021,"station_id":"GGL"},{"distance":2036,"station_name":"Pesing","i_long":106.771379,"station_id":"PSG","is_transit":false,"line":5,"time":2,"transit":false,"i_lat":-6.161433},{"station_name":"Taman Kota","time":2,"station_id":"TKO","line":5,"transit":false,"distance":1614,"is_transit":false,"i_lat":-6.1587309999999995,"i_long":106.756522},{"station_name":"Bojongindah","transit":false,"i_lat":-6.159876,"distance":2334,"time":2,"station_id":"BOI","is_transit":false,"line":0,"i_long":106.737035},{"distance":1152,"transit":false,"i_long":106.723064,"line":5,"i_lat":-6.162758,"is_transit":false,"station_id":"RW","time":4,"station_name":"Rawa Buaya"},{"distance":2504,"station_id":"KDS","i_lat":-6.166068,"station_name":"Kalideres","line":5,"transit":false,"i_long":106.701612,"is_transit":false,"time":3},{"time":3,"station_name":"Poris","i_lat":-6.169933,"station_id":"PI","line":5,"transit":false,"is_transit":false,"i_long":106.679458,"distance":2548},{"time":3,"distance":1834,"i_long":106.665036,"line":0,"station_id":"BPR","station_name":"Batuceper","transit":false,"i_lat":-6.171811,"is_transit":false},{"line":5,"distance":2028,"station_id":"TTI","i_long":106.64657,"is_transit":false,"transit":false,"time":3,"station_name":"Tanah Tinggi","i_lat":-6.17331}],[{"distance":0,"transit":false,"is_transit":false,"line":0,"time":0,"station_id":"CW","i_long":106.856607,"station_name":"Cawang","i_lat":-6.242512},{"station_id":"TEB","is_transit":false,"time":2,"distance":1230,"i_lat":-6.226659,"i_long":106.857948,"transit":false,"station_name":"Tebet","line":2},{"station_name":"Manggarai","is_transit":true,"transit":true,"i_lat":-6.209883,"line":0,"i_long":106.84912,"station_id":"MRI","distance":2610,"time":4},{"distance":1275,"station_id":"MTR","is_transit":false,"station_name":"Matraman","i_lat":-6.212485,"i_long":106.858896,"line":1,"time":2,"transit":false},{"time":8,"distance":1377,"transit":true,"station_id":"JNG","is_transit":true,"i_lat":-6.215091,"station_name":"Jatinegara","line":0,"i_long":106.86807400000001},{"line":11,"is_transit":false,"time":2,"station_name":"Pondok Jati","station_id":"POK","transit":false,"i_lat":-6.209188,"distance":1236,"i_long":106.861737},{"station_name":"Kramat","i_long":106.855437,"i_lat":-6.193792,"time":2,"line":11,"station_id":"KMT","distance":1829,"is_transit":false,"transit":false},{"transit":false,"distance":973,"station_id":"GST","station_name":"Gang Sentiong","time":1,"i_long":106.850107,"line":11,"i_lat":-6.185975,"is_transit":false},{"i_long":106.84368,"distance":1567,"is_transit":false,"i_lat":-6.174784,"station_name":"Pasar Senen","line":11,"station_id":"PSE","time":8,"transit":false},{"station_name":"Kemayoran","i_lat":-6.161728,"line":11,"i_long":106.839204,"station_id":"KMO","is_transit":false,"distance":1436,"transit":false,"time":4},{"station_id":"RJW","distance":1901,"i_lat":-6.14505,"transit":false,"is_transit":false,"time":5,"station_name":"Rajawali","i_long":106.836569,"line":11},{"time":3,"distance":1444,"transit":true,"is_transit":true,"i_lat":-6.132549,"station_name":"Kampung Bandan","line":0,"i_long":106.826365,"station_id":"KPB"},{"i_lat":-6.144674,"line":0,"station_id":"AK","is_transit":false,"time":9,"station_name":"Angke","distance":4102,"transit":false,"i_long":106.79867},{"is_transit":true,"station_name":"Duri","line":1,"i_long":106.800832,"transit":true,"distance":1230,"time":4,"i_lat":-6.155215,"station_id":"DU"},{"station_name":"Grogol","station_id":"GGL","line":5,"time":3,"distance":1700,"is_transit":false,"transit":false,"i_lat":-6.162021,"i_long":106.788277},{"i_lat":-6.161433,"line":5,"station_id":"PSG","i_long":106.771379,"distance":2036,"transit":false,"time":2,"is_transit":false,"station_name":"Pesing"},{"i_lat":-6.1587309999999995,"station_id":"TKO","transit":false,"time":2,"distance":1614,"station_name":"Taman Kota","line":5,"is_transit":false,"i_long":106.756522},{"station_id":"BOI","time":2,"distance":2334,"i_long":106.737035,"i_lat":-6.159876,"is_transit":false,"station_name":"Bojongindah","line":0,"transit":false},{"distance":1152,"transit":false,"station_id":"RW","i_lat":-6.162758,"station_name":"Rawa Buaya","i_long":106.723064,"line":5,"is_transit":false,"time":4},{"line":5,"is_transit":false,"i_lat":-6.166068,"i_long":106.701612,"transit":false,"station_id":"KDS","time":3,"distance":2504,"station_name":"Kalideres"},{"is_transit":false,"i_lat":-6.169933,"time":3,"station_name":"Poris","transit":false,"i_long":106.679458,"station_id":"PI","distance":2548,"line":5},{"transit":false,"distance":1834,"line":0,"station_name":"Batuceper","station_id":"BPR","is_transit":false,"i_lat":-6.171811,"time":3,"i_long":106.665036},{"i_long":106.64657,"time":3,"transit":false,"is_transit":false,"line":5,"station_name":"Tanah Tinggi","station_id":"TTI","distance":2028,"i_lat":-6.17331}]]}