{"data":[[{"transit":false,"time":0,"station_id":"CW","i_lat":-6.242512,"line":2,"distance":0,"is_transit":false,"station_name":"Cawang","i_long":106.856607},{"i_long":106.857948,"station_id":"TEB","distance":1230,"i_lat":-6.226659,"transit":false,"station_name":"Tebet","line":2,"time":2,"is_transit":false},{"line":2,"i_lat":-6.209883,"distance":2610,"transit":true,"is_transit":true,"i_long":106.84912,"station_name":"Manggarai","station_id":"MRI","time":4},{"station_id":"SUD","station_name":"Sudirman","time":4,"is_transit":false,"i_long":106.822649,"i_lat":-6.202263,"line":1,"distance":3186,"transit":false},{"i_lat":-6.201433,"line":1,"transit":false,"station_name":"Sudirman Baru","i_long":106.819881,"station_id":"SUDB","distance":280,"time":1,"is_transit":false},{"distance":471,"line":1,"station_name":"Karet","i_long":106.816351,"i_lat":-6.20132,"transit":false,"station_id":"KAT","is_transit":false,"time":1},{"station_name":"Tanah Abang","station_id":"THB","time":5,"line":1,"i_long":106.811091,"transit":false,"distance":2029,"is_transit":false,"i_lat":-6.185545},{"station_id":"DU","is_transit":true,"time":8,"distance":3632,"i_lat":-6.155215,"station_name":"Duri","i_long":106.800832,"line":1,"transit":true},{"i_lat":-6.162021,"time":3,"line":5,"transit":false,"distance":1700,"station_name":"Grogol","i_long":106.788277,"station_id":"GGL","is_transit":false},{"station_id":"PSG","distance":2036,"i_lat":-6.161433,"time":2,"is_transit":false,"i_long":106.771379,"line":5,"station_name":"Pesing","transit":false},{"station_name":"Taman Kota","time":2,"station_id":"TKO","i_lat":-6.1587309999999995,"distance":1614,"transit":false,"line":5,"i_long":106.756522,"is_transit":false},{"i_long":106.737035,"distance":2334,"time":2,"transit":false,"is_transit":false,"station_name":"Bojongindah","station_id":"BOI","i_lat":-6.159876,"line":5},{"station_name":"Rawa Buaya","is_transit":false,"transit":false,"distance":1152,"i_long":106.723064,"i_lat":-6.162758,"time":4,"station_id":"RW","line":5},{"line":5,"i_lat":-6.166068,"distance":2504,"station_name":"Kalideres","time":3,"i_long":106.701612,"transit":false,"station_id":"KDS","is_transit":false},{"time":3,"station_name":"Poris","is_transit":false,"distance":2548,"i_long":106.679458,"i_lat":-6.169933,"line":5,"station_id":"PI","transit":false},{"i_lat":-6.171811,"distance":1834,"transit":false,"time":3,"is_transit":false,"station_id":"BPR","i_long":106.665036,"line":5,"station_name":"Batuceper"},{"time":3,"i_long":106.64657,"is_transit":false,"i_lat":-6.17331,"transit":false,"station_name":"Tanah Tinggi","distance":2028,"line":5,"station_id":"TTI"}],[{"is_transit":false,"station_name":"Cawang","line":2,"transit":false,"i_long":106.856607,"i_lat":-6.242512,"station_id":"CW","distance":0,"time":0},{"i_lat":-6.226659,"transit":false,"line":2,"distance":1230,"time":2,"i_long":106.857948,"station_id":"TEB","is_transit":false,"station_name":"Tebet"},{"distance":2610,"station_id":"MRI","is_transit":false,"i_long":106.84912,"i_lat":-6.209883,"line":2,"transit":false,"time":4,"station_name":"Manggarai"},{"line":2,"time":4,"distance":1590,"i_lat":-6.198556,"i_long":106.840169,"station_name":"Cikini","is_transit":false,"station_id":"CKI","transit":false},{"transit":false,"distance":1750,"time":3,"station_name":"Gondangdia","line":2,"i_long":106.832183,"is_transit":false,"i_lat":-6.186295,"station_id":"GDD"},{"i_long":106.828284,"station_id":"JUA","line":2,"station_name":"Juanda","transit":false,"distance":2015,"time":4,"is_transit":false,"i_lat":-6.166716},{"line":2,"distance":1149,"station_name":"Sawah Besar","time":2,"transit":false,"i_lat":-6.160725,"station_id":"SW","i_long":106.827103,"is_transit":false},{"distance":906,"i_lat":-6.149769,"i_long":106.82482,"station_name":"Manggabesar","transit":false,"station_id":"MGB","is_transit":false,"line":2,"time":2},{"station_name":"Jayakarta","distance":1080,"i_long":106.820901,"line":2,"time":2,"is_transit":false,"station_id":"JAY","transit":false,"i_lat":-6.141205},{"transit":true,"station_name":"Jakarta Kota","i_lat":-6.137569,"is_transit":true,"i_long":106.812439,"distance":1264,"station_id":"JAKK","line":2,"time":4},{"station_id":"KPB","line":4,"station_name":"Kampung Bandan","transit":true,"distance":1364,"i_long":106.826365,"i_lat":-6.132549,"time":3,"is_transit":true},{"transit":false,"is_transit":false,"distance":4102,"i_long":106.79867,"time":9,"line":1,"station_name":"Angke","station_id":"AK","i_lat":-6.144674},{"transit":true,"time":4,"station_id":"DU","line":1,"distance":1230,"is_transit":true,"station_name":"Duri","i_lat":-6.155215,"i_long":106.800832},{"line":5,"i_lat":-6.162021,"station_id":"GGL","transit":false,"is_transit":false,"station_name":"Grogol","i_long":106.788277,"distance":1700,"time":3},{"is_transit":false,"i_lat":-6.161433,"line":5,"time":2,"i_long":106.771379,"station_id":"PSG","transit":false,"distance":2036,"station_name":"Pesing"},{"station_id":"TKO","line":5,"i_lat":-6.1587309999999995,"station_name":"Taman Kota","is_transit":false,"time":2,"distance":1614,"i_long":106.756522,"transit":false},{"time":2,"station_name":"Bojongindah","transit":false,"station_id":"BOI","i_lat":-6.159876,"i_long":106.737035,"line":5,"distance":2334,"is_transit":false},{"transit":false,"station_name":"Rawa Buaya","station_id":"RW","time":4,"line":5,"i_long":106.723064,"distance":1152,"is_transit":false,"i_lat":-6.162758},{"station_name":"Kalideres","is_transit":false,"station_id":"KDS","i_lat":-6.166068,"line":5,"distance":2504,"transit":false,"time":3,"i_long":106.701612},{"station_id":"PI","is_transit":false,"transit":false,"i_lat":-6.169933,"line":5,"station_name":"Poris","time":3,"distance":2548,"i_long":106.679458},{"distance":1834,"i_lat":-6.171811,"line":5,"i_long":106.665036,"station_name":"Batuceper","time":3,"is_transit":false,"transit":false,"station_id":"BPR"},{"time":3,"i_long":106.64657,"line":5,"transit":false,"i_lat":-6.17331,"station_id":"TTI","station_name":"Tanah Tinggi","is_transit":false,"distance":2028}],[{"i_lat":-6.242512,"station_id":"CW","i_long":106.856607,"station_name":"Cawang","transit":false,"time":0,"is_transit":false,"line":2,"distance":0},{"i_lat":-6.226659,"is_transit":false,"station_name":"Tebet","transit":false,"i_long":106.857948,"time":2,"distance":1230,"station_id":"TEB","line":2},{"is_transit":true,"line":2,"i_lat":-6.209883,"distance":2610,"station_id":"MRI","i_long":106.84912,"transit":true,"time":4,"station_name":"Manggarai"},{"i_lat":-6.212485,"transit":false,"line":1,"i_long":106.858896,"time":2,"station_id":"MTR","distance":1275,"is_transit":false,"station_name":"Matraman"},{"time":8,"is_transit":true,"station_name":"Jatinegara","i_lat":-6.215091,"transit":true,"line":1,"station_id":"JNG","distance":1377,"i_long":106.86807400000001},{"station_id":"POK","distance":1236,"is_transit":false,"i_lat":-6.209188,"i_long":106.861737,"transit":false,"line":11,"station_name":"Pondok Jati","time":2},{"station_id":"KMT","i_lat":-6.193792,"line":11,"is_transit":false,"station_name":"Kramat","time":2,"transit":false,"distance":1829,"i_long":106.855437},{"line":11,"time":1,"station_id":"GST","station_name":"Gang Sentiong","i_long":106.850107,"transit":false,"distance":973,"is_transit":false,"i_lat":-6.185975},{"line":11,"i_long":106.84368,"time":8,"i_lat":-6.174784,"station_name":"Pasar Senen","distance":1567,"transit":false,"station_id":"PSE","is_transit":false},{"time":4,"distance":1436,"station_name":"Kemayoran","i_lat":-6.161728,"is_transit":false,"station_id":"KMO","transit":false,"line":11,"i_long":106.839204},{"transit":false,"i_long":106.836569,"is_transit":false,"distance":1901,"i_lat":-6.14505,"line":11,"station_id":"RJW","station_name":"Rajawali","time":5},{"station_id":"KPB","transit":true,"is_transit":true,"line":4,"i_lat":-6.132549,"time":3,"distance":1444,"station_name":"Kampung Bandan","i_long":106.826365},{"distance":4102,"line":1,"station_name":"Angke","station_id":"AK","i_lat":-6.144674,"transit":false,"time":9,"i_long":106.79867,"is_transit":false},{"transit":true,"station_name":"Duri","distance":1230,"i_long":106.800832,"time":4,"i_lat":-6.155215,"station_id":"DU","line":1,"is_transit":true},{"time":3,"i_long":106.788277,"transit":false,"station_id":"GGL","i_lat":-6.162021,"station_name":"Grogol","distance":1700,"is_transit":false,"line":5},{"line":5,"i_long":106.771379,"i_lat":-6.161433,"is_transit":false,"station_name":"Pesing","distance":2036,"transit":false,"station_id":"PSG","time":2},{"station_name":"Taman Kota","is_transit":false,"time":2,"i_long":106.756522,"transit":false,"station_id":"TKO","distance":1614,"i_lat":-6.1587309999999995,"line":5},{"line":5,"station_id":"BOI","time":2,"distance":2334,"is_transit":false,"station_name":"Bojongindah","transit":false,"i_lat":-6.159876,"i_long":106.737035},{"line":5,"distance":1152,"station_name":"Rawa Buaya","station_id":"RW","i_lat":-6.162758,"is_transit":false,"i_long":106.723064,"time":4,"transit":false},{"station_name":"Kalideres","transit":false,"station_id":"KDS","is_transit":false,"i_lat":-6.166068,"line":5,"time":3,"i_long":106.701612,"distance":2504},{"station_name":"Poris","station_id":"PI","distance":2548,"is_transit":false,"time":3,"line":5,"transit":false,"i_lat":-6.169933,"i_long":106.679458},{"i_lat":-6.171811,"time":3,"station_name":"Batuceper","transit":false,"station_id":"BPR","distance":1834,"is_transit":false,"i_long":106.665036,"line":5},{"line":5,"station_name":"Tanah Tinggi","station_id":"TTI","is_transit":false,"distance":2028,"i_lat":-6.17331,"transit":false,"time":3,"i_long":106.64657}]]}