{"data":[[{"station_name":"Cawang","i_long":106.856607,"is_transit":false,"distance":0,"line":2,"transit":false,"station_id":"CW","i_lat":-6.242512,"time":0},{"line":2,"transit":false,"time":3,"i_lat":-6.255332,"i_long":106.85449,"station_name":"Duren Kalibata","is_transit":false,"station_id":"DRN","distance":1546},{"station_name":"Pasar Minggu Baru","station_id":"PSMB","is_transit":false,"transit":false,"i_long":106.851577,"i_lat":-6.263214,"line":2,"distance":824,"time":2},{"i_lat":-6.2842400000000005,"time":2,"is_transit":false,"distance":2380,"station_name":"Pasar Minggu","i_long":106.843999,"line":2,"transit":false,"station_id":"PSM"},{"transit":false,"station_id":"TNT","station_name":"Tanjung Barat","distance":2820,"i_long":106.838896,"i_lat":-6.3080680000000005,"line":2,"time":4,"is_transit":false}]]}