{"data":[[{"station_id":"CW","time":0,"is_transit":false,"station_name":"Cawang","transit":false,"i_lat":-6.242512,"line":2,"distance":0,"i_long":106.856607},{"i_lat":-6.226659,"line":2,"distance":1230,"station_name":"Tebet","transit":false,"is_transit":false,"station_id":"TEB","i_long":106.857948,"time":2},{"is_transit":true,"distance":2610,"station_id":"MRI","transit":true,"station_name":"Manggarai","time":4,"i_lat":-6.209883,"i_long":106.84912,"line":2},{"i_lat":-6.202263,"i_long":106.822649,"line":1,"time":4,"distance":3186,"station_id":"SUD","transit":false,"is_transit":false,"station_name":"Sudirman"},{"distance":280,"station_name":"Sudirman Baru","i_lat":-6.201433,"line":1,"transit":false,"station_id":"SUDB","is_transit":false,"i_long":106.819881,"time":1},{"station_id":"KAT","i_lat":-6.20132,"i_long":106.816351,"time":1,"distance":471,"station_name":"Karet","transit":false,"line":1,"is_transit":false},{"time":5,"line":1,"station_id":"THB","station_name":"Tanah Abang","i_lat":-6.185545,"is_transit":true,"i_long":106.811091,"distance":2029,"transit":true},{"transit":false,"distance":3191,"time":6,"is_transit":false,"station_id":"PLM","i_lat":-6.207404,"station_name":"Palmerah","line":6,"i_long":106.79689},{"distance":3737,"transit":false,"line":6,"station_name":"Kebayoran","i_lat":-6.237242,"is_transit":false,"i_long":106.780334,"station_id":"KBY","time":7},{"station_id":"PDJ","line":6,"distance":6218,"station_name":"Pondokranji","i_long":106.74273,"is_transit":false,"transit":false,"i_lat":-6.276362,"time":8},{"line":6,"is_transit":false,"station_id":"JMU","distance":2179,"time":3,"i_long":106.728916,"i_lat":-6.288927,"transit":false,"station_name":"Jurangmangu"},{"is_transit":false,"time":4,"distance":1994,"station_name":"Sudimara","i_lat":-6.296963,"transit":false,"i_long":106.712277,"station_id":"SDM","line":6},{"time":6,"i_long":106.675475,"station_id":"RU","distance":4566,"transit":false,"is_transit":false,"line":6,"station_name":"Rawa Buntu","i_lat":-6.314823},{"time":4,"is_transit":false,"i_lat":-6.319871,"i_long":106.66566,"line":6,"transit":false,"station_name":"Serpong","station_id":"SRP","distance":2413},{"i_long":106.640411,"is_transit":false,"distance":1784,"transit":false,"station_id":"CSK","station_name":"Cisauk","line":3,"i_lat":-6.32484,"time":4},{"i_lat":-6.329547,"time":4,"station_name":"Cicayur","distance":2519,"station_id":"CC","is_transit":false,"i_long":106.617853,"line":3,"transit":false},{"transit":false,"i_lat":-6.3441410000000005,"time":8,"is_transit":false,"i_long":106.568863,"line":6,"distance":5968,"station_name":"Parung Panjang","station_id":"PRP"},{"transit":false,"time":9,"i_long":106.508482,"line":3,"distance":7025,"station_id":"CJT","i_lat":-6.354349,"station_name":"Cilejit","is_transit":false},{"time":6,"station_name":"Daru","line":0,"station_id":"DAR","is_transit":false,"distance":2675,"i_long":106.491338,"transit":false,"i_lat":-6.338021},{"transit":false,"i_lat":-6.327251,"time":5,"line":6,"station_id":"TEJ","distance":3902,"station_name":"Tenjo","is_transit":false,"i_long":106.460812},{"station_name":"Tigaraksa","station_id":"TGS","i_lat":-6.328533,"i_long":106.425991,"time":5,"distance":2974,"transit":false,"line":6,"is_transit":false}],[{"distance":0,"transit":false,"is_transit":false,"time":0,"station_id":"CW","i_long":106.856607,"line":2,"station_name":"Cawang","i_lat":-6.242512},{"i_lat":-6.226659,"distance":1230,"is_transit":false,"station_id":"TEB","i_long":106.857948,"time":2,"station_name":"Tebet","line":2,"transit":false},{"station_id":"MRI","i_lat":-6.209883,"station_name":"Manggarai","i_long":106.84912,"is_transit":false,"time":4,"line":2,"transit":false,"distance":2610},{"distance":1590,"line":2,"i_lat":-6.198556,"station_id":"CKI","i_long":106.840169,"transit":false,"station_name":"Cikini","time":4,"is_transit":false},{"line":2,"time":3,"transit":false,"station_id":"GDD","i_lat":-6.186295,"is_transit":false,"distance":1750,"i_long":106.832183,"station_name":"Gondangdia"},{"station_id":"JUA","station_name":"Juanda","distance":2015,"i_lat":-6.166716,"is_transit":false,"transit":false,"time":4,"line":2,"i_long":106.828284},{"time":2,"station_name":"Sawah Besar","distance":1149,"transit":false,"i_lat":-6.160725,"is_transit":false,"station_id":"SW","line":2,"i_long":106.827103},{"is_transit":false,"station_name":"Manggabesar","transit":false,"i_lat":-6.149769,"station_id":"MGB","i_long":106.82482,"line":2,"time":2,"distance":906},{"station_name":"Jayakarta","is_transit":false,"transit":false,"time":2,"i_long":106.820901,"station_id":"JAY","distance":1080,"line":2,"i_lat":-6.141205},{"transit":true,"station_name":"Jakarta Kota","distance":1264,"station_id":"JAKK","time":4,"i_lat":-6.137569,"i_long":106.812439,"is_transit":true,"line":2},{"i_lat":-6.132549,"distance":1364,"i_long":106.826365,"station_id":"KPB","line":4,"station_name":"Kampung Bandan","transit":true,"time":3,"is_transit":true},{"transit":false,"station_name":"Angke","i_long":106.79867,"is_transit":false,"distance":4102,"station_id":"AK","time":9,"i_lat":-6.144674,"line":1},{"station_name":"Duri","transit":false,"station_id":"DU","i_lat":-6.155215,"is_transit":false,"time":4,"i_long":106.800832,"line":1,"distance":1230},{"is_transit":true,"i_lat":-6.185545,"station_name":"Tanah Abang","distance":3632,"time":8,"station_id":"THB","i_long":106.811091,"transit":true,"line":1},{"station_name":"Palmerah","i_long":106.79689,"line":6,"time":6,"distance":3191,"station_id":"PLM","is_transit":false,"transit":false,"i_lat":-6.207404},{"i_long":106.780334,"line":6,"distance":3737,"is_transit":false,"time":7,"transit":false,"station_id":"KBY","i_lat":-6.237242,"station_name":"Kebayoran"},{"i_lat":-6.276362,"line":6,"station_name":"Pondokranji","i_long":106.74273,"station_id":"PDJ","transit":false,"distance":6218,"is_transit":false,"time":8},{"distance":2179,"station_id":"JMU","i_lat":-6.288927,"transit":false,"line":6,"is_transit":false,"i_long":106.728916,"station_name":"Jurangmangu","time":3},{"station_name":"Sudimara","transit":false,"line":6,"station_id":"SDM","i_long":106.712277,"is_transit":false,"time":4,"i_lat":-6.296963,"distance":1994},{"is_transit":false,"time":6,"transit":false,"distance":4566,"station_id":"RU","i_long":106.675475,"i_lat":-6.314823,"line":6,"station_name":"Rawa Buntu"},{"line":6,"transit":false,"i_lat":-6.319871,"time":4,"station_id":"SRP","distance":2413,"i_long":106.66566,"is_transit":false,"station_name":"Serpong"},{"distance":1784,"station_id":"CSK","i_long":106.640411,"i_lat":-6.32484,"is_transit":false,"transit":false,"time":4,"station_name":"Cisauk","line":3},{"line":3,"i_long":106.617853,"transit":false,"station_id":"CC","distance":2519,"i_lat":-6.329547,"is_transit":false,"station_name":"Cicayur","time":4},{"i_lat":-6.3441410000000005,"is_transit":false,"station_id":"PRP","distance":5968,"station_name":"Parung Panjang","time":8,"i_long":106.568863,"line":6,"transit":false},{"station_id":"CJT","station_name":"Cilejit","i_long":106.508482,"transit":false,"is_transit":false,"distance":7025,"line":3,"i_lat":-6.354349,"time":9},{"line":0,"i_long":106.491338,"station_name":"Daru","is_transit":false,"distance":2675,"station_id":"DAR","transit":false,"i_lat":-6.338021,"time":6},{"time":5,"line":6,"station_id":"TEJ","i_long":106.460812,"station_name":"Tenjo","distance":3902,"i_lat":-6.327251,"is_transit":false,"transit":false},{"line":6,"is_transit":false,"station_id":"TGS","transit":false,"station_name":"Tigaraksa","distance":2974,"i_lat":-6.328533,"i_long":106.425991,"time":5}],[{"time":0,"i_long":106.856607,"transit":false,"i_lat":-6.242512,"is_transit":false,"distance":0,"line":2,"station_name":"Cawang","station_id":"CW"},{"line":2,"station_name":"Tebet","distance":1230,"i_long":106.857948,"station_id":"TEB","transit":false,"i_lat":-6.226659,"is_transit":false,"time":2},{"station_name":"Manggarai","line":2,"distance":2610,"i_long":106.84912,"time":4,"i_lat":-6.209883,"transit":true,"is_transit":true,"station_id":"MRI"},{"distance":1275,"station_id":"MTR","time":2,"line":1,"station_name":"Matraman","transit":false,"i_lat":-6.212485,"i_long":106.858896,"is_transit":false},{"line":1,"time":8,"station_id":"JNG","i_lat":-6.215091,"station_name":"Jatinegara","transit":true,"distance":1377,"is_transit":true,"i_long":106.86807400000001},{"station_name":"Pondok Jati","station_id":"POK","i_long":106.861737,"is_transit":false,"time":2,"i_lat":-6.209188,"distance":1236,"line":11,"transit":false},{"transit":false,"is_transit":false,"station_name":"Kramat","time":2,"distance":1829,"station_id":"KMT","line":11,"i_long":106.855437,"i_lat":-6.193792},{"station_name":"Gang Sentiong","i_long":106.850107,"transit":false,"time":1,"is_transit":false,"line":11,"distance":973,"station_id":"GST","i_lat":-6.185975},{"distance":1567,"station_id":"PSE","line":11,"station_name":"Pasar Senen","i_lat":-6.174784,"time":8,"transit":false,"i_long":106.84368,"is_transit":false},{"is_transit":false,"time":4,"i_long":106.839204,"transit":false,"station_name":"Kemayoran","line":11,"distance":1436,"station_id":"KMO","i_lat":-6.161728},{"i_long":106.836569,"time":5,"distance":1901,"is_transit":false,"station_id":"RJW","i_lat":-6.14505,"station_name":"Rajawali","line":11,"transit":false},{"distance":1444,"time":3,"line":4,"i_long":106.826365,"station_id":"KPB","transit":true,"station_name":"Kampung Bandan","i_lat":-6.132549,"is_transit":true},{"time":9,"station_name":"Angke","distance":4102,"is_transit":false,"i_lat":-6.144674,"station_id":"AK","line":1,"i_long":106.79867,"transit":false},{"station_id":"DU","i_lat":-6.155215,"line":1,"distance":1230,"station_name":"Duri","time":4,"i_long":106.800832,"transit":false,"is_transit":false},{"line":1,"i_lat":-6.185545,"station_name":"Tanah Abang","transit":true,"is_transit":true,"distance":3632,"i_long":106.811091,"time":8,"station_id":"THB"},{"is_transit":false,"i_long":106.79689,"line":6,"distance":3191,"station_id":"PLM","transit":false,"i_lat":-6.207404,"station_name":"Palmerah","time":6},{"station_id":"KBY","time":7,"line":6,"i_long":106.780334,"station_name":"Kebayoran","is_transit":false,"distance":3737,"transit":false,"i_lat":-6.237242},{"station_id":"PDJ","line":6,"i_long":106.74273,"distance":6218,"time":8,"is_transit":false,"transit":false,"i_lat":-6.276362,"station_name":"Pondokranji"},{"time":3,"distance":2179,"line":6,"is_transit":false,"transit":false,"station_name":"Jurangmangu","station_id":"JMU","i_lat":-6.288927,"i_long":106.728916},{"station_id":"SDM","i_long":106.712277,"transit":false,"station_name":"Sudimara","is_transit":false,"i_lat":-6.296963,"time":4,"line":6,"distance":1994},{"station_name":"Rawa Buntu","is_transit":false,"i_lat":-6.314823,"line":6,"transit":false,"distance":4566,"station_id":"RU","i_long":106.675475,"time":6},{"station_name":"Serpong","transit":false,"distance":2413,"station_id":"SRP","line":6,"is_transit":false,"i_lat":-6.319871,"time":4,"i_long":106.66566},{"transit":false,"station_name":"Cisauk","time":4,"station_id":"CSK","i_lat":-6.32484,"i_long":106.640411,"is_transit":false,"distance":1784,"line":3},{"i_long":106.617853,"distance":2519,"time":4,"transit":false,"i_lat":-6.329547,"station_id":"CC","line":3,"station_name":"Cicayur","is_transit":false},{"distance":5968,"i_long":106.568863,"transit":false,"line":6,"time":8,"is_transit":false,"i_lat":-6.3441410000000005,"station_name":"Parung Panjang","station_id":"PRP"},{"line":3,"distance":7025,"i_lat":-6.354349,"is_transit":false,"i_long":106.508482,"station_name":"Cilejit","transit":false,"station_id":"CJT","time":9},{"time":6,"station_id":"DAR","i_long":106.491338,"i_lat":-6.338021,"is_transit":false,"station_name":"Daru","line":0,"distance":2675,"transit":false},{"is_transit":false,"time":5,"distance":3902,"line":6,"i_lat":-6.327251,"station_id":"TEJ","i_long":106.460812,"transit":false,"station_name":"Tenjo"},{"distance":2974,"line":6,"transit":false,"station_name":"Tigaraksa","time":5,"is_transit":false,"i_lat":-6.328533,"i_long":106.425991,"station_id":"TGS"}]]}