{"data":[[{"i_long":106.856607,"station_name":"Cawang","is_transit":false,"i_lat":-6.242512,"line":2,"station_id":"CW","distance":0,"transit":false,"time":0},{"station_id":"DRN","station_name":"Duren Kalibata","i_lat":-6.255332,"distance":1546,"transit":false,"line":2,"is_transit":false,"time":3,"i_long":106.85449},{"station_id":"PSMB","time":2,"is_transit":false,"station_name":"Pasar Minggu Baru","transit":false,"i_lat":-6.263214,"distance":824,"i_long":106.851577,"line":2},{"station_name":"Pasar Minggu","is_transit":false,"distance":2380,"i_long":106.843999,"station_id":"PSM","i_lat":-6.2842400000000005,"transit":false,"line":2,"time":2},{"distance":2820,"line":2,"station_id":"TNT","is_transit":false,"transit":false,"station_name":"Tanjung Barat","time":4,"i_lat":-6.3080680000000005,"i_long":106.838896},{"is_transit":false,"i_long":106.832616,"distance":2671,"transit":false,"i_lat":-6.330363,"station_id":"LNA","station_name":"Lenteng Agung","line":2,"time":3},{"is_transit":false,"distance":1029,"i_long":106.834175,"station_id":"UP","station_name":"Univ. Pancasila","line":2,"i_lat":-6.339291,"transit":false,"time":2},{"transit":false,"i_long":106.831474,"distance":2264,"line":2,"is_transit":false,"time":3,"station_id":"UI","i_lat":-6.360749,"station_name":"Univ. Indonesia"}]]}