{"data":[[{"station_id":"CW","station_name":"Cawang","is_transit":false,"distance":0,"i_long":106.856607,"line":2,"transit":false,"i_lat":-6.242512,"time":0},{"time":3,"station_name":"Duren Kalibata","line":2,"i_lat":-6.255332,"distance":1546,"transit":false,"is_transit":false,"i_long":106.85449,"station_id":"DRN"},{"transit":false,"station_id":"PSMB","i_long":106.851577,"time":2,"distance":824,"line":2,"is_transit":false,"i_lat":-6.263214,"station_name":"Pasar Minggu Baru"},{"i_long":106.843999,"line":2,"transit":false,"i_lat":-6.2842400000000005,"is_transit":false,"station_id":"PSM","time":2,"station_name":"Pasar Minggu","distance":2380},{"station_id":"TNT","distance":2820,"i_long":106.838896,"time":4,"is_transit":false,"i_lat":-6.3080680000000005,"transit":false,"line":2,"station_name":"Tanjung Barat"},{"transit":false,"i_lat":-6.330363,"i_long":106.832616,"distance":2671,"station_id":"LNA","is_transit":false,"time":3,"station_name":"Lenteng Agung","line":2},{"distance":1029,"transit":false,"i_lat":-6.339291,"time":2,"line":2,"station_id":"UP","station_name":"Univ. Pancasila","i_long":106.834175,"is_transit":false},{"line":2,"station_name":"Univ. Indonesia","is_transit":false,"station_id":"UI","transit":false,"i_long":106.831474,"distance":2264,"time":3,"i_lat":-6.360749}]]}