{"data":[[{"transit":false,"i_lat":-6.242512,"time":0,"station_id":"CW","station_name":"Cawang","is_transit":false,"distance":0,"i_long":106.856607,"line":0},{"is_transit":false,"time":3,"distance":1546,"i_lat":-6.255332,"i_long":106.85449,"transit":false,"station_id":"DRN","station_name":"Duren Kalibata","line":0},{"time":2,"is_transit":false,"station_id":"PSMB","station_name":"Pasar Minggu Baru","transit":false,"i_long":106.851577,"line":2,"i_lat":-6.263214,"distance":824},{"i_lat":-6.2842400000000005,"transit":false,"line":2,"is_transit":false,"station_name":"Pasar Minggu","distance":2380,"i_long":106.843999,"station_id":"PSM","time":2},{"station_name":"Tanjung Barat","is_transit":false,"transit":false,"line":2,"station_id":"TNT","i_lat":-6.3080680000000005,"i_long":106.838896,"time":4,"distance":2820},{"i_long":106.832616,"station_name":"Lenteng Agung","is_transit":false,"time":3,"distance":2671,"transit":false,"i_lat":-6.330363,"line":2,"station_id":"LNA"},{"is_transit":false,"time":2,"transit":false,"i_lat":-6.339291,"station_id":"UP","distance":1029,"station_name":"Univ. Pancasila","i_long":106.834175,"line":2},{"station_name":"Univ. Indonesia","time":3,"i_lat":-6.360749,"i_long":106.831474,"transit":false,"is_transit":false,"line":2,"station_id":"UI","distance":2264}]]}