{"data":[[{"i_lat":-6.242512,"time":0,"station_name":"Cawang","transit":false,"i_long":106.856607,"station_id":"CW","is_transit":false,"line":2,"distance":0},{"i_long":106.85449,"line":2,"time":3,"distance":1546,"station_id":"DRN","is_transit":false,"transit":false,"station_name":"Duren Kalibata","i_lat":-6.255332},{"is_transit":false,"line":2,"i_long":106.851577,"distance":824,"time":2,"transit":false,"station_id":"PSMB","station_name":"Pasar Minggu Baru","i_lat":-6.263214},{"line":2,"transit":false,"station_name":"Pasar Minggu","time":2,"distance":2380,"station_id":"PSM","i_lat":-6.2842400000000005,"is_transit":false,"i_long":106.843999},{"transit":false,"station_name":"Tanjung Barat","i_lat":-6.3080680000000005,"line":2,"i_long":106.838896,"time":4,"station_id":"TNT","is_transit":false,"distance":2820},{"station_name":"Lenteng Agung","is_transit":false,"i_long":106.832616,"distance":2671,"transit":false,"i_lat":-6.330363,"time":3,"station_id":"LNA","line":2},{"station_name":"Univ. Pancasila","i_lat":-6.339291,"is_transit":false,"transit":false,"distance":1029,"line":2,"i_long":106.834175,"time":2,"station_id":"UP"},{"i_lat":-6.360749,"transit":false,"line":2,"time":3,"is_transit":false,"distance":2264,"i_long":106.831474,"station_name":"Univ. Indonesia","station_id":"UI"}]]}