{"data":[[{"time":0,"station_name":"Daru","line":0,"is_transit":false,"i_lat":-6.338021,"station_id":"DAR","i_long":106.491338,"distance":0,"transit":false},{"is_transit":false,"i_long":106.508482,"i_lat":-6.354349,"distance":2675,"line":3,"time":6,"station_id":"CJT","transit":false,"station_name":"Cilejit"},{"time":9,"i_lat":-6.3441410000000005,"distance":7025,"is_transit":false,"station_id":"PRP","i_long":106.568863,"station_name":"Parung Panjang","line":6,"transit":false},{"i_long":106.617853,"i_lat":-6.329547,"transit":false,"station_name":"Cicayur","station_id":"CC","time":8,"is_transit":false,"distance":5968,"line":3},{"is_transit":false,"i_long":106.640411,"distance":2519,"transit":false,"line":3,"i_lat":-6.32484,"time":4,"station_name":"Cisauk","station_id":"CSK"},{"transit":false,"station_name":"Serpong","i_lat":-6.319871,"distance":1784,"station_id":"SRP","line":6,"time":4,"i_long":106.66566,"is_transit":false},{"distance":2413,"line":6,"station_id":"RU","station_name":"Rawa Buntu","is_transit":false,"i_long":106.675475,"transit":false,"i_lat":-6.314823,"time":4},{"transit":false,"station_name":"Sudimara","time":6,"station_id":"SDM","line":6,"i_long":106.712277,"is_transit":false,"distance":4566,"i_lat":-6.296963},{"station_name":"Jurangmangu","is_transit":false,"station_id":"JMU","i_lat":-6.288927,"line":6,"distance":1994,"transit":false,"time":4,"i_long":106.728916},{"is_transit":false,"station_id":"PDJ","transit":false,"i_lat":-6.276362,"line":6,"distance":2179,"station_name":"Pondokranji","time":3,"i_long":106.74273},{"station_id":"KBY","i_lat":-6.237242,"line":6,"i_long":106.780334,"station_name":"Kebayoran","time":8,"is_transit":false,"distance":6218,"transit":false},{"time":7,"i_long":106.79689,"line":6,"transit":false,"i_lat":-6.207404,"is_transit":false,"station_name":"Palmerah","station_id":"PLM","distance":3737},{"i_lat":-6.185545,"station_id":"THB","i_long":106.811091,"station_name":"Tanah Abang","transit":true,"time":6,"is_transit":true,"line":1,"distance":3191},{"i_lat":-6.155215,"is_transit":true,"station_name":"Duri","transit":true,"i_long":106.800832,"distance":3632,"time":8,"station_id":"DU","line":1},{"is_transit":false,"line":5,"i_lat":-6.162021,"distance":1700,"station_id":"GGL","i_long":106.788277,"transit":false,"time":3,"station_name":"Grogol"},{"i_lat":-6.161433,"transit":false,"line":5,"i_long":106.771379,"time":2,"station_id":"PSG","distance":2036,"is_transit":false,"station_name":"Pesing"},{"time":2,"is_transit":false,"station_name":"Taman Kota","i_lat":-6.1587309999999995,"transit":false,"line":5,"station_id":"TKO","distance":1614,"i_long":106.756522},{"transit":false,"i_long":106.737035,"distance":2334,"station_name":"Bojongindah","line":5,"station_id":"BOI","is_transit":false,"i_lat":-6.159876,"time":2},{"station_name":"Rawa Buaya","transit":false,"i_lat":-6.162758,"station_id":"RW","is_transit":false,"distance":1152,"time":4,"i_long":106.723064,"line":5},{"line":5,"time":3,"transit":false,"i_lat":-6.166068,"i_long":106.701612,"station_id":"KDS","distance":2504,"is_transit":false,"station_name":"Kalideres"},{"line":5,"distance":2548,"station_id":"PI","i_lat":-6.169933,"transit":false,"is_transit":false,"station_name":"Poris","time":3,"i_long":106.679458}],[{"time":0,"station_id":"DAR","transit":false,"i_long":106.491338,"line":0,"station_name":"Daru","i_lat":-6.338021,"is_transit":false,"distance":0},{"i_long":106.508482,"station_name":"Cilejit","station_id":"CJT","i_lat":-6.354349,"line":3,"distance":2675,"transit":false,"time":6,"is_transit":false},{"distance":7025,"transit":false,"i_long":106.568863,"time":9,"station_name":"Parung Panjang","i_lat":-6.3441410000000005,"station_id":"PRP","line":6,"is_transit":false},{"station_id":"CC","i_long":106.617853,"distance":5968,"i_lat":-6.329547,"is_transit":false,"station_name":"Cicayur","transit":false,"line":3,"time":8},{"line":3,"i_lat":-6.32484,"is_transit":false,"distance":2519,"station_name":"Cisauk","time":4,"station_id":"CSK","i_long":106.640411,"transit":false},{"is_transit":false,"station_id":"SRP","transit":false,"time":4,"station_name":"Serpong","i_long":106.66566,"line":6,"i_lat":-6.319871,"distance":1784},{"time":4,"distance":2413,"is_transit":false,"i_long":106.675475,"transit":false,"station_name":"Rawa Buntu","station_id":"RU","line":6,"i_lat":-6.314823},{"distance":4566,"transit":false,"station_id":"SDM","i_lat":-6.296963,"line":6,"i_long":106.712277,"station_name":"Sudimara","time":6,"is_transit":false},{"line":6,"station_id":"JMU","time":4,"is_transit":false,"distance":1994,"station_name":"Jurangmangu","transit":false,"i_lat":-6.288927,"i_long":106.728916},{"line":6,"distance":2179,"station_name":"Pondokranji","station_id":"PDJ","i_lat":-6.276362,"is_transit":false,"i_long":106.74273,"time":3,"transit":false},{"station_name":"Kebayoran","is_transit":false,"transit":false,"station_id":"KBY","i_lat":-6.237242,"line":6,"time":8,"i_long":106.780334,"distance":6218},{"station_name":"Palmerah","station_id":"PLM","is_transit":false,"distance":3737,"time":7,"line":6,"transit":false,"i_lat":-6.207404,"i_long":106.79689},{"i_lat":-6.185545,"time":6,"transit":true,"station_name":"Tanah Abang","is_transit":true,"distance":3191,"station_id":"THB","i_long":106.811091,"line":1},{"line":1,"station_name":"Karet","is_transit":false,"station_id":"KAT","distance":2029,"i_lat":-6.20132,"transit":false,"time":5,"i_long":106.816351},{"is_transit":false,"station_id":"SUDB","distance":471,"time":1,"i_lat":-6.201433,"line":1,"i_long":106.819881,"station_name":"Sudirman Baru","transit":false},{"i_long":106.822649,"line":1,"is_transit":false,"station_name":"Sudirman","transit":false,"distance":280,"time":1,"station_id":"SUD","i_lat":-6.202263},{"line":2,"time":4,"transit":true,"station_name":"Manggarai","distance":3186,"station_id":"MRI","i_long":106.84912,"i_lat":-6.209883,"is_transit":true},{"station_name":"Cikini","station_id":"CKI","line":2,"transit":false,"distance":1590,"i_lat":-6.198556,"i_long":106.840169,"is_transit":false,"time":4},{"transit":false,"i_long":106.832183,"is_transit":false,"line":2,"station_name":"Gondangdia","distance":1750,"time":3,"i_lat":-6.186295,"station_id":"GDD"},{"station_id":"JUA","line":2,"distance":2015,"time":4,"is_transit":false,"transit":false,"station_name":"Juanda","i_long":106.828284,"i_lat":-6.166716},{"i_lat":-6.160725,"station_id":"SW","is_transit":false,"distance":1149,"i_long":106.827103,"time":2,"transit":false,"line":2,"station_name":"Sawah Besar"},{"is_transit":false,"transit":false,"station_id":"MGB","i_lat":-6.149769,"time":2,"station_name":"Manggabesar","i_long":106.82482,"line":2,"distance":906},{"line":2,"station_id":"JAY","i_lat":-6.141205,"is_transit":false,"transit":false,"time":2,"distance":1080,"i_long":106.820901,"station_name":"Jayakarta"},{"station_id":"JAKK","i_long":106.812439,"line":2,"time":4,"station_name":"Jakarta Kota","transit":true,"distance":1264,"i_lat":-6.137569,"is_transit":true},{"station_id":"KPB","distance":1364,"i_long":106.826365,"i_lat":-6.132549,"is_transit":true,"transit":true,"time":3,"line":4,"station_name":"Kampung Bandan"},{"transit":false,"distance":4102,"station_name":"Angke","station_id":"AK","i_long":106.79867,"line":1,"is_transit":false,"i_lat":-6.144674,"time":9},{"transit":true,"i_long":106.800832,"line":1,"station_id":"DU","distance":1230,"is_transit":true,"station_name":"Duri","time":4,"i_lat":-6.155215},{"i_long":106.788277,"station_name":"Grogol","station_id":"GGL","is_transit":false,"distance":1700,"transit":false,"i_lat":-6.162021,"time":3,"line":5},{"is_transit":false,"time":2,"station_id":"PSG","distance":2036,"transit":false,"station_name":"Pesing","i_long":106.771379,"i_lat":-6.161433,"line":5},{"time":2,"station_id":"TKO","is_transit":false,"line":5,"i_long":106.756522,"distance":1614,"transit":false,"station_name":"Taman Kota","i_lat":-6.1587309999999995},{"station_name":"Bojongindah","time":2,"i_lat":-6.159876,"is_transit":false,"i_long":106.737035,"distance":2334,"transit":false,"line":5,"station_id":"BOI"},{"i_long":106.723064,"i_lat":-6.162758,"distance":1152,"transit":false,"station_name":"Rawa Buaya","is_transit":false,"station_id":"RW","line":5,"time":4},{"is_transit":false,"station_name":"Kalideres","distance":2504,"transit":false,"i_long":106.701612,"station_id":"KDS","i_lat":-6.166068,"time":3,"line":5},{"i_long":106.679458,"station_id":"PI","line":5,"transit":false,"station_name":"Poris","time":3,"i_lat":-6.169933,"distance":2548,"is_transit":false}],[{"station_name":"Daru","time":0,"i_lat":-6.338021,"i_long":106.491338,"distance":0,"station_id":"DAR","line":0,"is_transit":false,"transit":false},{"station_name":"Cilejit","line":3,"is_transit":false,"transit":false,"distance":2675,"i_long":106.508482,"station_id":"CJT","time":6,"i_lat":-6.354349},{"station_id":"PRP","transit":false,"distance":7025,"is_transit":false,"i_long":106.568863,"station_name":"Parung Panjang","time":9,"i_lat":-6.3441410000000005,"line":6},{"time":8,"i_lat":-6.329547,"line":3,"transit":false,"station_id":"CC","distance":5968,"i_long":106.617853,"station_name":"Cicayur","is_transit":false},{"time":4,"line":3,"station_id":"CSK","transit":false,"i_long":106.640411,"distance":2519,"station_name":"Cisauk","i_lat":-6.32484,"is_transit":false},{"transit":false,"is_transit":false,"time":4,"station_id":"SRP","i_lat":-6.319871,"station_name":"Serpong","line":6,"distance":1784,"i_long":106.66566},{"is_transit":false,"i_long":106.675475,"line":6,"station_name":"Rawa Buntu","i_lat":-6.314823,"transit":false,"station_id":"RU","time":4,"distance":2413},{"station_name":"Sudimara","distance":4566,"time":6,"i_long":106.712277,"transit":false,"i_lat":-6.296963,"line":6,"is_transit":false,"station_id":"SDM"},{"time":4,"distance":1994,"station_id":"JMU","transit":false,"is_transit":false,"line":6,"station_name":"Jurangmangu","i_lat":-6.288927,"i_long":106.728916},{"time":3,"transit":false,"distance":2179,"i_long":106.74273,"is_transit":false,"station_name":"Pondokranji","station_id":"PDJ","line":6,"i_lat":-6.276362},{"i_lat":-6.237242,"transit":false,"station_id":"KBY","time":8,"station_name":"Kebayoran","distance":6218,"i_long":106.780334,"line":6,"is_transit":false},{"station_name":"Palmerah","is_transit":false,"time":7,"i_lat":-6.207404,"distance":3737,"i_long":106.79689,"station_id":"PLM","transit":false,"line":6},{"line":1,"is_transit":true,"distance":3191,"i_lat":-6.185545,"station_id":"THB","transit":true,"time":6,"i_long":106.811091,"station_name":"Tanah Abang"},{"station_id":"KAT","is_transit":false,"time":5,"i_lat":-6.20132,"i_long":106.816351,"transit":false,"line":1,"station_name":"Karet","distance":2029},{"station_id":"SUDB","transit":false,"distance":471,"i_long":106.819881,"is_transit":false,"i_lat":-6.201433,"line":1,"station_name":"Sudirman Baru","time":1},{"distance":280,"station_id":"SUD","i_long":106.822649,"station_name":"Sudirman","i_lat":-6.202263,"is_transit":false,"transit":false,"line":1,"time":1},{"i_long":106.84912,"station_name":"Manggarai","station_id":"MRI","is_transit":false,"line":2,"i_lat":-6.209883,"transit":false,"distance":3186,"time":4},{"station_name":"Matraman","station_id":"MTR","transit":false,"distance":1275,"time":2,"i_long":106.858896,"i_lat":-6.212485,"is_transit":false,"line":1},{"station_name":"Jatinegara","line":1,"station_id":"JNG","time":8,"i_lat":-6.215091,"distance":1377,"transit":true,"is_transit":true,"i_long":106.86807400000001},{"is_transit":false,"i_lat":-6.209188,"i_long":106.861737,"station_id":"POK","line":11,"time":2,"transit":false,"station_name":"Pondok Jati","distance":1236},{"line":11,"i_lat":-6.193792,"is_transit":false,"distance":1829,"transit":false,"time":2,"station_id":"KMT","i_long":106.855437,"station_name":"Kramat"},{"is_transit":false,"i_long":106.850107,"transit":false,"station_id":"GST","station_name":"Gang Sentiong","distance":973,"i_lat":-6.185975,"time":1,"line":11},{"station_name":"Pasar Senen","time":8,"transit":false,"station_id":"PSE","line":11,"is_transit":false,"i_long":106.84368,"i_lat":-6.174784,"distance":1567},{"distance":1436,"station_name":"Kemayoran","time":4,"i_lat":-6.161728,"transit":false,"line":11,"station_id":"KMO","i_long":106.839204,"is_transit":false},{"station_id":"RJW","i_lat":-6.14505,"distance":1901,"i_long":106.836569,"line":11,"is_transit":false,"transit":false,"station_name":"Rajawali","time":5},{"station_name":"Kampung Bandan","i_long":106.826365,"transit":true,"i_lat":-6.132549,"line":4,"distance":1444,"station_id":"KPB","time":3,"is_transit":true},{"distance":4102,"time":9,"i_long":106.79867,"station_name":"Angke","i_lat":-6.144674,"station_id":"AK","transit":false,"line":1,"is_transit":false},{"transit":true,"time":4,"line":1,"i_long":106.800832,"is_transit":true,"station_name":"Duri","station_id":"DU","distance":1230,"i_lat":-6.155215},{"station_id":"GGL","transit":false,"distance":1700,"line":5,"is_transit":false,"i_long":106.788277,"i_lat":-6.162021,"station_name":"Grogol","time":3},{"line":5,"i_long":106.771379,"distance":2036,"is_transit":false,"station_id":"PSG","time":2,"i_lat":-6.161433,"transit":false,"station_name":"Pesing"},{"is_transit":false,"station_id":"TKO","distance":1614,"station_name":"Taman Kota","i_long":106.756522,"time":2,"transit":false,"line":5,"i_lat":-6.1587309999999995},{"i_long":106.737035,"transit":false,"time":2,"station_name":"Bojongindah","line":5,"station_id":"BOI","i_lat":-6.159876,"is_transit":false,"distance":2334},{"is_transit":false,"station_name":"Rawa Buaya","i_lat":-6.162758,"distance":1152,"time":4,"station_id":"RW","i_long":106.723064,"line":5,"transit":false},{"distance":2504,"station_name":"Kalideres","line":5,"transit":false,"station_id":"KDS","time":3,"i_long":106.701612,"is_transit":false,"i_lat":-6.166068},{"station_id":"PI","i_long":106.679458,"line":5,"i_lat":-6.169933,"transit":false,"distance":2548,"station_name":"Poris","is_transit":false,"time":3}]]}