{"data":[[{"i_lat":-6.338021,"line":0,"transit":false,"station_name":"Daru","distance":0,"time":0,"is_transit":false,"i_long":106.491338,"station_id":"DAR"},{"time":6,"transit":false,"distance":2675,"station_name":"Cilejit","i_lat":-6.354349,"line":3,"is_transit":false,"i_long":106.508482,"station_id":"CJT"},{"line":6,"station_id":"PRP","is_transit":false,"i_long":106.568863,"station_name":"Parung Panjang","i_lat":-6.3441410000000005,"time":9,"transit":false,"distance":7025},{"transit":false,"is_transit":false,"time":8,"i_lat":-6.329547,"station_name":"Cicayur","i_long":106.617853,"line":3,"distance":5968,"station_id":"CC"},{"station_name":"Cisauk","station_id":"CSK","distance":2519,"i_long":106.640411,"transit":false,"line":3,"is_transit":false,"i_lat":-6.32484,"time":4},{"i_long":106.66566,"transit":false,"station_id":"SRP","line":6,"i_lat":-6.319871,"is_transit":false,"time":4,"station_name":"Serpong","distance":1784},{"station_name":"Rawa Buntu","distance":2413,"time":4,"i_lat":-6.314823,"station_id":"RU","transit":false,"is_transit":false,"i_long":106.675475,"line":6},{"i_lat":-6.296963,"station_id":"SDM","i_long":106.712277,"line":6,"transit":false,"station_name":"Sudimara","time":6,"is_transit":false,"distance":4566},{"i_long":106.728916,"line":6,"time":4,"distance":1994,"transit":false,"is_transit":false,"i_lat":-6.288927,"station_name":"Jurangmangu","station_id":"JMU"},{"time":3,"i_long":106.74273,"i_lat":-6.276362,"transit":false,"line":6,"station_name":"Pondokranji","is_transit":false,"distance":2179,"station_id":"PDJ"},{"is_transit":false,"distance":6218,"line":6,"i_lat":-6.237242,"station_name":"Kebayoran","time":8,"transit":false,"station_id":"KBY","i_long":106.780334},{"line":6,"transit":false,"station_name":"Palmerah","station_id":"PLM","is_transit":false,"time":7,"i_lat":-6.207404,"distance":3737,"i_long":106.79689},{"line":1,"is_transit":true,"transit":true,"time":6,"i_lat":-6.185545,"i_long":106.811091,"station_name":"Tanah Abang","distance":3191,"station_id":"THB"},{"transit":false,"is_transit":false,"time":5,"i_lat":-6.20132,"line":1,"distance":2029,"station_name":"Karet","station_id":"KAT","i_long":106.816351},{"i_lat":-6.201433,"time":1,"transit":false,"is_transit":false,"distance":471,"line":1,"i_long":106.819881,"station_name":"Sudirman Baru","station_id":"SUDB"},{"transit":false,"station_name":"Sudirman","i_long":106.822649,"station_id":"SUD","line":1,"time":1,"distance":280,"is_transit":false,"i_lat":-6.202263},{"station_id":"MRI","line":2,"distance":3186,"is_transit":true,"time":4,"i_long":106.84912,"i_lat":-6.209883,"transit":true,"station_name":"Manggarai"},{"i_long":106.857948,"station_id":"TEB","transit":false,"distance":2610,"i_lat":-6.226659,"time":4,"line":2,"is_transit":false,"station_name":"Tebet"},{"transit":false,"station_id":"CW","station_name":"Cawang","time":2,"i_lat":-6.242512,"line":2,"i_long":106.856607,"is_transit":false,"distance":1230},{"is_transit":false,"line":2,"station_id":"DRN","time":3,"distance":1546,"i_lat":-6.255332,"i_long":106.85449,"transit":false,"station_name":"Duren Kalibata"},{"is_transit":false,"station_id":"PSMB","distance":824,"station_name":"Pasar Minggu Baru","i_lat":-6.263214,"i_long":106.851577,"time":2,"line":2,"transit":false}],[{"transit":false,"line":0,"distance":0,"station_id":"DAR","station_name":"Daru","i_lat":-6.338021,"time":0,"i_long":106.491338,"is_transit":false},{"time":6,"station_id":"CJT","station_name":"Cilejit","i_lat":-6.354349,"transit":false,"line":3,"i_long":106.508482,"distance":2675,"is_transit":false},{"i_long":106.568863,"transit":false,"station_name":"Parung Panjang","time":9,"distance":7025,"line":6,"station_id":"PRP","is_transit":false,"i_lat":-6.3441410000000005},{"station_id":"CC","i_lat":-6.329547,"is_transit":false,"time":8,"station_name":"Cicayur","transit":false,"distance":5968,"i_long":106.617853,"line":3},{"is_transit":false,"time":4,"transit":false,"i_lat":-6.32484,"station_id":"CSK","station_name":"Cisauk","i_long":106.640411,"line":3,"distance":2519},{"station_name":"Serpong","distance":1784,"is_transit":false,"transit":false,"station_id":"SRP","i_long":106.66566,"line":6,"time":4,"i_lat":-6.319871},{"is_transit":false,"i_lat":-6.314823,"line":6,"station_id":"RU","time":4,"station_name":"Rawa Buntu","distance":2413,"transit":false,"i_long":106.675475},{"transit":false,"time":6,"station_id":"SDM","distance":4566,"i_long":106.712277,"is_transit":false,"line":6,"i_lat":-6.296963,"station_name":"Sudimara"},{"distance":1994,"line":6,"time":4,"station_name":"Jurangmangu","is_transit":false,"i_lat":-6.288927,"i_long":106.728916,"transit":false,"station_id":"JMU"},{"time":3,"station_name":"Pondokranji","i_lat":-6.276362,"i_long":106.74273,"is_transit":false,"distance":2179,"transit":false,"station_id":"PDJ","line":6},{"i_lat":-6.237242,"transit":false,"line":6,"distance":6218,"time":8,"station_name":"Kebayoran","i_long":106.780334,"is_transit":false,"station_id":"KBY"},{"time":7,"i_long":106.79689,"line":6,"is_transit":false,"station_name":"Palmerah","i_lat":-6.207404,"distance":3737,"transit":false,"station_id":"PLM"},{"is_transit":true,"time":6,"distance":3191,"i_lat":-6.185545,"line":1,"station_name":"Tanah Abang","station_id":"THB","i_long":106.811091,"transit":true},{"station_name":"Duri","line":1,"is_transit":false,"station_id":"DU","time":8,"i_long":106.800832,"i_lat":-6.155215,"distance":3632,"transit":false},{"transit":false,"station_id":"AK","distance":1230,"is_transit":false,"i_lat":-6.144674,"time":4,"station_name":"Angke","i_long":106.79867,"line":1},{"transit":true,"is_transit":true,"i_lat":-6.132549,"distance":4102,"i_long":106.826365,"line":4,"station_id":"KPB","station_name":"Kampung Bandan","time":9},{"transit":true,"station_id":"JAKK","station_name":"Jakarta Kota","i_long":106.812439,"is_transit":true,"time":3,"distance":1364,"line":2,"i_lat":-6.137569},{"transit":false,"is_transit":false,"time":4,"line":2,"station_name":"Jayakarta","i_lat":-6.141205,"station_id":"JAY","i_long":106.820901,"distance":1264},{"station_name":"Manggabesar","line":2,"i_long":106.82482,"distance":1080,"is_transit":false,"station_id":"MGB","transit":false,"time":2,"i_lat":-6.149769},{"is_transit":false,"transit":false,"i_lat":-6.160725,"station_id":"SW","time":2,"distance":906,"line":2,"station_name":"Sawah Besar","i_long":106.827103},{"transit":false,"i_lat":-6.166716,"station_id":"JUA","line":2,"is_transit":false,"station_name":"Juanda","time":2,"distance":1149,"i_long":106.828284},{"station_id":"GDD","transit":false,"station_name":"Gondangdia","line":2,"i_long":106.832183,"distance":2015,"time":4,"is_transit":false,"i_lat":-6.186295},{"i_lat":-6.198556,"i_long":106.840169,"time":3,"distance":1750,"line":2,"station_id":"CKI","is_transit":false,"transit":false,"station_name":"Cikini"},{"station_id":"MRI","distance":1590,"i_lat":-6.209883,"line":2,"station_name":"Manggarai","time":4,"i_long":106.84912,"is_transit":false,"transit":false},{"i_lat":-6.226659,"line":2,"station_id":"TEB","station_name":"Tebet","distance":2610,"is_transit":false,"time":4,"i_long":106.857948,"transit":false},{"line":2,"i_long":106.856607,"station_id":"CW","distance":1230,"transit":false,"station_name":"Cawang","i_lat":-6.242512,"is_transit":false,"time":2},{"line":2,"station_name":"Duren Kalibata","station_id":"DRN","is_transit":false,"i_lat":-6.255332,"i_long":106.85449,"transit":false,"distance":1546,"time":3},{"line":2,"station_id":"PSMB","time":2,"transit":false,"i_lat":-6.263214,"i_long":106.851577,"is_transit":false,"station_name":"Pasar Minggu Baru","distance":824}],[{"line":0,"time":0,"i_long":106.491338,"transit":false,"station_id":"DAR","distance":0,"station_name":"Daru","is_transit":false,"i_lat":-6.338021},{"i_lat":-6.354349,"station_id":"CJT","i_long":106.508482,"time":6,"station_name":"Cilejit","distance":2675,"is_transit":false,"line":3,"transit":false},{"distance":7025,"is_transit":false,"station_id":"PRP","time":9,"line":6,"transit":false,"station_name":"Parung Panjang","i_lat":-6.3441410000000005,"i_long":106.568863},{"time":8,"line":3,"station_id":"CC","is_transit":false,"i_long":106.617853,"i_lat":-6.329547,"transit":false,"station_name":"Cicayur","distance":5968},{"i_lat":-6.32484,"time":4,"i_long":106.640411,"distance":2519,"line":3,"is_transit":false,"transit":false,"station_id":"CSK","station_name":"Cisauk"},{"i_long":106.66566,"station_name":"Serpong","transit":false,"time":4,"line":6,"station_id":"SRP","i_lat":-6.319871,"is_transit":false,"distance":1784},{"time":4,"distance":2413,"i_long":106.675475,"is_transit":false,"station_name":"Rawa Buntu","station_id":"RU","transit":false,"i_lat":-6.314823,"line":6},{"transit":false,"station_name":"Sudimara","distance":4566,"line":6,"station_id":"SDM","time":6,"i_lat":-6.296963,"i_long":106.712277,"is_transit":false},{"station_id":"JMU","i_lat":-6.288927,"line":6,"transit":false,"is_transit":false,"station_name":"Jurangmangu","time":4,"distance":1994,"i_long":106.728916},{"i_long":106.74273,"i_lat":-6.276362,"line":6,"station_id":"PDJ","is_transit":false,"distance":2179,"station_name":"Pondokranji","transit":false,"time":3},{"station_name":"Kebayoran","is_transit":false,"distance":6218,"station_id":"KBY","time":8,"transit":false,"i_long":106.780334,"line":6,"i_lat":-6.237242},{"i_lat":-6.207404,"i_long":106.79689,"transit":false,"line":6,"distance":3737,"station_name":"Palmerah","station_id":"PLM","is_transit":false,"time":7},{"i_long":106.811091,"station_id":"THB","distance":3191,"station_name":"Tanah Abang","time":6,"transit":true,"i_lat":-6.185545,"is_transit":true,"line":1},{"station_id":"DU","station_name":"Duri","i_long":106.800832,"line":1,"distance":3632,"i_lat":-6.155215,"transit":false,"is_transit":false,"time":8},{"time":4,"transit":false,"i_long":106.79867,"is_transit":false,"distance":1230,"station_id":"AK","i_lat":-6.144674,"line":1,"station_name":"Angke"},{"i_lat":-6.132549,"station_id":"KPB","time":9,"station_name":"Kampung Bandan","transit":true,"distance":4102,"i_long":106.826365,"line":4,"is_transit":true},{"time":3,"i_long":106.836569,"transit":false,"is_transit":false,"line":11,"i_lat":-6.14505,"station_name":"Rajawali","station_id":"RJW","distance":1444},{"distance":1901,"transit":false,"time":5,"i_long":106.839204,"station_name":"Kemayoran","line":11,"i_lat":-6.161728,"is_transit":false,"station_id":"KMO"},{"time":4,"i_lat":-6.174784,"transit":false,"line":11,"distance":1436,"station_name":"Pasar Senen","i_long":106.84368,"station_id":"PSE","is_transit":false},{"station_id":"GST","i_lat":-6.185975,"distance":1567,"time":8,"is_transit":false,"station_name":"Gang Sentiong","i_long":106.850107,"line":11,"transit":false},{"line":11,"distance":973,"i_lat":-6.193792,"is_transit":false,"i_long":106.855437,"time":1,"station_name":"Kramat","transit":false,"station_id":"KMT"},{"line":11,"station_name":"Pondok Jati","is_transit":false,"station_id":"POK","transit":false,"distance":1829,"i_long":106.861737,"i_lat":-6.209188,"time":2},{"i_lat":-6.215091,"transit":true,"distance":1236,"station_name":"Jatinegara","i_long":106.86807400000001,"time":9,"line":1,"station_id":"JNG","is_transit":true},{"station_name":"Matraman","time":2,"distance":1377,"transit":false,"is_transit":false,"i_long":106.858896,"line":1,"i_lat":-6.212485,"station_id":"MTR"},{"time":2,"i_long":106.84912,"station_name":"Manggarai","i_lat":-6.209883,"transit":true,"distance":1275,"line":2,"is_transit":true,"station_id":"MRI"},{"transit":false,"i_lat":-6.226659,"line":2,"time":4,"station_id":"TEB","i_long":106.857948,"is_transit":false,"station_name":"Tebet","distance":2610},{"transit":false,"station_name":"Cawang","station_id":"CW","i_long":106.856607,"is_transit":false,"time":2,"i_lat":-6.242512,"distance":1230,"line":2},{"station_name":"Duren Kalibata","time":3,"distance":1546,"station_id":"DRN","transit":false,"i_lat":-6.255332,"i_long":106.85449,"is_transit":false,"line":2},{"i_lat":-6.263214,"station_name":"Pasar Minggu Baru","i_long":106.851577,"distance":824,"line":2,"time":2,"station_id":"PSMB","transit":false,"is_transit":false}]]}