{"data":[[{"is_transit":false,"transit":false,"distance":0,"station_id":"DAR","i_long":106.491338,"line":0,"station_name":"Daru","time":0,"i_lat":-6.338021},{"station_id":"CJT","time":6,"is_transit":false,"transit":false,"i_long":106.508482,"station_name":"Cilejit","line":3,"i_lat":-6.354349,"distance":2675},{"i_long":106.568863,"station_name":"Parung Panjang","time":9,"i_lat":-6.3441410000000005,"station_id":"PRP","line":6,"is_transit":false,"transit":false,"distance":7025},{"distance":5968,"time":8,"station_name":"Cicayur","is_transit":false,"i_long":106.617853,"line":3,"station_id":"CC","transit":false,"i_lat":-6.329547},{"is_transit":false,"time":4,"distance":2519,"i_long":106.640411,"line":3,"transit":false,"station_name":"Cisauk","station_id":"CSK","i_lat":-6.32484},{"station_id":"SRP","station_name":"Serpong","i_long":106.66566,"transit":false,"is_transit":false,"i_lat":-6.319871,"time":4,"distance":1784,"line":6},{"station_id":"RU","i_lat":-6.314823,"time":4,"i_long":106.675475,"distance":2413,"line":6,"station_name":"Rawa Buntu","is_transit":false,"transit":false},{"i_long":106.712277,"station_name":"Sudimara","transit":false,"station_id":"SDM","time":6,"is_transit":false,"distance":4566,"i_lat":-6.296963,"line":6},{"time":4,"line":6,"distance":1994,"station_name":"Jurangmangu","is_transit":false,"station_id":"JMU","i_long":106.728916,"i_lat":-6.288927,"transit":false},{"transit":false,"i_lat":-6.276362,"station_name":"Pondokranji","distance":2179,"i_long":106.74273,"line":6,"is_transit":false,"time":3,"station_id":"PDJ"},{"time":8,"station_id":"KBY","station_name":"Kebayoran","transit":false,"line":6,"i_lat":-6.237242,"i_long":106.780334,"distance":6218,"is_transit":false},{"station_id":"PLM","is_transit":false,"distance":3737,"time":7,"station_name":"Palmerah","i_long":106.79689,"i_lat":-6.207404,"line":6,"transit":false},{"time":6,"distance":3191,"station_id":"THB","line":1,"is_transit":true,"i_long":106.811091,"transit":true,"i_lat":-6.185545,"station_name":"Tanah Abang"},{"station_name":"Karet","time":5,"transit":false,"i_lat":-6.20132,"line":1,"distance":2029,"i_long":106.816351,"is_transit":false,"station_id":"KAT"},{"station_name":"Sudirman Baru","station_id":"SUDB","time":1,"i_lat":-6.201433,"line":1,"distance":471,"i_long":106.819881,"transit":false,"is_transit":false},{"i_long":106.822649,"i_lat":-6.202263,"station_id":"SUD","station_name":"Sudirman","transit":false,"distance":280,"time":1,"line":1,"is_transit":false},{"station_name":"Manggarai","is_transit":false,"station_id":"MRI","i_lat":-6.209883,"transit":false,"line":2,"distance":3186,"time":4,"i_long":106.84912},{"station_name":"Matraman","i_lat":-6.212485,"station_id":"MTR","transit":false,"line":1,"time":2,"is_transit":false,"i_long":106.858896,"distance":1275},{"distance":1377,"i_lat":-6.215091,"station_id":"JNG","line":1,"station_name":"Jatinegara","is_transit":false,"time":8,"transit":false,"i_long":106.86807400000001},{"i_lat":-6.2135,"line":1,"time":3,"transit":false,"station_id":"KLD","station_name":"Klender","distance":3395,"is_transit":false,"i_long":106.899548},{"distance":3100,"time":2,"station_id":"BUA","line":1,"i_long":106.922662,"transit":false,"station_name":"Buaran","is_transit":false,"i_lat":-6.215568},{"transit":false,"distance":1305,"time":1,"station_id":"KLDB","i_long":106.939679,"station_name":"Klenderbaru","line":1,"i_lat":-6.217455,"is_transit":false}],[{"i_lat":-6.338021,"station_name":"Daru","line":0,"distance":0,"transit":false,"station_id":"DAR","i_long":106.491338,"is_transit":false,"time":0},{"time":6,"station_name":"Cilejit","i_long":106.508482,"is_transit":false,"line":3,"transit":false,"distance":2675,"i_lat":-6.354349,"station_id":"CJT"},{"time":9,"distance":7025,"station_id":"PRP","is_transit":false,"i_long":106.568863,"transit":false,"station_name":"Parung Panjang","line":6,"i_lat":-6.3441410000000005},{"station_name":"Cicayur","line":3,"is_transit":false,"i_lat":-6.329547,"distance":5968,"station_id":"CC","i_long":106.617853,"transit":false,"time":8},{"time":4,"transit":false,"distance":2519,"station_id":"CSK","station_name":"Cisauk","i_lat":-6.32484,"i_long":106.640411,"line":3,"is_transit":false},{"time":4,"distance":1784,"station_id":"SRP","i_lat":-6.319871,"station_name":"Serpong","i_long":106.66566,"is_transit":false,"line":6,"transit":false},{"time":4,"transit":false,"i_lat":-6.314823,"distance":2413,"station_id":"RU","station_name":"Rawa Buntu","is_transit":false,"i_long":106.675475,"line":6},{"transit":false,"station_name":"Sudimara","i_lat":-6.296963,"line":6,"distance":4566,"station_id":"SDM","is_transit":false,"i_long":106.712277,"time":6},{"line":6,"distance":1994,"i_lat":-6.288927,"time":4,"station_name":"Jurangmangu","transit":false,"station_id":"JMU","i_long":106.728916,"is_transit":false},{"distance":2179,"station_id":"PDJ","line":6,"station_name":"Pondokranji","i_lat":-6.276362,"is_transit":false,"i_long":106.74273,"transit":false,"time":3},{"distance":6218,"station_id":"KBY","is_transit":false,"line":6,"i_lat":-6.237242,"transit":false,"time":8,"station_name":"Kebayoran","i_long":106.780334},{"station_name":"Palmerah","line":6,"station_id":"PLM","i_lat":-6.207404,"i_long":106.79689,"time":7,"is_transit":false,"distance":3737,"transit":false},{"station_name":"Tanah Abang","is_transit":true,"station_id":"THB","transit":true,"i_lat":-6.185545,"distance":3191,"i_long":106.811091,"line":1,"time":6},{"line":1,"i_long":106.800832,"i_lat":-6.155215,"station_name":"Duri","transit":false,"distance":3632,"station_id":"DU","time":8,"is_transit":false},{"line":1,"is_transit":false,"distance":1230,"i_long":106.79867,"transit":false,"station_name":"Angke","i_lat":-6.144674,"station_id":"AK","time":4},{"transit":true,"distance":4102,"line":4,"station_id":"KPB","i_lat":-6.132549,"is_transit":true,"i_long":106.826365,"time":9,"station_name":"Kampung Bandan"},{"is_transit":false,"time":3,"station_name":"Rajawali","transit":false,"distance":1444,"line":11,"station_id":"RJW","i_lat":-6.14505,"i_long":106.836569},{"is_transit":false,"i_long":106.839204,"distance":1901,"line":11,"i_lat":-6.161728,"station_id":"KMO","station_name":"Kemayoran","time":5,"transit":false},{"time":4,"distance":1436,"station_id":"PSE","station_name":"Pasar Senen","is_transit":false,"i_lat":-6.174784,"transit":false,"line":11,"i_long":106.84368},{"distance":1567,"is_transit":false,"i_long":106.850107,"transit":false,"time":8,"station_id":"GST","line":11,"i_lat":-6.185975,"station_name":"Gang Sentiong"},{"transit":false,"line":11,"i_long":106.855437,"i_lat":-6.193792,"distance":973,"time":1,"is_transit":false,"station_name":"Kramat","station_id":"KMT"},{"i_long":106.861737,"transit":false,"station_id":"POK","i_lat":-6.209188,"station_name":"Pondok Jati","distance":1829,"is_transit":false,"time":2,"line":11},{"i_long":106.86807400000001,"line":1,"station_id":"JNG","i_lat":-6.215091,"time":9,"distance":1236,"station_name":"Jatinegara","transit":true,"is_transit":true},{"time":3,"station_id":"KLD","distance":3395,"is_transit":false,"i_long":106.899548,"i_lat":-6.2135,"station_name":"Klender","line":1,"transit":false},{"line":1,"distance":3100,"station_id":"BUA","is_transit":false,"transit":false,"station_name":"Buaran","i_long":106.922662,"time":2,"i_lat":-6.215568},{"station_name":"Klenderbaru","i_long":106.939679,"distance":1305,"time":1,"i_lat":-6.217455,"line":1,"transit":false,"is_transit":false,"station_id":"KLDB"}],[{"time":0,"line":0,"station_id":"DAR","distance":0,"station_name":"Daru","i_long":106.491338,"i_lat":-6.338021,"is_transit":false,"transit":false},{"is_transit":false,"line":3,"time":6,"station_name":"Cilejit","i_long":106.508482,"transit":false,"station_id":"CJT","distance":2675,"i_lat":-6.354349},{"station_name":"Parung Panjang","distance":7025,"i_lat":-6.3441410000000005,"time":9,"is_transit":false,"i_long":106.568863,"transit":false,"station_id":"PRP","line":6},{"i_lat":-6.329547,"is_transit":false,"station_id":"CC","line":3,"station_name":"Cicayur","transit":false,"time":8,"i_long":106.617853,"distance":5968},{"time":4,"i_long":106.640411,"station_id":"CSK","is_transit":false,"transit":false,"distance":2519,"line":3,"i_lat":-6.32484,"station_name":"Cisauk"},{"station_id":"SRP","station_name":"Serpong","transit":false,"is_transit":false,"distance":1784,"time":4,"i_lat":-6.319871,"i_long":106.66566,"line":6},{"i_lat":-6.314823,"station_id":"RU","distance":2413,"line":6,"station_name":"Rawa Buntu","i_long":106.675475,"transit":false,"is_transit":false,"time":4},{"transit":false,"station_id":"SDM","is_transit":false,"station_name":"Sudimara","distance":4566,"i_long":106.712277,"time":6,"i_lat":-6.296963,"line":6},{"distance":1994,"i_lat":-6.288927,"line":6,"time":4,"station_id":"JMU","is_transit":false,"i_long":106.728916,"transit":false,"station_name":"Jurangmangu"},{"i_lat":-6.276362,"line":6,"time":3,"distance":2179,"station_name":"Pondokranji","i_long":106.74273,"station_id":"PDJ","is_transit":false,"transit":false},{"line":6,"transit":false,"is_transit":false,"station_name":"Kebayoran","station_id":"KBY","time":8,"distance":6218,"i_lat":-6.237242,"i_long":106.780334},{"time":7,"i_long":106.79689,"station_id":"PLM","is_transit":false,"station_name":"Palmerah","distance":3737,"transit":false,"i_lat":-6.207404,"line":6},{"time":6,"is_transit":true,"station_name":"Tanah Abang","distance":3191,"line":1,"station_id":"THB","i_long":106.811091,"transit":true,"i_lat":-6.185545},{"is_transit":false,"i_lat":-6.155215,"i_long":106.800832,"line":1,"station_id":"DU","transit":false,"station_name":"Duri","distance":3632,"time":8},{"transit":false,"time":4,"station_name":"Angke","is_transit":false,"station_id":"AK","i_lat":-6.144674,"i_long":106.79867,"distance":1230,"line":1},{"time":9,"station_id":"KPB","distance":4102,"is_transit":true,"transit":true,"i_lat":-6.132549,"i_long":106.826365,"line":4,"station_name":"Kampung Bandan"},{"station_name":"Jakarta Kota","transit":true,"i_lat":-6.137569,"distance":1364,"is_transit":true,"station_id":"JAKK","i_long":106.812439,"line":2,"time":3},{"is_transit":false,"time":4,"distance":1264,"i_long":106.820901,"transit":false,"station_name":"Jayakarta","station_id":"JAY","i_lat":-6.141205,"line":2},{"i_lat":-6.149769,"is_transit":false,"i_long":106.82482,"line":2,"transit":false,"time":2,"station_id":"MGB","distance":1080,"station_name":"Manggabesar"},{"transit":false,"time":2,"station_name":"Sawah Besar","i_lat":-6.160725,"line":2,"distance":906,"station_id":"SW","is_transit":false,"i_long":106.827103},{"time":2,"transit":false,"distance":1149,"station_name":"Juanda","i_long":106.828284,"station_id":"JUA","is_transit":false,"line":2,"i_lat":-6.166716},{"transit":false,"is_transit":false,"i_lat":-6.186295,"time":4,"i_long":106.832183,"distance":2015,"station_name":"Gondangdia","station_id":"GDD","line":2},{"time":3,"line":2,"station_name":"Cikini","transit":false,"station_id":"CKI","i_long":106.840169,"i_lat":-6.198556,"is_transit":false,"distance":1750},{"time":4,"i_long":106.84912,"is_transit":true,"station_id":"MRI","distance":1590,"station_name":"Manggarai","transit":true,"line":2,"i_lat":-6.209883},{"station_name":"Matraman","line":1,"transit":false,"i_long":106.858896,"is_transit":false,"i_lat":-6.212485,"time":2,"station_id":"MTR","distance":1275},{"station_id":"JNG","i_lat":-6.215091,"i_long":106.86807400000001,"transit":false,"time":8,"line":1,"is_transit":false,"distance":1377,"station_name":"Jatinegara"},{"time":3,"distance":3395,"transit":false,"i_long":106.899548,"is_transit":false,"line":1,"i_lat":-6.2135,"station_id":"KLD","station_name":"Klender"},{"line":1,"i_long":106.922662,"station_id":"BUA","distance":3100,"station_name":"Buaran","i_lat":-6.215568,"transit":false,"time":2,"is_transit":false},{"i_long":106.939679,"is_transit":false,"line":1,"station_id":"KLDB","station_name":"Klenderbaru","distance":1305,"time":1,"i_lat":-6.217455,"transit":false}],[{"i_lat":-6.338021,"station_name":"Daru","distance":0,"is_transit":false,"station_id":"DAR","i_long":106.491338,"transit":false,"line":0,"time":0},{"transit":false,"distance":2675,"station_name":"Cilejit","station_id":"CJT","is_transit":false,"time":6,"line":3,"i_lat":-6.354349,"i_long":106.508482},{"line":6,"time":9,"station_id":"PRP","is_transit":false,"i_lat":-6.3441410000000005,"station_name":"Parung Panjang","distance":7025,"transit":false,"i_long":106.568863},{"distance":5968,"station_name":"Cicayur","i_lat":-6.329547,"is_transit":false,"line":3,"transit":false,"time":8,"station_id":"CC","i_long":106.617853},{"distance":2519,"is_transit":false,"transit":false,"time":4,"station_name":"Cisauk","i_lat":-6.32484,"station_id":"CSK","i_long":106.640411,"line":3},{"distance":1784,"station_id":"SRP","i_lat":-6.319871,"transit":false,"i_long":106.66566,"time":4,"station_name":"Serpong","line":6,"is_transit":false},{"i_lat":-6.314823,"line":6,"station_name":"Rawa Buntu","distance":2413,"station_id":"RU","is_transit":false,"time":4,"transit":false,"i_long":106.675475},{"distance":4566,"transit":false,"i_long":106.712277,"is_transit":false,"line":6,"time":6,"station_id":"SDM","i_lat":-6.296963,"station_name":"Sudimara"},{"i_lat":-6.288927,"distance":1994,"line":6,"i_long":106.728916,"station_id":"JMU","time":4,"station_name":"Jurangmangu","transit":false,"is_transit":false},{"i_long":106.74273,"station_id":"PDJ","station_name":"Pondokranji","is_transit":false,"i_lat":-6.276362,"time":3,"transit":false,"distance":2179,"line":6},{"distance":6218,"station_name":"Kebayoran","time":8,"station_id":"KBY","i_lat":-6.237242,"is_transit":false,"line":6,"i_long":106.780334,"transit":false},{"is_transit":false,"station_name":"Palmerah","i_long":106.79689,"transit":false,"station_id":"PLM","time":7,"line":6,"distance":3737,"i_lat":-6.207404},{"i_lat":-6.185545,"station_name":"Tanah Abang","time":6,"distance":3191,"station_id":"THB","transit":true,"i_long":106.811091,"is_transit":true,"line":1},{"distance":2029,"station_id":"KAT","time":5,"transit":false,"is_transit":false,"i_lat":-6.20132,"station_name":"Karet","i_long":106.816351,"line":1},{"transit":false,"time":1,"distance":471,"station_id":"SUDB","is_transit":false,"station_name":"Sudirman Baru","i_long":106.819881,"line":1,"i_lat":-6.201433},{"i_lat":-6.202263,"distance":280,"transit":false,"is_transit":false,"line":1,"i_long":106.822649,"time":1,"station_name":"Sudirman","station_id":"SUD"},{"line":2,"i_lat":-6.209883,"is_transit":true,"transit":true,"time":4,"station_name":"Manggarai","distance":3186,"i_long":106.84912,"station_id":"MRI"},{"is_transit":false,"station_name":"Cikini","distance":1590,"transit":false,"time":4,"i_lat":-6.198556,"line":2,"i_long":106.840169,"station_id":"CKI"},{"station_name":"Gondangdia","line":2,"distance":1750,"transit":false,"i_lat":-6.186295,"station_id":"GDD","time":3,"is_transit":false,"i_long":106.832183},{"station_id":"JUA","transit":false,"line":2,"distance":2015,"i_lat":-6.166716,"station_name":"Juanda","i_long":106.828284,"is_transit":false,"time":4},{"distance":1149,"station_id":"SW","is_transit":false,"transit":false,"line":2,"station_name":"Sawah Besar","i_long":106.827103,"time":2,"i_lat":-6.160725},{"transit":false,"is_transit":false,"station_id":"MGB","line":2,"i_lat":-6.149769,"time":2,"distance":906,"station_name":"Manggabesar","i_long":106.82482},{"time":2,"station_id":"JAY","i_lat":-6.141205,"distance":1080,"is_transit":false,"transit":false,"i_long":106.820901,"station_name":"Jayakarta","line":2},{"is_transit":true,"transit":true,"i_lat":-6.137569,"station_name":"Jakarta Kota","line":2,"station_id":"JAKK","time":4,"i_long":106.812439,"distance":1264},{"distance":1364,"line":4,"transit":true,"time":3,"i_lat":-6.132549,"i_long":106.826365,"station_name":"Kampung Bandan","station_id":"KPB","is_transit":true},{"station_name":"Rajawali","transit":false,"is_transit":false,"time":3,"i_long":106.836569,"station_id":"RJW","line":11,"distance":1444,"i_lat":-6.14505},{"distance":1901,"line":11,"is_transit":false,"transit":false,"station_name":"Kemayoran","i_lat":-6.161728,"time":5,"station_id":"KMO","i_long":106.839204},{"i_lat":-6.174784,"time":4,"line":11,"station_name":"Pasar Senen","is_transit":false,"i_long":106.84368,"transit":false,"distance":1436,"station_id":"PSE"},{"station_name":"Gang Sentiong","time":8,"i_long":106.850107,"line":11,"transit":false,"is_transit":false,"distance":1567,"i_lat":-6.185975,"station_id":"GST"},{"distance":973,"is_transit":false,"i_lat":-6.193792,"transit":false,"i_long":106.855437,"time":1,"station_name":"Kramat","station_id":"KMT","line":11},{"time":2,"distance":1829,"i_lat":-6.209188,"station_id":"POK","is_transit":false,"station_name":"Pondok Jati","transit":false,"i_long":106.861737,"line":11},{"distance":1236,"is_transit":true,"time":9,"i_long":106.86807400000001,"station_name":"Jatinegara","line":1,"transit":true,"i_lat":-6.215091,"station_id":"JNG"},{"i_lat":-6.2135,"station_id":"KLD","time":3,"station_name":"Klender","transit":false,"distance":3395,"is_transit":false,"i_long":106.899548,"line":1},{"station_id":"BUA","distance":3100,"i_lat":-6.215568,"line":1,"station_name":"Buaran","is_transit":false,"time":2,"i_long":106.922662,"transit":false},{"distance":1305,"i_lat":-6.217455,"time":1,"station_name":"Klenderbaru","station_id":"KLDB","line":1,"i_long":106.939679,"is_transit":false,"transit":false}]]}