{"data":[[{"time":0,"station_name":"Daru","station_id":"DAR","is_transit":false,"distance":0,"i_long":106.491338,"line":0,"transit":false,"i_lat":-6.338021},{"transit":false,"i_long":106.508482,"is_transit":false,"time":6,"distance":2675,"station_id":"CJT","station_name":"Cilejit","line":3,"i_lat":-6.354349},{"station_name":"Parung Panjang","is_transit":false,"time":9,"station_id":"PRP","distance":7025,"i_long":106.568863,"i_lat":-6.3441410000000005,"line":6,"transit":false},{"is_transit":false,"station_id":"CC","distance":5968,"i_lat":-6.329547,"station_name":"Cicayur","line":3,"transit":false,"i_long":106.617853,"time":8},{"time":4,"distance":2519,"transit":false,"i_long":106.640411,"line":3,"station_id":"CSK","station_name":"Cisauk","is_transit":false,"i_lat":-6.32484},{"i_lat":-6.319871,"i_long":106.66566,"line":6,"transit":false,"station_id":"SRP","is_transit":false,"time":4,"station_name":"Serpong","distance":1784},{"distance":2413,"line":6,"is_transit":false,"station_name":"Rawa Buntu","station_id":"RU","time":4,"i_lat":-6.314823,"i_long":106.675475,"transit":false},{"i_long":106.712277,"distance":4566,"line":6,"station_id":"SDM","station_name":"Sudimara","transit":false,"is_transit":false,"time":6,"i_lat":-6.296963},{"distance":1994,"i_lat":-6.288927,"i_long":106.728916,"line":6,"transit":false,"station_name":"Jurangmangu","station_id":"JMU","is_transit":false,"time":4},{"i_lat":-6.276362,"transit":false,"station_id":"PDJ","is_transit":false,"time":3,"distance":2179,"i_long":106.74273,"line":6,"station_name":"Pondokranji"},{"station_id":"KBY","i_lat":-6.237242,"transit":false,"is_transit":false,"time":8,"distance":6218,"i_long":106.780334,"station_name":"Kebayoran","line":6},{"transit":false,"i_lat":-6.207404,"station_id":"PLM","time":7,"station_name":"Palmerah","distance":3737,"is_transit":false,"i_long":106.79689,"line":6},{"is_transit":true,"line":1,"station_id":"THB","i_lat":-6.185545,"time":6,"distance":3191,"i_long":106.811091,"station_name":"Tanah Abang","transit":true},{"is_transit":false,"i_lat":-6.20132,"transit":false,"time":5,"station_name":"Karet","line":1,"i_long":106.816351,"station_id":"KAT","distance":2029},{"time":1,"i_long":106.819881,"is_transit":false,"i_lat":-6.201433,"station_name":"Sudirman Baru","line":1,"station_id":"SUDB","distance":471,"transit":false},{"i_long":106.822649,"distance":280,"station_name":"Sudirman","line":1,"transit":false,"time":1,"station_id":"SUD","is_transit":false,"i_lat":-6.202263},{"station_id":"MRI","time":4,"station_name":"Manggarai","i_long":106.84912,"transit":true,"distance":3186,"line":2,"i_lat":-6.209883,"is_transit":true},{"transit":false,"station_name":"Tebet","i_long":106.857948,"is_transit":false,"distance":2610,"line":2,"time":4,"i_lat":-6.226659,"station_id":"TEB"},{"transit":false,"time":2,"station_id":"CW","distance":1230,"station_name":"Cawang","line":2,"i_lat":-6.242512,"i_long":106.856607,"is_transit":false},{"i_long":106.85449,"time":3,"is_transit":false,"distance":1546,"transit":false,"station_name":"Duren Kalibata","station_id":"DRN","i_lat":-6.255332,"line":2},{"distance":824,"i_long":106.851577,"transit":false,"station_id":"PSMB","station_name":"Pasar Minggu Baru","line":2,"time":2,"i_lat":-6.263214,"is_transit":false},{"line":2,"time":2,"i_long":106.843999,"is_transit":false,"station_name":"Pasar Minggu","transit":false,"distance":2380,"station_id":"PSM","i_lat":-6.2842400000000005},{"i_long":106.838896,"station_name":"Tanjung Barat","transit":false,"station_id":"TNT","is_transit":false,"time":4,"distance":2820,"i_lat":-6.3080680000000005,"line":2},{"time":3,"station_id":"LNA","i_lat":-6.330363,"station_name":"Lenteng Agung","i_long":106.832616,"is_transit":false,"line":2,"transit":false,"distance":2671},{"is_transit":false,"transit":false,"time":2,"distance":1029,"station_id":"UP","station_name":"Univ. Pancasila","i_lat":-6.339291,"i_long":106.834175,"line":2}],[{"is_transit":false,"distance":0,"i_long":106.491338,"station_id":"DAR","time":0,"station_name":"Daru","i_lat":-6.338021,"line":0,"transit":false},{"station_id":"CJT","distance":2675,"i_lat":-6.354349,"time":6,"is_transit":false,"transit":false,"line":3,"i_long":106.508482,"station_name":"Cilejit"},{"station_id":"PRP","i_lat":-6.3441410000000005,"time":9,"station_name":"Parung Panjang","distance":7025,"transit":false,"is_transit":false,"i_long":106.568863,"line":6},{"line":3,"station_id":"CC","transit":false,"station_name":"Cicayur","distance":5968,"is_transit":false,"i_long":106.617853,"time":8,"i_lat":-6.329547},{"is_transit":false,"i_lat":-6.32484,"i_long":106.640411,"line":3,"transit":false,"time":4,"distance":2519,"station_name":"Cisauk","station_id":"CSK"},{"transit":false,"i_long":106.66566,"distance":1784,"is_transit":false,"line":6,"time":4,"station_name":"Serpong","i_lat":-6.319871,"station_id":"SRP"},{"is_transit":false,"i_lat":-6.314823,"station_name":"Rawa Buntu","i_long":106.675475,"time":4,"transit":false,"distance":2413,"line":6,"station_id":"RU"},{"line":6,"station_id":"SDM","transit":false,"distance":4566,"i_long":106.712277,"is_transit":false,"i_lat":-6.296963,"time":6,"station_name":"Sudimara"},{"transit":false,"line":6,"time":4,"is_transit":false,"station_id":"JMU","i_lat":-6.288927,"i_long":106.728916,"distance":1994,"station_name":"Jurangmangu"},{"i_lat":-6.276362,"transit":false,"line":6,"station_name":"Pondokranji","is_transit":false,"time":3,"station_id":"PDJ","i_long":106.74273,"distance":2179},{"i_long":106.780334,"time":8,"distance":6218,"line":6,"transit":false,"station_id":"KBY","i_lat":-6.237242,"is_transit":false,"station_name":"Kebayoran"},{"is_transit":false,"i_lat":-6.207404,"line":6,"transit":false,"station_name":"Palmerah","station_id":"PLM","time":7,"distance":3737,"i_long":106.79689},{"station_name":"Tanah Abang","transit":true,"line":1,"is_transit":true,"station_id":"THB","i_long":106.811091,"i_lat":-6.185545,"time":6,"distance":3191},{"line":1,"station_id":"DU","i_lat":-6.155215,"transit":false,"time":8,"distance":3632,"is_transit":false,"i_long":106.800832,"station_name":"Duri"},{"time":4,"station_name":"Angke","line":1,"station_id":"AK","distance":1230,"i_lat":-6.144674,"is_transit":false,"transit":false,"i_long":106.79867},{"i_long":106.826365,"distance":4102,"station_name":"Kampung Bandan","is_transit":true,"station_id":"KPB","i_lat":-6.132549,"transit":true,"line":4,"time":9},{"is_transit":true,"distance":1364,"station_name":"Jakarta Kota","i_lat":-6.137569,"i_long":106.812439,"line":2,"station_id":"JAKK","time":3,"transit":true},{"i_lat":-6.141205,"transit":false,"station_id":"JAY","time":4,"is_transit":false,"i_long":106.820901,"line":2,"station_name":"Jayakarta","distance":1264},{"time":2,"distance":1080,"station_name":"Manggabesar","transit":false,"i_long":106.82482,"is_transit":false,"station_id":"MGB","line":2,"i_lat":-6.149769},{"transit":false,"time":2,"distance":906,"is_transit":false,"station_name":"Sawah Besar","station_id":"SW","i_lat":-6.160725,"i_long":106.827103,"line":2},{"time":2,"station_name":"Juanda","i_long":106.828284,"i_lat":-6.166716,"line":2,"is_transit":false,"transit":false,"distance":1149,"station_id":"JUA"},{"i_long":106.832183,"line":2,"time":4,"station_name":"Gondangdia","is_transit":false,"distance":2015,"transit":false,"station_id":"GDD","i_lat":-6.186295},{"line":2,"station_id":"CKI","is_transit":false,"time":3,"i_long":106.840169,"transit":false,"i_lat":-6.198556,"distance":1750,"station_name":"Cikini"},{"is_transit":false,"i_lat":-6.209883,"line":2,"transit":false,"station_id":"MRI","station_name":"Manggarai","distance":1590,"i_long":106.84912,"time":4},{"time":4,"is_transit":false,"i_long":106.857948,"transit":false,"station_name":"Tebet","line":2,"station_id":"TEB","distance":2610,"i_lat":-6.226659},{"distance":1230,"line":2,"i_long":106.856607,"transit":false,"time":2,"i_lat":-6.242512,"station_name":"Cawang","is_transit":false,"station_id":"CW"},{"time":3,"distance":1546,"is_transit":false,"station_name":"Duren Kalibata","transit":false,"i_long":106.85449,"line":2,"i_lat":-6.255332,"station_id":"DRN"},{"i_long":106.851577,"station_name":"Pasar Minggu Baru","time":2,"distance":824,"station_id":"PSMB","i_lat":-6.263214,"line":2,"transit":false,"is_transit":false},{"distance":2380,"i_long":106.843999,"line":2,"is_transit":false,"i_lat":-6.2842400000000005,"time":2,"station_id":"PSM","transit":false,"station_name":"Pasar Minggu"},{"transit":false,"station_id":"TNT","i_lat":-6.3080680000000005,"time":4,"i_long":106.838896,"is_transit":false,"distance":2820,"station_name":"Tanjung Barat","line":2},{"line":2,"transit":false,"station_id":"LNA","i_lat":-6.330363,"i_long":106.832616,"station_name":"Lenteng Agung","is_transit":false,"distance":2671,"time":3},{"time":2,"distance":1029,"line":2,"station_id":"UP","i_lat":-6.339291,"transit":false,"station_name":"Univ. Pancasila","is_transit":false,"i_long":106.834175}],[{"transit":false,"line":0,"time":0,"i_lat":-6.338021,"station_name":"Daru","station_id":"DAR","is_transit":false,"i_long":106.491338,"distance":0},{"line":3,"station_id":"CJT","is_transit":false,"transit":false,"time":6,"distance":2675,"station_name":"Cilejit","i_lat":-6.354349,"i_long":106.508482},{"i_long":106.568863,"line":6,"transit":false,"time":9,"distance":7025,"station_id":"PRP","i_lat":-6.3441410000000005,"is_transit":false,"station_name":"Parung Panjang"},{"i_lat":-6.329547,"station_name":"Cicayur","distance":5968,"is_transit":false,"time":8,"line":3,"i_long":106.617853,"transit":false,"station_id":"CC"},{"distance":2519,"i_lat":-6.32484,"station_id":"CSK","transit":false,"time":4,"i_long":106.640411,"is_transit":false,"line":3,"station_name":"Cisauk"},{"transit":false,"line":6,"i_long":106.66566,"distance":1784,"station_name":"Serpong","time":4,"station_id":"SRP","i_lat":-6.319871,"is_transit":false},{"time":4,"transit":false,"station_id":"RU","i_lat":-6.314823,"is_transit":false,"station_name":"Rawa Buntu","i_long":106.675475,"line":6,"distance":2413},{"is_transit":false,"time":6,"distance":4566,"transit":false,"i_lat":-6.296963,"i_long":106.712277,"line":6,"station_name":"Sudimara","station_id":"SDM"},{"station_id":"JMU","i_long":106.728916,"transit":false,"is_transit":false,"line":6,"i_lat":-6.288927,"distance":1994,"time":4,"station_name":"Jurangmangu"},{"station_id":"PDJ","i_lat":-6.276362,"line":6,"i_long":106.74273,"distance":2179,"is_transit":false,"station_name":"Pondokranji","transit":false,"time":3},{"time":8,"i_long":106.780334,"distance":6218,"line":6,"station_name":"Kebayoran","is_transit":false,"transit":false,"i_lat":-6.237242,"station_id":"KBY"},{"transit":false,"station_id":"PLM","i_long":106.79689,"distance":3737,"is_transit":false,"i_lat":-6.207404,"line":6,"station_name":"Palmerah","time":7},{"transit":true,"distance":3191,"i_long":106.811091,"line":1,"time":6,"station_id":"THB","is_transit":true,"i_lat":-6.185545,"station_name":"Tanah Abang"},{"transit":false,"station_name":"Duri","i_lat":-6.155215,"station_id":"DU","line":1,"time":8,"is_transit":false,"distance":3632,"i_long":106.800832},{"i_long":106.79867,"time":4,"line":1,"is_transit":false,"station_id":"AK","station_name":"Angke","distance":1230,"i_lat":-6.144674,"transit":false},{"station_name":"Kampung Bandan","is_transit":true,"transit":true,"time":9,"distance":4102,"i_long":106.826365,"station_id":"KPB","line":4,"i_lat":-6.132549},{"is_transit":false,"time":3,"transit":false,"distance":1444,"i_long":106.836569,"station_id":"RJW","station_name":"Rajawali","i_lat":-6.14505,"line":11},{"i_lat":-6.161728,"i_long":106.839204,"line":11,"distance":1901,"transit":false,"station_name":"Kemayoran","is_transit":false,"time":5,"station_id":"KMO"},{"i_lat":-6.174784,"distance":1436,"transit":false,"station_id":"PSE","is_transit":false,"time":4,"i_long":106.84368,"line":11,"station_name":"Pasar Senen"},{"distance":1567,"i_lat":-6.185975,"i_long":106.850107,"line":11,"is_transit":false,"station_id":"GST","transit":false,"station_name":"Gang Sentiong","time":8},{"distance":973,"station_name":"Kramat","line":11,"station_id":"KMT","time":1,"transit":false,"i_lat":-6.193792,"i_long":106.855437,"is_transit":false},{"station_name":"Pondok Jati","i_lat":-6.209188,"station_id":"POK","is_transit":false,"distance":1829,"line":11,"time":2,"i_long":106.861737,"transit":false},{"transit":true,"line":1,"station_name":"Jatinegara","distance":1236,"i_lat":-6.215091,"station_id":"JNG","is_transit":true,"time":9,"i_long":106.86807400000001},{"station_id":"MTR","station_name":"Matraman","time":2,"i_lat":-6.212485,"i_long":106.858896,"distance":1377,"line":1,"is_transit":false,"transit":false},{"station_name":"Manggarai","i_lat":-6.209883,"is_transit":true,"i_long":106.84912,"line":2,"transit":true,"station_id":"MRI","time":2,"distance":1275},{"station_name":"Tebet","station_id":"TEB","time":4,"is_transit":false,"line":2,"i_lat":-6.226659,"distance":2610,"transit":false,"i_long":106.857948},{"i_lat":-6.242512,"i_long":106.856607,"transit":false,"distance":1230,"station_id":"CW","time":2,"is_transit":false,"station_name":"Cawang","line":2},{"i_lat":-6.255332,"station_id":"DRN","time":3,"distance":1546,"line":2,"i_long":106.85449,"transit":false,"station_name":"Duren Kalibata","is_transit":false},{"distance":824,"station_name":"Pasar Minggu Baru","station_id":"PSMB","line":2,"is_transit":false,"i_lat":-6.263214,"transit":false,"time":2,"i_long":106.851577},{"time":2,"transit":false,"i_lat":-6.2842400000000005,"line":2,"distance":2380,"station_name":"Pasar Minggu","is_transit":false,"i_long":106.843999,"station_id":"PSM"},{"i_lat":-6.3080680000000005,"station_name":"Tanjung Barat","station_id":"TNT","distance":2820,"transit":false,"time":4,"i_long":106.838896,"is_transit":false,"line":2},{"line":2,"distance":2671,"station_name":"Lenteng Agung","i_long":106.832616,"station_id":"LNA","is_transit":false,"transit":false,"i_lat":-6.330363,"time":3},{"time":2,"is_transit":false,"station_name":"Univ. Pancasila","line":2,"station_id":"UP","i_long":106.834175,"distance":1029,"transit":false,"i_lat":-6.339291}]]}