{"data":[[{"transit":false,"station_id":"DAR","i_lat":-6.338021,"station_name":"Daru","is_transit":false,"time":0,"line":0,"distance":0,"i_long":106.491338},{"station_name":"Cilejit","is_transit":false,"transit":false,"i_long":106.508482,"line":3,"distance":2675,"time":6,"station_id":"CJT","i_lat":-6.354349},{"station_name":"Parung Panjang","is_transit":false,"i_lat":-6.3441410000000005,"time":9,"transit":false,"i_long":106.568863,"station_id":"PRP","line":6,"distance":7025},{"time":8,"distance":5968,"transit":false,"is_transit":false,"station_name":"Cicayur","station_id":"CC","line":3,"i_long":106.617853,"i_lat":-6.329547},{"station_name":"Cisauk","time":4,"i_lat":-6.32484,"i_long":106.640411,"station_id":"CSK","line":3,"is_transit":false,"distance":2519,"transit":false},{"station_id":"SRP","time":4,"i_lat":-6.319871,"is_transit":false,"station_name":"Serpong","i_long":106.66566,"line":6,"distance":1784,"transit":false},{"line":6,"distance":2413,"station_id":"RU","station_name":"Rawa Buntu","i_lat":-6.314823,"transit":false,"i_long":106.675475,"is_transit":false,"time":4},{"transit":false,"i_lat":-6.296963,"station_id":"SDM","station_name":"Sudimara","line":6,"i_long":106.712277,"is_transit":false,"distance":4566,"time":6},{"line":6,"station_name":"Jurangmangu","is_transit":false,"station_id":"JMU","i_long":106.728916,"time":4,"transit":false,"i_lat":-6.288927,"distance":1994},{"line":6,"station_id":"PDJ","is_transit":false,"station_name":"Pondokranji","i_long":106.74273,"time":3,"transit":false,"distance":2179,"i_lat":-6.276362},{"station_name":"Kebayoran","distance":6218,"transit":false,"line":6,"station_id":"KBY","time":8,"i_lat":-6.237242,"is_transit":false,"i_long":106.780334},{"transit":false,"i_lat":-6.207404,"i_long":106.79689,"station_id":"PLM","station_name":"Palmerah","is_transit":false,"time":7,"distance":3737,"line":6},{"i_lat":-6.185545,"station_name":"Tanah Abang","station_id":"THB","line":1,"transit":true,"is_transit":true,"i_long":106.811091,"time":6,"distance":3191},{"is_transit":true,"i_long":106.800832,"line":1,"station_name":"Duri","time":8,"distance":3632,"i_lat":-6.155215,"transit":true,"station_id":"DU"},{"time":3,"i_lat":-6.162021,"station_name":"Grogol","i_long":106.788277,"is_transit":false,"transit":false,"distance":1700,"line":5,"station_id":"GGL"},{"time":2,"line":5,"station_name":"Pesing","is_transit":false,"i_lat":-6.161433,"i_long":106.771379,"transit":false,"distance":2036,"station_id":"PSG"},{"i_lat":-6.1587309999999995,"is_transit":false,"distance":1614,"station_id":"TKO","time":2,"i_long":106.756522,"line":5,"transit":false,"station_name":"Taman Kota"},{"station_name":"Bojongindah","time":2,"transit":false,"i_long":106.737035,"station_id":"BOI","distance":2334,"line":5,"is_transit":false,"i_lat":-6.159876},{"time":4,"i_lat":-6.162758,"distance":1152,"station_name":"Rawa Buaya","transit":false,"line":5,"station_id":"RW","is_transit":false,"i_long":106.723064},{"station_id":"KDS","is_transit":false,"i_lat":-6.166068,"distance":2504,"i_long":106.701612,"line":5,"time":3,"station_name":"Kalideres","transit":false},{"i_long":106.679458,"time":3,"transit":false,"is_transit":false,"i_lat":-6.169933,"station_name":"Poris","station_id":"PI","distance":2548,"line":5}],[{"i_long":106.491338,"distance":0,"station_id":"DAR","is_transit":false,"i_lat":-6.338021,"transit":false,"time":0,"line":0,"station_name":"Daru"},{"station_id":"CJT","time":6,"distance":2675,"is_transit":false,"i_lat":-6.354349,"station_name":"Cilejit","transit":false,"i_long":106.508482,"line":3},{"station_name":"Parung Panjang","i_lat":-6.3441410000000005,"time":9,"station_id":"PRP","is_transit":false,"i_long":106.568863,"line":6,"transit":false,"distance":7025},{"station_id":"CC","time":8,"i_long":106.617853,"i_lat":-6.329547,"is_transit":false,"transit":false,"distance":5968,"station_name":"Cicayur","line":3},{"i_lat":-6.32484,"distance":2519,"is_transit":false,"station_name":"Cisauk","i_long":106.640411,"transit":false,"station_id":"CSK","time":4,"line":3},{"line":6,"distance":1784,"station_name":"Serpong","i_long":106.66566,"transit":false,"station_id":"SRP","is_transit":false,"time":4,"i_lat":-6.319871},{"station_id":"RU","i_lat":-6.314823,"is_transit":false,"distance":2413,"transit":false,"station_name":"Rawa Buntu","time":4,"i_long":106.675475,"line":6},{"transit":false,"i_lat":-6.296963,"line":6,"time":6,"station_id":"SDM","station_name":"Sudimara","distance":4566,"i_long":106.712277,"is_transit":false},{"transit":false,"is_transit":false,"station_name":"Jurangmangu","station_id":"JMU","line":6,"time":4,"i_long":106.728916,"i_lat":-6.288927,"distance":1994},{"station_name":"Pondokranji","line":6,"is_transit":false,"i_long":106.74273,"station_id":"PDJ","i_lat":-6.276362,"distance":2179,"time":3,"transit":false},{"i_long":106.780334,"i_lat":-6.237242,"line":6,"station_id":"KBY","distance":6218,"time":8,"is_transit":false,"transit":false,"station_name":"Kebayoran"},{"station_name":"Palmerah","line":6,"i_long":106.79689,"transit":false,"is_transit":false,"distance":3737,"station_id":"PLM","i_lat":-6.207404,"time":7},{"distance":3191,"station_name":"Tanah Abang","station_id":"THB","time":6,"i_lat":-6.185545,"transit":true,"is_transit":true,"i_long":106.811091,"line":1},{"time":5,"station_name":"Karet","i_long":106.816351,"line":1,"station_id":"KAT","is_transit":false,"transit":false,"distance":2029,"i_lat":-6.20132},{"is_transit":false,"transit":false,"station_id":"SUDB","time":1,"i_long":106.819881,"line":1,"distance":471,"station_name":"Sudirman Baru","i_lat":-6.201433},{"station_id":"SUD","time":1,"i_lat":-6.202263,"station_name":"Sudirman","line":1,"transit":false,"distance":280,"is_transit":false,"i_long":106.822649},{"time":4,"distance":3186,"station_id":"MRI","transit":true,"i_lat":-6.209883,"is_transit":true,"station_name":"Manggarai","i_long":106.84912,"line":2},{"station_id":"CKI","i_lat":-6.198556,"station_name":"Cikini","line":2,"distance":1590,"time":4,"is_transit":false,"i_long":106.840169,"transit":false},{"station_id":"GDD","distance":1750,"transit":false,"line":2,"time":3,"i_long":106.832183,"station_name":"Gondangdia","is_transit":false,"i_lat":-6.186295},{"time":4,"station_id":"JUA","distance":2015,"i_long":106.828284,"station_name":"Juanda","line":2,"transit":false,"is_transit":false,"i_lat":-6.166716},{"station_name":"Sawah Besar","i_long":106.827103,"line":2,"station_id":"SW","i_lat":-6.160725,"time":2,"distance":1149,"transit":false,"is_transit":false},{"i_lat":-6.149769,"line":2,"is_transit":false,"transit":false,"time":2,"station_id":"MGB","distance":906,"i_long":106.82482,"station_name":"Manggabesar"},{"station_id":"JAY","time":2,"is_transit":false,"transit":false,"i_lat":-6.141205,"station_name":"Jayakarta","distance":1080,"i_long":106.820901,"line":2},{"station_id":"JAKK","line":2,"i_lat":-6.137569,"transit":true,"distance":1264,"time":4,"station_name":"Jakarta Kota","i_long":106.812439,"is_transit":true},{"is_transit":true,"i_lat":-6.132549,"station_name":"Kampung Bandan","i_long":106.826365,"time":3,"transit":true,"station_id":"KPB","line":4,"distance":1364},{"i_lat":-6.144674,"station_id":"AK","i_long":106.79867,"is_transit":false,"transit":false,"station_name":"Angke","time":9,"line":1,"distance":4102},{"transit":true,"station_id":"DU","is_transit":true,"time":4,"station_name":"Duri","distance":1230,"i_lat":-6.155215,"i_long":106.800832,"line":1},{"distance":1700,"line":5,"i_long":106.788277,"i_lat":-6.162021,"time":3,"station_name":"Grogol","station_id":"GGL","transit":false,"is_transit":false},{"station_id":"PSG","i_lat":-6.161433,"is_transit":false,"line":5,"station_name":"Pesing","transit":false,"time":2,"distance":2036,"i_long":106.771379},{"line":5,"station_id":"TKO","station_name":"Taman Kota","distance":1614,"transit":false,"is_transit":false,"i_lat":-6.1587309999999995,"i_long":106.756522,"time":2},{"station_id":"BOI","transit":false,"station_name":"Bojongindah","line":5,"is_transit":false,"i_long":106.737035,"distance":2334,"i_lat":-6.159876,"time":2},{"distance":1152,"transit":false,"time":4,"is_transit":false,"line":5,"station_name":"Rawa Buaya","i_lat":-6.162758,"i_long":106.723064,"station_id":"RW"},{"station_id":"KDS","distance":2504,"line":5,"transit":false,"i_lat":-6.166068,"is_transit":false,"station_name":"Kalideres","time":3,"i_long":106.701612},{"i_lat":-6.169933,"transit":false,"is_transit":false,"i_long":106.679458,"time":3,"station_name":"Poris","station_id":"PI","line":5,"distance":2548}],[{"station_name":"Daru","distance":0,"i_lat":-6.338021,"line":0,"i_long":106.491338,"transit":false,"is_transit":false,"station_id":"DAR","time":0},{"i_lat":-6.354349,"distance":2675,"line":3,"station_id":"CJT","station_name":"Cilejit","is_transit":false,"time":6,"i_long":106.508482,"transit":false},{"station_id":"PRP","transit":false,"i_lat":-6.3441410000000005,"i_long":106.568863,"is_transit":false,"station_name":"Parung Panjang","distance":7025,"line":6,"time":9},{"i_long":106.617853,"station_id":"CC","station_name":"Cicayur","is_transit":false,"distance":5968,"transit":false,"i_lat":-6.329547,"line":3,"time":8},{"station_name":"Cisauk","i_long":106.640411,"station_id":"CSK","is_transit":false,"time":4,"i_lat":-6.32484,"distance":2519,"transit":false,"line":3},{"distance":1784,"transit":false,"i_long":106.66566,"time":4,"station_name":"Serpong","i_lat":-6.319871,"station_id":"SRP","is_transit":false,"line":6},{"line":6,"distance":2413,"i_lat":-6.314823,"is_transit":false,"station_id":"RU","station_name":"Rawa Buntu","time":4,"i_long":106.675475,"transit":false},{"is_transit":false,"station_name":"Sudimara","distance":4566,"i_lat":-6.296963,"i_long":106.712277,"time":6,"station_id":"SDM","line":6,"transit":false},{"line":6,"transit":false,"station_id":"JMU","is_transit":false,"time":4,"i_lat":-6.288927,"i_long":106.728916,"distance":1994,"station_name":"Jurangmangu"},{"i_long":106.74273,"i_lat":-6.276362,"distance":2179,"line":6,"is_transit":false,"time":3,"station_name":"Pondokranji","transit":false,"station_id":"PDJ"},{"transit":false,"station_id":"KBY","is_transit":false,"time":8,"distance":6218,"i_long":106.780334,"line":6,"station_name":"Kebayoran","i_lat":-6.237242},{"station_id":"PLM","line":6,"time":7,"transit":false,"is_transit":false,"distance":3737,"station_name":"Palmerah","i_long":106.79689,"i_lat":-6.207404},{"line":1,"i_long":106.811091,"i_lat":-6.185545,"station_id":"THB","station_name":"Tanah Abang","is_transit":true,"time":6,"distance":3191,"transit":true},{"station_name":"Karet","station_id":"KAT","line":1,"time":5,"distance":2029,"i_long":106.816351,"transit":false,"is_transit":false,"i_lat":-6.20132},{"i_long":106.819881,"line":1,"station_id":"SUDB","station_name":"Sudirman Baru","is_transit":false,"i_lat":-6.201433,"time":1,"transit":false,"distance":471},{"transit":false,"distance":280,"station_id":"SUD","is_transit":false,"station_name":"Sudirman","i_lat":-6.202263,"line":1,"time":1,"i_long":106.822649},{"station_name":"Manggarai","i_long":106.84912,"time":4,"distance":3186,"i_lat":-6.209883,"is_transit":false,"line":2,"transit":false,"station_id":"MRI"},{"is_transit":false,"i_long":106.858896,"station_name":"Matraman","station_id":"MTR","transit":false,"distance":1275,"line":1,"i_lat":-6.212485,"time":2},{"station_name":"Jatinegara","is_transit":true,"time":8,"i_long":106.86807400000001,"line":1,"station_id":"JNG","distance":1377,"i_lat":-6.215091,"transit":true},{"station_id":"POK","is_transit":false,"distance":1236,"i_long":106.861737,"i_lat":-6.209188,"transit":false,"station_name":"Pondok Jati","time":2,"line":11},{"station_id":"KMT","time":2,"is_transit":false,"transit":false,"distance":1829,"i_long":106.855437,"station_name":"Kramat","i_lat":-6.193792,"line":11},{"station_name":"Gang Sentiong","distance":973,"transit":false,"i_lat":-6.185975,"i_long":106.850107,"time":1,"station_id":"GST","line":11,"is_transit":false},{"i_lat":-6.174784,"is_transit":false,"time":8,"i_long":106.84368,"station_id":"PSE","transit":false,"distance":1567,"line":11,"station_name":"Pasar Senen"},{"distance":1436,"is_transit":false,"time":4,"i_lat":-6.161728,"i_long":106.839204,"line":11,"station_name":"Kemayoran","transit":false,"station_id":"KMO"},{"line":11,"station_id":"RJW","station_name":"Rajawali","distance":1901,"i_lat":-6.14505,"i_long":106.836569,"transit":false,"time":5,"is_transit":false},{"is_transit":true,"i_lat":-6.132549,"transit":true,"time":3,"i_long":106.826365,"station_id":"KPB","line":4,"station_name":"Kampung Bandan","distance":1444},{"distance":4102,"line":1,"is_transit":false,"station_id":"AK","i_lat":-6.144674,"i_long":106.79867,"transit":false,"station_name":"Angke","time":9},{"i_long":106.800832,"time":4,"distance":1230,"station_name":"Duri","is_transit":true,"i_lat":-6.155215,"line":1,"transit":true,"station_id":"DU"},{"line":5,"time":3,"transit":false,"distance":1700,"station_id":"GGL","i_long":106.788277,"is_transit":false,"i_lat":-6.162021,"station_name":"Grogol"},{"i_lat":-6.161433,"distance":2036,"i_long":106.771379,"transit":false,"station_name":"Pesing","station_id":"PSG","is_transit":false,"time":2,"line":5},{"station_id":"TKO","i_lat":-6.1587309999999995,"transit":false,"i_long":106.756522,"line":5,"is_transit":false,"time":2,"distance":1614,"station_name":"Taman Kota"},{"time":2,"transit":false,"i_long":106.737035,"is_transit":false,"distance":2334,"station_name":"Bojongindah","line":5,"station_id":"BOI","i_lat":-6.159876},{"line":5,"time":4,"transit":false,"i_lat":-6.162758,"station_id":"RW","station_name":"Rawa Buaya","is_transit":false,"distance":1152,"i_long":106.723064},{"i_long":106.701612,"i_lat":-6.166068,"time":3,"transit":false,"station_name":"Kalideres","station_id":"KDS","distance":2504,"line":5,"is_transit":false},{"i_long":106.679458,"is_transit":false,"station_name":"Poris","time":3,"distance":2548,"i_lat":-6.169933,"station_id":"PI","transit":false,"line":5}]]}