{"data":[[{"distance":0,"transit":false,"time":0,"is_transit":false,"i_lat":-6.338021,"i_long":106.491338,"station_name":"Daru","station_id":"DAR","line":0},{"is_transit":false,"station_id":"CJT","transit":false,"distance":2675,"i_long":106.508482,"i_lat":-6.354349,"time":6,"station_name":"Cilejit","line":3},{"is_transit":false,"station_name":"Parung Panjang","transit":false,"i_long":106.568863,"line":6,"station_id":"PRP","time":9,"distance":7025,"i_lat":-6.3441410000000005},{"distance":5968,"i_lat":-6.329547,"i_long":106.617853,"line":3,"station_id":"CC","station_name":"Cicayur","is_transit":false,"transit":false,"time":8},{"station_name":"Cisauk","i_lat":-6.32484,"line":3,"distance":2519,"station_id":"CSK","time":4,"i_long":106.640411,"is_transit":false,"transit":false},{"line":6,"i_lat":-6.319871,"transit":false,"station_name":"Serpong","station_id":"SRP","time":4,"is_transit":false,"distance":1784,"i_long":106.66566},{"distance":2413,"transit":false,"i_lat":-6.314823,"time":4,"i_long":106.675475,"line":6,"station_name":"Rawa Buntu","station_id":"RU","is_transit":false},{"i_long":106.712277,"is_transit":false,"distance":4566,"i_lat":-6.296963,"transit":false,"station_name":"Sudimara","line":6,"station_id":"SDM","time":6},{"transit":false,"i_lat":-6.288927,"i_long":106.728916,"station_name":"Jurangmangu","time":4,"is_transit":false,"station_id":"JMU","distance":1994,"line":6},{"station_id":"PDJ","distance":2179,"i_long":106.74273,"station_name":"Pondokranji","is_transit":false,"time":3,"line":6,"i_lat":-6.276362,"transit":false},{"station_id":"KBY","i_lat":-6.237242,"time":8,"i_long":106.780334,"line":6,"transit":false,"distance":6218,"station_name":"Kebayoran","is_transit":false},{"is_transit":false,"distance":3737,"station_name":"Palmerah","time":7,"i_long":106.79689,"station_id":"PLM","line":6,"transit":false,"i_lat":-6.207404},{"transit":true,"i_long":106.811091,"station_name":"Tanah Abang","is_transit":true,"line":1,"i_lat":-6.185545,"station_id":"THB","distance":3191,"time":6},{"line":1,"i_lat":-6.20132,"station_id":"KAT","is_transit":false,"station_name":"Karet","transit":false,"i_long":106.816351,"time":5,"distance":2029},{"time":1,"station_name":"Sudirman Baru","distance":471,"transit":false,"i_lat":-6.201433,"is_transit":false,"i_long":106.819881,"line":1,"station_id":"SUDB"},{"time":1,"transit":false,"is_transit":false,"distance":280,"i_lat":-6.202263,"station_name":"Sudirman","station_id":"SUD","i_long":106.822649,"line":1},{"i_long":106.84912,"station_id":"MRI","i_lat":-6.209883,"time":4,"is_transit":true,"transit":true,"station_name":"Manggarai","line":2,"distance":3186},{"distance":1590,"transit":false,"i_lat":-6.198556,"i_long":106.840169,"station_name":"Cikini","is_transit":false,"station_id":"CKI","time":4,"line":2},{"is_transit":false,"i_lat":-6.186295,"distance":1750,"station_id":"GDD","station_name":"Gondangdia","transit":false,"i_long":106.832183,"line":2,"time":3},{"i_long":106.828284,"transit":false,"time":4,"distance":2015,"station_name":"Juanda","station_id":"JUA","i_lat":-6.166716,"line":2,"is_transit":false}],[{"transit":false,"is_transit":false,"i_long":106.491338,"distance":0,"station_id":"DAR","line":0,"station_name":"Daru","time":0,"i_lat":-6.338021},{"time":6,"transit":false,"distance":2675,"station_id":"CJT","line":3,"i_long":106.508482,"is_transit":false,"i_lat":-6.354349,"station_name":"Cilejit"},{"i_long":106.568863,"i_lat":-6.3441410000000005,"station_id":"PRP","distance":7025,"station_name":"Parung Panjang","is_transit":false,"time":9,"transit":false,"line":6},{"transit":false,"station_id":"CC","time":8,"distance":5968,"i_lat":-6.329547,"i_long":106.617853,"is_transit":false,"line":3,"station_name":"Cicayur"},{"time":4,"is_transit":false,"distance":2519,"line":3,"transit":false,"i_long":106.640411,"station_name":"Cisauk","station_id":"CSK","i_lat":-6.32484},{"transit":false,"distance":1784,"station_name":"Serpong","station_id":"SRP","time":4,"line":6,"i_long":106.66566,"is_transit":false,"i_lat":-6.319871},{"station_id":"RU","distance":2413,"time":4,"is_transit":false,"transit":false,"i_lat":-6.314823,"i_long":106.675475,"station_name":"Rawa Buntu","line":6},{"distance":4566,"station_name":"Sudimara","is_transit":false,"transit":false,"i_lat":-6.296963,"line":6,"station_id":"SDM","time":6,"i_long":106.712277},{"line":6,"station_name":"Jurangmangu","transit":false,"i_lat":-6.288927,"is_transit":false,"distance":1994,"station_id":"JMU","time":4,"i_long":106.728916},{"distance":2179,"line":6,"i_long":106.74273,"station_name":"Pondokranji","is_transit":false,"time":3,"i_lat":-6.276362,"transit":false,"station_id":"PDJ"},{"time":8,"i_long":106.780334,"is_transit":false,"station_name":"Kebayoran","i_lat":-6.237242,"line":6,"transit":false,"station_id":"KBY","distance":6218},{"station_name":"Palmerah","station_id":"PLM","line":6,"transit":false,"time":7,"is_transit":false,"distance":3737,"i_lat":-6.207404,"i_long":106.79689},{"i_lat":-6.185545,"station_id":"THB","is_transit":true,"i_long":106.811091,"time":6,"transit":true,"station_name":"Tanah Abang","line":1,"distance":3191},{"station_id":"DU","distance":3632,"transit":false,"station_name":"Duri","time":8,"line":1,"is_transit":false,"i_long":106.800832,"i_lat":-6.155215},{"station_id":"AK","time":4,"distance":1230,"transit":false,"station_name":"Angke","is_transit":false,"i_long":106.79867,"line":1,"i_lat":-6.144674},{"station_id":"KPB","time":9,"is_transit":true,"distance":4102,"i_lat":-6.132549,"i_long":106.826365,"station_name":"Kampung Bandan","line":4,"transit":true},{"i_long":106.812439,"transit":true,"i_lat":-6.137569,"time":3,"station_name":"Jakarta Kota","is_transit":true,"station_id":"JAKK","distance":1364,"line":2},{"station_id":"JAY","station_name":"Jayakarta","line":2,"time":4,"transit":false,"i_long":106.820901,"distance":1264,"is_transit":false,"i_lat":-6.141205},{"station_name":"Manggabesar","station_id":"MGB","time":2,"is_transit":false,"i_long":106.82482,"distance":1080,"i_lat":-6.149769,"line":2,"transit":false},{"station_id":"SW","station_name":"Sawah Besar","time":2,"transit":false,"i_lat":-6.160725,"i_long":106.827103,"line":2,"is_transit":false,"distance":906},{"time":2,"is_transit":false,"i_lat":-6.166716,"distance":1149,"station_name":"Juanda","transit":false,"station_id":"JUA","line":2,"i_long":106.828284}],[{"station_id":"DAR","distance":0,"line":0,"station_name":"Daru","time":0,"i_long":106.491338,"is_transit":false,"i_lat":-6.338021,"transit":false},{"transit":false,"distance":2675,"i_lat":-6.354349,"time":6,"station_name":"Cilejit","station_id":"CJT","is_transit":false,"i_long":106.508482,"line":3},{"station_id":"PRP","line":6,"distance":7025,"i_lat":-6.3441410000000005,"transit":false,"time":9,"i_long":106.568863,"station_name":"Parung Panjang","is_transit":false},{"station_id":"CC","distance":5968,"line":3,"time":8,"i_lat":-6.329547,"is_transit":false,"transit":false,"station_name":"Cicayur","i_long":106.617853},{"line":3,"is_transit":false,"station_id":"CSK","distance":2519,"station_name":"Cisauk","i_lat":-6.32484,"transit":false,"time":4,"i_long":106.640411},{"line":6,"time":4,"is_transit":false,"i_lat":-6.319871,"station_name":"Serpong","i_long":106.66566,"station_id":"SRP","transit":false,"distance":1784},{"time":4,"station_name":"Rawa Buntu","station_id":"RU","transit":false,"is_transit":false,"line":6,"i_long":106.675475,"i_lat":-6.314823,"distance":2413},{"is_transit":false,"i_lat":-6.296963,"distance":4566,"i_long":106.712277,"time":6,"station_name":"Sudimara","station_id":"SDM","transit":false,"line":6},{"station_name":"Jurangmangu","distance":1994,"i_lat":-6.288927,"is_transit":false,"i_long":106.728916,"time":4,"transit":false,"line":6,"station_id":"JMU"},{"station_name":"Pondokranji","station_id":"PDJ","distance":2179,"is_transit":false,"time":3,"i_lat":-6.276362,"transit":false,"i_long":106.74273,"line":6},{"i_lat":-6.237242,"i_long":106.780334,"station_id":"KBY","distance":6218,"time":8,"is_transit":false,"transit":false,"station_name":"Kebayoran","line":6},{"i_long":106.79689,"time":7,"station_id":"PLM","line":6,"is_transit":false,"i_lat":-6.207404,"station_name":"Palmerah","transit":false,"distance":3737},{"i_lat":-6.185545,"is_transit":true,"distance":3191,"i_long":106.811091,"time":6,"station_name":"Tanah Abang","station_id":"THB","line":1,"transit":true},{"i_long":106.800832,"distance":3632,"is_transit":false,"station_name":"Duri","transit":false,"time":8,"line":1,"i_lat":-6.155215,"station_id":"DU"},{"i_lat":-6.144674,"transit":false,"distance":1230,"time":4,"line":1,"is_transit":false,"station_id":"AK","i_long":106.79867,"station_name":"Angke"},{"line":4,"distance":4102,"i_lat":-6.132549,"station_name":"Kampung Bandan","is_transit":true,"time":9,"i_long":106.826365,"transit":true,"station_id":"KPB"},{"is_transit":false,"i_lat":-6.14505,"line":11,"station_name":"Rajawali","transit":false,"i_long":106.836569,"time":3,"distance":1444,"station_id":"RJW"},{"i_long":106.839204,"line":11,"station_name":"Kemayoran","distance":1901,"transit":false,"is_transit":false,"station_id":"KMO","i_lat":-6.161728,"time":5},{"time":4,"is_transit":false,"distance":1436,"station_id":"PSE","transit":false,"station_name":"Pasar Senen","i_long":106.84368,"i_lat":-6.174784,"line":11},{"is_transit":false,"distance":1567,"station_name":"Gang Sentiong","time":8,"line":11,"i_lat":-6.185975,"transit":false,"station_id":"GST","i_long":106.850107},{"i_lat":-6.193792,"distance":973,"i_long":106.855437,"is_transit":false,"station_id":"KMT","transit":false,"time":1,"line":11,"station_name":"Kramat"},{"is_transit":false,"station_id":"POK","line":11,"station_name":"Pondok Jati","i_long":106.861737,"transit":false,"i_lat":-6.209188,"time":2,"distance":1829},{"i_lat":-6.215091,"line":1,"time":9,"station_id":"JNG","station_name":"Jatinegara","is_transit":true,"distance":1236,"i_long":106.86807400000001,"transit":true},{"is_transit":false,"transit":false,"station_id":"MTR","distance":1377,"station_name":"Matraman","i_lat":-6.212485,"i_long":106.858896,"time":2,"line":1},{"transit":true,"is_transit":true,"station_name":"Manggarai","station_id":"MRI","i_lat":-6.209883,"distance":1275,"i_long":106.84912,"line":2,"time":2},{"i_lat":-6.198556,"transit":false,"distance":1590,"is_transit":false,"line":2,"time":4,"station_id":"CKI","station_name":"Cikini","i_long":106.840169},{"transit":false,"station_id":"GDD","time":3,"i_long":106.832183,"line":2,"station_name":"Gondangdia","i_lat":-6.186295,"distance":1750,"is_transit":false},{"station_id":"JUA","time":4,"transit":false,"i_lat":-6.166716,"i_long":106.828284,"station_name":"Juanda","is_transit":false,"distance":2015,"line":2}],[{"station_id":"DAR","i_lat":-6.338021,"i_long":106.491338,"transit":false,"line":0,"station_name":"Daru","time":0,"is_transit":false,"distance":0},{"i_lat":-6.354349,"is_transit":false,"station_name":"Cilejit","transit":false,"time":6,"station_id":"CJT","distance":2675,"line":3,"i_long":106.508482},{"i_lat":-6.3441410000000005,"is_transit":false,"station_id":"PRP","time":9,"distance":7025,"transit":false,"i_long":106.568863,"line":6,"station_name":"Parung Panjang"},{"i_long":106.617853,"distance":5968,"line":3,"station_name":"Cicayur","is_transit":false,"time":8,"station_id":"CC","transit":false,"i_lat":-6.329547},{"station_id":"CSK","time":4,"i_lat":-6.32484,"distance":2519,"station_name":"Cisauk","is_transit":false,"transit":false,"i_long":106.640411,"line":3},{"i_lat":-6.319871,"station_name":"Serpong","line":6,"distance":1784,"is_transit":false,"time":4,"station_id":"SRP","i_long":106.66566,"transit":false},{"station_name":"Rawa Buntu","is_transit":false,"transit":false,"station_id":"RU","i_lat":-6.314823,"time":4,"i_long":106.675475,"distance":2413,"line":6},{"i_long":106.712277,"station_name":"Sudimara","line":6,"time":6,"station_id":"SDM","distance":4566,"i_lat":-6.296963,"transit":false,"is_transit":false},{"station_id":"JMU","is_transit":false,"station_name":"Jurangmangu","distance":1994,"i_lat":-6.288927,"time":4,"transit":false,"i_long":106.728916,"line":6},{"station_name":"Pondokranji","is_transit":false,"time":3,"transit":false,"station_id":"PDJ","distance":2179,"i_long":106.74273,"line":6,"i_lat":-6.276362},{"station_name":"Kebayoran","i_long":106.780334,"is_transit":false,"station_id":"KBY","i_lat":-6.237242,"distance":6218,"time":8,"transit":false,"line":6},{"i_lat":-6.207404,"is_transit":false,"station_id":"PLM","distance":3737,"station_name":"Palmerah","line":6,"i_long":106.79689,"transit":false,"time":7},{"transit":true,"station_id":"THB","i_lat":-6.185545,"is_transit":true,"time":6,"distance":3191,"station_name":"Tanah Abang","line":1,"i_long":106.811091},{"transit":false,"is_transit":false,"station_name":"Karet","time":5,"i_long":106.816351,"line":1,"i_lat":-6.20132,"distance":2029,"station_id":"KAT"},{"time":1,"i_lat":-6.201433,"station_id":"SUDB","i_long":106.819881,"station_name":"Sudirman Baru","line":1,"is_transit":false,"distance":471,"transit":false},{"i_long":106.822649,"transit":false,"time":1,"station_id":"SUD","is_transit":false,"line":1,"distance":280,"station_name":"Sudirman","i_lat":-6.202263},{"i_long":106.84912,"is_transit":false,"station_id":"MRI","station_name":"Manggarai","distance":3186,"line":2,"i_lat":-6.209883,"time":4,"transit":false},{"i_long":106.858896,"line":1,"time":2,"station_id":"MTR","transit":false,"is_transit":false,"distance":1275,"i_lat":-6.212485,"station_name":"Matraman"},{"transit":true,"station_id":"JNG","is_transit":true,"time":8,"line":1,"i_lat":-6.215091,"i_long":106.86807400000001,"distance":1377,"station_name":"Jatinegara"},{"station_id":"POK","time":2,"is_transit":false,"transit":false,"distance":1236,"i_lat":-6.209188,"station_name":"Pondok Jati","line":11,"i_long":106.861737},{"transit":false,"is_transit":false,"line":11,"station_name":"Kramat","distance":1829,"station_id":"KMT","time":2,"i_long":106.855437,"i_lat":-6.193792},{"station_name":"Gang Sentiong","transit":false,"is_transit":false,"station_id":"GST","distance":973,"i_long":106.850107,"time":1,"i_lat":-6.185975,"line":11},{"station_name":"Pasar Senen","i_long":106.84368,"time":8,"line":11,"station_id":"PSE","is_transit":false,"distance":1567,"i_lat":-6.174784,"transit":false},{"transit":false,"i_long":106.839204,"distance":1436,"i_lat":-6.161728,"is_transit":false,"station_id":"KMO","station_name":"Kemayoran","time":4,"line":11},{"distance":1901,"i_lat":-6.14505,"time":5,"i_long":106.836569,"is_transit":false,"station_name":"Rajawali","transit":false,"line":11,"station_id":"RJW"},{"i_lat":-6.132549,"is_transit":true,"station_id":"KPB","transit":true,"line":4,"time":3,"station_name":"Kampung Bandan","i_long":106.826365,"distance":1444},{"line":2,"transit":true,"station_id":"JAKK","i_lat":-6.137569,"station_name":"Jakarta Kota","is_transit":true,"i_long":106.812439,"time":3,"distance":1364},{"i_lat":-6.141205,"i_long":106.820901,"transit":false,"station_id":"JAY","is_transit":false,"line":2,"station_name":"Jayakarta","distance":1264,"time":4},{"i_lat":-6.149769,"station_id":"MGB","i_long":106.82482,"is_transit":false,"line":2,"station_name":"Manggabesar","distance":1080,"transit":false,"time":2},{"i_long":106.827103,"time":2,"is_transit":false,"transit":false,"station_id":"SW","station_name":"Sawah Besar","i_lat":-6.160725,"line":2,"distance":906},{"transit":false,"station_name":"Juanda","is_transit":false,"i_lat":-6.166716,"distance":1149,"station_id":"JUA","line":2,"time":2,"i_long":106.828284}]]}