{"data":[[{"time":0,"station_name":"Daru","i_long":106.491338,"transit":false,"line":0,"i_lat":-6.338021,"is_transit":false,"distance":0,"station_id":"DAR"},{"time":6,"i_long":106.508482,"station_id":"CJT","distance":2675,"is_transit":false,"transit":false,"i_lat":-6.354349,"line":3,"station_name":"Cilejit"},{"i_long":106.568863,"transit":false,"i_lat":-6.3441410000000005,"distance":7025,"station_id":"PRP","station_name":"Parung Panjang","is_transit":false,"line":6,"time":9},{"station_name":"Cicayur","line":3,"transit":false,"time":8,"is_transit":false,"i_long":106.617853,"station_id":"CC","distance":5968,"i_lat":-6.329547},{"distance":2519,"is_transit":false,"i_long":106.640411,"line":3,"station_name":"Cisauk","transit":false,"time":4,"station_id":"CSK","i_lat":-6.32484},{"time":4,"distance":1784,"is_transit":false,"station_name":"Serpong","i_long":106.66566,"transit":false,"station_id":"SRP","i_lat":-6.319871,"line":6},{"distance":2413,"i_long":106.675475,"station_id":"RU","i_lat":-6.314823,"is_transit":false,"line":6,"station_name":"Rawa Buntu","transit":false,"time":4},{"station_name":"Sudimara","is_transit":false,"station_id":"SDM","i_lat":-6.296963,"distance":4566,"transit":false,"i_long":106.712277,"time":6,"line":6},{"line":6,"transit":false,"distance":1994,"i_long":106.728916,"time":4,"station_id":"JMU","i_lat":-6.288927,"is_transit":false,"station_name":"Jurangmangu"},{"is_transit":false,"time":3,"station_name":"Pondokranji","i_lat":-6.276362,"distance":2179,"station_id":"PDJ","i_long":106.74273,"line":6,"transit":false},{"time":8,"is_transit":false,"distance":6218,"transit":false,"line":6,"i_lat":-6.237242,"station_id":"KBY","i_long":106.780334,"station_name":"Kebayoran"},{"transit":false,"distance":3737,"i_lat":-6.207404,"time":7,"is_transit":false,"station_name":"Palmerah","i_long":106.79689,"station_id":"PLM","line":6},{"i_lat":-6.185545,"transit":true,"distance":3191,"station_name":"Tanah Abang","is_transit":true,"station_id":"THB","line":1,"i_long":106.811091,"time":6},{"i_long":106.816351,"transit":false,"station_id":"KAT","station_name":"Karet","is_transit":false,"time":5,"line":1,"distance":2029,"i_lat":-6.20132},{"line":1,"station_id":"SUDB","station_name":"Sudirman Baru","distance":471,"i_long":106.819881,"is_transit":false,"transit":false,"i_lat":-6.201433,"time":1},{"i_long":106.822649,"transit":false,"station_id":"SUD","i_lat":-6.202263,"time":1,"station_name":"Sudirman","is_transit":false,"distance":280,"line":1}],[{"i_long":106.491338,"distance":0,"station_name":"Daru","transit":false,"line":0,"time":0,"i_lat":-6.338021,"station_id":"DAR","is_transit":false},{"time":6,"distance":2675,"station_name":"Cilejit","i_long":106.508482,"line":3,"transit":false,"is_transit":false,"station_id":"CJT","i_lat":-6.354349},{"i_lat":-6.3441410000000005,"i_long":106.568863,"distance":7025,"is_transit":false,"transit":false,"line":6,"station_id":"PRP","station_name":"Parung Panjang","time":9},{"station_id":"CC","is_transit":false,"transit":false,"time":8,"distance":5968,"station_name":"Cicayur","i_long":106.617853,"line":3,"i_lat":-6.329547},{"distance":2519,"station_name":"Cisauk","is_transit":false,"station_id":"CSK","transit":false,"i_lat":-6.32484,"i_long":106.640411,"line":3,"time":4},{"transit":false,"i_long":106.66566,"station_id":"SRP","is_transit":false,"line":6,"time":4,"distance":1784,"station_name":"Serpong","i_lat":-6.319871},{"station_name":"Rawa Buntu","distance":2413,"transit":false,"i_lat":-6.314823,"is_transit":false,"time":4,"station_id":"RU","line":6,"i_long":106.675475},{"i_lat":-6.296963,"i_long":106.712277,"station_name":"Sudimara","line":6,"time":6,"is_transit":false,"distance":4566,"transit":false,"station_id":"SDM"},{"station_name":"Jurangmangu","i_lat":-6.288927,"line":6,"transit":false,"time":4,"station_id":"JMU","distance":1994,"is_transit":false,"i_long":106.728916},{"station_name":"Pondokranji","distance":2179,"station_id":"PDJ","transit":false,"time":3,"i_long":106.74273,"line":6,"i_lat":-6.276362,"is_transit":false},{"distance":6218,"station_id":"KBY","line":6,"is_transit":false,"i_long":106.780334,"station_name":"Kebayoran","i_lat":-6.237242,"time":8,"transit":false},{"i_lat":-6.207404,"i_long":106.79689,"station_name":"Palmerah","time":7,"distance":3737,"is_transit":false,"line":6,"station_id":"PLM","transit":false},{"transit":true,"station_id":"THB","station_name":"Tanah Abang","i_long":106.811091,"distance":3191,"time":6,"is_transit":true,"i_lat":-6.185545,"line":1},{"station_id":"DU","i_lat":-6.155215,"time":8,"transit":false,"i_long":106.800832,"distance":3632,"station_name":"Duri","is_transit":false,"line":1},{"station_name":"Angke","i_long":106.79867,"time":4,"transit":false,"station_id":"AK","is_transit":false,"i_lat":-6.144674,"distance":1230,"line":1},{"station_name":"Kampung Bandan","is_transit":true,"i_lat":-6.132549,"i_long":106.826365,"line":4,"distance":4102,"station_id":"KPB","transit":true,"time":9},{"station_name":"Jakarta Kota","time":3,"is_transit":true,"i_lat":-6.137569,"i_long":106.812439,"line":2,"distance":1364,"transit":true,"station_id":"JAKK"},{"station_name":"Jayakarta","is_transit":false,"transit":false,"distance":1264,"time":4,"i_long":106.820901,"i_lat":-6.141205,"station_id":"JAY","line":2},{"i_long":106.82482,"station_name":"Manggabesar","line":2,"transit":false,"station_id":"MGB","distance":1080,"time":2,"is_transit":false,"i_lat":-6.149769},{"station_id":"SW","is_transit":false,"distance":906,"time":2,"transit":false,"i_long":106.827103,"i_lat":-6.160725,"station_name":"Sawah Besar","line":2},{"transit":false,"time":2,"i_long":106.828284,"distance":1149,"i_lat":-6.166716,"station_name":"Juanda","is_transit":false,"line":2,"station_id":"JUA"},{"distance":2015,"i_lat":-6.186295,"transit":false,"time":4,"station_id":"GDD","is_transit":false,"station_name":"Gondangdia","i_long":106.832183,"line":2},{"station_id":"CKI","is_transit":false,"line":2,"time":3,"transit":false,"i_lat":-6.198556,"station_name":"Cikini","i_long":106.840169,"distance":1750},{"time":4,"station_name":"Manggarai","i_long":106.84912,"is_transit":true,"transit":true,"distance":1590,"i_lat":-6.209883,"line":2,"station_id":"MRI"},{"is_transit":false,"line":1,"i_lat":-6.202263,"transit":false,"distance":3186,"i_long":106.822649,"station_id":"SUD","time":4,"station_name":"Sudirman"}],[{"station_name":"Daru","i_long":106.491338,"transit":false,"time":0,"station_id":"DAR","distance":0,"i_lat":-6.338021,"line":0,"is_transit":false},{"i_lat":-6.354349,"i_long":106.508482,"station_name":"Cilejit","line":3,"station_id":"CJT","time":6,"is_transit":false,"transit":false,"distance":2675},{"i_lat":-6.3441410000000005,"station_id":"PRP","station_name":"Parung Panjang","is_transit":false,"transit":false,"time":9,"i_long":106.568863,"line":6,"distance":7025},{"station_name":"Cicayur","is_transit":false,"i_long":106.617853,"distance":5968,"station_id":"CC","i_lat":-6.329547,"time":8,"transit":false,"line":3},{"time":4,"line":3,"distance":2519,"station_name":"Cisauk","i_lat":-6.32484,"is_transit":false,"i_long":106.640411,"transit":false,"station_id":"CSK"},{"transit":false,"is_transit":false,"i_lat":-6.319871,"station_name":"Serpong","i_long":106.66566,"line":6,"station_id":"SRP","time":4,"distance":1784},{"transit":false,"time":4,"station_name":"Rawa Buntu","is_transit":false,"station_id":"RU","i_lat":-6.314823,"distance":2413,"i_long":106.675475,"line":6},{"i_lat":-6.296963,"i_long":106.712277,"is_transit":false,"time":6,"line":6,"transit":false,"distance":4566,"station_name":"Sudimara","station_id":"SDM"},{"is_transit":false,"i_long":106.728916,"station_id":"JMU","line":6,"time":4,"distance":1994,"transit":false,"station_name":"Jurangmangu","i_lat":-6.288927},{"distance":2179,"station_id":"PDJ","time":3,"i_lat":-6.276362,"transit":false,"line":6,"is_transit":false,"i_long":106.74273,"station_name":"Pondokranji"},{"i_long":106.780334,"station_id":"KBY","is_transit":false,"transit":false,"line":6,"station_name":"Kebayoran","time":8,"distance":6218,"i_lat":-6.237242},{"time":7,"transit":false,"line":6,"is_transit":false,"station_name":"Palmerah","i_long":106.79689,"i_lat":-6.207404,"station_id":"PLM","distance":3737},{"time":6,"distance":3191,"station_name":"Tanah Abang","transit":true,"is_transit":true,"i_long":106.811091,"line":1,"station_id":"THB","i_lat":-6.185545},{"i_long":106.800832,"is_transit":false,"station_id":"DU","transit":false,"line":1,"distance":3632,"time":8,"station_name":"Duri","i_lat":-6.155215},{"time":4,"transit":false,"distance":1230,"i_lat":-6.144674,"station_id":"AK","is_transit":false,"line":1,"i_long":106.79867,"station_name":"Angke"},{"i_lat":-6.132549,"station_id":"KPB","time":9,"i_long":106.826365,"line":4,"transit":true,"is_transit":true,"distance":4102,"station_name":"Kampung Bandan"},{"transit":false,"distance":1444,"station_name":"Rajawali","station_id":"RJW","time":3,"line":11,"is_transit":false,"i_lat":-6.14505,"i_long":106.836569},{"i_lat":-6.161728,"transit":false,"station_id":"KMO","distance":1901,"i_long":106.839204,"line":11,"is_transit":false,"time":5,"station_name":"Kemayoran"},{"transit":false,"station_id":"PSE","is_transit":false,"time":4,"station_name":"Pasar Senen","distance":1436,"i_long":106.84368,"line":11,"i_lat":-6.174784},{"distance":1567,"is_transit":false,"i_lat":-6.185975,"transit":false,"station_name":"Gang Sentiong","station_id":"GST","time":8,"i_long":106.850107,"line":11},{"distance":973,"station_name":"Kramat","transit":false,"is_transit":false,"time":1,"i_lat":-6.193792,"station_id":"KMT","i_long":106.855437,"line":11},{"station_id":"POK","is_transit":false,"transit":false,"distance":1829,"time":2,"i_lat":-6.209188,"station_name":"Pondok Jati","i_long":106.861737,"line":11},{"station_id":"JNG","transit":true,"station_name":"Jatinegara","is_transit":true,"i_long":106.86807400000001,"time":9,"distance":1236,"i_lat":-6.215091,"line":1},{"station_id":"MTR","i_lat":-6.212485,"i_long":106.858896,"time":2,"is_transit":false,"transit":false,"distance":1377,"station_name":"Matraman","line":1},{"time":2,"i_lat":-6.209883,"is_transit":false,"transit":false,"station_id":"MRI","i_long":106.84912,"line":2,"distance":1275,"station_name":"Manggarai"},{"station_name":"Sudirman","transit":false,"station_id":"SUD","i_lat":-6.202263,"distance":3186,"is_transit":false,"time":4,"line":1,"i_long":106.822649}]]}