{"data":[[{"distance":0,"i_long":106.491338,"transit":false,"line":0,"i_lat":-6.338021,"time":0,"is_transit":false,"station_name":"Daru","station_id":"DAR"},{"i_lat":-6.354349,"i_long":106.508482,"station_name":"Cilejit","is_transit":false,"distance":2675,"line":3,"transit":false,"station_id":"CJT","time":6},{"distance":7025,"time":9,"i_lat":-6.3441410000000005,"line":6,"is_transit":false,"station_id":"PRP","transit":false,"station_name":"Parung Panjang","i_long":106.568863},{"i_long":106.617853,"line":3,"station_id":"CC","distance":5968,"time":8,"station_name":"Cicayur","is_transit":false,"transit":false,"i_lat":-6.329547},{"time":4,"i_lat":-6.32484,"station_id":"CSK","distance":2519,"transit":false,"i_long":106.640411,"line":3,"station_name":"Cisauk","is_transit":false},{"transit":false,"station_name":"Serpong","is_transit":false,"station_id":"SRP","i_long":106.66566,"line":6,"time":4,"i_lat":-6.319871,"distance":1784},{"is_transit":false,"time":4,"distance":2413,"station_id":"RU","i_lat":-6.314823,"i_long":106.675475,"line":6,"station_name":"Rawa Buntu","transit":false},{"transit":false,"line":6,"distance":4566,"is_transit":false,"station_id":"SDM","i_lat":-6.296963,"station_name":"Sudimara","time":6,"i_long":106.712277},{"transit":false,"is_transit":false,"i_lat":-6.288927,"distance":1994,"station_name":"Jurangmangu","line":6,"i_long":106.728916,"time":4,"station_id":"JMU"},{"i_lat":-6.276362,"station_name":"Pondokranji","transit":false,"station_id":"PDJ","is_transit":false,"i_long":106.74273,"time":3,"distance":2179,"line":6},{"station_id":"KBY","time":8,"distance":6218,"i_long":106.780334,"i_lat":-6.237242,"transit":false,"line":6,"is_transit":false,"station_name":"Kebayoran"},{"i_long":106.79689,"i_lat":-6.207404,"station_name":"Palmerah","is_transit":false,"station_id":"PLM","line":6,"time":7,"transit":false,"distance":3737},{"station_name":"Tanah Abang","i_long":106.811091,"is_transit":true,"line":1,"i_lat":-6.185545,"time":6,"station_id":"THB","distance":3191,"transit":true},{"transit":false,"distance":2029,"line":1,"station_id":"KAT","i_lat":-6.20132,"is_transit":false,"i_long":106.816351,"time":5,"station_name":"Karet"},{"station_id":"SUDB","transit":false,"distance":471,"station_name":"Sudirman Baru","time":1,"i_lat":-6.201433,"i_long":106.819881,"line":1,"is_transit":false},{"i_lat":-6.202263,"station_id":"SUD","i_long":106.822649,"distance":280,"line":1,"station_name":"Sudirman","is_transit":false,"time":1,"transit":false},{"station_id":"MRI","i_lat":-6.209883,"station_name":"Manggarai","transit":false,"distance":3186,"time":4,"is_transit":false,"i_long":106.84912,"line":2},{"station_name":"Matraman","line":1,"i_lat":-6.212485,"transit":false,"distance":1275,"station_id":"MTR","time":2,"i_long":106.858896,"is_transit":false},{"i_lat":-6.215091,"line":1,"distance":1377,"time":8,"station_id":"JNG","i_long":106.86807400000001,"station_name":"Jatinegara","is_transit":false,"transit":false},{"transit":false,"is_transit":false,"time":3,"line":1,"station_name":"Klender","i_long":106.899548,"i_lat":-6.2135,"station_id":"KLD","distance":3395},{"station_id":"BUA","transit":false,"station_name":"Buaran","i_lat":-6.215568,"is_transit":false,"line":1,"distance":3100,"time":2,"i_long":106.922662},{"is_transit":false,"i_lat":-6.217455,"distance":1305,"line":1,"i_long":106.939679,"station_name":"Klenderbaru","time":1,"transit":false,"station_id":"KLDB"},{"distance":1385,"transit":false,"station_name":"Cakung","is_transit":false,"station_id":"CUK","i_lat":-6.219053,"line":1,"i_long":106.951283,"time":8},{"i_lat":-6.224515,"i_long":106.977657,"distance":3097,"is_transit":false,"line":1,"station_name":"Kranji","station_id":"KRI","transit":false,"time":3},{"distance":2520,"i_lat":-6.236616,"is_transit":false,"transit":false,"station_name":"Bekasi","time":4,"station_id":"BKS","line":1,"i_long":106.997013},{"is_transit":false,"station_id":"BKST","distance":2368,"station_name":"Bekasi Timur","i_lat":-6.248029,"i_long":107.016735,"line":1,"transit":false,"time":2},{"transit":false,"station_id":"TB","time":7,"i_lat":-6.258864,"distance":4460,"is_transit":false,"line":1,"i_long":107.055722,"station_name":"Tambun"}],[{"is_transit":false,"line":0,"time":0,"i_lat":-6.338021,"station_name":"Daru","station_id":"DAR","transit":false,"i_long":106.491338,"distance":0},{"i_long":106.508482,"line":3,"station_name":"Cilejit","is_transit":false,"i_lat":-6.354349,"distance":2675,"station_id":"CJT","time":6,"transit":false},{"i_long":106.568863,"time":9,"is_transit":false,"i_lat":-6.3441410000000005,"transit":false,"station_id":"PRP","distance":7025,"station_name":"Parung Panjang","line":6},{"station_name":"Cicayur","is_transit":false,"line":3,"distance":5968,"i_lat":-6.329547,"time":8,"transit":false,"i_long":106.617853,"station_id":"CC"},{"station_name":"Cisauk","i_lat":-6.32484,"i_long":106.640411,"line":3,"station_id":"CSK","time":4,"distance":2519,"transit":false,"is_transit":false},{"i_lat":-6.319871,"time":4,"line":6,"station_name":"Serpong","transit":false,"station_id":"SRP","distance":1784,"i_long":106.66566,"is_transit":false},{"i_lat":-6.314823,"time":4,"station_name":"Rawa Buntu","transit":false,"i_long":106.675475,"line":6,"distance":2413,"is_transit":false,"station_id":"RU"},{"station_id":"SDM","station_name":"Sudimara","transit":false,"time":6,"is_transit":false,"distance":4566,"i_lat":-6.296963,"line":6,"i_long":106.712277},{"distance":1994,"station_id":"JMU","line":6,"transit":false,"i_lat":-6.288927,"i_long":106.728916,"time":4,"is_transit":false,"station_name":"Jurangmangu"},{"transit":false,"line":6,"distance":2179,"time":3,"i_lat":-6.276362,"station_name":"Pondokranji","station_id":"PDJ","is_transit":false,"i_long":106.74273},{"time":8,"distance":6218,"station_name":"Kebayoran","transit":false,"is_transit":false,"i_long":106.780334,"i_lat":-6.237242,"station_id":"KBY","line":6},{"distance":3737,"station_id":"PLM","station_name":"Palmerah","time":7,"transit":false,"i_lat":-6.207404,"i_long":106.79689,"is_transit":false,"line":6},{"station_id":"THB","distance":3191,"transit":true,"station_name":"Tanah Abang","i_lat":-6.185545,"is_transit":true,"i_long":106.811091,"time":6,"line":1},{"is_transit":false,"line":1,"i_lat":-6.155215,"transit":false,"distance":3632,"station_name":"Duri","time":8,"i_long":106.800832,"station_id":"DU"},{"station_name":"Angke","i_lat":-6.144674,"distance":1230,"station_id":"AK","time":4,"is_transit":false,"i_long":106.79867,"line":1,"transit":false},{"station_id":"KPB","is_transit":true,"transit":true,"distance":4102,"line":4,"time":9,"station_name":"Kampung Bandan","i_lat":-6.132549,"i_long":106.826365},{"station_name":"Rajawali","station_id":"RJW","time":3,"i_lat":-6.14505,"is_transit":false,"transit":false,"line":11,"distance":1444,"i_long":106.836569},{"transit":false,"line":11,"distance":1901,"i_long":106.839204,"station_id":"KMO","station_name":"Kemayoran","time":5,"i_lat":-6.161728,"is_transit":false},{"station_id":"PSE","is_transit":false,"distance":1436,"station_name":"Pasar Senen","time":4,"i_long":106.84368,"transit":false,"line":11,"i_lat":-6.174784},{"is_transit":false,"i_lat":-6.185975,"station_id":"GST","station_name":"Gang Sentiong","i_long":106.850107,"time":8,"transit":false,"line":11,"distance":1567},{"line":11,"station_id":"KMT","i_long":106.855437,"is_transit":false,"transit":false,"i_lat":-6.193792,"station_name":"Kramat","distance":973,"time":1},{"i_long":106.861737,"transit":false,"distance":1829,"i_lat":-6.209188,"station_id":"POK","is_transit":false,"line":11,"station_name":"Pondok Jati","time":2},{"transit":true,"station_id":"JNG","time":9,"station_name":"Jatinegara","i_lat":-6.215091,"distance":1236,"is_transit":true,"line":1,"i_long":106.86807400000001},{"line":1,"transit":false,"station_name":"Klender","station_id":"KLD","is_transit":false,"time":3,"i_long":106.899548,"i_lat":-6.2135,"distance":3395},{"time":2,"is_transit":false,"transit":false,"i_lat":-6.215568,"station_id":"BUA","line":1,"i_long":106.922662,"distance":3100,"station_name":"Buaran"},{"line":1,"distance":1305,"transit":false,"i_long":106.939679,"station_id":"KLDB","time":1,"i_lat":-6.217455,"is_transit":false,"station_name":"Klenderbaru"},{"time":8,"is_transit":false,"station_name":"Cakung","station_id":"CUK","transit":false,"i_long":106.951283,"i_lat":-6.219053,"line":1,"distance":1385},{"distance":3097,"transit":false,"station_name":"Kranji","i_long":106.977657,"i_lat":-6.224515,"time":3,"is_transit":false,"line":1,"station_id":"KRI"},{"distance":2520,"time":4,"station_name":"Bekasi","is_transit":false,"i_lat":-6.236616,"station_id":"BKS","transit":false,"line":1,"i_long":106.997013},{"transit":false,"i_long":107.016735,"time":2,"i_lat":-6.248029,"line":1,"distance":2368,"is_transit":false,"station_name":"Bekasi Timur","station_id":"BKST"},{"time":7,"i_long":107.055722,"i_lat":-6.258864,"transit":false,"distance":4460,"is_transit":false,"line":1,"station_name":"Tambun","station_id":"TB"}],[{"i_long":106.491338,"line":0,"station_name":"Daru","station_id":"DAR","is_transit":false,"time":0,"transit":false,"i_lat":-6.338021,"distance":0},{"transit":false,"line":3,"i_long":106.508482,"i_lat":-6.354349,"time":6,"is_transit":false,"station_name":"Cilejit","station_id":"CJT","distance":2675},{"station_id":"PRP","time":9,"is_transit":false,"station_name":"Parung Panjang","transit":false,"i_long":106.568863,"i_lat":-6.3441410000000005,"distance":7025,"line":6},{"is_transit":false,"station_name":"Cicayur","transit":false,"i_long":106.617853,"distance":5968,"time":8,"i_lat":-6.329547,"line":3,"station_id":"CC"},{"is_transit":false,"station_id":"CSK","i_long":106.640411,"line":3,"distance":2519,"station_name":"Cisauk","time":4,"i_lat":-6.32484,"transit":false},{"line":6,"station_id":"SRP","i_lat":-6.319871,"distance":1784,"i_long":106.66566,"station_name":"Serpong","is_transit":false,"time":4,"transit":false},{"i_lat":-6.314823,"station_id":"RU","distance":2413,"i_long":106.675475,"time":4,"station_name":"Rawa Buntu","transit":false,"line":6,"is_transit":false},{"i_lat":-6.296963,"station_id":"SDM","is_transit":false,"distance":4566,"time":6,"station_name":"Sudimara","transit":false,"i_long":106.712277,"line":6},{"station_id":"JMU","time":4,"station_name":"Jurangmangu","is_transit":false,"i_long":106.728916,"transit":false,"distance":1994,"i_lat":-6.288927,"line":6},{"transit":false,"i_lat":-6.276362,"distance":2179,"is_transit":false,"station_id":"PDJ","station_name":"Pondokranji","time":3,"i_long":106.74273,"line":6},{"line":6,"station_id":"KBY","i_long":106.780334,"station_name":"Kebayoran","i_lat":-6.237242,"transit":false,"time":8,"distance":6218,"is_transit":false},{"distance":3737,"line":6,"station_id":"PLM","time":7,"transit":false,"station_name":"Palmerah","i_long":106.79689,"is_transit":false,"i_lat":-6.207404},{"station_name":"Tanah Abang","i_lat":-6.185545,"station_id":"THB","time":6,"line":1,"i_long":106.811091,"distance":3191,"is_transit":true,"transit":true},{"station_id":"DU","station_name":"Duri","is_transit":false,"i_long":106.800832,"distance":3632,"transit":false,"line":1,"time":8,"i_lat":-6.155215},{"time":4,"station_name":"Angke","transit":false,"i_lat":-6.144674,"station_id":"AK","line":1,"is_transit":false,"i_long":106.79867,"distance":1230},{"distance":4102,"station_id":"KPB","time":9,"transit":true,"i_lat":-6.132549,"line":4,"station_name":"Kampung Bandan","i_long":106.826365,"is_transit":true},{"line":2,"is_transit":true,"station_id":"JAKK","time":3,"i_lat":-6.137569,"station_name":"Jakarta Kota","distance":1364,"i_long":106.812439,"transit":true},{"station_name":"Jayakarta","line":2,"i_lat":-6.141205,"time":4,"transit":false,"i_long":106.820901,"distance":1264,"station_id":"JAY","is_transit":false},{"distance":1080,"transit":false,"line":2,"i_long":106.82482,"station_id":"MGB","time":2,"station_name":"Manggabesar","is_transit":false,"i_lat":-6.149769},{"station_name":"Sawah Besar","i_lat":-6.160725,"transit":false,"line":2,"is_transit":false,"distance":906,"time":2,"station_id":"SW","i_long":106.827103},{"i_lat":-6.166716,"line":2,"transit":false,"i_long":106.828284,"distance":1149,"station_name":"Juanda","time":2,"is_transit":false,"station_id":"JUA"},{"station_id":"GDD","i_lat":-6.186295,"i_long":106.832183,"line":2,"is_transit":false,"time":4,"distance":2015,"station_name":"Gondangdia","transit":false},{"i_lat":-6.198556,"distance":1750,"i_long":106.840169,"transit":false,"time":3,"line":2,"station_id":"CKI","is_transit":false,"station_name":"Cikini"},{"i_long":106.84912,"is_transit":true,"time":4,"line":2,"station_name":"Manggarai","transit":true,"i_lat":-6.209883,"station_id":"MRI","distance":1590},{"i_lat":-6.212485,"transit":false,"time":2,"station_name":"Matraman","distance":1275,"is_transit":false,"line":1,"i_long":106.858896,"station_id":"MTR"},{"transit":false,"distance":1377,"i_long":106.86807400000001,"line":1,"is_transit":false,"i_lat":-6.215091,"station_id":"JNG","station_name":"Jatinegara","time":8},{"i_long":106.899548,"transit":false,"time":3,"station_name":"Klender","station_id":"KLD","distance":3395,"is_transit":false,"i_lat":-6.2135,"line":1},{"line":1,"station_id":"BUA","i_long":106.922662,"distance":3100,"time":2,"is_transit":false,"station_name":"Buaran","transit":false,"i_lat":-6.215568},{"line":1,"station_name":"Klenderbaru","i_lat":-6.217455,"is_transit":false,"time":1,"distance":1305,"station_id":"KLDB","transit":false,"i_long":106.939679},{"i_long":106.951283,"line":1,"transit":false,"distance":1385,"station_name":"Cakung","time":8,"is_transit":false,"i_lat":-6.219053,"station_id":"CUK"},{"time":3,"station_name":"Kranji","transit":false,"i_lat":-6.224515,"i_long":106.977657,"distance":3097,"station_id":"KRI","line":1,"is_transit":false},{"line":1,"is_transit":false,"transit":false,"distance":2520,"i_lat":-6.236616,"time":4,"station_name":"Bekasi","i_long":106.997013,"station_id":"BKS"},{"time":2,"is_transit":false,"i_long":107.016735,"station_id":"BKST","station_name":"Bekasi Timur","i_lat":-6.248029,"line":1,"distance":2368,"transit":false},{"i_lat":-6.258864,"line":1,"station_name":"Tambun","is_transit":false,"station_id":"TB","time":7,"transit":false,"distance":4460,"i_long":107.055722}],[{"i_long":106.491338,"station_id":"DAR","time":0,"distance":0,"i_lat":-6.338021,"station_name":"Daru","is_transit":false,"transit":false,"line":0},{"station_name":"Cilejit","is_transit":false,"i_lat":-6.354349,"distance":2675,"i_long":106.508482,"transit":false,"line":3,"station_id":"CJT","time":6},{"station_name":"Parung Panjang","transit":false,"station_id":"PRP","line":6,"distance":7025,"is_transit":false,"i_lat":-6.3441410000000005,"time":9,"i_long":106.568863},{"station_id":"CC","line":3,"station_name":"Cicayur","i_lat":-6.329547,"distance":5968,"i_long":106.617853,"transit":false,"time":8,"is_transit":false},{"transit":false,"distance":2519,"is_transit":false,"station_id":"CSK","i_lat":-6.32484,"line":3,"i_long":106.640411,"station_name":"Cisauk","time":4},{"station_name":"Serpong","time":4,"is_transit":false,"line":6,"distance":1784,"station_id":"SRP","i_lat":-6.319871,"i_long":106.66566,"transit":false},{"station_id":"RU","is_transit":false,"distance":2413,"station_name":"Rawa Buntu","i_lat":-6.314823,"time":4,"transit":false,"i_long":106.675475,"line":6},{"station_id":"SDM","is_transit":false,"time":6,"i_lat":-6.296963,"transit":false,"i_long":106.712277,"distance":4566,"line":6,"station_name":"Sudimara"},{"transit":false,"i_lat":-6.288927,"distance":1994,"is_transit":false,"station_name":"Jurangmangu","time":4,"station_id":"JMU","line":6,"i_long":106.728916},{"time":3,"station_id":"PDJ","i_long":106.74273,"station_name":"Pondokranji","distance":2179,"is_transit":false,"line":6,"transit":false,"i_lat":-6.276362},{"time":8,"distance":6218,"i_lat":-6.237242,"station_id":"KBY","station_name":"Kebayoran","i_long":106.780334,"is_transit":false,"line":6,"transit":false},{"distance":3737,"transit":false,"line":6,"station_id":"PLM","i_lat":-6.207404,"is_transit":false,"station_name":"Palmerah","time":7,"i_long":106.79689},{"station_name":"Tanah Abang","time":6,"line":1,"i_lat":-6.185545,"station_id":"THB","distance":3191,"i_long":106.811091,"transit":true,"is_transit":true},{"time":5,"station_id":"KAT","station_name":"Karet","is_transit":false,"line":1,"distance":2029,"i_long":106.816351,"i_lat":-6.20132,"transit":false},{"distance":471,"station_name":"Sudirman Baru","time":1,"transit":false,"i_long":106.819881,"is_transit":false,"line":1,"i_lat":-6.201433,"station_id":"SUDB"},{"line":1,"station_name":"Sudirman","i_long":106.822649,"distance":280,"transit":false,"station_id":"SUD","is_transit":false,"i_lat":-6.202263,"time":1},{"line":2,"is_transit":true,"i_lat":-6.209883,"transit":true,"i_long":106.84912,"station_id":"MRI","distance":3186,"station_name":"Manggarai","time":4},{"is_transit":false,"line":2,"i_lat":-6.198556,"time":4,"station_id":"CKI","i_long":106.840169,"distance":1590,"transit":false,"station_name":"Cikini"},{"i_lat":-6.186295,"time":3,"station_id":"GDD","line":2,"is_transit":false,"transit":false,"i_long":106.832183,"distance":1750,"station_name":"Gondangdia"},{"station_id":"JUA","line":2,"time":4,"i_long":106.828284,"distance":2015,"is_transit":false,"i_lat":-6.166716,"transit":false,"station_name":"Juanda"},{"i_lat":-6.160725,"i_long":106.827103,"is_transit":false,"distance":1149,"line":2,"station_id":"SW","transit":false,"station_name":"Sawah Besar","time":2},{"station_id":"MGB","is_transit":false,"distance":906,"transit":false,"time":2,"i_long":106.82482,"line":2,"station_name":"Manggabesar","i_lat":-6.149769},{"time":2,"distance":1080,"is_transit":false,"transit":false,"i_lat":-6.141205,"station_name":"Jayakarta","station_id":"JAY","i_long":106.820901,"line":2},{"i_long":106.812439,"station_id":"JAKK","line":2,"station_name":"Jakarta Kota","is_transit":true,"i_lat":-6.137569,"transit":true,"distance":1264,"time":4},{"i_lat":-6.132549,"i_long":106.826365,"station_name":"Kampung Bandan","is_transit":true,"time":3,"station_id":"KPB","line":4,"distance":1364,"transit":true},{"distance":1444,"i_lat":-6.14505,"is_transit":false,"station_id":"RJW","line":11,"i_long":106.836569,"station_name":"Rajawali","transit":false,"time":3},{"i_lat":-6.161728,"is_transit":false,"i_long":106.839204,"station_id":"KMO","distance":1901,"line":11,"time":5,"transit":false,"station_name":"Kemayoran"},{"station_id":"PSE","line":11,"i_lat":-6.174784,"distance":1436,"i_long":106.84368,"is_transit":false,"transit":false,"station_name":"Pasar Senen","time":4},{"transit":false,"i_lat":-6.185975,"station_name":"Gang Sentiong","line":11,"time":8,"is_transit":false,"i_long":106.850107,"station_id":"GST","distance":1567},{"distance":973,"i_long":106.855437,"station_name":"Kramat","transit":false,"station_id":"KMT","time":1,"line":11,"is_transit":false,"i_lat":-6.193792},{"is_transit":false,"transit":false,"i_long":106.861737,"line":11,"i_lat":-6.209188,"station_name":"Pondok Jati","station_id":"POK","time":2,"distance":1829},{"i_long":106.86807400000001,"line":1,"transit":true,"station_id":"JNG","distance":1236,"time":9,"i_lat":-6.215091,"is_transit":true,"station_name":"Jatinegara"},{"is_transit":false,"distance":3395,"station_name":"Klender","station_id":"KLD","i_lat":-6.2135,"transit":false,"i_long":106.899548,"time":3,"line":1},{"station_id":"BUA","station_name":"Buaran","distance":3100,"time":2,"i_long":106.922662,"transit":false,"is_transit":false,"line":1,"i_lat":-6.215568},{"line":1,"distance":1305,"time":1,"transit":false,"i_long":106.939679,"station_id":"KLDB","station_name":"Klenderbaru","is_transit":false,"i_lat":-6.217455},{"transit":false,"station_id":"CUK","time":8,"i_lat":-6.219053,"i_long":106.951283,"station_name":"Cakung","distance":1385,"is_transit":false,"line":1},{"transit":false,"i_long":106.977657,"is_transit":false,"station_name":"Kranji","i_lat":-6.224515,"line":1,"time":3,"distance":3097,"station_id":"KRI"},{"time":4,"distance":2520,"i_long":106.997013,"i_lat":-6.236616,"station_id":"BKS","station_name":"Bekasi","line":1,"is_transit":false,"transit":false},{"i_lat":-6.248029,"i_long":107.016735,"transit":false,"line":1,"time":2,"is_transit":false,"station_id":"BKST","station_name":"Bekasi Timur","distance":2368},{"is_transit":false,"transit":false,"station_id":"TB","time":7,"i_lat":-6.258864,"distance":4460,"i_long":107.055722,"line":1,"station_name":"Tambun"}]]}