{"data":[[{"station_id":"DAR","line":0,"distance":0,"station_name":"Daru","i_long":106.491338,"is_transit":false,"time":0,"transit":false,"i_lat":-6.338021},{"i_lat":-6.354349,"distance":2675,"time":6,"line":3,"station_id":"CJT","transit":false,"station_name":"Cilejit","is_transit":false,"i_long":106.508482},{"i_lat":-6.3441410000000005,"station_id":"PRP","transit":false,"station_name":"Parung Panjang","distance":7025,"i_long":106.568863,"line":6,"time":9,"is_transit":false},{"i_lat":-6.329547,"station_name":"Cicayur","line":3,"distance":5968,"i_long":106.617853,"transit":false,"station_id":"CC","time":8,"is_transit":false},{"transit":false,"time":4,"station_id":"CSK","i_long":106.640411,"station_name":"Cisauk","distance":2519,"is_transit":false,"i_lat":-6.32484,"line":3},{"time":4,"station_id":"SRP","station_name":"Serpong","is_transit":false,"distance":1784,"transit":false,"line":6,"i_lat":-6.319871,"i_long":106.66566},{"station_name":"Rawa Buntu","station_id":"RU","is_transit":false,"distance":2413,"time":4,"line":6,"i_long":106.675475,"i_lat":-6.314823,"transit":false},{"distance":4566,"station_id":"SDM","line":6,"transit":false,"station_name":"Sudimara","is_transit":false,"time":6,"i_lat":-6.296963,"i_long":106.712277},{"distance":1994,"station_id":"JMU","line":6,"time":4,"station_name":"Jurangmangu","i_lat":-6.288927,"transit":false,"i_long":106.728916,"is_transit":false},{"station_id":"PDJ","i_lat":-6.276362,"transit":false,"station_name":"Pondokranji","is_transit":false,"i_long":106.74273,"line":6,"time":3,"distance":2179},{"line":6,"time":8,"distance":6218,"i_lat":-6.237242,"i_long":106.780334,"is_transit":false,"transit":false,"station_name":"Kebayoran","station_id":"KBY"},{"station_name":"Palmerah","line":6,"station_id":"PLM","time":7,"i_lat":-6.207404,"transit":false,"is_transit":false,"i_long":106.79689,"distance":3737},{"i_lat":-6.185545,"line":1,"transit":true,"station_name":"Tanah Abang","i_long":106.811091,"distance":3191,"is_transit":true,"station_id":"THB","time":6},{"is_transit":false,"time":5,"i_lat":-6.20132,"station_name":"Karet","i_long":106.816351,"transit":false,"station_id":"KAT","distance":2029,"line":1},{"station_name":"Sudirman Baru","i_long":106.819881,"station_id":"SUDB","distance":471,"line":1,"is_transit":false,"i_lat":-6.201433,"transit":false,"time":1},{"station_name":"Sudirman","distance":280,"line":1,"is_transit":false,"transit":false,"station_id":"SUD","i_long":106.822649,"time":1,"i_lat":-6.202263},{"distance":3186,"i_lat":-6.209883,"time":4,"transit":true,"is_transit":true,"station_id":"MRI","station_name":"Manggarai","line":2,"i_long":106.84912},{"time":4,"is_transit":false,"distance":2610,"transit":false,"i_long":106.857948,"station_id":"TEB","line":2,"station_name":"Tebet","i_lat":-6.226659},{"distance":1230,"i_long":106.856607,"line":2,"transit":false,"station_name":"Cawang","station_id":"CW","is_transit":false,"time":2,"i_lat":-6.242512},{"i_lat":-6.255332,"time":3,"distance":1546,"line":2,"i_long":106.85449,"transit":false,"station_name":"Duren Kalibata","is_transit":false,"station_id":"DRN"},{"transit":false,"station_name":"Pasar Minggu Baru","station_id":"PSMB","is_transit":false,"i_long":106.851577,"line":2,"time":2,"distance":824,"i_lat":-6.263214},{"station_name":"Pasar Minggu","i_lat":-6.2842400000000005,"i_long":106.843999,"line":2,"station_id":"PSM","time":2,"distance":2380,"transit":false,"is_transit":false},{"time":4,"station_name":"Tanjung Barat","transit":false,"is_transit":false,"station_id":"TNT","distance":2820,"i_lat":-6.3080680000000005,"i_long":106.838896,"line":2},{"line":2,"i_long":106.832616,"transit":false,"distance":2671,"station_id":"LNA","is_transit":false,"time":3,"i_lat":-6.330363,"station_name":"Lenteng Agung"},{"i_lat":-6.339291,"station_name":"Univ. Pancasila","transit":false,"i_long":106.834175,"line":2,"time":2,"is_transit":false,"station_id":"UP","distance":1029},{"is_transit":false,"i_lat":-6.360749,"station_id":"UI","time":3,"line":2,"distance":2264,"i_long":106.831474,"transit":false,"station_name":"Univ. Indonesia"},{"station_name":"Pondok Cina","i_lat":-6.369073,"transit":false,"time":2,"i_long":106.831114,"line":2,"is_transit":false,"distance":1109,"station_id":"POC"},{"time":4,"is_transit":false,"station_name":"Depokbaru","line":2,"transit":false,"i_long":106.819451,"distance":2727,"i_lat":-6.391065,"station_id":"DPB"},{"is_transit":false,"station_id":"DP","i_long":106.816926,"line":2,"transit":false,"time":3,"distance":1584,"i_lat":-6.405256,"station_name":"Depok"},{"line":2,"is_transit":false,"i_long":106.800298,"distance":5084,"station_name":"Citayam","station_id":"CTA","transit":false,"i_lat":-6.448811,"time":6},{"line":2,"station_name":"Bojonggede","station_id":"BJD","distance":5197,"time":5,"transit":false,"i_lat":-6.493243,"i_long":106.792719,"is_transit":false},{"distance":4331,"i_long":106.800016,"i_lat":-6.530544,"is_transit":false,"line":2,"transit":false,"station_id":"CLT","station_name":"Cilebut","time":5}],[{"transit":false,"i_long":106.491338,"line":0,"station_id":"DAR","is_transit":false,"time":0,"station_name":"Daru","distance":0,"i_lat":-6.338021},{"time":6,"i_long":106.508482,"station_id":"CJT","transit":false,"is_transit":false,"line":3,"distance":2675,"station_name":"Cilejit","i_lat":-6.354349},{"station_name":"Parung Panjang","distance":7025,"line":6,"station_id":"PRP","is_transit":false,"i_lat":-6.3441410000000005,"i_long":106.568863,"time":9,"transit":false},{"is_transit":false,"time":8,"transit":false,"i_lat":-6.329547,"line":3,"station_name":"Cicayur","station_id":"CC","distance":5968,"i_long":106.617853},{"time":4,"station_id":"CSK","is_transit":false,"i_lat":-6.32484,"station_name":"Cisauk","transit":false,"distance":2519,"line":3,"i_long":106.640411},{"station_name":"Serpong","distance":1784,"is_transit":false,"transit":false,"i_long":106.66566,"station_id":"SRP","time":4,"line":6,"i_lat":-6.319871},{"is_transit":false,"station_id":"RU","distance":2413,"i_lat":-6.314823,"i_long":106.675475,"station_name":"Rawa Buntu","line":6,"time":4,"transit":false},{"station_name":"Sudimara","is_transit":false,"line":6,"time":6,"station_id":"SDM","transit":false,"i_lat":-6.296963,"distance":4566,"i_long":106.712277},{"time":4,"is_transit":false,"i_long":106.728916,"distance":1994,"line":6,"station_id":"JMU","station_name":"Jurangmangu","transit":false,"i_lat":-6.288927},{"station_name":"Pondokranji","i_lat":-6.276362,"distance":2179,"time":3,"line":6,"transit":false,"is_transit":false,"i_long":106.74273,"station_id":"PDJ"},{"transit":false,"i_long":106.780334,"station_name":"Kebayoran","distance":6218,"station_id":"KBY","i_lat":-6.237242,"line":6,"time":8,"is_transit":false},{"station_id":"PLM","line":6,"i_lat":-6.207404,"distance":3737,"time":7,"station_name":"Palmerah","i_long":106.79689,"transit":false,"is_transit":false},{"is_transit":true,"line":1,"i_lat":-6.185545,"station_name":"Tanah Abang","i_long":106.811091,"transit":true,"distance":3191,"time":6,"station_id":"THB"},{"distance":3632,"is_transit":false,"time":8,"station_name":"Duri","i_lat":-6.155215,"transit":false,"station_id":"DU","i_long":106.800832,"line":1},{"station_id":"AK","is_transit":false,"time":4,"line":1,"station_name":"Angke","distance":1230,"transit":false,"i_lat":-6.144674,"i_long":106.79867},{"station_name":"Kampung Bandan","is_transit":true,"line":4,"distance":4102,"i_lat":-6.132549,"time":9,"transit":true,"i_long":106.826365,"station_id":"KPB"},{"i_lat":-6.137569,"i_long":106.812439,"line":2,"is_transit":true,"distance":1364,"transit":true,"station_id":"JAKK","station_name":"Jakarta Kota","time":3},{"time":4,"is_transit":false,"i_long":106.820901,"line":2,"distance":1264,"station_name":"Jayakarta","transit":false,"station_id":"JAY","i_lat":-6.141205},{"transit":false,"is_transit":false,"line":2,"station_id":"MGB","time":2,"station_name":"Manggabesar","i_lat":-6.149769,"i_long":106.82482,"distance":1080},{"distance":906,"i_long":106.827103,"transit":false,"station_name":"Sawah Besar","line":2,"is_transit":false,"station_id":"SW","i_lat":-6.160725,"time":2},{"time":2,"line":2,"i_long":106.828284,"is_transit":false,"transit":false,"station_id":"JUA","station_name":"Juanda","distance":1149,"i_lat":-6.166716},{"station_id":"GDD","line":2,"distance":2015,"is_transit":false,"i_lat":-6.186295,"time":4,"i_long":106.832183,"transit":false,"station_name":"Gondangdia"},{"line":2,"station_id":"CKI","time":3,"station_name":"Cikini","i_lat":-6.198556,"distance":1750,"i_long":106.840169,"is_transit":false,"transit":false},{"station_name":"Manggarai","transit":false,"station_id":"MRI","time":4,"distance":1590,"i_lat":-6.209883,"is_transit":false,"line":2,"i_long":106.84912},{"transit":false,"is_transit":false,"i_lat":-6.226659,"distance":2610,"i_long":106.857948,"station_name":"Tebet","time":4,"station_id":"TEB","line":2},{"distance":1230,"i_lat":-6.242512,"line":2,"station_id":"CW","transit":false,"time":2,"i_long":106.856607,"is_transit":false,"station_name":"Cawang"},{"line":2,"distance":1546,"transit":false,"station_name":"Duren Kalibata","time":3,"is_transit":false,"i_long":106.85449,"i_lat":-6.255332,"station_id":"DRN"},{"distance":824,"i_lat":-6.263214,"station_id":"PSMB","time":2,"station_name":"Pasar Minggu Baru","transit":false,"line":2,"is_transit":false,"i_long":106.851577},{"i_lat":-6.2842400000000005,"i_long":106.843999,"time":2,"transit":false,"station_name":"Pasar Minggu","station_id":"PSM","distance":2380,"is_transit":false,"line":2},{"station_name":"Tanjung Barat","station_id":"TNT","line":2,"i_long":106.838896,"is_transit":false,"i_lat":-6.3080680000000005,"transit":false,"time":4,"distance":2820},{"station_id":"LNA","transit":false,"i_lat":-6.330363,"is_transit":false,"i_long":106.832616,"distance":2671,"station_name":"Lenteng Agung","time":3,"line":2},{"line":2,"station_name":"Univ. Pancasila","station_id":"UP","i_long":106.834175,"time":2,"transit":false,"is_transit":false,"i_lat":-6.339291,"distance":1029},{"time":3,"distance":2264,"i_long":106.831474,"transit":false,"station_id":"UI","line":2,"station_name":"Univ. Indonesia","i_lat":-6.360749,"is_transit":false},{"i_lat":-6.369073,"time":2,"i_long":106.831114,"is_transit":false,"station_id":"POC","line":2,"station_name":"Pondok Cina","distance":1109,"transit":false},{"station_id":"DPB","station_name":"Depokbaru","line":2,"i_long":106.819451,"time":4,"i_lat":-6.391065,"distance":2727,"is_transit":false,"transit":false},{"distance":1584,"line":2,"station_name":"Depok","station_id":"DP","i_long":106.816926,"transit":false,"is_transit":false,"time":3,"i_lat":-6.405256},{"i_long":106.800298,"is_transit":false,"line":2,"distance":5084,"i_lat":-6.448811,"transit":false,"station_id":"CTA","station_name":"Citayam","time":6},{"line":2,"station_id":"BJD","station_name":"Bojonggede","time":5,"is_transit":false,"i_lat":-6.493243,"transit":false,"i_long":106.792719,"distance":5197},{"i_long":106.800016,"i_lat":-6.530544,"line":2,"station_id":"CLT","time":5,"is_transit":false,"station_name":"Cilebut","transit":false,"distance":4331}],[{"transit":false,"distance":0,"i_long":106.491338,"i_lat":-6.338021,"station_name":"Daru","time":0,"line":0,"is_transit":false,"station_id":"DAR"},{"station_id":"CJT","line":3,"distance":2675,"i_lat":-6.354349,"station_name":"Cilejit","is_transit":false,"time":6,"transit":false,"i_long":106.508482},{"distance":7025,"is_transit":false,"i_long":106.568863,"station_name":"Parung Panjang","station_id":"PRP","i_lat":-6.3441410000000005,"time":9,"transit":false,"line":6},{"station_id":"CC","i_long":106.617853,"line":3,"time":8,"transit":false,"is_transit":false,"i_lat":-6.329547,"distance":5968,"station_name":"Cicayur"},{"transit":false,"is_transit":false,"time":4,"i_lat":-6.32484,"i_long":106.640411,"station_id":"CSK","station_name":"Cisauk","distance":2519,"line":3},{"transit":false,"station_name":"Serpong","time":4,"is_transit":false,"station_id":"SRP","i_long":106.66566,"line":6,"i_lat":-6.319871,"distance":1784},{"transit":false,"i_long":106.675475,"station_name":"Rawa Buntu","time":4,"distance":2413,"i_lat":-6.314823,"line":6,"is_transit":false,"station_id":"RU"},{"transit":false,"time":6,"station_name":"Sudimara","station_id":"SDM","i_lat":-6.296963,"is_transit":false,"distance":4566,"i_long":106.712277,"line":6},{"transit":false,"i_long":106.728916,"station_name":"Jurangmangu","station_id":"JMU","distance":1994,"time":4,"i_lat":-6.288927,"line":6,"is_transit":false},{"transit":false,"distance":2179,"i_long":106.74273,"is_transit":false,"line":6,"station_name":"Pondokranji","station_id":"PDJ","time":3,"i_lat":-6.276362},{"time":8,"station_id":"KBY","distance":6218,"i_lat":-6.237242,"station_name":"Kebayoran","line":6,"is_transit":false,"transit":false,"i_long":106.780334},{"station_id":"PLM","line":6,"transit":false,"is_transit":false,"distance":3737,"station_name":"Palmerah","i_lat":-6.207404,"i_long":106.79689,"time":7},{"time":6,"distance":3191,"station_name":"Tanah Abang","line":1,"transit":true,"is_transit":true,"station_id":"THB","i_lat":-6.185545,"i_long":106.811091},{"station_id":"DU","line":1,"transit":false,"is_transit":false,"i_long":106.800832,"i_lat":-6.155215,"time":8,"distance":3632,"station_name":"Duri"},{"i_long":106.79867,"transit":false,"distance":1230,"line":1,"station_id":"AK","station_name":"Angke","time":4,"is_transit":false,"i_lat":-6.144674},{"time":9,"line":4,"station_name":"Kampung Bandan","station_id":"KPB","transit":true,"is_transit":true,"distance":4102,"i_lat":-6.132549,"i_long":106.826365},{"station_name":"Rajawali","i_lat":-6.14505,"station_id":"RJW","i_long":106.836569,"is_transit":false,"distance":1444,"line":11,"transit":false,"time":3},{"station_id":"KMO","i_long":106.839204,"i_lat":-6.161728,"line":11,"time":5,"transit":false,"distance":1901,"is_transit":false,"station_name":"Kemayoran"},{"is_transit":false,"line":11,"distance":1436,"i_long":106.84368,"i_lat":-6.174784,"transit":false,"station_name":"Pasar Senen","station_id":"PSE","time":4},{"transit":false,"distance":1567,"i_long":106.850107,"is_transit":false,"line":11,"station_name":"Gang Sentiong","time":8,"i_lat":-6.185975,"station_id":"GST"},{"time":1,"i_long":106.855437,"distance":973,"line":11,"station_id":"KMT","is_transit":false,"i_lat":-6.193792,"station_name":"Kramat","transit":false},{"line":11,"station_id":"POK","i_lat":-6.209188,"distance":1829,"is_transit":false,"station_name":"Pondok Jati","transit":false,"i_long":106.861737,"time":2},{"station_name":"Jatinegara","is_transit":true,"time":9,"station_id":"JNG","i_lat":-6.215091,"i_long":106.86807400000001,"line":1,"transit":true,"distance":1236},{"i_lat":-6.212485,"i_long":106.858896,"station_id":"MTR","is_transit":false,"transit":false,"distance":1377,"station_name":"Matraman","line":1,"time":2},{"transit":true,"line":2,"i_lat":-6.209883,"time":2,"is_transit":true,"i_long":106.84912,"distance":1275,"station_id":"MRI","station_name":"Manggarai"},{"distance":2610,"time":4,"station_name":"Tebet","i_lat":-6.226659,"station_id":"TEB","i_long":106.857948,"transit":false,"line":2,"is_transit":false},{"is_transit":false,"distance":1230,"transit":false,"line":2,"station_name":"Cawang","i_lat":-6.242512,"i_long":106.856607,"station_id":"CW","time":2},{"station_id":"DRN","station_name":"Duren Kalibata","time":3,"i_lat":-6.255332,"i_long":106.85449,"distance":1546,"is_transit":false,"transit":false,"line":2},{"distance":824,"station_id":"PSMB","is_transit":false,"line":2,"transit":false,"station_name":"Pasar Minggu Baru","i_long":106.851577,"i_lat":-6.263214,"time":2},{"distance":2380,"i_lat":-6.2842400000000005,"station_id":"PSM","is_transit":false,"transit":false,"station_name":"Pasar Minggu","i_long":106.843999,"time":2,"line":2},{"transit":false,"time":4,"station_name":"Tanjung Barat","station_id":"TNT","is_transit":false,"i_lat":-6.3080680000000005,"line":2,"i_long":106.838896,"distance":2820},{"distance":2671,"station_name":"Lenteng Agung","time":3,"i_long":106.832616,"station_id":"LNA","line":2,"is_transit":false,"transit":false,"i_lat":-6.330363},{"time":2,"station_name":"Univ. Pancasila","transit":false,"line":2,"i_lat":-6.339291,"is_transit":false,"distance":1029,"i_long":106.834175,"station_id":"UP"},{"i_lat":-6.360749,"i_long":106.831474,"time":3,"is_transit":false,"line":2,"distance":2264,"transit":false,"station_id":"UI","station_name":"Univ. Indonesia"},{"is_transit":false,"distance":1109,"transit":false,"station_id":"POC","station_name":"Pondok Cina","line":2,"i_long":106.831114,"time":2,"i_lat":-6.369073},{"line":2,"time":4,"station_name":"Depokbaru","transit":false,"station_id":"DPB","i_lat":-6.391065,"is_transit":false,"i_long":106.819451,"distance":2727},{"line":2,"transit":false,"time":3,"is_transit":false,"i_lat":-6.405256,"distance":1584,"station_id":"DP","station_name":"Depok","i_long":106.816926},{"i_long":106.800298,"transit":false,"line":2,"distance":5084,"i_lat":-6.448811,"is_transit":false,"station_id":"CTA","time":6,"station_name":"Citayam"},{"is_transit":false,"station_name":"Bojonggede","station_id":"BJD","i_long":106.792719,"distance":5197,"time":5,"i_lat":-6.493243,"line":2,"transit":false},{"is_transit":false,"distance":4331,"transit":false,"time":5,"station_id":"CLT","i_lat":-6.530544,"station_name":"Cilebut","i_long":106.800016,"line":2}]]}