{"data":[[{"transit":false,"i_long":106.491338,"distance":0,"line":0,"i_lat":-6.338021,"station_id":"DAR","station_name":"Daru","time":0,"is_transit":false},{"i_long":106.508482,"is_transit":false,"station_id":"CJT","transit":false,"time":6,"distance":2675,"i_lat":-6.354349,"station_name":"Cilejit","line":3},{"i_long":106.568863,"line":6,"i_lat":-6.3441410000000005,"time":9,"station_id":"PRP","transit":false,"is_transit":false,"distance":7025,"station_name":"Parung Panjang"},{"i_lat":-6.329547,"station_name":"Cicayur","i_long":106.617853,"transit":false,"time":8,"is_transit":false,"station_id":"CC","line":3,"distance":5968},{"i_long":106.640411,"is_transit":false,"distance":2519,"line":3,"station_name":"Cisauk","transit":false,"time":4,"station_id":"CSK","i_lat":-6.32484},{"distance":1784,"i_long":106.66566,"transit":false,"station_id":"SRP","is_transit":false,"station_name":"Serpong","line":6,"time":4,"i_lat":-6.319871},{"i_long":106.675475,"is_transit":false,"line":6,"distance":2413,"i_lat":-6.314823,"station_name":"Rawa Buntu","station_id":"RU","transit":false,"time":4},{"i_long":106.712277,"station_name":"Sudimara","is_transit":false,"station_id":"SDM","i_lat":-6.296963,"line":6,"transit":false,"distance":4566,"time":6},{"i_lat":-6.288927,"station_id":"JMU","transit":false,"distance":1994,"is_transit":false,"station_name":"Jurangmangu","time":4,"i_long":106.728916,"line":6},{"station_name":"Pondokranji","distance":2179,"is_transit":false,"i_lat":-6.276362,"i_long":106.74273,"time":3,"line":6,"station_id":"PDJ","transit":false},{"i_long":106.780334,"station_id":"KBY","station_name":"Kebayoran","time":8,"i_lat":-6.237242,"line":6,"distance":6218,"is_transit":false,"transit":false},{"i_long":106.79689,"transit":false,"station_name":"Palmerah","is_transit":false,"distance":3737,"station_id":"PLM","line":6,"time":7,"i_lat":-6.207404},{"is_transit":true,"time":6,"line":1,"station_id":"THB","station_name":"Tanah Abang","i_lat":-6.185545,"i_long":106.811091,"transit":true,"distance":3191},{"i_lat":-6.20132,"station_name":"Karet","station_id":"KAT","line":1,"time":5,"distance":2029,"i_long":106.816351,"is_transit":false,"transit":false},{"time":1,"i_lat":-6.201433,"distance":471,"station_id":"SUDB","i_long":106.819881,"transit":false,"line":1,"is_transit":false,"station_name":"Sudirman Baru"},{"distance":280,"transit":false,"time":1,"is_transit":false,"line":1,"station_name":"Sudirman","i_lat":-6.202263,"station_id":"SUD","i_long":106.822649},{"line":2,"distance":3186,"is_transit":false,"station_id":"MRI","station_name":"Manggarai","time":4,"transit":false,"i_lat":-6.209883,"i_long":106.84912},{"station_name":"Matraman","distance":1275,"i_long":106.858896,"is_transit":false,"line":1,"station_id":"MTR","i_lat":-6.212485,"time":2,"transit":false},{"line":1,"station_name":"Jatinegara","i_lat":-6.215091,"transit":false,"is_transit":false,"distance":1377,"station_id":"JNG","time":8,"i_long":106.86807400000001},{"is_transit":false,"station_id":"KLD","transit":false,"i_long":106.899548,"line":1,"i_lat":-6.2135,"time":3,"station_name":"Klender","distance":3395},{"station_name":"Buaran","station_id":"BUA","transit":false,"i_long":106.922662,"line":1,"time":2,"is_transit":false,"distance":3100,"i_lat":-6.215568}],[{"distance":0,"i_lat":-6.338021,"transit":false,"station_id":"DAR","i_long":106.491338,"is_transit":false,"line":0,"time":0,"station_name":"Daru"},{"line":3,"i_long":106.508482,"distance":2675,"station_name":"Cilejit","is_transit":false,"time":6,"station_id":"CJT","i_lat":-6.354349,"transit":false},{"station_name":"Parung Panjang","station_id":"PRP","line":6,"transit":false,"time":9,"i_long":106.568863,"is_transit":false,"i_lat":-6.3441410000000005,"distance":7025},{"transit":false,"i_lat":-6.329547,"station_id":"CC","i_long":106.617853,"distance":5968,"line":3,"station_name":"Cicayur","is_transit":false,"time":8},{"is_transit":false,"i_lat":-6.32484,"time":4,"distance":2519,"line":3,"station_id":"CSK","transit":false,"i_long":106.640411,"station_name":"Cisauk"},{"is_transit":false,"distance":1784,"i_lat":-6.319871,"station_id":"SRP","line":6,"time":4,"i_long":106.66566,"transit":false,"station_name":"Serpong"},{"station_name":"Rawa Buntu","is_transit":false,"i_lat":-6.314823,"distance":2413,"line":6,"station_id":"RU","i_long":106.675475,"transit":false,"time":4},{"distance":4566,"station_name":"Sudimara","time":6,"is_transit":false,"i_lat":-6.296963,"line":6,"station_id":"SDM","transit":false,"i_long":106.712277},{"i_long":106.728916,"time":4,"station_name":"Jurangmangu","i_lat":-6.288927,"transit":false,"is_transit":false,"distance":1994,"line":6,"station_id":"JMU"},{"distance":2179,"is_transit":false,"station_id":"PDJ","i_lat":-6.276362,"transit":false,"i_long":106.74273,"station_name":"Pondokranji","time":3,"line":6},{"station_name":"Kebayoran","distance":6218,"is_transit":false,"time":8,"station_id":"KBY","line":6,"transit":false,"i_lat":-6.237242,"i_long":106.780334},{"i_long":106.79689,"time":7,"transit":false,"is_transit":false,"station_id":"PLM","station_name":"Palmerah","distance":3737,"line":6,"i_lat":-6.207404},{"transit":true,"time":6,"i_long":106.811091,"station_id":"THB","line":1,"station_name":"Tanah Abang","distance":3191,"i_lat":-6.185545,"is_transit":true},{"station_name":"Duri","i_lat":-6.155215,"station_id":"DU","i_long":106.800832,"time":8,"line":1,"transit":false,"is_transit":false,"distance":3632},{"station_id":"AK","distance":1230,"transit":false,"line":1,"i_lat":-6.144674,"i_long":106.79867,"station_name":"Angke","is_transit":false,"time":4},{"station_name":"Kampung Bandan","i_long":106.826365,"is_transit":true,"time":9,"i_lat":-6.132549,"distance":4102,"transit":true,"station_id":"KPB","line":4},{"distance":1444,"time":3,"is_transit":false,"transit":false,"station_name":"Rajawali","line":11,"station_id":"RJW","i_lat":-6.14505,"i_long":106.836569},{"i_lat":-6.161728,"i_long":106.839204,"station_name":"Kemayoran","line":11,"transit":false,"time":5,"distance":1901,"is_transit":false,"station_id":"KMO"},{"transit":false,"distance":1436,"is_transit":false,"i_long":106.84368,"line":11,"station_id":"PSE","time":4,"i_lat":-6.174784,"station_name":"Pasar Senen"},{"i_long":106.850107,"transit":false,"station_id":"GST","line":11,"time":8,"distance":1567,"is_transit":false,"station_name":"Gang Sentiong","i_lat":-6.185975},{"distance":973,"line":11,"time":1,"i_lat":-6.193792,"i_long":106.855437,"transit":false,"is_transit":false,"station_name":"Kramat","station_id":"KMT"},{"i_lat":-6.209188,"line":11,"is_transit":false,"transit":false,"station_name":"Pondok Jati","station_id":"POK","time":2,"distance":1829,"i_long":106.861737},{"distance":1236,"i_lat":-6.215091,"time":9,"line":1,"is_transit":true,"station_name":"Jatinegara","station_id":"JNG","transit":true,"i_long":106.86807400000001},{"distance":3395,"i_lat":-6.2135,"is_transit":false,"i_long":106.899548,"station_id":"KLD","transit":false,"line":1,"station_name":"Klender","time":3},{"is_transit":false,"station_id":"BUA","i_lat":-6.215568,"transit":false,"i_long":106.922662,"station_name":"Buaran","distance":3100,"line":1,"time":2}],[{"distance":0,"station_id":"DAR","i_long":106.491338,"line":0,"time":0,"station_name":"Daru","transit":false,"is_transit":false,"i_lat":-6.338021},{"is_transit":false,"station_id":"CJT","line":3,"station_name":"Cilejit","time":6,"distance":2675,"i_lat":-6.354349,"i_long":106.508482,"transit":false},{"line":6,"station_id":"PRP","i_long":106.568863,"transit":false,"station_name":"Parung Panjang","time":9,"distance":7025,"is_transit":false,"i_lat":-6.3441410000000005},{"station_name":"Cicayur","i_lat":-6.329547,"line":3,"time":8,"distance":5968,"transit":false,"station_id":"CC","is_transit":false,"i_long":106.617853},{"distance":2519,"station_name":"Cisauk","is_transit":false,"transit":false,"i_long":106.640411,"station_id":"CSK","time":4,"line":3,"i_lat":-6.32484},{"transit":false,"i_lat":-6.319871,"line":6,"distance":1784,"station_name":"Serpong","time":4,"is_transit":false,"station_id":"SRP","i_long":106.66566},{"i_lat":-6.314823,"station_id":"RU","line":6,"i_long":106.675475,"station_name":"Rawa Buntu","distance":2413,"transit":false,"time":4,"is_transit":false},{"distance":4566,"is_transit":false,"station_name":"Sudimara","i_long":106.712277,"line":6,"station_id":"SDM","time":6,"transit":false,"i_lat":-6.296963},{"station_name":"Jurangmangu","i_long":106.728916,"is_transit":false,"station_id":"JMU","i_lat":-6.288927,"time":4,"distance":1994,"transit":false,"line":6},{"transit":false,"is_transit":false,"station_name":"Pondokranji","station_id":"PDJ","i_long":106.74273,"line":6,"distance":2179,"i_lat":-6.276362,"time":3},{"line":6,"transit":false,"distance":6218,"i_lat":-6.237242,"is_transit":false,"station_id":"KBY","station_name":"Kebayoran","time":8,"i_long":106.780334},{"i_lat":-6.207404,"station_name":"Palmerah","time":7,"is_transit":false,"station_id":"PLM","line":6,"i_long":106.79689,"transit":false,"distance":3737},{"station_id":"THB","i_long":106.811091,"is_transit":true,"line":1,"transit":true,"time":6,"i_lat":-6.185545,"distance":3191,"station_name":"Tanah Abang"},{"distance":3632,"is_transit":false,"station_id":"DU","time":8,"line":1,"i_lat":-6.155215,"i_long":106.800832,"station_name":"Duri","transit":false},{"i_long":106.79867,"line":1,"i_lat":-6.144674,"transit":false,"time":4,"is_transit":false,"station_id":"AK","distance":1230,"station_name":"Angke"},{"time":9,"station_id":"KPB","transit":true,"station_name":"Kampung Bandan","is_transit":true,"i_lat":-6.132549,"i_long":106.826365,"line":4,"distance":4102},{"line":2,"time":3,"distance":1364,"station_id":"JAKK","i_lat":-6.137569,"transit":true,"i_long":106.812439,"station_name":"Jakarta Kota","is_transit":true},{"time":4,"is_transit":false,"transit":false,"station_id":"JAY","line":2,"station_name":"Jayakarta","distance":1264,"i_long":106.820901,"i_lat":-6.141205},{"is_transit":false,"i_long":106.82482,"station_id":"MGB","station_name":"Manggabesar","line":2,"time":2,"distance":1080,"i_lat":-6.149769,"transit":false},{"i_long":106.827103,"is_transit":false,"distance":906,"station_id":"SW","line":2,"transit":false,"station_name":"Sawah Besar","time":2,"i_lat":-6.160725},{"distance":1149,"station_name":"Juanda","time":2,"i_long":106.828284,"line":2,"is_transit":false,"transit":false,"station_id":"JUA","i_lat":-6.166716},{"line":2,"transit":false,"time":4,"distance":2015,"is_transit":false,"station_name":"Gondangdia","i_long":106.832183,"i_lat":-6.186295,"station_id":"GDD"},{"time":3,"is_transit":false,"distance":1750,"transit":false,"station_id":"CKI","line":2,"i_long":106.840169,"station_name":"Cikini","i_lat":-6.198556},{"distance":1590,"i_lat":-6.209883,"line":2,"station_id":"MRI","is_transit":true,"i_long":106.84912,"station_name":"Manggarai","transit":true,"time":4},{"station_name":"Matraman","i_long":106.858896,"distance":1275,"transit":false,"i_lat":-6.212485,"station_id":"MTR","line":1,"time":2,"is_transit":false},{"time":8,"station_name":"Jatinegara","is_transit":false,"distance":1377,"i_lat":-6.215091,"station_id":"JNG","i_long":106.86807400000001,"line":1,"transit":false},{"i_long":106.899548,"time":3,"station_name":"Klender","distance":3395,"station_id":"KLD","i_lat":-6.2135,"transit":false,"is_transit":false,"line":1},{"is_transit":false,"i_lat":-6.215568,"transit":false,"station_name":"Buaran","distance":3100,"time":2,"i_long":106.922662,"line":1,"station_id":"BUA"}],[{"line":0,"station_id":"DAR","i_long":106.491338,"station_name":"Daru","is_transit":false,"time":0,"transit":false,"i_lat":-6.338021,"distance":0},{"station_id":"CJT","i_lat":-6.354349,"station_name":"Cilejit","time":6,"distance":2675,"is_transit":false,"line":3,"transit":false,"i_long":106.508482},{"station_name":"Parung Panjang","station_id":"PRP","i_lat":-6.3441410000000005,"is_transit":false,"i_long":106.568863,"line":6,"transit":false,"distance":7025,"time":9},{"line":3,"station_id":"CC","distance":5968,"station_name":"Cicayur","is_transit":false,"time":8,"i_lat":-6.329547,"i_long":106.617853,"transit":false},{"time":4,"distance":2519,"is_transit":false,"station_id":"CSK","i_long":106.640411,"transit":false,"station_name":"Cisauk","line":3,"i_lat":-6.32484},{"station_name":"Serpong","i_lat":-6.319871,"line":6,"is_transit":false,"i_long":106.66566,"transit":false,"station_id":"SRP","distance":1784,"time":4},{"time":4,"transit":false,"is_transit":false,"station_id":"RU","i_lat":-6.314823,"station_name":"Rawa Buntu","distance":2413,"i_long":106.675475,"line":6},{"distance":4566,"is_transit":false,"time":6,"transit":false,"station_id":"SDM","i_lat":-6.296963,"line":6,"i_long":106.712277,"station_name":"Sudimara"},{"station_name":"Jurangmangu","station_id":"JMU","line":6,"transit":false,"i_long":106.728916,"is_transit":false,"time":4,"distance":1994,"i_lat":-6.288927},{"distance":2179,"is_transit":false,"time":3,"i_long":106.74273,"station_id":"PDJ","station_name":"Pondokranji","transit":false,"i_lat":-6.276362,"line":6},{"station_id":"KBY","line":6,"i_lat":-6.237242,"i_long":106.780334,"distance":6218,"station_name":"Kebayoran","is_transit":false,"time":8,"transit":false},{"is_transit":false,"station_id":"PLM","i_lat":-6.207404,"i_long":106.79689,"station_name":"Palmerah","line":6,"transit":false,"time":7,"distance":3737},{"is_transit":true,"transit":true,"time":6,"station_name":"Tanah Abang","line":1,"station_id":"THB","i_lat":-6.185545,"i_long":106.811091,"distance":3191},{"transit":false,"station_name":"Karet","is_transit":false,"line":1,"distance":2029,"time":5,"station_id":"KAT","i_lat":-6.20132,"i_long":106.816351},{"time":1,"is_transit":false,"transit":false,"station_id":"SUDB","i_lat":-6.201433,"distance":471,"line":1,"i_long":106.819881,"station_name":"Sudirman Baru"},{"i_lat":-6.202263,"line":1,"is_transit":false,"distance":280,"i_long":106.822649,"station_id":"SUD","station_name":"Sudirman","time":1,"transit":false},{"station_id":"MRI","line":2,"station_name":"Manggarai","i_lat":-6.209883,"time":4,"distance":3186,"is_transit":true,"transit":true,"i_long":106.84912},{"distance":1590,"i_lat":-6.198556,"station_name":"Cikini","transit":false,"station_id":"CKI","i_long":106.840169,"time":4,"line":2,"is_transit":false},{"is_transit":false,"i_lat":-6.186295,"line":2,"station_id":"GDD","i_long":106.832183,"time":3,"transit":false,"station_name":"Gondangdia","distance":1750},{"transit":false,"is_transit":false,"i_long":106.828284,"station_name":"Juanda","time":4,"i_lat":-6.166716,"station_id":"JUA","line":2,"distance":2015},{"time":2,"station_name":"Sawah Besar","i_lat":-6.160725,"line":2,"transit":false,"station_id":"SW","is_transit":false,"i_long":106.827103,"distance":1149},{"station_id":"MGB","station_name":"Manggabesar","i_long":106.82482,"is_transit":false,"time":2,"i_lat":-6.149769,"distance":906,"line":2,"transit":false},{"station_name":"Jayakarta","is_transit":false,"station_id":"JAY","i_long":106.820901,"line":2,"time":2,"distance":1080,"i_lat":-6.141205,"transit":false},{"is_transit":true,"time":4,"transit":true,"station_name":"Jakarta Kota","i_lat":-6.137569,"line":2,"station_id":"JAKK","distance":1264,"i_long":106.812439},{"transit":true,"time":3,"distance":1364,"line":4,"i_lat":-6.132549,"is_transit":true,"station_id":"KPB","i_long":106.826365,"station_name":"Kampung Bandan"},{"line":11,"distance":1444,"is_transit":false,"station_id":"RJW","transit":false,"station_name":"Rajawali","i_lat":-6.14505,"i_long":106.836569,"time":3},{"time":5,"line":11,"i_lat":-6.161728,"i_long":106.839204,"is_transit":false,"transit":false,"distance":1901,"station_name":"Kemayoran","station_id":"KMO"},{"time":4,"station_name":"Pasar Senen","i_lat":-6.174784,"i_long":106.84368,"line":11,"distance":1436,"station_id":"PSE","transit":false,"is_transit":false},{"station_id":"GST","transit":false,"i_long":106.850107,"station_name":"Gang Sentiong","i_lat":-6.185975,"line":11,"is_transit":false,"time":8,"distance":1567},{"transit":false,"i_long":106.855437,"station_id":"KMT","i_lat":-6.193792,"distance":973,"station_name":"Kramat","time":1,"line":11,"is_transit":false},{"station_id":"POK","time":2,"distance":1829,"is_transit":false,"line":11,"i_lat":-6.209188,"transit":false,"i_long":106.861737,"station_name":"Pondok Jati"},{"i_long":106.86807400000001,"line":1,"is_transit":true,"station_id":"JNG","station_name":"Jatinegara","time":9,"distance":1236,"transit":true,"i_lat":-6.215091},{"station_name":"Klender","i_lat":-6.2135,"time":3,"is_transit":false,"i_long":106.899548,"transit":false,"line":1,"station_id":"KLD","distance":3395},{"transit":false,"station_name":"Buaran","is_transit":false,"line":1,"distance":3100,"station_id":"BUA","i_lat":-6.215568,"i_long":106.922662,"time":2}]]}