{"data":[[{"station_name":"Daru","station_id":"DAR","line":0,"transit":false,"i_long":106.491338,"is_transit":false,"i_lat":-6.338021,"distance":0,"time":0},{"i_lat":-6.354349,"distance":2675,"time":6,"transit":false,"station_id":"CJT","i_long":106.508482,"is_transit":false,"line":0,"station_name":"Cilejit"},{"station_id":"PRP","i_lat":-6.3441410000000005,"i_long":106.568863,"time":9,"station_name":"Parung Panjang","line":6,"transit":false,"distance":7025,"is_transit":false},{"transit":false,"station_id":"CC","station_name":"Cicayur","time":8,"i_lat":-6.329547,"line":0,"is_transit":false,"distance":5968,"i_long":106.617853},{"distance":2519,"transit":false,"line":0,"station_name":"Cisauk","i_lat":-6.32484,"is_transit":false,"station_id":"CSK","i_long":106.640411,"time":4},{"line":6,"distance":1784,"i_long":106.66566,"station_name":"Serpong","transit":false,"i_lat":-6.319871,"time":4,"is_transit":false,"station_id":"SRP"},{"station_name":"Rawa Buntu","transit":false,"is_transit":false,"i_lat":-6.314823,"i_long":106.675475,"distance":2413,"station_id":"RU","line":6,"time":4},{"i_long":106.712277,"transit":false,"station_id":"SDM","i_lat":-6.296963,"is_transit":false,"distance":4566,"line":6,"station_name":"Sudimara","time":6},{"station_id":"JMU","transit":false,"i_long":106.728916,"i_lat":-6.288927,"is_transit":false,"line":6,"time":4,"distance":1994,"station_name":"Jurangmangu"},{"station_id":"PDJ","i_lat":-6.276362,"i_long":106.74273,"station_name":"Pondokranji","is_transit":false,"distance":2179,"line":6,"transit":false,"time":3},{"i_lat":-6.237242,"distance":6218,"time":8,"station_name":"Kebayoran","is_transit":false,"line":6,"station_id":"KBY","transit":false,"i_long":106.780334},{"i_lat":-6.207404,"line":6,"i_long":106.79689,"transit":false,"station_id":"PLM","distance":3737,"is_transit":false,"station_name":"Palmerah","time":7},{"distance":3191,"i_lat":-6.185545,"transit":true,"line":1,"time":6,"station_name":"Tanah Abang","is_transit":true,"station_id":"THB","i_long":106.811091},{"i_lat":-6.155215,"distance":3632,"station_name":"Duri","line":1,"station_id":"DU","is_transit":true,"time":8,"transit":true,"i_long":106.800832},{"station_id":"GGL","transit":false,"is_transit":false,"line":5,"i_lat":-6.162021,"distance":1700,"time":3,"station_name":"Grogol","i_long":106.788277},{"i_long":106.771379,"is_transit":false,"line":5,"distance":2036,"time":2,"station_name":"Pesing","i_lat":-6.161433,"station_id":"PSG","transit":false},{"distance":1614,"line":5,"station_name":"Taman Kota","transit":false,"time":2,"i_lat":-6.1587309999999995,"is_transit":false,"i_long":106.756522,"station_id":"TKO"},{"is_transit":false,"station_id":"BOI","station_name":"Bojongindah","i_lat":-6.159876,"transit":false,"line":0,"distance":2334,"i_long":106.737035,"time":2},{"distance":1152,"time":4,"line":5,"i_long":106.723064,"is_transit":false,"station_name":"Rawa Buaya","station_id":"RW","transit":false,"i_lat":-6.162758}],[{"time":0,"i_lat":-6.338021,"station_name":"Daru","line":0,"distance":0,"station_id":"DAR","transit":false,"i_long":106.491338,"is_transit":false},{"i_long":106.508482,"transit":false,"time":6,"station_id":"CJT","line":0,"is_transit":false,"i_lat":-6.354349,"station_name":"Cilejit","distance":2675},{"transit":false,"i_lat":-6.3441410000000005,"i_long":106.568863,"distance":7025,"station_id":"PRP","station_name":"Parung Panjang","line":6,"time":9,"is_transit":false},{"station_id":"CC","transit":false,"station_name":"Cicayur","i_lat":-6.329547,"distance":5968,"time":8,"line":0,"i_long":106.617853,"is_transit":false},{"distance":2519,"i_lat":-6.32484,"line":0,"station_id":"CSK","is_transit":false,"station_name":"Cisauk","time":4,"i_long":106.640411,"transit":false},{"i_long":106.66566,"transit":false,"time":4,"station_name":"Serpong","i_lat":-6.319871,"is_transit":false,"line":6,"distance":1784,"station_id":"SRP"},{"station_id":"RU","time":4,"line":6,"i_long":106.675475,"is_transit":false,"i_lat":-6.314823,"distance":2413,"station_name":"Rawa Buntu","transit":false},{"station_name":"Sudimara","distance":4566,"station_id":"SDM","transit":false,"i_lat":-6.296963,"time":6,"line":6,"i_long":106.712277,"is_transit":false},{"is_transit":false,"time":4,"i_lat":-6.288927,"station_name":"Jurangmangu","i_long":106.728916,"transit":false,"distance":1994,"station_id":"JMU","line":6},{"transit":false,"i_lat":-6.276362,"station_id":"PDJ","distance":2179,"station_name":"Pondokranji","i_long":106.74273,"is_transit":false,"time":3,"line":6},{"transit":false,"is_transit":false,"i_lat":-6.237242,"time":8,"distance":6218,"station_name":"Kebayoran","i_long":106.780334,"line":6,"station_id":"KBY"},{"station_id":"PLM","distance":3737,"is_transit":false,"i_lat":-6.207404,"transit":false,"i_long":106.79689,"line":6,"station_name":"Palmerah","time":7},{"time":6,"is_transit":true,"transit":true,"station_name":"Tanah Abang","i_lat":-6.185545,"i_long":106.811091,"station_id":"THB","distance":3191,"line":1},{"line":1,"distance":2029,"is_transit":false,"station_id":"KAT","transit":false,"i_long":106.816351,"station_name":"Karet","time":5,"i_lat":-6.20132},{"distance":471,"time":1,"line":1,"station_id":"SUDB","station_name":"Sudirman Baru","is_transit":false,"transit":false,"i_lat":-6.201433,"i_long":106.819881},{"station_name":"Sudirman","distance":280,"transit":false,"i_lat":-6.202263,"time":1,"station_id":"SUD","is_transit":false,"line":1,"i_long":106.822649},{"station_name":"Manggarai","station_id":"MRI","transit":true,"i_long":106.84912,"i_lat":-6.209883,"time":4,"is_transit":true,"distance":3186,"line":0},{"time":4,"transit":false,"station_id":"CKI","station_name":"Cikini","line":0,"is_transit":false,"i_long":106.840169,"distance":1590,"i_lat":-6.198556},{"i_long":106.832183,"station_id":"GDD","time":3,"station_name":"Gondangdia","i_lat":-6.186295,"transit":false,"is_transit":false,"distance":1750,"line":2},{"line":2,"i_lat":-6.166716,"station_id":"JUA","transit":false,"time":4,"distance":2015,"station_name":"Juanda","i_long":106.828284,"is_transit":false},{"is_transit":false,"transit":false,"distance":1149,"line":2,"station_name":"Sawah Besar","station_id":"SW","time":2,"i_lat":-6.160725,"i_long":106.827103},{"line":2,"station_id":"MGB","i_lat":-6.149769,"transit":false,"station_name":"Manggabesar","time":2,"distance":906,"is_transit":false,"i_long":106.82482},{"distance":1080,"i_long":106.820901,"line":7,"station_id":"JAY","time":2,"is_transit":false,"station_name":"Jayakarta","transit":false,"i_lat":-6.141205},{"station_id":"JAKK","i_long":106.812439,"station_name":"Jakarta Kota","transit":true,"time":4,"is_transit":true,"line":0,"distance":1264,"i_lat":-6.137569},{"i_lat":-6.132549,"i_long":106.826365,"is_transit":true,"distance":1364,"station_name":"Kampung Bandan","station_id":"KPB","line":0,"transit":false,"time":3},{"station_name":"Angke","station_id":"AK","i_long":106.79867,"is_transit":false,"transit":false,"line":0,"i_lat":-6.144674,"time":9,"distance":4102},{"is_transit":true,"station_name":"Duri","i_lat":-6.155215,"station_id":"DU","transit":true,"i_long":106.800832,"time":4,"line":1,"distance":1230},{"station_name":"Grogol","transit":false,"station_id":"GGL","time":3,"line":5,"is_transit":false,"distance":1700,"i_lat":-6.162021,"i_long":106.788277},{"station_id":"PSG","time":2,"transit":false,"i_lat":-6.161433,"is_transit":false,"station_name":"Pesing","distance":2036,"i_long":106.771379,"line":5},{"is_transit":false,"distance":1614,"station_id":"TKO","time":2,"station_name":"Taman Kota","i_lat":-6.1587309999999995,"i_long":106.756522,"line":5,"transit":false},{"i_long":106.737035,"station_id":"BOI","i_lat":-6.159876,"line":0,"station_name":"Bojongindah","distance":2334,"time":2,"transit":false,"is_transit":false},{"is_transit":false,"station_id":"RW","line":5,"station_name":"Rawa Buaya","transit":false,"distance":1152,"i_lat":-6.162758,"time":4,"i_long":106.723064}],[{"i_lat":-6.338021,"line":0,"i_long":106.491338,"station_id":"DAR","is_transit":false,"station_name":"Daru","time":0,"transit":false,"distance":0},{"is_transit":false,"station_id":"CJT","distance":2675,"i_lat":-6.354349,"transit":false,"i_long":106.508482,"line":0,"time":6,"station_name":"Cilejit"},{"time":9,"i_long":106.568863,"i_lat":-6.3441410000000005,"station_name":"Parung Panjang","transit":false,"station_id":"PRP","is_transit":false,"line":6,"distance":7025},{"is_transit":false,"line":0,"station_id":"CC","distance":5968,"time":8,"station_name":"Cicayur","transit":false,"i_lat":-6.329547,"i_long":106.617853},{"i_long":106.640411,"station_id":"CSK","is_transit":false,"station_name":"Cisauk","i_lat":-6.32484,"line":0,"time":4,"transit":false,"distance":2519},{"station_id":"SRP","distance":1784,"i_lat":-6.319871,"is_transit":false,"i_long":106.66566,"time":4,"transit":false,"line":6,"station_name":"Serpong"},{"i_lat":-6.314823,"line":6,"is_transit":false,"time":4,"station_name":"Rawa Buntu","distance":2413,"i_long":106.675475,"transit":false,"station_id":"RU"},{"time":6,"i_long":106.712277,"line":6,"transit":false,"station_name":"Sudimara","distance":4566,"i_lat":-6.296963,"is_transit":false,"station_id":"SDM"},{"is_transit":false,"time":4,"transit":false,"i_long":106.728916,"line":6,"i_lat":-6.288927,"station_id":"JMU","station_name":"Jurangmangu","distance":1994},{"station_name":"Pondokranji","i_lat":-6.276362,"station_id":"PDJ","is_transit":false,"distance":2179,"transit":false,"i_long":106.74273,"line":6,"time":3},{"station_name":"Kebayoran","is_transit":false,"time":8,"i_long":106.780334,"station_id":"KBY","line":6,"transit":false,"i_lat":-6.237242,"distance":6218},{"station_id":"PLM","i_lat":-6.207404,"station_name":"Palmerah","i_long":106.79689,"line":6,"time":7,"distance":3737,"is_transit":false,"transit":false},{"distance":3191,"line":1,"is_transit":true,"transit":true,"station_name":"Tanah Abang","i_lat":-6.185545,"time":6,"station_id":"THB","i_long":106.811091},{"station_name":"Karet","transit":false,"i_lat":-6.20132,"station_id":"KAT","line":1,"i_long":106.816351,"is_transit":false,"distance":2029,"time":5},{"station_id":"SUDB","distance":471,"time":1,"i_lat":-6.201433,"i_long":106.819881,"line":1,"transit":false,"is_transit":false,"station_name":"Sudirman Baru"},{"transit":false,"is_transit":false,"i_lat":-6.202263,"i_long":106.822649,"station_id":"SUD","station_name":"Sudirman","time":1,"distance":280,"line":1},{"time":4,"i_long":106.84912,"station_id":"MRI","transit":false,"i_lat":-6.209883,"distance":3186,"line":0,"is_transit":true,"station_name":"Manggarai"},{"is_transit":false,"transit":false,"line":1,"distance":1275,"station_name":"Matraman","station_id":"MTR","i_lat":-6.212485,"time":2,"i_long":106.858896},{"station_id":"JNG","time":8,"station_name":"Jatinegara","line":0,"is_transit":true,"transit":true,"i_lat":-6.215091,"distance":1377,"i_long":106.86807400000001},{"line":11,"is_transit":false,"transit":false,"distance":1236,"i_lat":-6.209188,"station_name":"Pondok Jati","station_id":"POK","time":2,"i_long":106.861737},{"line":11,"is_transit":false,"i_long":106.855437,"station_name":"Kramat","station_id":"KMT","time":2,"transit":false,"i_lat":-6.193792,"distance":1829},{"is_transit":false,"line":11,"station_name":"Gang Sentiong","i_lat":-6.185975,"station_id":"GST","transit":false,"time":1,"distance":973,"i_long":106.850107},{"i_long":106.84368,"is_transit":false,"station_name":"Pasar Senen","line":11,"time":8,"station_id":"PSE","distance":1567,"transit":false,"i_lat":-6.174784},{"distance":1436,"line":11,"i_lat":-6.161728,"is_transit":false,"station_name":"Kemayoran","transit":false,"time":4,"station_id":"KMO","i_long":106.839204},{"i_long":106.836569,"line":11,"station_id":"RJW","distance":1901,"transit":false,"is_transit":false,"station_name":"Rajawali","time":5,"i_lat":-6.14505},{"line":0,"transit":true,"is_transit":true,"distance":1444,"station_id":"KPB","time":3,"station_name":"Kampung Bandan","i_lat":-6.132549,"i_long":106.826365},{"station_name":"Angke","time":9,"is_transit":false,"transit":false,"i_lat":-6.144674,"distance":4102,"i_long":106.79867,"line":0,"station_id":"AK"},{"transit":true,"i_lat":-6.155215,"station_name":"Duri","station_id":"DU","is_transit":true,"i_long":106.800832,"time":4,"distance":1230,"line":1},{"time":3,"i_lat":-6.162021,"i_long":106.788277,"station_id":"GGL","line":5,"distance":1700,"transit":false,"is_transit":false,"station_name":"Grogol"},{"distance":2036,"line":5,"i_lat":-6.161433,"is_transit":false,"i_long":106.771379,"transit":false,"station_name":"Pesing","station_id":"PSG","time":2},{"time":2,"distance":1614,"station_id":"TKO","i_lat":-6.1587309999999995,"station_name":"Taman Kota","line":5,"i_long":106.756522,"transit":false,"is_transit":false},{"time":2,"station_name":"Bojongindah","station_id":"BOI","transit":false,"i_long":106.737035,"line":0,"i_lat":-6.159876,"is_transit":false,"distance":2334},{"is_transit":false,"distance":1152,"station_name":"Rawa Buaya","line":5,"time":4,"i_long":106.723064,"station_id":"RW","transit":false,"i_lat":-6.162758}]]}