{"data":[[{"line":0,"distance":0,"station_name":"Daru","station_id":"DAR","time":0,"transit":false,"is_transit":false,"i_lat":-6.338021,"i_long":106.491338},{"distance":2675,"i_lat":-6.354349,"time":6,"line":0,"station_name":"Cilejit","station_id":"CJT","transit":false,"is_transit":false,"i_long":106.508482},{"is_transit":false,"transit":false,"station_id":"PRP","line":6,"i_long":106.568863,"distance":7025,"time":9,"i_lat":-6.3441410000000005,"station_name":"Parung Panjang"},{"i_long":106.617853,"station_id":"CC","line":0,"i_lat":-6.329547,"time":8,"station_name":"Cicayur","is_transit":false,"distance":5968,"transit":false},{"is_transit":false,"distance":2519,"i_long":106.640411,"station_name":"Cisauk","line":0,"station_id":"CSK","time":4,"i_lat":-6.32484,"transit":false},{"i_lat":-6.319871,"distance":1784,"transit":false,"line":6,"station_id":"SRP","i_long":106.66566,"station_name":"Serpong","is_transit":false,"time":4},{"i_lat":-6.314823,"station_name":"Rawa Buntu","transit":false,"i_long":106.675475,"distance":2413,"line":6,"time":4,"station_id":"RU","is_transit":false},{"station_name":"Sudimara","i_long":106.712277,"is_transit":false,"transit":false,"distance":4566,"time":6,"station_id":"SDM","line":6,"i_lat":-6.296963},{"station_id":"JMU","distance":1994,"station_name":"Jurangmangu","is_transit":false,"transit":false,"line":6,"i_lat":-6.288927,"time":4,"i_long":106.728916},{"line":6,"station_name":"Pondokranji","station_id":"PDJ","is_transit":false,"time":3,"i_lat":-6.276362,"i_long":106.74273,"transit":false,"distance":2179},{"i_long":106.780334,"station_name":"Kebayoran","distance":6218,"station_id":"KBY","time":8,"transit":false,"i_lat":-6.237242,"is_transit":false,"line":6},{"i_lat":-6.207404,"i_long":106.79689,"transit":false,"line":6,"station_name":"Palmerah","station_id":"PLM","time":7,"distance":3737,"is_transit":false},{"time":6,"i_long":106.811091,"transit":true,"line":1,"i_lat":-6.185545,"station_name":"Tanah Abang","distance":3191,"station_id":"THB","is_transit":true},{"transit":false,"is_transit":false,"station_name":"Karet","i_lat":-6.20132,"distance":2029,"line":1,"station_id":"KAT","i_long":106.816351,"time":5},{"i_long":106.819881,"distance":471,"line":1,"i_lat":-6.201433,"station_id":"SUDB","is_transit":false,"station_name":"Sudirman Baru","time":1,"transit":false},{"i_long":106.822649,"time":1,"transit":false,"is_transit":false,"distance":280,"station_name":"Sudirman","i_lat":-6.202263,"station_id":"SUD","line":1},{"line":0,"i_lat":-6.209883,"time":4,"station_id":"MRI","is_transit":true,"distance":3186,"transit":true,"i_long":106.84912,"station_name":"Manggarai"},{"i_long":106.857948,"time":4,"distance":2610,"i_lat":-6.226659,"transit":false,"line":2,"station_id":"TEB","station_name":"Tebet","is_transit":false},{"time":2,"station_name":"Cawang","transit":false,"i_lat":-6.242512,"is_transit":false,"station_id":"CW","distance":1230,"i_long":106.856607,"line":0},{"transit":false,"i_lat":-6.255332,"line":0,"i_long":106.85449,"is_transit":false,"station_id":"DRN","time":3,"station_name":"Duren Kalibata","distance":1546},{"i_long":106.851577,"station_name":"Pasar Minggu Baru","line":2,"station_id":"PSMB","time":2,"distance":824,"transit":false,"i_lat":-6.263214,"is_transit":false}],[{"i_lat":-6.338021,"transit":false,"distance":0,"i_long":106.491338,"line":0,"station_name":"Daru","station_id":"DAR","is_transit":false,"time":0},{"station_name":"Cilejit","is_transit":false,"distance":2675,"i_lat":-6.354349,"i_long":106.508482,"time":6,"station_id":"CJT","line":0,"transit":false},{"is_transit":false,"time":9,"distance":7025,"station_id":"PRP","line":6,"station_name":"Parung Panjang","transit":false,"i_lat":-6.3441410000000005,"i_long":106.568863},{"station_id":"CC","i_lat":-6.329547,"is_transit":false,"transit":false,"station_name":"Cicayur","i_long":106.617853,"distance":5968,"time":8,"line":0},{"i_long":106.640411,"line":0,"is_transit":false,"station_name":"Cisauk","station_id":"CSK","distance":2519,"transit":false,"time":4,"i_lat":-6.32484},{"i_long":106.66566,"line":6,"distance":1784,"station_id":"SRP","transit":false,"i_lat":-6.319871,"time":4,"is_transit":false,"station_name":"Serpong"},{"time":4,"i_long":106.675475,"station_id":"RU","station_name":"Rawa Buntu","i_lat":-6.314823,"is_transit":false,"line":6,"distance":2413,"transit":false},{"transit":false,"time":6,"i_lat":-6.296963,"distance":4566,"i_long":106.712277,"line":6,"station_id":"SDM","station_name":"Sudimara","is_transit":false},{"distance":1994,"transit":false,"is_transit":false,"i_lat":-6.288927,"time":4,"station_name":"Jurangmangu","station_id":"JMU","i_long":106.728916,"line":6},{"is_transit":false,"station_id":"PDJ","i_lat":-6.276362,"station_name":"Pondokranji","transit":false,"line":6,"time":3,"i_long":106.74273,"distance":2179},{"i_long":106.780334,"station_id":"KBY","i_lat":-6.237242,"is_transit":false,"distance":6218,"station_name":"Kebayoran","time":8,"line":6,"transit":false},{"station_id":"PLM","i_long":106.79689,"line":6,"distance":3737,"time":7,"transit":false,"is_transit":false,"station_name":"Palmerah","i_lat":-6.207404},{"is_transit":true,"line":1,"distance":3191,"transit":true,"station_id":"THB","station_name":"Tanah Abang","i_lat":-6.185545,"time":6,"i_long":106.811091},{"station_id":"DU","transit":true,"i_long":106.800832,"station_name":"Duri","distance":3632,"i_lat":-6.155215,"time":8,"is_transit":true,"line":1},{"station_name":"Angke","time":4,"i_lat":-6.144674,"distance":1230,"i_long":106.79867,"is_transit":false,"line":0,"station_id":"AK","transit":false},{"station_name":"Kampung Bandan","distance":4102,"station_id":"KPB","line":0,"transit":false,"i_long":106.826365,"i_lat":-6.132549,"is_transit":true,"time":9},{"line":0,"distance":1364,"station_name":"Jakarta Kota","is_transit":true,"i_lat":-6.137569,"station_id":"JAKK","transit":true,"time":3,"i_long":106.812439},{"distance":1264,"station_id":"JAY","station_name":"Jayakarta","time":4,"i_long":106.820901,"i_lat":-6.141205,"is_transit":false,"transit":false,"line":7},{"transit":false,"station_id":"MGB","is_transit":false,"distance":1080,"i_lat":-6.149769,"station_name":"Manggabesar","i_long":106.82482,"time":2,"line":2},{"station_name":"Sawah Besar","i_long":106.827103,"time":2,"station_id":"SW","transit":false,"i_lat":-6.160725,"distance":906,"line":2,"is_transit":false},{"transit":false,"i_long":106.828284,"i_lat":-6.166716,"distance":1149,"station_name":"Juanda","line":2,"is_transit":false,"station_id":"JUA","time":2},{"station_id":"GDD","station_name":"Gondangdia","time":4,"transit":false,"i_lat":-6.186295,"is_transit":false,"line":2,"i_long":106.832183,"distance":2015},{"distance":1750,"is_transit":false,"station_id":"CKI","time":3,"i_long":106.840169,"line":0,"transit":false,"station_name":"Cikini","i_lat":-6.198556},{"is_transit":true,"time":4,"station_name":"Manggarai","distance":1590,"transit":true,"i_lat":-6.209883,"i_long":106.84912,"line":0,"station_id":"MRI"},{"station_name":"Tebet","i_long":106.857948,"transit":false,"i_lat":-6.226659,"distance":2610,"station_id":"TEB","is_transit":false,"line":2,"time":4},{"line":0,"i_lat":-6.242512,"station_id":"CW","station_name":"Cawang","is_transit":false,"distance":1230,"transit":false,"time":2,"i_long":106.856607},{"time":3,"i_lat":-6.255332,"station_id":"DRN","transit":false,"station_name":"Duren Kalibata","distance":1546,"is_transit":false,"i_long":106.85449,"line":0},{"is_transit":false,"station_name":"Pasar Minggu Baru","distance":824,"i_long":106.851577,"station_id":"PSMB","time":2,"i_lat":-6.263214,"line":2,"transit":false}],[{"station_id":"DAR","i_long":106.491338,"station_name":"Daru","time":0,"i_lat":-6.338021,"line":0,"transit":false,"distance":0,"is_transit":false},{"station_name":"Cilejit","i_lat":-6.354349,"distance":2675,"time":6,"is_transit":false,"i_long":106.508482,"line":0,"station_id":"CJT","transit":false},{"station_name":"Parung Panjang","station_id":"PRP","time":9,"transit":false,"is_transit":false,"distance":7025,"i_lat":-6.3441410000000005,"i_long":106.568863,"line":6},{"station_name":"Cicayur","station_id":"CC","time":8,"distance":5968,"transit":false,"i_lat":-6.329547,"line":0,"i_long":106.617853,"is_transit":false},{"i_long":106.640411,"is_transit":false,"time":4,"i_lat":-6.32484,"distance":2519,"station_name":"Cisauk","station_id":"CSK","line":0,"transit":false},{"i_lat":-6.319871,"line":6,"is_transit":false,"i_long":106.66566,"station_name":"Serpong","time":4,"transit":false,"station_id":"SRP","distance":1784},{"distance":2413,"transit":false,"station_name":"Rawa Buntu","i_long":106.675475,"line":6,"time":4,"station_id":"RU","i_lat":-6.314823,"is_transit":false},{"station_id":"SDM","station_name":"Sudimara","i_lat":-6.296963,"i_long":106.712277,"distance":4566,"transit":false,"time":6,"is_transit":false,"line":6},{"station_id":"JMU","transit":false,"line":6,"distance":1994,"station_name":"Jurangmangu","is_transit":false,"time":4,"i_long":106.728916,"i_lat":-6.288927},{"line":6,"time":3,"i_long":106.74273,"distance":2179,"i_lat":-6.276362,"station_name":"Pondokranji","station_id":"PDJ","is_transit":false,"transit":false},{"station_id":"KBY","station_name":"Kebayoran","distance":6218,"time":8,"is_transit":false,"transit":false,"i_lat":-6.237242,"i_long":106.780334,"line":6},{"i_lat":-6.207404,"line":6,"i_long":106.79689,"is_transit":false,"station_id":"PLM","time":7,"distance":3737,"station_name":"Palmerah","transit":false},{"line":1,"i_lat":-6.185545,"i_long":106.811091,"station_id":"THB","is_transit":true,"time":6,"station_name":"Tanah Abang","transit":true,"distance":3191},{"i_long":106.800832,"is_transit":true,"distance":3632,"station_id":"DU","line":1,"transit":true,"time":8,"i_lat":-6.155215,"station_name":"Duri"},{"station_name":"Angke","i_lat":-6.144674,"time":4,"line":0,"station_id":"AK","distance":1230,"transit":false,"is_transit":false,"i_long":106.79867},{"is_transit":true,"i_lat":-6.132549,"line":0,"distance":4102,"time":9,"station_id":"KPB","station_name":"Kampung Bandan","transit":true,"i_long":106.826365},{"station_id":"RJW","time":3,"transit":false,"i_long":106.836569,"line":11,"i_lat":-6.14505,"station_name":"Rajawali","is_transit":false,"distance":1444},{"distance":1901,"i_lat":-6.161728,"station_id":"KMO","station_name":"Kemayoran","i_long":106.839204,"line":11,"transit":false,"is_transit":false,"time":5},{"station_id":"PSE","time":4,"is_transit":false,"distance":1436,"station_name":"Pasar Senen","i_long":106.84368,"line":11,"transit":false,"i_lat":-6.174784},{"station_id":"GST","time":8,"station_name":"Gang Sentiong","line":11,"distance":1567,"i_lat":-6.185975,"is_transit":false,"i_long":106.850107,"transit":false},{"is_transit":false,"station_name":"Kramat","transit":false,"station_id":"KMT","time":1,"i_lat":-6.193792,"line":11,"distance":973,"i_long":106.855437},{"time":2,"line":11,"i_long":106.861737,"station_name":"Pondok Jati","distance":1829,"i_lat":-6.209188,"is_transit":false,"station_id":"POK","transit":false},{"is_transit":true,"transit":true,"station_id":"JNG","line":0,"i_lat":-6.215091,"distance":1236,"i_long":106.86807400000001,"time":9,"station_name":"Jatinegara"},{"distance":1377,"i_long":106.858896,"time":2,"station_name":"Matraman","station_id":"MTR","i_lat":-6.212485,"is_transit":false,"line":1,"transit":false},{"i_lat":-6.209883,"i_long":106.84912,"station_id":"MRI","transit":true,"station_name":"Manggarai","time":2,"line":0,"is_transit":true,"distance":1275},{"is_transit":false,"i_lat":-6.226659,"station_name":"Tebet","distance":2610,"transit":false,"station_id":"TEB","time":4,"i_long":106.857948,"line":2},{"station_name":"Cawang","i_lat":-6.242512,"distance":1230,"i_long":106.856607,"transit":false,"station_id":"CW","is_transit":false,"time":2,"line":0},{"i_lat":-6.255332,"station_id":"DRN","distance":1546,"is_transit":false,"transit":false,"station_name":"Duren Kalibata","time":3,"i_long":106.85449,"line":0},{"is_transit":false,"i_lat":-6.263214,"time":2,"station_id":"PSMB","i_long":106.851577,"distance":824,"transit":false,"line":2,"station_name":"Pasar Minggu Baru"}]]}