{"data":[[{"distance":0,"station_name":"Daru","is_transit":false,"transit":false,"i_lat":-6.338021,"i_long":106.491338,"line":0,"station_id":"DAR","time":0},{"is_transit":false,"i_long":106.508482,"time":6,"distance":2675,"line":0,"transit":false,"station_name":"Cilejit","station_id":"CJT","i_lat":-6.354349},{"i_long":106.568863,"line":6,"station_id":"PRP","station_name":"Parung Panjang","is_transit":false,"i_lat":-6.3441410000000005,"distance":7025,"transit":false,"time":9},{"i_long":106.617853,"station_id":"CC","distance":5968,"is_transit":false,"i_lat":-6.329547,"line":0,"transit":false,"station_name":"Cicayur","time":8},{"i_lat":-6.32484,"station_id":"CSK","transit":false,"is_transit":false,"time":4,"line":0,"distance":2519,"station_name":"Cisauk","i_long":106.640411},{"distance":1784,"i_long":106.66566,"line":6,"station_id":"SRP","time":4,"station_name":"Serpong","is_transit":false,"transit":false,"i_lat":-6.319871},{"i_long":106.675475,"time":4,"is_transit":false,"line":6,"i_lat":-6.314823,"station_id":"RU","distance":2413,"station_name":"Rawa Buntu","transit":false},{"i_long":106.712277,"line":6,"time":6,"i_lat":-6.296963,"transit":false,"station_id":"SDM","is_transit":false,"distance":4566,"station_name":"Sudimara"},{"station_id":"JMU","i_lat":-6.288927,"line":6,"distance":1994,"time":4,"is_transit":false,"transit":false,"i_long":106.728916,"station_name":"Jurangmangu"},{"time":3,"distance":2179,"line":6,"transit":false,"i_long":106.74273,"i_lat":-6.276362,"station_id":"PDJ","is_transit":false,"station_name":"Pondokranji"},{"station_id":"KBY","i_lat":-6.237242,"i_long":106.780334,"line":6,"station_name":"Kebayoran","distance":6218,"time":8,"is_transit":false,"transit":false},{"i_long":106.79689,"line":6,"i_lat":-6.207404,"station_name":"Palmerah","distance":3737,"time":7,"is_transit":false,"station_id":"PLM","transit":false},{"transit":true,"distance":3191,"time":6,"is_transit":true,"i_lat":-6.185545,"station_id":"THB","i_long":106.811091,"station_name":"Tanah Abang","line":1},{"is_transit":false,"station_name":"Karet","distance":2029,"transit":false,"i_lat":-6.20132,"line":1,"time":5,"station_id":"KAT","i_long":106.816351},{"transit":false,"distance":471,"i_long":106.819881,"time":1,"station_id":"SUDB","is_transit":false,"station_name":"Sudirman Baru","i_lat":-6.201433,"line":1},{"i_long":106.822649,"distance":280,"time":1,"i_lat":-6.202263,"station_id":"SUD","is_transit":false,"station_name":"Sudirman","line":1,"transit":false}],[{"distance":0,"line":0,"i_lat":-6.338021,"time":0,"is_transit":false,"transit":false,"station_id":"DAR","station_name":"Daru","i_long":106.491338},{"transit":false,"i_lat":-6.354349,"station_name":"Cilejit","line":0,"is_transit":false,"station_id":"CJT","i_long":106.508482,"time":6,"distance":2675},{"i_lat":-6.3441410000000005,"station_id":"PRP","is_transit":false,"distance":7025,"line":6,"transit":false,"station_name":"Parung Panjang","i_long":106.568863,"time":9},{"transit":false,"i_lat":-6.329547,"time":8,"station_id":"CC","is_transit":false,"station_name":"Cicayur","i_long":106.617853,"distance":5968,"line":0},{"station_id":"CSK","i_long":106.640411,"station_name":"Cisauk","time":4,"distance":2519,"i_lat":-6.32484,"line":0,"is_transit":false,"transit":false},{"i_lat":-6.319871,"i_long":106.66566,"is_transit":false,"station_name":"Serpong","time":4,"distance":1784,"station_id":"SRP","transit":false,"line":6},{"time":4,"i_long":106.675475,"distance":2413,"transit":false,"i_lat":-6.314823,"is_transit":false,"line":6,"station_id":"RU","station_name":"Rawa Buntu"},{"time":6,"distance":4566,"i_long":106.712277,"station_id":"SDM","line":6,"is_transit":false,"i_lat":-6.296963,"station_name":"Sudimara","transit":false},{"time":4,"station_name":"Jurangmangu","is_transit":false,"distance":1994,"line":6,"station_id":"JMU","i_long":106.728916,"transit":false,"i_lat":-6.288927},{"i_long":106.74273,"time":3,"station_id":"PDJ","line":6,"distance":2179,"transit":false,"i_lat":-6.276362,"is_transit":false,"station_name":"Pondokranji"},{"transit":false,"station_name":"Kebayoran","i_lat":-6.237242,"time":8,"is_transit":false,"station_id":"KBY","line":6,"distance":6218,"i_long":106.780334},{"time":7,"line":6,"distance":3737,"is_transit":false,"station_id":"PLM","station_name":"Palmerah","i_lat":-6.207404,"transit":false,"i_long":106.79689},{"station_name":"Tanah Abang","i_long":106.811091,"i_lat":-6.185545,"distance":3191,"transit":true,"line":1,"station_id":"THB","is_transit":true,"time":6},{"i_lat":-6.155215,"distance":3632,"i_long":106.800832,"is_transit":true,"station_id":"DU","time":8,"station_name":"Duri","transit":true,"line":1},{"is_transit":false,"transit":false,"i_long":106.79867,"station_name":"Angke","distance":1230,"line":0,"station_id":"AK","i_lat":-6.144674,"time":4},{"distance":4102,"time":9,"transit":false,"i_lat":-6.132549,"i_long":106.826365,"station_name":"Kampung Bandan","station_id":"KPB","line":0,"is_transit":true},{"i_lat":-6.137569,"i_long":106.812439,"station_name":"Jakarta Kota","transit":true,"station_id":"JAKK","time":3,"line":0,"is_transit":true,"distance":1364},{"station_name":"Jayakarta","line":7,"time":4,"distance":1264,"i_long":106.820901,"transit":false,"i_lat":-6.141205,"is_transit":false,"station_id":"JAY"},{"transit":false,"line":2,"station_id":"MGB","station_name":"Manggabesar","is_transit":false,"time":2,"distance":1080,"i_lat":-6.149769,"i_long":106.82482},{"distance":906,"i_long":106.827103,"transit":false,"i_lat":-6.160725,"line":2,"time":2,"is_transit":false,"station_name":"Sawah Besar","station_id":"SW"},{"i_lat":-6.166716,"i_long":106.828284,"station_name":"Juanda","line":2,"station_id":"JUA","time":2,"is_transit":false,"distance":1149,"transit":false},{"station_name":"Gondangdia","is_transit":false,"line":2,"distance":2015,"station_id":"GDD","time":4,"transit":false,"i_lat":-6.186295,"i_long":106.832183},{"i_lat":-6.198556,"i_long":106.840169,"distance":1750,"is_transit":false,"station_id":"CKI","transit":false,"line":0,"station_name":"Cikini","time":3},{"is_transit":true,"line":0,"time":4,"station_id":"MRI","distance":1590,"i_lat":-6.209883,"i_long":106.84912,"station_name":"Manggarai","transit":true},{"transit":false,"line":1,"time":4,"distance":3186,"station_id":"SUD","i_long":106.822649,"station_name":"Sudirman","i_lat":-6.202263,"is_transit":false}],[{"time":0,"distance":0,"transit":false,"i_lat":-6.338021,"station_name":"Daru","is_transit":false,"station_id":"DAR","i_long":106.491338,"line":0},{"station_id":"CJT","i_long":106.508482,"line":0,"station_name":"Cilejit","distance":2675,"transit":false,"is_transit":false,"i_lat":-6.354349,"time":6},{"line":6,"distance":7025,"transit":false,"time":9,"station_name":"Parung Panjang","i_lat":-6.3441410000000005,"station_id":"PRP","i_long":106.568863,"is_transit":false},{"time":8,"station_name":"Cicayur","i_lat":-6.329547,"line":0,"distance":5968,"transit":false,"i_long":106.617853,"is_transit":false,"station_id":"CC"},{"station_name":"Cisauk","time":4,"is_transit":false,"transit":false,"distance":2519,"i_long":106.640411,"station_id":"CSK","i_lat":-6.32484,"line":0},{"i_lat":-6.319871,"transit":false,"distance":1784,"station_name":"Serpong","i_long":106.66566,"is_transit":false,"time":4,"line":6,"station_id":"SRP"},{"time":4,"is_transit":false,"station_id":"RU","i_long":106.675475,"station_name":"Rawa Buntu","transit":false,"line":6,"distance":2413,"i_lat":-6.314823},{"station_id":"SDM","transit":false,"time":6,"distance":4566,"is_transit":false,"station_name":"Sudimara","i_lat":-6.296963,"line":6,"i_long":106.712277},{"station_id":"JMU","station_name":"Jurangmangu","line":6,"i_long":106.728916,"distance":1994,"is_transit":false,"i_lat":-6.288927,"time":4,"transit":false},{"station_id":"PDJ","line":6,"distance":2179,"i_lat":-6.276362,"is_transit":false,"time":3,"transit":false,"i_long":106.74273,"station_name":"Pondokranji"},{"distance":6218,"line":6,"i_lat":-6.237242,"i_long":106.780334,"time":8,"station_id":"KBY","is_transit":false,"station_name":"Kebayoran","transit":false},{"station_id":"PLM","transit":false,"time":7,"i_lat":-6.207404,"i_long":106.79689,"is_transit":false,"distance":3737,"station_name":"Palmerah","line":6},{"line":1,"station_name":"Tanah Abang","distance":3191,"station_id":"THB","i_long":106.811091,"is_transit":true,"i_lat":-6.185545,"time":6,"transit":true},{"time":8,"station_id":"DU","station_name":"Duri","transit":true,"i_lat":-6.155215,"is_transit":true,"distance":3632,"line":1,"i_long":106.800832},{"i_long":106.79867,"transit":false,"is_transit":false,"time":4,"station_name":"Angke","i_lat":-6.144674,"station_id":"AK","line":0,"distance":1230},{"distance":4102,"time":9,"station_id":"KPB","i_lat":-6.132549,"i_long":106.826365,"is_transit":true,"line":0,"station_name":"Kampung Bandan","transit":true},{"transit":false,"line":11,"station_name":"Rajawali","distance":1444,"i_lat":-6.14505,"is_transit":false,"i_long":106.836569,"station_id":"RJW","time":3},{"time":5,"i_long":106.839204,"station_name":"Kemayoran","i_lat":-6.161728,"distance":1901,"line":11,"is_transit":false,"transit":false,"station_id":"KMO"},{"station_id":"PSE","transit":false,"i_lat":-6.174784,"i_long":106.84368,"line":11,"is_transit":false,"time":4,"station_name":"Pasar Senen","distance":1436},{"station_name":"Gang Sentiong","distance":1567,"transit":false,"time":8,"station_id":"GST","line":11,"i_long":106.850107,"i_lat":-6.185975,"is_transit":false},{"is_transit":false,"transit":false,"time":1,"distance":973,"i_long":106.855437,"i_lat":-6.193792,"line":11,"station_id":"KMT","station_name":"Kramat"},{"i_long":106.861737,"station_name":"Pondok Jati","station_id":"POK","time":2,"distance":1829,"is_transit":false,"transit":false,"i_lat":-6.209188,"line":11},{"i_lat":-6.215091,"is_transit":true,"line":0,"station_name":"Jatinegara","i_long":106.86807400000001,"station_id":"JNG","distance":1236,"transit":true,"time":9},{"i_lat":-6.212485,"station_id":"MTR","line":1,"distance":1377,"time":2,"is_transit":false,"transit":false,"station_name":"Matraman","i_long":106.858896},{"station_id":"MRI","line":0,"is_transit":true,"time":2,"station_name":"Manggarai","transit":false,"i_lat":-6.209883,"i_long":106.84912,"distance":1275},{"station_id":"SUD","is_transit":false,"station_name":"Sudirman","i_lat":-6.202263,"transit":false,"i_long":106.822649,"time":4,"distance":3186,"line":1}]]}