{"data":[[{"line":0,"time":0,"is_transit":false,"station_name":"Daru","distance":0,"transit":false,"i_lat":-6.338021,"i_long":106.491338,"station_id":"DAR"},{"is_transit":false,"station_name":"Cilejit","i_lat":-6.354349,"i_long":106.508482,"transit":false,"station_id":"CJT","line":3,"distance":2675,"time":6},{"time":9,"i_long":106.568863,"line":6,"distance":7025,"i_lat":-6.3441410000000005,"station_id":"PRP","transit":false,"station_name":"Parung Panjang","is_transit":false},{"is_transit":false,"station_name":"Cicayur","line":3,"distance":5968,"i_long":106.617853,"time":8,"i_lat":-6.329547,"station_id":"CC","transit":false},{"i_long":106.640411,"distance":2519,"i_lat":-6.32484,"station_name":"Cisauk","transit":false,"time":4,"is_transit":false,"station_id":"CSK","line":3},{"station_id":"SRP","time":4,"transit":false,"station_name":"Serpong","i_long":106.66566,"distance":1784,"i_lat":-6.319871,"is_transit":false,"line":6},{"time":4,"i_lat":-6.314823,"is_transit":false,"i_long":106.675475,"line":6,"station_id":"RU","transit":false,"distance":2413,"station_name":"Rawa Buntu"},{"i_lat":-6.296963,"transit":false,"station_id":"SDM","is_transit":false,"station_name":"Sudimara","time":6,"i_long":106.712277,"distance":4566,"line":6},{"time":4,"transit":false,"station_name":"Jurangmangu","distance":1994,"is_transit":false,"i_long":106.728916,"i_lat":-6.288927,"station_id":"JMU","line":6},{"distance":2179,"time":3,"station_name":"Pondokranji","i_long":106.74273,"station_id":"PDJ","line":6,"is_transit":false,"transit":false,"i_lat":-6.276362},{"transit":false,"i_lat":-6.237242,"station_id":"KBY","station_name":"Kebayoran","is_transit":false,"time":8,"i_long":106.780334,"distance":6218,"line":6},{"time":7,"station_id":"PLM","line":6,"distance":3737,"is_transit":false,"i_lat":-6.207404,"i_long":106.79689,"transit":false,"station_name":"Palmerah"},{"i_lat":-6.185545,"station_name":"Tanah Abang","is_transit":true,"time":6,"i_long":106.811091,"line":1,"transit":true,"distance":3191,"station_id":"THB"},{"i_lat":-6.20132,"station_name":"Karet","station_id":"KAT","is_transit":false,"line":1,"distance":2029,"time":5,"transit":false,"i_long":106.816351},{"i_long":106.819881,"station_name":"Sudirman Baru","i_lat":-6.201433,"line":1,"time":1,"station_id":"SUDB","distance":471,"transit":false,"is_transit":false},{"line":1,"distance":280,"station_id":"SUD","transit":false,"station_name":"Sudirman","i_lat":-6.202263,"time":1,"i_long":106.822649,"is_transit":false},{"line":2,"station_name":"Manggarai","station_id":"MRI","time":4,"transit":true,"i_long":106.84912,"is_transit":true,"distance":3186,"i_lat":-6.209883},{"station_name":"Tebet","transit":false,"station_id":"TEB","line":2,"is_transit":false,"time":4,"i_long":106.857948,"i_lat":-6.226659,"distance":2610},{"time":2,"distance":1230,"line":2,"station_id":"CW","i_lat":-6.242512,"station_name":"Cawang","transit":false,"is_transit":false,"i_long":106.856607},{"i_long":106.85449,"station_id":"DRN","is_transit":false,"transit":false,"distance":1546,"station_name":"Duren Kalibata","i_lat":-6.255332,"line":2,"time":3},{"is_transit":false,"distance":824,"i_long":106.851577,"transit":false,"line":2,"station_id":"PSMB","i_lat":-6.263214,"time":2,"station_name":"Pasar Minggu Baru"}],[{"station_name":"Daru","i_long":106.491338,"distance":0,"station_id":"DAR","is_transit":false,"transit":false,"i_lat":-6.338021,"time":0,"line":0},{"time":6,"station_id":"CJT","transit":false,"distance":2675,"station_name":"Cilejit","is_transit":false,"i_lat":-6.354349,"line":3,"i_long":106.508482},{"distance":7025,"station_name":"Parung Panjang","time":9,"is_transit":false,"station_id":"PRP","i_lat":-6.3441410000000005,"transit":false,"i_long":106.568863,"line":6},{"time":8,"is_transit":false,"i_lat":-6.329547,"line":3,"distance":5968,"i_long":106.617853,"station_id":"CC","transit":false,"station_name":"Cicayur"},{"i_lat":-6.32484,"transit":false,"distance":2519,"line":3,"station_name":"Cisauk","i_long":106.640411,"time":4,"station_id":"CSK","is_transit":false},{"i_lat":-6.319871,"is_transit":false,"distance":1784,"time":4,"station_name":"Serpong","line":6,"i_long":106.66566,"transit":false,"station_id":"SRP"},{"distance":2413,"station_name":"Rawa Buntu","i_lat":-6.314823,"time":4,"line":6,"i_long":106.675475,"transit":false,"is_transit":false,"station_id":"RU"},{"is_transit":false,"time":6,"transit":false,"station_id":"SDM","distance":4566,"station_name":"Sudimara","i_long":106.712277,"line":6,"i_lat":-6.296963},{"line":6,"distance":1994,"time":4,"station_id":"JMU","is_transit":false,"i_long":106.728916,"i_lat":-6.288927,"transit":false,"station_name":"Jurangmangu"},{"line":6,"is_transit":false,"i_long":106.74273,"distance":2179,"station_id":"PDJ","time":3,"transit":false,"i_lat":-6.276362,"station_name":"Pondokranji"},{"i_lat":-6.237242,"i_long":106.780334,"time":8,"line":6,"distance":6218,"station_id":"KBY","is_transit":false,"station_name":"Kebayoran","transit":false},{"i_lat":-6.207404,"transit":false,"i_long":106.79689,"distance":3737,"is_transit":false,"line":6,"station_id":"PLM","station_name":"Palmerah","time":7},{"time":6,"i_lat":-6.185545,"i_long":106.811091,"transit":true,"station_name":"Tanah Abang","is_transit":true,"line":1,"station_id":"THB","distance":3191},{"time":8,"station_name":"Duri","is_transit":false,"line":1,"distance":3632,"i_lat":-6.155215,"i_long":106.800832,"transit":false,"station_id":"DU"},{"is_transit":false,"station_name":"Angke","transit":false,"i_long":106.79867,"line":1,"time":4,"station_id":"AK","distance":1230,"i_lat":-6.144674},{"line":4,"is_transit":true,"time":9,"station_name":"Kampung Bandan","i_long":106.826365,"distance":4102,"i_lat":-6.132549,"transit":true,"station_id":"KPB"},{"time":3,"i_long":106.812439,"station_name":"Jakarta Kota","transit":true,"station_id":"JAKK","distance":1364,"is_transit":true,"line":2,"i_lat":-6.137569},{"i_long":106.820901,"transit":false,"time":4,"station_name":"Jayakarta","line":2,"station_id":"JAY","i_lat":-6.141205,"is_transit":false,"distance":1264},{"line":2,"station_name":"Manggabesar","is_transit":false,"i_lat":-6.149769,"station_id":"MGB","transit":false,"time":2,"i_long":106.82482,"distance":1080},{"line":2,"station_id":"SW","distance":906,"transit":false,"i_long":106.827103,"station_name":"Sawah Besar","time":2,"is_transit":false,"i_lat":-6.160725},{"line":2,"station_id":"JUA","distance":1149,"time":2,"transit":false,"station_name":"Juanda","i_lat":-6.166716,"i_long":106.828284,"is_transit":false},{"line":2,"transit":false,"distance":2015,"station_id":"GDD","time":4,"station_name":"Gondangdia","i_lat":-6.186295,"i_long":106.832183,"is_transit":false},{"is_transit":false,"time":3,"station_name":"Cikini","transit":false,"line":2,"distance":1750,"i_long":106.840169,"i_lat":-6.198556,"station_id":"CKI"},{"station_id":"MRI","transit":false,"is_transit":false,"line":2,"i_long":106.84912,"distance":1590,"time":4,"station_name":"Manggarai","i_lat":-6.209883},{"transit":false,"time":4,"line":2,"station_id":"TEB","i_lat":-6.226659,"station_name":"Tebet","distance":2610,"is_transit":false,"i_long":106.857948},{"time":2,"line":2,"station_name":"Cawang","is_transit":false,"distance":1230,"station_id":"CW","i_lat":-6.242512,"transit":false,"i_long":106.856607},{"i_lat":-6.255332,"distance":1546,"station_id":"DRN","transit":false,"time":3,"line":2,"i_long":106.85449,"station_name":"Duren Kalibata","is_transit":false},{"i_lat":-6.263214,"station_id":"PSMB","station_name":"Pasar Minggu Baru","is_transit":false,"distance":824,"time":2,"i_long":106.851577,"transit":false,"line":2}],[{"i_lat":-6.338021,"i_long":106.491338,"time":0,"transit":false,"station_id":"DAR","line":0,"distance":0,"station_name":"Daru","is_transit":false},{"time":6,"i_long":106.508482,"i_lat":-6.354349,"distance":2675,"station_name":"Cilejit","line":3,"transit":false,"is_transit":false,"station_id":"CJT"},{"transit":false,"station_name":"Parung Panjang","time":9,"i_lat":-6.3441410000000005,"station_id":"PRP","distance":7025,"is_transit":false,"line":6,"i_long":106.568863},{"transit":false,"time":8,"station_id":"CC","station_name":"Cicayur","distance":5968,"i_lat":-6.329547,"line":3,"is_transit":false,"i_long":106.617853},{"station_id":"CSK","time":4,"station_name":"Cisauk","i_lat":-6.32484,"is_transit":false,"i_long":106.640411,"line":3,"distance":2519,"transit":false},{"i_lat":-6.319871,"line":6,"station_name":"Serpong","time":4,"station_id":"SRP","transit":false,"distance":1784,"is_transit":false,"i_long":106.66566},{"is_transit":false,"distance":2413,"i_long":106.675475,"i_lat":-6.314823,"station_id":"RU","time":4,"transit":false,"station_name":"Rawa Buntu","line":6},{"is_transit":false,"station_id":"SDM","transit":false,"distance":4566,"time":6,"i_long":106.712277,"station_name":"Sudimara","i_lat":-6.296963,"line":6},{"line":6,"i_lat":-6.288927,"time":4,"transit":false,"i_long":106.728916,"station_id":"JMU","is_transit":false,"distance":1994,"station_name":"Jurangmangu"},{"line":6,"i_long":106.74273,"transit":false,"i_lat":-6.276362,"time":3,"station_name":"Pondokranji","is_transit":false,"station_id":"PDJ","distance":2179},{"station_name":"Kebayoran","line":6,"i_lat":-6.237242,"is_transit":false,"transit":false,"i_long":106.780334,"time":8,"station_id":"KBY","distance":6218},{"station_id":"PLM","distance":3737,"i_lat":-6.207404,"i_long":106.79689,"is_transit":false,"transit":false,"line":6,"time":7,"station_name":"Palmerah"},{"i_lat":-6.185545,"is_transit":true,"transit":true,"station_id":"THB","time":6,"station_name":"Tanah Abang","line":1,"distance":3191,"i_long":106.811091},{"i_lat":-6.155215,"i_long":106.800832,"transit":false,"station_name":"Duri","is_transit":false,"station_id":"DU","distance":3632,"line":1,"time":8},{"line":1,"station_name":"Angke","station_id":"AK","time":4,"i_lat":-6.144674,"distance":1230,"transit":false,"is_transit":false,"i_long":106.79867},{"time":9,"i_lat":-6.132549,"line":4,"station_name":"Kampung Bandan","transit":true,"distance":4102,"i_long":106.826365,"station_id":"KPB","is_transit":true},{"time":3,"station_name":"Rajawali","is_transit":false,"i_lat":-6.14505,"transit":false,"line":11,"station_id":"RJW","i_long":106.836569,"distance":1444},{"station_id":"KMO","i_long":106.839204,"line":11,"distance":1901,"time":5,"transit":false,"i_lat":-6.161728,"is_transit":false,"station_name":"Kemayoran"},{"station_name":"Pasar Senen","station_id":"PSE","is_transit":false,"time":4,"i_lat":-6.174784,"line":11,"distance":1436,"transit":false,"i_long":106.84368},{"i_lat":-6.185975,"i_long":106.850107,"is_transit":false,"station_id":"GST","time":8,"station_name":"Gang Sentiong","distance":1567,"line":11,"transit":false},{"is_transit":false,"station_id":"KMT","station_name":"Kramat","i_long":106.855437,"distance":973,"time":1,"transit":false,"i_lat":-6.193792,"line":11},{"line":11,"transit":false,"station_name":"Pondok Jati","distance":1829,"station_id":"POK","is_transit":false,"i_long":106.861737,"time":2,"i_lat":-6.209188},{"transit":true,"is_transit":true,"station_id":"JNG","time":9,"i_lat":-6.215091,"i_long":106.86807400000001,"line":1,"distance":1236,"station_name":"Jatinegara"},{"time":2,"station_name":"Matraman","station_id":"MTR","distance":1377,"transit":false,"is_transit":false,"line":1,"i_lat":-6.212485,"i_long":106.858896},{"time":2,"line":2,"station_id":"MRI","station_name":"Manggarai","i_lat":-6.209883,"i_long":106.84912,"distance":1275,"transit":true,"is_transit":true},{"transit":false,"station_name":"Tebet","line":2,"time":4,"i_long":106.857948,"station_id":"TEB","is_transit":false,"distance":2610,"i_lat":-6.226659},{"distance":1230,"time":2,"i_long":106.856607,"is_transit":false,"station_id":"CW","transit":false,"line":2,"i_lat":-6.242512,"station_name":"Cawang"},{"transit":false,"i_lat":-6.255332,"line":2,"distance":1546,"station_name":"Duren Kalibata","i_long":106.85449,"is_transit":false,"station_id":"DRN","time":3},{"i_long":106.851577,"station_id":"PSMB","distance":824,"time":2,"i_lat":-6.263214,"line":2,"station_name":"Pasar Minggu Baru","is_transit":false,"transit":false}]]}