{"data":[[{"i_long":106.491338,"station_id":"DAR","line":0,"transit":false,"time":0,"i_lat":-6.338021,"distance":0,"is_transit":false,"station_name":"Daru"},{"distance":2675,"station_id":"CJT","time":6,"transit":false,"is_transit":false,"i_long":106.508482,"station_name":"Cilejit","i_lat":-6.354349,"line":3},{"is_transit":false,"station_id":"PRP","transit":false,"distance":7025,"i_lat":-6.3441410000000005,"i_long":106.568863,"station_name":"Parung Panjang","line":6,"time":9},{"time":8,"station_name":"Cicayur","i_lat":-6.329547,"distance":5968,"line":3,"i_long":106.617853,"transit":false,"is_transit":false,"station_id":"CC"},{"transit":false,"i_lat":-6.32484,"is_transit":false,"i_long":106.640411,"station_id":"CSK","line":3,"time":4,"station_name":"Cisauk","distance":2519},{"station_name":"Serpong","line":6,"time":4,"station_id":"SRP","distance":1784,"transit":false,"i_long":106.66566,"is_transit":false,"i_lat":-6.319871},{"i_lat":-6.314823,"is_transit":false,"distance":2413,"station_name":"Rawa Buntu","transit":false,"station_id":"RU","i_long":106.675475,"line":6,"time":4},{"i_lat":-6.296963,"station_id":"SDM","time":6,"line":6,"distance":4566,"is_transit":false,"station_name":"Sudimara","i_long":106.712277,"transit":false},{"station_id":"JMU","station_name":"Jurangmangu","i_lat":-6.288927,"time":4,"distance":1994,"line":6,"i_long":106.728916,"is_transit":false,"transit":false},{"station_id":"PDJ","is_transit":false,"transit":false,"i_long":106.74273,"time":3,"i_lat":-6.276362,"distance":2179,"line":6,"station_name":"Pondokranji"},{"is_transit":false,"transit":false,"time":8,"line":6,"station_id":"KBY","i_lat":-6.237242,"i_long":106.780334,"station_name":"Kebayoran","distance":6218},{"time":7,"station_id":"PLM","transit":false,"is_transit":false,"line":6,"distance":3737,"i_long":106.79689,"station_name":"Palmerah","i_lat":-6.207404},{"i_long":106.811091,"is_transit":true,"distance":3191,"line":1,"i_lat":-6.185545,"transit":true,"station_id":"THB","station_name":"Tanah Abang","time":6},{"time":5,"station_name":"Karet","distance":2029,"is_transit":false,"i_lat":-6.20132,"i_long":106.816351,"line":1,"station_id":"KAT","transit":false},{"transit":false,"station_name":"Sudirman Baru","line":1,"time":1,"station_id":"SUDB","distance":471,"is_transit":false,"i_lat":-6.201433,"i_long":106.819881},{"distance":280,"i_long":106.822649,"is_transit":false,"station_id":"SUD","i_lat":-6.202263,"line":1,"station_name":"Sudirman","time":1,"transit":false},{"distance":3186,"is_transit":true,"station_name":"Manggarai","transit":true,"line":2,"station_id":"MRI","i_long":106.84912,"i_lat":-6.209883,"time":4},{"station_id":"TEB","time":4,"transit":false,"is_transit":false,"line":2,"station_name":"Tebet","distance":2610,"i_lat":-6.226659,"i_long":106.857948},{"line":2,"distance":1230,"i_long":106.856607,"transit":false,"is_transit":false,"i_lat":-6.242512,"station_id":"CW","time":2,"station_name":"Cawang"},{"station_name":"Duren Kalibata","station_id":"DRN","transit":false,"line":2,"i_long":106.85449,"time":3,"i_lat":-6.255332,"distance":1546,"is_transit":false},{"is_transit":false,"transit":false,"time":2,"station_id":"PSMB","i_long":106.851577,"line":2,"i_lat":-6.263214,"station_name":"Pasar Minggu Baru","distance":824},{"is_transit":false,"station_id":"PSM","station_name":"Pasar Minggu","time":2,"i_long":106.843999,"i_lat":-6.2842400000000005,"distance":2380,"line":2,"transit":false},{"station_id":"TNT","time":4,"transit":false,"is_transit":false,"i_long":106.838896,"distance":2820,"line":2,"i_lat":-6.3080680000000005,"station_name":"Tanjung Barat"},{"is_transit":false,"station_name":"Lenteng Agung","transit":false,"time":3,"i_long":106.832616,"distance":2671,"line":2,"station_id":"LNA","i_lat":-6.330363},{"i_lat":-6.339291,"is_transit":false,"i_long":106.834175,"distance":1029,"time":2,"line":2,"transit":false,"station_name":"Univ. Pancasila","station_id":"UP"},{"station_name":"Univ. Indonesia","distance":2264,"line":2,"time":3,"i_long":106.831474,"station_id":"UI","is_transit":false,"transit":false,"i_lat":-6.360749},{"i_long":106.831114,"station_name":"Pondok Cina","station_id":"POC","time":2,"line":2,"is_transit":false,"transit":false,"i_lat":-6.369073,"distance":1109},{"station_name":"Depokbaru","time":4,"is_transit":false,"transit":false,"distance":2727,"i_lat":-6.391065,"i_long":106.819451,"station_id":"DPB","line":2},{"i_long":106.816926,"i_lat":-6.405256,"time":3,"station_name":"Depok","distance":1584,"is_transit":false,"line":2,"transit":false,"station_id":"DP"},{"line":2,"i_long":106.800298,"station_name":"Citayam","time":6,"station_id":"CTA","i_lat":-6.448811,"is_transit":false,"transit":false,"distance":5084},{"time":5,"line":2,"transit":false,"distance":5197,"station_id":"BJD","i_long":106.792719,"is_transit":false,"i_lat":-6.493243,"station_name":"Bojonggede"},{"i_long":106.800016,"i_lat":-6.530544,"station_name":"Cilebut","transit":false,"line":2,"station_id":"CLT","is_transit":false,"time":5,"distance":4331}],[{"i_long":106.491338,"station_name":"Daru","i_lat":-6.338021,"distance":0,"is_transit":false,"transit":false,"line":0,"time":0,"station_id":"DAR"},{"distance":2675,"is_transit":false,"transit":false,"time":6,"i_lat":-6.354349,"i_long":106.508482,"line":3,"station_name":"Cilejit","station_id":"CJT"},{"station_name":"Parung Panjang","distance":7025,"time":9,"i_lat":-6.3441410000000005,"line":6,"is_transit":false,"transit":false,"station_id":"PRP","i_long":106.568863},{"is_transit":false,"i_lat":-6.329547,"i_long":106.617853,"distance":5968,"station_id":"CC","line":3,"station_name":"Cicayur","transit":false,"time":8},{"distance":2519,"line":3,"i_long":106.640411,"station_id":"CSK","is_transit":false,"i_lat":-6.32484,"transit":false,"station_name":"Cisauk","time":4},{"transit":false,"is_transit":false,"time":4,"line":6,"distance":1784,"i_long":106.66566,"station_id":"SRP","i_lat":-6.319871,"station_name":"Serpong"},{"time":4,"i_lat":-6.314823,"i_long":106.675475,"transit":false,"is_transit":false,"distance":2413,"line":6,"station_name":"Rawa Buntu","station_id":"RU"},{"station_name":"Sudimara","is_transit":false,"transit":false,"time":6,"distance":4566,"i_long":106.712277,"station_id":"SDM","i_lat":-6.296963,"line":6},{"i_long":106.728916,"distance":1994,"station_id":"JMU","i_lat":-6.288927,"is_transit":false,"time":4,"station_name":"Jurangmangu","transit":false,"line":6},{"i_long":106.74273,"station_name":"Pondokranji","transit":false,"distance":2179,"time":3,"i_lat":-6.276362,"line":6,"is_transit":false,"station_id":"PDJ"},{"station_name":"Kebayoran","distance":6218,"time":8,"transit":false,"station_id":"KBY","i_lat":-6.237242,"is_transit":false,"line":6,"i_long":106.780334},{"station_name":"Palmerah","station_id":"PLM","line":6,"transit":false,"is_transit":false,"i_lat":-6.207404,"time":7,"i_long":106.79689,"distance":3737},{"transit":true,"distance":3191,"station_name":"Tanah Abang","time":6,"station_id":"THB","i_lat":-6.185545,"i_long":106.811091,"is_transit":true,"line":1},{"line":1,"station_id":"DU","station_name":"Duri","time":8,"distance":3632,"is_transit":false,"i_long":106.800832,"transit":false,"i_lat":-6.155215},{"station_name":"Angke","time":4,"i_long":106.79867,"transit":false,"distance":1230,"station_id":"AK","i_lat":-6.144674,"line":1,"is_transit":false},{"transit":true,"station_name":"Kampung Bandan","is_transit":true,"i_lat":-6.132549,"station_id":"KPB","line":4,"distance":4102,"time":9,"i_long":106.826365},{"station_id":"JAKK","i_lat":-6.137569,"i_long":106.812439,"time":3,"station_name":"Jakarta Kota","is_transit":true,"line":2,"distance":1364,"transit":true},{"distance":1264,"i_lat":-6.141205,"station_id":"JAY","line":2,"is_transit":false,"station_name":"Jayakarta","transit":false,"time":4,"i_long":106.820901},{"distance":1080,"is_transit":false,"i_lat":-6.149769,"time":2,"i_long":106.82482,"station_id":"MGB","transit":false,"station_name":"Manggabesar","line":2},{"transit":false,"station_name":"Sawah Besar","distance":906,"time":2,"is_transit":false,"station_id":"SW","i_long":106.827103,"line":2,"i_lat":-6.160725},{"i_long":106.828284,"station_name":"Juanda","is_transit":false,"transit":false,"time":2,"station_id":"JUA","distance":1149,"i_lat":-6.166716,"line":2},{"distance":2015,"i_lat":-6.186295,"transit":false,"time":4,"i_long":106.832183,"line":2,"is_transit":false,"station_name":"Gondangdia","station_id":"GDD"},{"i_long":106.840169,"station_id":"CKI","line":2,"station_name":"Cikini","distance":1750,"transit":false,"i_lat":-6.198556,"is_transit":false,"time":3},{"transit":false,"time":4,"line":2,"station_id":"MRI","distance":1590,"is_transit":false,"i_lat":-6.209883,"station_name":"Manggarai","i_long":106.84912},{"transit":false,"time":4,"distance":2610,"is_transit":false,"line":2,"i_long":106.857948,"i_lat":-6.226659,"station_id":"TEB","station_name":"Tebet"},{"line":2,"distance":1230,"station_id":"CW","is_transit":false,"transit":false,"station_name":"Cawang","time":2,"i_lat":-6.242512,"i_long":106.856607},{"transit":false,"i_lat":-6.255332,"time":3,"station_name":"Duren Kalibata","distance":1546,"is_transit":false,"station_id":"DRN","i_long":106.85449,"line":2},{"i_lat":-6.263214,"transit":false,"station_name":"Pasar Minggu Baru","time":2,"i_long":106.851577,"is_transit":false,"station_id":"PSMB","line":2,"distance":824},{"is_transit":false,"station_id":"PSM","i_lat":-6.2842400000000005,"station_name":"Pasar Minggu","distance":2380,"i_long":106.843999,"transit":false,"time":2,"line":2},{"station_id":"TNT","distance":2820,"i_long":106.838896,"transit":false,"time":4,"i_lat":-6.3080680000000005,"is_transit":false,"line":2,"station_name":"Tanjung Barat"},{"time":3,"i_long":106.832616,"is_transit":false,"distance":2671,"i_lat":-6.330363,"line":2,"transit":false,"station_name":"Lenteng Agung","station_id":"LNA"},{"station_name":"Univ. Pancasila","i_long":106.834175,"station_id":"UP","i_lat":-6.339291,"distance":1029,"is_transit":false,"line":2,"transit":false,"time":2},{"station_id":"UI","line":2,"i_lat":-6.360749,"i_long":106.831474,"time":3,"station_name":"Univ. Indonesia","distance":2264,"transit":false,"is_transit":false},{"distance":1109,"transit":false,"i_lat":-6.369073,"is_transit":false,"i_long":106.831114,"line":2,"station_name":"Pondok Cina","time":2,"station_id":"POC"},{"station_id":"DPB","line":2,"distance":2727,"time":4,"station_name":"Depokbaru","i_lat":-6.391065,"i_long":106.819451,"is_transit":false,"transit":false},{"i_long":106.816926,"station_id":"DP","is_transit":false,"station_name":"Depok","distance":1584,"line":2,"i_lat":-6.405256,"transit":false,"time":3},{"transit":false,"station_id":"CTA","i_long":106.800298,"line":2,"time":6,"is_transit":false,"i_lat":-6.448811,"distance":5084,"station_name":"Citayam"},{"i_lat":-6.493243,"i_long":106.792719,"line":2,"is_transit":false,"transit":false,"station_name":"Bojonggede","distance":5197,"time":5,"station_id":"BJD"},{"is_transit":false,"time":5,"line":2,"station_id":"CLT","distance":4331,"i_lat":-6.530544,"station_name":"Cilebut","transit":false,"i_long":106.800016}],[{"is_transit":false,"station_name":"Daru","line":0,"transit":false,"i_long":106.491338,"distance":0,"time":0,"i_lat":-6.338021,"station_id":"DAR"},{"line":3,"distance":2675,"station_name":"Cilejit","station_id":"CJT","transit":false,"time":6,"i_lat":-6.354349,"i_long":106.508482,"is_transit":false},{"line":6,"time":9,"transit":false,"station_id":"PRP","distance":7025,"i_long":106.568863,"is_transit":false,"station_name":"Parung Panjang","i_lat":-6.3441410000000005},{"distance":5968,"transit":false,"station_id":"CC","station_name":"Cicayur","time":8,"is_transit":false,"i_lat":-6.329547,"i_long":106.617853,"line":3},{"is_transit":false,"transit":false,"distance":2519,"line":3,"time":4,"station_name":"Cisauk","station_id":"CSK","i_lat":-6.32484,"i_long":106.640411},{"is_transit":false,"station_id":"SRP","i_long":106.66566,"i_lat":-6.319871,"transit":false,"time":4,"station_name":"Serpong","line":6,"distance":1784},{"station_id":"RU","line":6,"i_long":106.675475,"distance":2413,"station_name":"Rawa Buntu","is_transit":false,"transit":false,"time":4,"i_lat":-6.314823},{"is_transit":false,"time":6,"station_id":"SDM","line":6,"transit":false,"i_lat":-6.296963,"i_long":106.712277,"station_name":"Sudimara","distance":4566},{"i_long":106.728916,"time":4,"station_id":"JMU","is_transit":false,"station_name":"Jurangmangu","transit":false,"line":6,"distance":1994,"i_lat":-6.288927},{"i_long":106.74273,"line":6,"i_lat":-6.276362,"time":3,"station_name":"Pondokranji","transit":false,"station_id":"PDJ","is_transit":false,"distance":2179},{"i_lat":-6.237242,"distance":6218,"i_long":106.780334,"is_transit":false,"time":8,"station_name":"Kebayoran","station_id":"KBY","transit":false,"line":6},{"i_long":106.79689,"station_id":"PLM","line":6,"i_lat":-6.207404,"is_transit":false,"station_name":"Palmerah","transit":false,"distance":3737,"time":7},{"is_transit":true,"station_id":"THB","transit":true,"i_long":106.811091,"time":6,"line":1,"distance":3191,"station_name":"Tanah Abang","i_lat":-6.185545},{"is_transit":false,"station_name":"Duri","station_id":"DU","transit":false,"time":8,"i_lat":-6.155215,"distance":3632,"i_long":106.800832,"line":1},{"time":4,"is_transit":false,"line":1,"i_long":106.79867,"station_id":"AK","transit":false,"i_lat":-6.144674,"station_name":"Angke","distance":1230},{"station_name":"Kampung Bandan","distance":4102,"time":9,"station_id":"KPB","line":4,"transit":true,"i_lat":-6.132549,"i_long":106.826365,"is_transit":true},{"time":3,"distance":1444,"station_name":"Rajawali","i_long":106.836569,"is_transit":false,"transit":false,"station_id":"RJW","i_lat":-6.14505,"line":11},{"station_name":"Kemayoran","line":11,"i_long":106.839204,"is_transit":false,"distance":1901,"i_lat":-6.161728,"station_id":"KMO","transit":false,"time":5},{"i_lat":-6.174784,"line":11,"time":4,"station_id":"PSE","is_transit":false,"station_name":"Pasar Senen","transit":false,"distance":1436,"i_long":106.84368},{"line":11,"time":8,"station_name":"Gang Sentiong","i_long":106.850107,"transit":false,"distance":1567,"is_transit":false,"station_id":"GST","i_lat":-6.185975},{"i_lat":-6.193792,"i_long":106.855437,"time":1,"distance":973,"is_transit":false,"station_id":"KMT","transit":false,"line":11,"station_name":"Kramat"},{"distance":1829,"station_id":"POK","i_long":106.861737,"time":2,"line":11,"is_transit":false,"transit":false,"station_name":"Pondok Jati","i_lat":-6.209188},{"line":1,"distance":1236,"station_name":"Jatinegara","time":9,"i_lat":-6.215091,"station_id":"JNG","i_long":106.86807400000001,"transit":true,"is_transit":true},{"i_lat":-6.212485,"time":2,"i_long":106.858896,"transit":false,"distance":1377,"is_transit":false,"station_id":"MTR","line":1,"station_name":"Matraman"},{"transit":true,"line":2,"distance":1275,"station_id":"MRI","i_long":106.84912,"i_lat":-6.209883,"time":2,"station_name":"Manggarai","is_transit":true},{"transit":false,"station_name":"Tebet","line":2,"station_id":"TEB","time":4,"is_transit":false,"i_lat":-6.226659,"distance":2610,"i_long":106.857948},{"distance":1230,"transit":false,"station_name":"Cawang","is_transit":false,"i_lat":-6.242512,"i_long":106.856607,"line":2,"time":2,"station_id":"CW"},{"i_long":106.85449,"station_name":"Duren Kalibata","is_transit":false,"i_lat":-6.255332,"line":2,"time":3,"station_id":"DRN","transit":false,"distance":1546},{"is_transit":false,"transit":false,"distance":824,"time":2,"line":2,"station_name":"Pasar Minggu Baru","station_id":"PSMB","i_long":106.851577,"i_lat":-6.263214},{"station_name":"Pasar Minggu","distance":2380,"station_id":"PSM","i_long":106.843999,"line":2,"i_lat":-6.2842400000000005,"is_transit":false,"transit":false,"time":2},{"distance":2820,"is_transit":false,"transit":false,"station_name":"Tanjung Barat","time":4,"i_lat":-6.3080680000000005,"line":2,"station_id":"TNT","i_long":106.838896},{"i_lat":-6.330363,"i_long":106.832616,"time":3,"distance":2671,"transit":false,"station_id":"LNA","station_name":"Lenteng Agung","line":2,"is_transit":false},{"i_lat":-6.339291,"time":2,"i_long":106.834175,"distance":1029,"transit":false,"line":2,"station_id":"UP","station_name":"Univ. Pancasila","is_transit":false},{"line":2,"is_transit":false,"station_id":"UI","i_lat":-6.360749,"i_long":106.831474,"transit":false,"station_name":"Univ. Indonesia","distance":2264,"time":3},{"time":2,"line":2,"is_transit":false,"station_name":"Pondok Cina","transit":false,"i_lat":-6.369073,"i_long":106.831114,"distance":1109,"station_id":"POC"},{"i_lat":-6.391065,"i_long":106.819451,"is_transit":false,"transit":false,"station_id":"DPB","line":2,"time":4,"station_name":"Depokbaru","distance":2727},{"transit":false,"i_lat":-6.405256,"line":2,"is_transit":false,"distance":1584,"time":3,"station_id":"DP","i_long":106.816926,"station_name":"Depok"},{"transit":false,"i_lat":-6.448811,"i_long":106.800298,"distance":5084,"is_transit":false,"station_name":"Citayam","time":6,"station_id":"CTA","line":2},{"station_name":"Bojonggede","transit":false,"station_id":"BJD","distance":5197,"i_lat":-6.493243,"time":5,"line":2,"i_long":106.792719,"is_transit":false},{"i_lat":-6.530544,"is_transit":false,"transit":false,"time":5,"i_long":106.800016,"distance":4331,"line":2,"station_name":"Cilebut","station_id":"CLT"}]]}