{"data":[[{"time":0,"line":0,"transit":false,"station_name":"Daru","distance":0,"station_id":"DAR","i_lat":-6.338021,"is_transit":false,"i_long":106.491338},{"i_lat":-6.354349,"line":0,"i_long":106.508482,"station_name":"Cilejit","time":6,"distance":2675,"is_transit":false,"transit":false,"station_id":"CJT"},{"line":6,"transit":false,"station_id":"PRP","station_name":"Parung Panjang","is_transit":false,"time":9,"distance":7025,"i_lat":-6.3441410000000005,"i_long":106.568863},{"distance":5968,"i_long":106.617853,"station_id":"CC","time":8,"i_lat":-6.329547,"is_transit":false,"transit":false,"line":0,"station_name":"Cicayur"},{"is_transit":false,"i_long":106.640411,"station_name":"Cisauk","line":0,"transit":false,"i_lat":-6.32484,"distance":2519,"time":4,"station_id":"CSK"},{"i_lat":-6.319871,"i_long":106.66566,"transit":false,"distance":1784,"station_name":"Serpong","is_transit":false,"line":6,"time":4,"station_id":"SRP"},{"is_transit":false,"i_lat":-6.314823,"line":6,"station_name":"Rawa Buntu","i_long":106.675475,"distance":2413,"transit":false,"station_id":"RU","time":4},{"distance":4566,"time":6,"i_long":106.712277,"station_id":"SDM","is_transit":false,"i_lat":-6.296963,"line":6,"station_name":"Sudimara","transit":false},{"distance":1994,"i_lat":-6.288927,"is_transit":false,"line":6,"i_long":106.728916,"time":4,"station_name":"Jurangmangu","station_id":"JMU","transit":false},{"station_id":"PDJ","time":3,"i_long":106.74273,"is_transit":false,"distance":2179,"station_name":"Pondokranji","i_lat":-6.276362,"transit":false,"line":6},{"i_lat":-6.237242,"time":8,"station_id":"KBY","distance":6218,"is_transit":false,"transit":false,"station_name":"Kebayoran","i_long":106.780334,"line":6},{"line":6,"station_id":"PLM","transit":false,"i_long":106.79689,"station_name":"Palmerah","is_transit":false,"distance":3737,"i_lat":-6.207404,"time":7},{"distance":3191,"line":1,"time":6,"is_transit":true,"station_name":"Tanah Abang","i_lat":-6.185545,"transit":true,"station_id":"THB","i_long":106.811091},{"is_transit":true,"distance":3632,"i_lat":-6.155215,"station_name":"Duri","time":8,"i_long":106.800832,"line":1,"transit":true,"station_id":"DU"},{"i_lat":-6.162021,"line":5,"time":3,"is_transit":false,"i_long":106.788277,"station_id":"GGL","transit":false,"distance":1700,"station_name":"Grogol"},{"transit":false,"time":2,"i_lat":-6.161433,"i_long":106.771379,"station_id":"PSG","station_name":"Pesing","line":5,"distance":2036,"is_transit":false},{"station_name":"Taman Kota","time":2,"transit":false,"i_lat":-6.1587309999999995,"is_transit":false,"station_id":"TKO","distance":1614,"i_long":106.756522,"line":5},{"line":0,"distance":2334,"is_transit":false,"transit":false,"i_lat":-6.159876,"station_name":"Bojongindah","time":2,"station_id":"BOI","i_long":106.737035},{"line":5,"transit":false,"station_id":"RW","i_lat":-6.162758,"station_name":"Rawa Buaya","distance":1152,"time":4,"i_long":106.723064,"is_transit":false},{"distance":2504,"station_id":"KDS","station_name":"Kalideres","is_transit":false,"transit":false,"i_lat":-6.166068,"line":5,"i_long":106.701612,"time":3}],[{"station_name":"Daru","transit":false,"i_lat":-6.338021,"i_long":106.491338,"time":0,"distance":0,"is_transit":false,"line":0,"station_id":"DAR"},{"line":0,"time":6,"distance":2675,"transit":false,"station_id":"CJT","station_name":"Cilejit","is_transit":false,"i_lat":-6.354349,"i_long":106.508482},{"station_name":"Parung Panjang","time":9,"i_lat":-6.3441410000000005,"line":6,"station_id":"PRP","is_transit":false,"distance":7025,"transit":false,"i_long":106.568863},{"transit":false,"time":8,"line":0,"station_name":"Cicayur","i_lat":-6.329547,"i_long":106.617853,"distance":5968,"is_transit":false,"station_id":"CC"},{"i_lat":-6.32484,"station_name":"Cisauk","line":0,"is_transit":false,"time":4,"transit":false,"distance":2519,"station_id":"CSK","i_long":106.640411},{"is_transit":false,"distance":1784,"i_long":106.66566,"line":6,"station_name":"Serpong","transit":false,"time":4,"i_lat":-6.319871,"station_id":"SRP"},{"time":4,"distance":2413,"transit":false,"i_long":106.675475,"is_transit":false,"station_id":"RU","i_lat":-6.314823,"station_name":"Rawa Buntu","line":6},{"transit":false,"i_lat":-6.296963,"station_id":"SDM","line":6,"station_name":"Sudimara","time":6,"is_transit":false,"distance":4566,"i_long":106.712277},{"time":4,"is_transit":false,"transit":false,"station_id":"JMU","i_long":106.728916,"line":6,"station_name":"Jurangmangu","distance":1994,"i_lat":-6.288927},{"i_long":106.74273,"station_id":"PDJ","time":3,"is_transit":false,"i_lat":-6.276362,"transit":false,"distance":2179,"station_name":"Pondokranji","line":6},{"transit":false,"i_long":106.780334,"station_name":"Kebayoran","line":6,"station_id":"KBY","i_lat":-6.237242,"is_transit":false,"time":8,"distance":6218},{"distance":3737,"transit":false,"station_id":"PLM","i_long":106.79689,"station_name":"Palmerah","time":7,"is_transit":false,"line":6,"i_lat":-6.207404},{"time":6,"is_transit":true,"line":1,"station_id":"THB","i_lat":-6.185545,"station_name":"Tanah Abang","distance":3191,"i_long":106.811091,"transit":true},{"i_lat":-6.20132,"station_name":"Karet","time":5,"distance":2029,"line":1,"station_id":"KAT","transit":false,"i_long":106.816351,"is_transit":false},{"distance":471,"transit":false,"station_name":"Sudirman Baru","i_long":106.819881,"is_transit":false,"time":1,"i_lat":-6.201433,"line":1,"station_id":"SUDB"},{"station_id":"SUD","distance":280,"i_lat":-6.202263,"i_long":106.822649,"line":1,"transit":false,"time":1,"is_transit":false,"station_name":"Sudirman"},{"is_transit":true,"station_id":"MRI","time":4,"transit":true,"i_long":106.84912,"line":0,"station_name":"Manggarai","distance":3186,"i_lat":-6.209883},{"i_lat":-6.198556,"line":0,"time":4,"is_transit":false,"transit":false,"i_long":106.840169,"distance":1590,"station_id":"CKI","station_name":"Cikini"},{"is_transit":false,"i_long":106.832183,"time":3,"line":2,"transit":false,"i_lat":-6.186295,"station_id":"GDD","station_name":"Gondangdia","distance":1750},{"time":4,"station_name":"Juanda","station_id":"JUA","line":2,"i_long":106.828284,"distance":2015,"transit":false,"is_transit":false,"i_lat":-6.166716},{"is_transit":false,"time":2,"distance":1149,"station_name":"Sawah Besar","station_id":"SW","i_lat":-6.160725,"line":2,"transit":false,"i_long":106.827103},{"time":2,"line":2,"i_long":106.82482,"is_transit":false,"station_id":"MGB","transit":false,"i_lat":-6.149769,"distance":906,"station_name":"Manggabesar"},{"distance":1080,"station_name":"Jayakarta","time":2,"station_id":"JAY","transit":false,"i_lat":-6.141205,"i_long":106.820901,"line":7,"is_transit":false},{"i_long":106.812439,"station_id":"JAKK","distance":1264,"transit":true,"i_lat":-6.137569,"station_name":"Jakarta Kota","line":0,"is_transit":true,"time":4},{"station_id":"KPB","line":0,"station_name":"Kampung Bandan","distance":1364,"time":3,"i_lat":-6.132549,"transit":false,"i_long":106.826365,"is_transit":true},{"station_id":"AK","line":0,"distance":4102,"transit":false,"time":9,"i_lat":-6.144674,"is_transit":false,"i_long":106.79867,"station_name":"Angke"},{"time":4,"i_lat":-6.155215,"line":1,"station_id":"DU","is_transit":true,"transit":true,"station_name":"Duri","i_long":106.800832,"distance":1230},{"transit":false,"i_long":106.788277,"time":3,"line":5,"distance":1700,"i_lat":-6.162021,"station_name":"Grogol","station_id":"GGL","is_transit":false},{"transit":false,"i_lat":-6.161433,"station_name":"Pesing","line":5,"station_id":"PSG","i_long":106.771379,"is_transit":false,"time":2,"distance":2036},{"station_id":"TKO","station_name":"Taman Kota","time":2,"i_lat":-6.1587309999999995,"is_transit":false,"distance":1614,"i_long":106.756522,"transit":false,"line":5},{"i_long":106.737035,"station_name":"Bojongindah","line":0,"station_id":"BOI","i_lat":-6.159876,"time":2,"transit":false,"is_transit":false,"distance":2334},{"distance":1152,"transit":false,"line":5,"is_transit":false,"station_name":"Rawa Buaya","time":4,"i_lat":-6.162758,"i_long":106.723064,"station_id":"RW"},{"distance":2504,"line":5,"station_name":"Kalideres","station_id":"KDS","is_transit":false,"time":3,"transit":false,"i_long":106.701612,"i_lat":-6.166068}],[{"line":0,"i_long":106.491338,"transit":false,"station_name":"Daru","time":0,"station_id":"DAR","i_lat":-6.338021,"distance":0,"is_transit":false},{"i_lat":-6.354349,"time":6,"transit":false,"station_name":"Cilejit","station_id":"CJT","is_transit":false,"i_long":106.508482,"line":0,"distance":2675},{"station_name":"Parung Panjang","i_long":106.568863,"line":6,"station_id":"PRP","is_transit":false,"distance":7025,"time":9,"i_lat":-6.3441410000000005,"transit":false},{"i_lat":-6.329547,"time":8,"distance":5968,"i_long":106.617853,"line":0,"is_transit":false,"station_name":"Cicayur","station_id":"CC","transit":false},{"station_id":"CSK","i_lat":-6.32484,"i_long":106.640411,"line":0,"distance":2519,"is_transit":false,"transit":false,"station_name":"Cisauk","time":4},{"station_name":"Serpong","is_transit":false,"line":6,"transit":false,"i_long":106.66566,"station_id":"SRP","i_lat":-6.319871,"time":4,"distance":1784},{"is_transit":false,"station_id":"RU","transit":false,"i_long":106.675475,"line":6,"time":4,"i_lat":-6.314823,"station_name":"Rawa Buntu","distance":2413},{"time":6,"is_transit":false,"station_id":"SDM","i_lat":-6.296963,"i_long":106.712277,"distance":4566,"transit":false,"line":6,"station_name":"Sudimara"},{"i_long":106.728916,"is_transit":false,"time":4,"station_id":"JMU","line":6,"transit":false,"station_name":"Jurangmangu","distance":1994,"i_lat":-6.288927},{"distance":2179,"line":6,"station_name":"Pondokranji","i_lat":-6.276362,"station_id":"PDJ","is_transit":false,"time":3,"transit":false,"i_long":106.74273},{"distance":6218,"line":6,"i_lat":-6.237242,"station_name":"Kebayoran","is_transit":false,"time":8,"transit":false,"i_long":106.780334,"station_id":"KBY"},{"station_id":"PLM","time":7,"distance":3737,"station_name":"Palmerah","line":6,"i_lat":-6.207404,"is_transit":false,"transit":false,"i_long":106.79689},{"transit":true,"station_name":"Tanah Abang","is_transit":true,"i_lat":-6.185545,"distance":3191,"line":1,"station_id":"THB","time":6,"i_long":106.811091},{"i_lat":-6.20132,"i_long":106.816351,"line":1,"time":5,"is_transit":false,"station_id":"KAT","station_name":"Karet","distance":2029,"transit":false},{"time":1,"line":1,"station_name":"Sudirman Baru","is_transit":false,"distance":471,"i_long":106.819881,"i_lat":-6.201433,"transit":false,"station_id":"SUDB"},{"line":1,"i_lat":-6.202263,"is_transit":false,"station_id":"SUD","station_name":"Sudirman","time":1,"i_long":106.822649,"transit":false,"distance":280},{"station_name":"Manggarai","station_id":"MRI","time":4,"distance":3186,"line":0,"transit":false,"i_long":106.84912,"is_transit":true,"i_lat":-6.209883},{"transit":false,"i_long":106.858896,"time":2,"station_name":"Matraman","distance":1275,"is_transit":false,"i_lat":-6.212485,"line":1,"station_id":"MTR"},{"station_id":"JNG","i_long":106.86807400000001,"transit":true,"line":0,"i_lat":-6.215091,"distance":1377,"station_name":"Jatinegara","time":8,"is_transit":true},{"transit":false,"i_long":106.861737,"i_lat":-6.209188,"line":11,"is_transit":false,"time":2,"station_id":"POK","station_name":"Pondok Jati","distance":1236},{"i_lat":-6.193792,"station_id":"KMT","distance":1829,"time":2,"station_name":"Kramat","is_transit":false,"transit":false,"i_long":106.855437,"line":11},{"i_lat":-6.185975,"station_name":"Gang Sentiong","line":11,"i_long":106.850107,"distance":973,"station_id":"GST","transit":false,"is_transit":false,"time":1},{"station_id":"PSE","distance":1567,"i_lat":-6.174784,"is_transit":false,"i_long":106.84368,"time":8,"station_name":"Pasar Senen","line":11,"transit":false},{"line":11,"transit":false,"station_id":"KMO","i_lat":-6.161728,"time":4,"distance":1436,"is_transit":false,"station_name":"Kemayoran","i_long":106.839204},{"time":5,"transit":false,"station_name":"Rajawali","is_transit":false,"distance":1901,"station_id":"RJW","i_long":106.836569,"i_lat":-6.14505,"line":11},{"time":3,"i_long":106.826365,"line":0,"station_name":"Kampung Bandan","station_id":"KPB","distance":1444,"transit":true,"is_transit":true,"i_lat":-6.132549},{"transit":false,"station_id":"AK","i_long":106.79867,"is_transit":false,"station_name":"Angke","line":0,"distance":4102,"i_lat":-6.144674,"time":9},{"line":1,"transit":true,"i_lat":-6.155215,"time":4,"i_long":106.800832,"station_id":"DU","station_name":"Duri","distance":1230,"is_transit":true},{"station_name":"Grogol","is_transit":false,"station_id":"GGL","distance":1700,"i_lat":-6.162021,"time":3,"i_long":106.788277,"transit":false,"line":5},{"line":5,"transit":false,"i_lat":-6.161433,"i_long":106.771379,"station_name":"Pesing","station_id":"PSG","distance":2036,"time":2,"is_transit":false},{"station_id":"TKO","time":2,"transit":false,"is_transit":false,"station_name":"Taman Kota","i_long":106.756522,"distance":1614,"i_lat":-6.1587309999999995,"line":5},{"line":0,"i_lat":-6.159876,"distance":2334,"time":2,"is_transit":false,"transit":false,"station_id":"BOI","i_long":106.737035,"station_name":"Bojongindah"},{"i_lat":-6.162758,"station_name":"Rawa Buaya","station_id":"RW","line":5,"transit":false,"i_long":106.723064,"time":4,"distance":1152,"is_transit":false},{"transit":false,"station_id":"KDS","station_name":"Kalideres","i_lat":-6.166068,"i_long":106.701612,"is_transit":false,"distance":2504,"line":5,"time":3}]]}