{"data":[[{"i_long":106.491338,"line":0,"station_id":"DAR","time":0,"station_name":"Daru","i_lat":-6.338021,"is_transit":false,"transit":false,"distance":0},{"i_long":106.508482,"is_transit":false,"line":3,"transit":false,"distance":2675,"i_lat":-6.354349,"time":6,"station_name":"Cilejit","station_id":"CJT"},{"time":9,"station_id":"PRP","station_name":"Parung Panjang","line":6,"distance":7025,"i_lat":-6.3441410000000005,"is_transit":false,"transit":false,"i_long":106.568863},{"distance":5968,"station_id":"CC","station_name":"Cicayur","i_long":106.617853,"is_transit":false,"line":3,"transit":false,"time":8,"i_lat":-6.329547},{"station_name":"Cisauk","i_lat":-6.32484,"station_id":"CSK","distance":2519,"is_transit":false,"line":3,"transit":false,"time":4,"i_long":106.640411},{"station_name":"Serpong","i_lat":-6.319871,"i_long":106.66566,"line":6,"transit":false,"station_id":"SRP","distance":1784,"is_transit":false,"time":4},{"line":6,"transit":false,"i_lat":-6.314823,"station_id":"RU","distance":2413,"i_long":106.675475,"time":4,"station_name":"Rawa Buntu","is_transit":false},{"i_lat":-6.296963,"line":6,"is_transit":false,"i_long":106.712277,"time":6,"distance":4566,"station_id":"SDM","station_name":"Sudimara","transit":false},{"line":6,"i_long":106.728916,"time":4,"station_id":"JMU","station_name":"Jurangmangu","distance":1994,"is_transit":false,"i_lat":-6.288927,"transit":false},{"station_name":"Pondokranji","station_id":"PDJ","i_lat":-6.276362,"i_long":106.74273,"line":6,"distance":2179,"transit":false,"is_transit":false,"time":3},{"distance":6218,"time":8,"station_id":"KBY","station_name":"Kebayoran","is_transit":false,"transit":false,"i_lat":-6.237242,"line":6,"i_long":106.780334},{"time":7,"station_id":"PLM","distance":3737,"i_long":106.79689,"station_name":"Palmerah","is_transit":false,"i_lat":-6.207404,"transit":false,"line":6},{"i_lat":-6.185545,"is_transit":true,"distance":3191,"line":1,"station_name":"Tanah Abang","time":6,"station_id":"THB","transit":true,"i_long":106.811091},{"line":1,"time":5,"i_lat":-6.20132,"i_long":106.816351,"transit":false,"is_transit":false,"station_id":"KAT","station_name":"Karet","distance":2029},{"line":1,"time":1,"distance":471,"station_name":"Sudirman Baru","transit":false,"i_long":106.819881,"is_transit":false,"station_id":"SUDB","i_lat":-6.201433},{"i_long":106.822649,"station_name":"Sudirman","time":1,"distance":280,"is_transit":false,"line":1,"transit":false,"station_id":"SUD","i_lat":-6.202263},{"distance":3186,"station_name":"Manggarai","i_long":106.84912,"i_lat":-6.209883,"time":4,"is_transit":true,"transit":true,"line":2,"station_id":"MRI"},{"line":2,"time":4,"transit":false,"station_name":"Tebet","i_long":106.857948,"distance":2610,"i_lat":-6.226659,"station_id":"TEB","is_transit":false},{"station_id":"CW","i_long":106.856607,"line":2,"transit":false,"is_transit":false,"i_lat":-6.242512,"station_name":"Cawang","time":2,"distance":1230},{"line":2,"time":3,"station_name":"Duren Kalibata","is_transit":false,"station_id":"DRN","distance":1546,"i_lat":-6.255332,"transit":false,"i_long":106.85449},{"i_lat":-6.263214,"is_transit":false,"transit":false,"station_name":"Pasar Minggu Baru","line":2,"i_long":106.851577,"time":2,"distance":824,"station_id":"PSMB"},{"time":2,"i_long":106.843999,"station_name":"Pasar Minggu","line":2,"station_id":"PSM","distance":2380,"is_transit":false,"transit":false,"i_lat":-6.2842400000000005},{"station_name":"Tanjung Barat","distance":2820,"time":4,"station_id":"TNT","transit":false,"i_long":106.838896,"i_lat":-6.3080680000000005,"is_transit":false,"line":2},{"time":3,"distance":2671,"i_long":106.832616,"station_name":"Lenteng Agung","station_id":"LNA","line":2,"is_transit":false,"i_lat":-6.330363,"transit":false}],[{"line":0,"station_id":"DAR","transit":false,"time":0,"i_long":106.491338,"station_name":"Daru","i_lat":-6.338021,"is_transit":false,"distance":0},{"line":3,"is_transit":false,"distance":2675,"station_id":"CJT","station_name":"Cilejit","transit":false,"time":6,"i_long":106.508482,"i_lat":-6.354349},{"i_long":106.568863,"distance":7025,"time":9,"station_id":"PRP","line":6,"transit":false,"is_transit":false,"i_lat":-6.3441410000000005,"station_name":"Parung Panjang"},{"station_id":"CC","transit":false,"distance":5968,"i_lat":-6.329547,"time":8,"station_name":"Cicayur","i_long":106.617853,"is_transit":false,"line":3},{"time":4,"transit":false,"i_lat":-6.32484,"station_id":"CSK","is_transit":false,"line":3,"i_long":106.640411,"station_name":"Cisauk","distance":2519},{"station_id":"SRP","i_long":106.66566,"is_transit":false,"time":4,"distance":1784,"line":6,"transit":false,"i_lat":-6.319871,"station_name":"Serpong"},{"transit":false,"time":4,"is_transit":false,"i_lat":-6.314823,"distance":2413,"i_long":106.675475,"station_name":"Rawa Buntu","line":6,"station_id":"RU"},{"station_id":"SDM","station_name":"Sudimara","line":6,"time":6,"distance":4566,"i_long":106.712277,"transit":false,"i_lat":-6.296963,"is_transit":false},{"time":4,"station_name":"Jurangmangu","i_long":106.728916,"transit":false,"line":6,"i_lat":-6.288927,"is_transit":false,"distance":1994,"station_id":"JMU"},{"time":3,"i_long":106.74273,"station_id":"PDJ","distance":2179,"is_transit":false,"transit":false,"i_lat":-6.276362,"line":6,"station_name":"Pondokranji"},{"i_long":106.780334,"transit":false,"i_lat":-6.237242,"station_id":"KBY","distance":6218,"station_name":"Kebayoran","is_transit":false,"line":6,"time":8},{"station_name":"Palmerah","line":6,"transit":false,"time":7,"is_transit":false,"i_long":106.79689,"station_id":"PLM","distance":3737,"i_lat":-6.207404},{"distance":3191,"is_transit":true,"i_long":106.811091,"line":1,"station_name":"Tanah Abang","transit":true,"station_id":"THB","time":6,"i_lat":-6.185545},{"time":8,"is_transit":false,"distance":3632,"station_name":"Duri","i_long":106.800832,"transit":false,"station_id":"DU","i_lat":-6.155215,"line":1},{"distance":1230,"i_long":106.79867,"station_id":"AK","i_lat":-6.144674,"is_transit":false,"line":1,"station_name":"Angke","transit":false,"time":4},{"station_name":"Kampung Bandan","is_transit":true,"station_id":"KPB","i_lat":-6.132549,"distance":4102,"transit":true,"i_long":106.826365,"time":9,"line":4},{"line":2,"transit":true,"distance":1364,"i_long":106.812439,"station_id":"JAKK","time":3,"i_lat":-6.137569,"is_transit":true,"station_name":"Jakarta Kota"},{"station_name":"Jayakarta","i_long":106.820901,"distance":1264,"time":4,"station_id":"JAY","is_transit":false,"transit":false,"line":2,"i_lat":-6.141205},{"time":2,"station_name":"Manggabesar","station_id":"MGB","is_transit":false,"i_lat":-6.149769,"i_long":106.82482,"line":2,"distance":1080,"transit":false},{"i_lat":-6.160725,"i_long":106.827103,"line":2,"station_id":"SW","station_name":"Sawah Besar","distance":906,"time":2,"transit":false,"is_transit":false},{"line":2,"station_id":"JUA","i_long":106.828284,"distance":1149,"station_name":"Juanda","transit":false,"is_transit":false,"i_lat":-6.166716,"time":2},{"i_long":106.832183,"station_name":"Gondangdia","station_id":"GDD","is_transit":false,"distance":2015,"time":4,"line":2,"transit":false,"i_lat":-6.186295},{"distance":1750,"station_name":"Cikini","transit":false,"is_transit":false,"i_long":106.840169,"station_id":"CKI","line":2,"time":3,"i_lat":-6.198556},{"i_long":106.84912,"line":2,"time":4,"is_transit":false,"i_lat":-6.209883,"station_id":"MRI","station_name":"Manggarai","distance":1590,"transit":false},{"station_name":"Tebet","distance":2610,"is_transit":false,"i_lat":-6.226659,"line":2,"transit":false,"time":4,"i_long":106.857948,"station_id":"TEB"},{"station_name":"Cawang","transit":false,"distance":1230,"i_long":106.856607,"station_id":"CW","i_lat":-6.242512,"time":2,"line":2,"is_transit":false},{"station_name":"Duren Kalibata","transit":false,"line":2,"is_transit":false,"distance":1546,"i_long":106.85449,"i_lat":-6.255332,"station_id":"DRN","time":3},{"distance":824,"time":2,"transit":false,"i_lat":-6.263214,"i_long":106.851577,"line":2,"station_id":"PSMB","is_transit":false,"station_name":"Pasar Minggu Baru"},{"station_id":"PSM","station_name":"Pasar Minggu","time":2,"i_lat":-6.2842400000000005,"i_long":106.843999,"transit":false,"line":2,"is_transit":false,"distance":2380},{"i_long":106.838896,"station_name":"Tanjung Barat","time":4,"distance":2820,"is_transit":false,"line":2,"transit":false,"i_lat":-6.3080680000000005,"station_id":"TNT"},{"is_transit":false,"distance":2671,"station_id":"LNA","i_long":106.832616,"line":2,"station_name":"Lenteng Agung","time":3,"transit":false,"i_lat":-6.330363}],[{"i_long":106.491338,"line":0,"time":0,"station_name":"Daru","is_transit":false,"i_lat":-6.338021,"station_id":"DAR","transit":false,"distance":0},{"i_lat":-6.354349,"time":6,"i_long":106.508482,"line":3,"station_name":"Cilejit","station_id":"CJT","distance":2675,"is_transit":false,"transit":false},{"i_lat":-6.3441410000000005,"transit":false,"time":9,"station_name":"Parung Panjang","i_long":106.568863,"distance":7025,"line":6,"station_id":"PRP","is_transit":false},{"line":3,"i_long":106.617853,"station_id":"CC","transit":false,"distance":5968,"station_name":"Cicayur","time":8,"is_transit":false,"i_lat":-6.329547},{"i_lat":-6.32484,"distance":2519,"is_transit":false,"i_long":106.640411,"station_name":"Cisauk","time":4,"transit":false,"station_id":"CSK","line":3},{"transit":false,"is_transit":false,"station_name":"Serpong","time":4,"station_id":"SRP","distance":1784,"i_lat":-6.319871,"i_long":106.66566,"line":6},{"time":4,"station_name":"Rawa Buntu","i_long":106.675475,"distance":2413,"i_lat":-6.314823,"transit":false,"line":6,"is_transit":false,"station_id":"RU"},{"station_name":"Sudimara","station_id":"SDM","distance":4566,"i_lat":-6.296963,"time":6,"is_transit":false,"transit":false,"line":6,"i_long":106.712277},{"station_id":"JMU","i_long":106.728916,"i_lat":-6.288927,"is_transit":false,"transit":false,"line":6,"time":4,"distance":1994,"station_name":"Jurangmangu"},{"i_lat":-6.276362,"i_long":106.74273,"time":3,"line":6,"is_transit":false,"station_name":"Pondokranji","station_id":"PDJ","transit":false,"distance":2179},{"is_transit":false,"i_lat":-6.237242,"station_id":"KBY","distance":6218,"i_long":106.780334,"station_name":"Kebayoran","transit":false,"line":6,"time":8},{"distance":3737,"is_transit":false,"time":7,"i_lat":-6.207404,"line":6,"station_id":"PLM","i_long":106.79689,"transit":false,"station_name":"Palmerah"},{"transit":true,"line":1,"station_name":"Tanah Abang","i_lat":-6.185545,"station_id":"THB","time":6,"i_long":106.811091,"is_transit":true,"distance":3191},{"station_id":"DU","station_name":"Duri","line":1,"transit":false,"distance":3632,"i_lat":-6.155215,"time":8,"i_long":106.800832,"is_transit":false},{"is_transit":false,"time":4,"station_name":"Angke","station_id":"AK","distance":1230,"i_lat":-6.144674,"i_long":106.79867,"line":1,"transit":false},{"is_transit":true,"station_name":"Kampung Bandan","transit":true,"i_lat":-6.132549,"i_long":106.826365,"line":4,"distance":4102,"station_id":"KPB","time":9},{"i_long":106.836569,"station_name":"Rajawali","time":3,"line":11,"station_id":"RJW","transit":false,"i_lat":-6.14505,"is_transit":false,"distance":1444},{"transit":false,"line":11,"station_id":"KMO","i_long":106.839204,"is_transit":false,"station_name":"Kemayoran","distance":1901,"i_lat":-6.161728,"time":5},{"is_transit":false,"distance":1436,"transit":false,"station_name":"Pasar Senen","line":11,"i_lat":-6.174784,"i_long":106.84368,"time":4,"station_id":"PSE"},{"line":11,"time":8,"distance":1567,"station_name":"Gang Sentiong","transit":false,"i_long":106.850107,"is_transit":false,"i_lat":-6.185975,"station_id":"GST"},{"i_lat":-6.193792,"time":1,"station_name":"Kramat","is_transit":false,"station_id":"KMT","i_long":106.855437,"line":11,"distance":973,"transit":false},{"is_transit":false,"i_long":106.861737,"distance":1829,"transit":false,"station_name":"Pondok Jati","i_lat":-6.209188,"station_id":"POK","time":2,"line":11},{"i_long":106.86807400000001,"station_id":"JNG","i_lat":-6.215091,"line":1,"station_name":"Jatinegara","is_transit":true,"distance":1236,"time":9,"transit":true},{"time":2,"i_long":106.858896,"is_transit":false,"station_name":"Matraman","line":1,"distance":1377,"i_lat":-6.212485,"transit":false,"station_id":"MTR"},{"i_lat":-6.209883,"time":2,"station_name":"Manggarai","station_id":"MRI","is_transit":true,"distance":1275,"transit":true,"i_long":106.84912,"line":2},{"time":4,"transit":false,"station_id":"TEB","line":2,"i_long":106.857948,"i_lat":-6.226659,"station_name":"Tebet","distance":2610,"is_transit":false},{"line":2,"distance":1230,"transit":false,"time":2,"station_id":"CW","station_name":"Cawang","i_long":106.856607,"i_lat":-6.242512,"is_transit":false},{"is_transit":false,"i_lat":-6.255332,"station_id":"DRN","i_long":106.85449,"time":3,"transit":false,"line":2,"station_name":"Duren Kalibata","distance":1546},{"i_lat":-6.263214,"station_id":"PSMB","transit":false,"time":2,"line":2,"station_name":"Pasar Minggu Baru","distance":824,"i_long":106.851577,"is_transit":false},{"is_transit":false,"station_name":"Pasar Minggu","i_long":106.843999,"time":2,"distance":2380,"station_id":"PSM","transit":false,"i_lat":-6.2842400000000005,"line":2},{"i_long":106.838896,"station_name":"Tanjung Barat","transit":false,"distance":2820,"line":2,"time":4,"i_lat":-6.3080680000000005,"is_transit":false,"station_id":"TNT"},{"station_name":"Lenteng Agung","transit":false,"is_transit":false,"distance":2671,"time":3,"i_long":106.832616,"i_lat":-6.330363,"line":2,"station_id":"LNA"}]]}