{"data":[[{"i_lat":-6.338021,"is_transit":false,"distance":0,"station_name":"Daru","station_id":"DAR","time":0,"i_long":106.491338,"transit":false,"line":0},{"is_transit":false,"distance":2675,"transit":false,"station_id":"CJT","i_lat":-6.354349,"i_long":106.508482,"station_name":"Cilejit","time":6,"line":3},{"line":6,"transit":false,"station_name":"Parung Panjang","i_long":106.568863,"distance":7025,"station_id":"PRP","time":9,"is_transit":false,"i_lat":-6.3441410000000005},{"distance":5968,"is_transit":false,"i_lat":-6.329547,"time":8,"transit":false,"station_id":"CC","line":3,"station_name":"Cicayur","i_long":106.617853},{"station_id":"CSK","i_long":106.640411,"i_lat":-6.32484,"time":4,"line":3,"distance":2519,"is_transit":false,"station_name":"Cisauk","transit":false},{"line":6,"i_long":106.66566,"distance":1784,"transit":false,"station_name":"Serpong","is_transit":false,"time":4,"station_id":"SRP","i_lat":-6.319871},{"line":6,"i_lat":-6.314823,"station_name":"Rawa Buntu","i_long":106.675475,"distance":2413,"time":4,"is_transit":false,"transit":false,"station_id":"RU"},{"station_id":"SDM","i_long":106.712277,"line":6,"transit":false,"distance":4566,"station_name":"Sudimara","is_transit":false,"time":6,"i_lat":-6.296963},{"is_transit":false,"transit":false,"time":4,"station_id":"JMU","distance":1994,"station_name":"Jurangmangu","i_lat":-6.288927,"i_long":106.728916,"line":6},{"station_name":"Pondokranji","station_id":"PDJ","distance":2179,"transit":false,"i_lat":-6.276362,"line":6,"is_transit":false,"time":3,"i_long":106.74273},{"time":8,"distance":6218,"transit":false,"is_transit":false,"i_long":106.780334,"line":6,"station_id":"KBY","station_name":"Kebayoran","i_lat":-6.237242},{"is_transit":false,"i_lat":-6.207404,"line":6,"distance":3737,"i_long":106.79689,"station_name":"Palmerah","time":7,"transit":false,"station_id":"PLM"},{"time":6,"line":1,"station_id":"THB","distance":3191,"is_transit":true,"station_name":"Tanah Abang","i_lat":-6.185545,"i_long":106.811091,"transit":true},{"line":1,"i_lat":-6.20132,"station_name":"Karet","time":5,"is_transit":false,"station_id":"KAT","transit":false,"i_long":106.816351,"distance":2029},{"station_id":"SUDB","i_long":106.819881,"distance":471,"station_name":"Sudirman Baru","i_lat":-6.201433,"is_transit":false,"transit":false,"line":1,"time":1},{"time":1,"transit":false,"i_long":106.822649,"distance":280,"station_id":"SUD","is_transit":false,"station_name":"Sudirman","i_lat":-6.202263,"line":1},{"time":4,"i_long":106.84912,"transit":true,"distance":3186,"i_lat":-6.209883,"station_id":"MRI","is_transit":true,"station_name":"Manggarai","line":2},{"distance":2610,"time":4,"station_name":"Tebet","transit":false,"station_id":"TEB","i_lat":-6.226659,"line":2,"i_long":106.857948,"is_transit":false},{"is_transit":false,"station_name":"Cawang","time":2,"i_lat":-6.242512,"i_long":106.856607,"station_id":"CW","transit":false,"line":2,"distance":1230},{"is_transit":false,"transit":false,"i_long":106.85449,"station_id":"DRN","distance":1546,"i_lat":-6.255332,"station_name":"Duren Kalibata","time":3,"line":2},{"station_name":"Pasar Minggu Baru","distance":824,"i_long":106.851577,"transit":false,"is_transit":false,"i_lat":-6.263214,"line":2,"station_id":"PSMB","time":2},{"station_id":"PSM","line":2,"time":2,"transit":false,"station_name":"Pasar Minggu","is_transit":false,"i_lat":-6.2842400000000005,"distance":2380,"i_long":106.843999},{"is_transit":false,"station_id":"TNT","time":4,"transit":false,"distance":2820,"station_name":"Tanjung Barat","i_lat":-6.3080680000000005,"line":2,"i_long":106.838896},{"station_id":"LNA","transit":false,"station_name":"Lenteng Agung","is_transit":false,"line":2,"distance":2671,"i_long":106.832616,"time":3,"i_lat":-6.330363}],[{"i_long":106.491338,"transit":false,"station_name":"Daru","station_id":"DAR","i_lat":-6.338021,"time":0,"line":0,"is_transit":false,"distance":0},{"line":3,"is_transit":false,"time":6,"i_lat":-6.354349,"i_long":106.508482,"station_name":"Cilejit","station_id":"CJT","transit":false,"distance":2675},{"i_lat":-6.3441410000000005,"i_long":106.568863,"time":9,"line":6,"station_id":"PRP","station_name":"Parung Panjang","transit":false,"is_transit":false,"distance":7025},{"station_id":"CC","i_lat":-6.329547,"time":8,"i_long":106.617853,"line":3,"is_transit":false,"station_name":"Cicayur","distance":5968,"transit":false},{"distance":2519,"station_name":"Cisauk","i_lat":-6.32484,"station_id":"CSK","i_long":106.640411,"time":4,"transit":false,"is_transit":false,"line":3},{"transit":false,"time":4,"i_long":106.66566,"line":6,"distance":1784,"station_id":"SRP","i_lat":-6.319871,"is_transit":false,"station_name":"Serpong"},{"station_name":"Rawa Buntu","line":6,"i_long":106.675475,"is_transit":false,"station_id":"RU","distance":2413,"transit":false,"time":4,"i_lat":-6.314823},{"station_name":"Sudimara","station_id":"SDM","distance":4566,"i_lat":-6.296963,"is_transit":false,"i_long":106.712277,"line":6,"time":6,"transit":false},{"is_transit":false,"time":4,"distance":1994,"i_lat":-6.288927,"station_name":"Jurangmangu","line":6,"transit":false,"i_long":106.728916,"station_id":"JMU"},{"is_transit":false,"line":6,"time":3,"transit":false,"station_name":"Pondokranji","station_id":"PDJ","i_lat":-6.276362,"i_long":106.74273,"distance":2179},{"is_transit":false,"time":8,"transit":false,"distance":6218,"station_id":"KBY","i_lat":-6.237242,"line":6,"i_long":106.780334,"station_name":"Kebayoran"},{"i_lat":-6.207404,"i_long":106.79689,"distance":3737,"transit":false,"station_id":"PLM","is_transit":false,"time":7,"line":6,"station_name":"Palmerah"},{"station_id":"THB","distance":3191,"time":6,"i_long":106.811091,"line":1,"transit":true,"is_transit":true,"station_name":"Tanah Abang","i_lat":-6.185545},{"i_long":106.800832,"transit":false,"station_id":"DU","line":1,"is_transit":false,"time":8,"station_name":"Duri","i_lat":-6.155215,"distance":3632},{"station_id":"AK","distance":1230,"transit":false,"i_long":106.79867,"station_name":"Angke","time":4,"line":1,"i_lat":-6.144674,"is_transit":false},{"line":4,"i_long":106.826365,"station_id":"KPB","i_lat":-6.132549,"transit":true,"is_transit":true,"distance":4102,"station_name":"Kampung Bandan","time":9},{"is_transit":true,"transit":true,"i_lat":-6.137569,"station_name":"Jakarta Kota","distance":1364,"i_long":106.812439,"line":2,"time":3,"station_id":"JAKK"},{"distance":1264,"is_transit":false,"station_name":"Jayakarta","i_lat":-6.141205,"line":2,"time":4,"station_id":"JAY","i_long":106.820901,"transit":false},{"i_lat":-6.149769,"i_long":106.82482,"distance":1080,"is_transit":false,"station_id":"MGB","time":2,"station_name":"Manggabesar","line":2,"transit":false},{"time":2,"distance":906,"is_transit":false,"station_id":"SW","i_lat":-6.160725,"i_long":106.827103,"line":2,"transit":false,"station_name":"Sawah Besar"},{"transit":false,"i_lat":-6.166716,"i_long":106.828284,"line":2,"distance":1149,"time":2,"station_id":"JUA","is_transit":false,"station_name":"Juanda"},{"station_name":"Gondangdia","time":4,"i_long":106.832183,"station_id":"GDD","i_lat":-6.186295,"is_transit":false,"distance":2015,"line":2,"transit":false},{"station_name":"Cikini","station_id":"CKI","time":3,"transit":false,"i_long":106.840169,"distance":1750,"line":2,"is_transit":false,"i_lat":-6.198556},{"i_long":106.84912,"station_name":"Manggarai","transit":false,"time":4,"is_transit":false,"station_id":"MRI","i_lat":-6.209883,"line":2,"distance":1590},{"transit":false,"is_transit":false,"station_id":"TEB","distance":2610,"time":4,"station_name":"Tebet","i_lat":-6.226659,"line":2,"i_long":106.857948},{"station_id":"CW","time":2,"i_lat":-6.242512,"line":2,"i_long":106.856607,"is_transit":false,"distance":1230,"transit":false,"station_name":"Cawang"},{"station_id":"DRN","time":3,"i_long":106.85449,"line":2,"station_name":"Duren Kalibata","is_transit":false,"transit":false,"distance":1546,"i_lat":-6.255332},{"is_transit":false,"line":2,"time":2,"station_id":"PSMB","i_lat":-6.263214,"station_name":"Pasar Minggu Baru","distance":824,"transit":false,"i_long":106.851577},{"distance":2380,"station_id":"PSM","i_long":106.843999,"time":2,"i_lat":-6.2842400000000005,"transit":false,"line":2,"station_name":"Pasar Minggu","is_transit":false},{"distance":2820,"station_id":"TNT","transit":false,"is_transit":false,"station_name":"Tanjung Barat","i_long":106.838896,"line":2,"time":4,"i_lat":-6.3080680000000005},{"time":3,"distance":2671,"station_name":"Lenteng Agung","i_long":106.832616,"i_lat":-6.330363,"transit":false,"station_id":"LNA","is_transit":false,"line":2}],[{"station_id":"DAR","is_transit":false,"distance":0,"time":0,"transit":false,"i_lat":-6.338021,"station_name":"Daru","i_long":106.491338,"line":0},{"line":3,"i_lat":-6.354349,"is_transit":false,"station_name":"Cilejit","transit":false,"distance":2675,"station_id":"CJT","time":6,"i_long":106.508482},{"station_name":"Parung Panjang","is_transit":false,"time":9,"distance":7025,"i_long":106.568863,"line":6,"transit":false,"i_lat":-6.3441410000000005,"station_id":"PRP"},{"time":8,"transit":false,"i_lat":-6.329547,"line":3,"distance":5968,"station_id":"CC","i_long":106.617853,"is_transit":false,"station_name":"Cicayur"},{"time":4,"line":3,"station_id":"CSK","i_lat":-6.32484,"transit":false,"is_transit":false,"distance":2519,"i_long":106.640411,"station_name":"Cisauk"},{"line":6,"is_transit":false,"station_name":"Serpong","time":4,"distance":1784,"transit":false,"i_lat":-6.319871,"i_long":106.66566,"station_id":"SRP"},{"i_lat":-6.314823,"is_transit":false,"transit":false,"line":6,"station_name":"Rawa Buntu","time":4,"distance":2413,"i_long":106.675475,"station_id":"RU"},{"line":6,"transit":false,"i_lat":-6.296963,"i_long":106.712277,"time":6,"distance":4566,"is_transit":false,"station_id":"SDM","station_name":"Sudimara"},{"distance":1994,"transit":false,"i_lat":-6.288927,"is_transit":false,"station_id":"JMU","station_name":"Jurangmangu","i_long":106.728916,"line":6,"time":4},{"distance":2179,"station_name":"Pondokranji","transit":false,"is_transit":false,"i_lat":-6.276362,"station_id":"PDJ","time":3,"i_long":106.74273,"line":6},{"is_transit":false,"station_name":"Kebayoran","time":8,"line":6,"distance":6218,"i_lat":-6.237242,"i_long":106.780334,"station_id":"KBY","transit":false},{"is_transit":false,"transit":false,"i_lat":-6.207404,"line":6,"station_id":"PLM","time":7,"station_name":"Palmerah","i_long":106.79689,"distance":3737},{"time":6,"i_long":106.811091,"i_lat":-6.185545,"is_transit":true,"station_name":"Tanah Abang","line":1,"station_id":"THB","transit":true,"distance":3191},{"station_id":"DU","distance":3632,"i_lat":-6.155215,"line":1,"station_name":"Duri","time":8,"transit":false,"is_transit":false,"i_long":106.800832},{"transit":false,"is_transit":false,"distance":1230,"time":4,"i_lat":-6.144674,"i_long":106.79867,"station_name":"Angke","line":1,"station_id":"AK"},{"station_id":"KPB","station_name":"Kampung Bandan","time":9,"transit":true,"i_lat":-6.132549,"i_long":106.826365,"is_transit":true,"distance":4102,"line":4},{"station_name":"Rajawali","i_long":106.836569,"distance":1444,"station_id":"RJW","time":3,"i_lat":-6.14505,"line":11,"transit":false,"is_transit":false},{"station_name":"Kemayoran","time":5,"distance":1901,"i_lat":-6.161728,"line":11,"is_transit":false,"i_long":106.839204,"transit":false,"station_id":"KMO"},{"transit":false,"line":11,"is_transit":false,"i_lat":-6.174784,"i_long":106.84368,"distance":1436,"station_id":"PSE","time":4,"station_name":"Pasar Senen"},{"station_name":"Gang Sentiong","time":8,"transit":false,"i_long":106.850107,"distance":1567,"is_transit":false,"i_lat":-6.185975,"line":11,"station_id":"GST"},{"distance":973,"is_transit":false,"station_id":"KMT","transit":false,"time":1,"station_name":"Kramat","i_lat":-6.193792,"i_long":106.855437,"line":11},{"is_transit":false,"line":11,"station_id":"POK","distance":1829,"i_lat":-6.209188,"station_name":"Pondok Jati","i_long":106.861737,"transit":false,"time":2},{"is_transit":true,"station_id":"JNG","i_lat":-6.215091,"i_long":106.86807400000001,"distance":1236,"line":1,"station_name":"Jatinegara","time":9,"transit":true},{"i_lat":-6.212485,"i_long":106.858896,"station_name":"Matraman","distance":1377,"station_id":"MTR","line":1,"time":2,"transit":false,"is_transit":false},{"distance":1275,"station_id":"MRI","is_transit":true,"station_name":"Manggarai","i_lat":-6.209883,"line":2,"time":2,"transit":true,"i_long":106.84912},{"i_long":106.857948,"distance":2610,"time":4,"station_name":"Tebet","is_transit":false,"station_id":"TEB","i_lat":-6.226659,"transit":false,"line":2},{"station_name":"Cawang","time":2,"line":2,"station_id":"CW","distance":1230,"i_lat":-6.242512,"is_transit":false,"transit":false,"i_long":106.856607},{"is_transit":false,"distance":1546,"station_name":"Duren Kalibata","transit":false,"station_id":"DRN","i_lat":-6.255332,"line":2,"i_long":106.85449,"time":3},{"line":2,"i_long":106.851577,"distance":824,"i_lat":-6.263214,"is_transit":false,"station_id":"PSMB","station_name":"Pasar Minggu Baru","time":2,"transit":false},{"is_transit":false,"station_id":"PSM","distance":2380,"station_name":"Pasar Minggu","transit":false,"i_long":106.843999,"line":2,"time":2,"i_lat":-6.2842400000000005},{"i_long":106.838896,"time":4,"is_transit":false,"station_id":"TNT","i_lat":-6.3080680000000005,"distance":2820,"station_name":"Tanjung Barat","transit":false,"line":2},{"time":3,"i_lat":-6.330363,"i_long":106.832616,"distance":2671,"is_transit":false,"station_id":"LNA","station_name":"Lenteng Agung","transit":false,"line":2}]]}