{"data":[[{"i_lat":-6.338021,"transit":false,"time":0,"is_transit":false,"station_id":"DAR","line":0,"distance":0,"i_long":106.491338,"station_name":"Daru"},{"station_name":"Cilejit","is_transit":false,"time":6,"distance":2675,"transit":false,"i_long":106.508482,"i_lat":-6.354349,"station_id":"CJT","line":0},{"transit":false,"i_lat":-6.3441410000000005,"line":6,"station_name":"Parung Panjang","is_transit":false,"time":9,"station_id":"PRP","distance":7025,"i_long":106.568863},{"i_lat":-6.329547,"station_id":"CC","line":0,"is_transit":false,"station_name":"Cicayur","transit":false,"time":8,"distance":5968,"i_long":106.617853},{"station_id":"CSK","station_name":"Cisauk","distance":2519,"time":4,"i_long":106.640411,"is_transit":false,"transit":false,"i_lat":-6.32484,"line":0},{"i_long":106.66566,"transit":false,"distance":1784,"station_id":"SRP","is_transit":false,"station_name":"Serpong","time":4,"i_lat":-6.319871,"line":6},{"station_id":"RU","i_lat":-6.314823,"distance":2413,"line":6,"transit":false,"i_long":106.675475,"is_transit":false,"time":4,"station_name":"Rawa Buntu"},{"i_lat":-6.296963,"distance":4566,"station_id":"SDM","station_name":"Sudimara","transit":false,"i_long":106.712277,"is_transit":false,"line":6,"time":6},{"is_transit":false,"station_name":"Jurangmangu","station_id":"JMU","distance":1994,"i_lat":-6.288927,"time":4,"transit":false,"line":6,"i_long":106.728916},{"i_lat":-6.276362,"time":3,"station_name":"Pondokranji","line":6,"station_id":"PDJ","transit":false,"is_transit":false,"distance":2179,"i_long":106.74273},{"time":8,"distance":6218,"station_id":"KBY","is_transit":false,"i_long":106.780334,"i_lat":-6.237242,"station_name":"Kebayoran","line":6,"transit":false},{"station_id":"PLM","is_transit":false,"transit":false,"i_long":106.79689,"station_name":"Palmerah","time":7,"line":6,"i_lat":-6.207404,"distance":3737},{"time":6,"i_long":106.811091,"transit":true,"is_transit":true,"station_name":"Tanah Abang","station_id":"THB","distance":3191,"line":1,"i_lat":-6.185545},{"transit":true,"time":8,"station_id":"DU","i_long":106.800832,"i_lat":-6.155215,"distance":3632,"station_name":"Duri","is_transit":true,"line":1},{"station_id":"GGL","i_long":106.788277,"is_transit":false,"time":3,"line":5,"station_name":"Grogol","distance":1700,"transit":false,"i_lat":-6.162021},{"time":2,"i_long":106.771379,"i_lat":-6.161433,"station_name":"Pesing","transit":false,"distance":2036,"is_transit":false,"station_id":"PSG","line":5},{"line":5,"distance":1614,"i_long":106.756522,"transit":false,"time":2,"i_lat":-6.1587309999999995,"is_transit":false,"station_name":"Taman Kota","station_id":"TKO"},{"transit":false,"station_id":"BOI","is_transit":false,"time":2,"i_lat":-6.159876,"distance":2334,"line":0,"i_long":106.737035,"station_name":"Bojongindah"}],[{"line":0,"distance":0,"station_id":"DAR","station_name":"Daru","transit":false,"i_lat":-6.338021,"time":0,"i_long":106.491338,"is_transit":false},{"i_lat":-6.354349,"station_id":"CJT","transit":false,"distance":2675,"line":0,"is_transit":false,"time":6,"station_name":"Cilejit","i_long":106.508482},{"station_name":"Parung Panjang","i_lat":-6.3441410000000005,"is_transit":false,"transit":false,"i_long":106.568863,"time":9,"line":6,"station_id":"PRP","distance":7025},{"distance":5968,"transit":false,"i_lat":-6.329547,"line":0,"is_transit":false,"time":8,"i_long":106.617853,"station_name":"Cicayur","station_id":"CC"},{"time":4,"distance":2519,"station_name":"Cisauk","transit":false,"i_lat":-6.32484,"station_id":"CSK","i_long":106.640411,"line":0,"is_transit":false},{"time":4,"i_long":106.66566,"line":6,"station_name":"Serpong","station_id":"SRP","distance":1784,"i_lat":-6.319871,"transit":false,"is_transit":false},{"i_lat":-6.314823,"i_long":106.675475,"line":6,"transit":false,"station_id":"RU","is_transit":false,"distance":2413,"station_name":"Rawa Buntu","time":4},{"time":6,"transit":false,"distance":4566,"is_transit":false,"station_id":"SDM","station_name":"Sudimara","i_long":106.712277,"i_lat":-6.296963,"line":6},{"time":4,"distance":1994,"line":6,"station_id":"JMU","is_transit":false,"i_lat":-6.288927,"station_name":"Jurangmangu","transit":false,"i_long":106.728916},{"i_long":106.74273,"line":6,"station_name":"Pondokranji","i_lat":-6.276362,"time":3,"is_transit":false,"station_id":"PDJ","distance":2179,"transit":false},{"is_transit":false,"i_long":106.780334,"line":6,"distance":6218,"i_lat":-6.237242,"station_name":"Kebayoran","time":8,"transit":false,"station_id":"KBY"},{"i_lat":-6.207404,"station_id":"PLM","is_transit":false,"station_name":"Palmerah","transit":false,"distance":3737,"i_long":106.79689,"line":6,"time":7},{"line":1,"station_id":"THB","i_lat":-6.185545,"is_transit":true,"time":6,"transit":true,"i_long":106.811091,"distance":3191,"station_name":"Tanah Abang"},{"station_id":"KAT","is_transit":false,"station_name":"Karet","time":5,"i_long":106.816351,"transit":false,"distance":2029,"i_lat":-6.20132,"line":1},{"i_lat":-6.201433,"transit":false,"distance":471,"station_id":"SUDB","line":1,"is_transit":false,"station_name":"Sudirman Baru","i_long":106.819881,"time":1},{"station_id":"SUD","distance":280,"station_name":"Sudirman","i_long":106.822649,"i_lat":-6.202263,"line":1,"time":1,"is_transit":false,"transit":false},{"line":0,"station_id":"MRI","is_transit":true,"i_lat":-6.209883,"distance":3186,"transit":true,"time":4,"i_long":106.84912,"station_name":"Manggarai"},{"transit":false,"station_id":"CKI","i_lat":-6.198556,"i_long":106.840169,"distance":1590,"line":0,"time":4,"station_name":"Cikini","is_transit":false},{"time":3,"is_transit":false,"transit":false,"i_lat":-6.186295,"i_long":106.832183,"station_id":"GDD","station_name":"Gondangdia","distance":1750,"line":2},{"transit":false,"station_id":"JUA","station_name":"Juanda","i_long":106.828284,"distance":2015,"is_transit":false,"line":2,"time":4,"i_lat":-6.166716},{"distance":1149,"is_transit":false,"time":2,"station_name":"Sawah Besar","i_lat":-6.160725,"i_long":106.827103,"line":2,"station_id":"SW","transit":false},{"is_transit":false,"time":2,"distance":906,"station_id":"MGB","station_name":"Manggabesar","transit":false,"i_lat":-6.149769,"i_long":106.82482,"line":2},{"station_id":"JAY","transit":false,"line":7,"i_lat":-6.141205,"time":2,"i_long":106.820901,"distance":1080,"is_transit":false,"station_name":"Jayakarta"},{"station_id":"JAKK","distance":1264,"i_lat":-6.137569,"time":4,"is_transit":true,"transit":true,"station_name":"Jakarta Kota","line":0,"i_long":106.812439},{"time":3,"station_name":"Kampung Bandan","line":0,"station_id":"KPB","i_long":106.826365,"distance":1364,"transit":false,"i_lat":-6.132549,"is_transit":true},{"station_name":"Angke","distance":4102,"transit":false,"station_id":"AK","time":9,"i_lat":-6.144674,"is_transit":false,"line":0,"i_long":106.79867},{"distance":1230,"station_name":"Duri","is_transit":true,"i_lat":-6.155215,"i_long":106.800832,"line":1,"station_id":"DU","transit":true,"time":4},{"transit":false,"station_name":"Grogol","i_lat":-6.162021,"station_id":"GGL","distance":1700,"line":5,"time":3,"i_long":106.788277,"is_transit":false},{"transit":false,"is_transit":false,"station_id":"PSG","time":2,"i_long":106.771379,"distance":2036,"station_name":"Pesing","line":5,"i_lat":-6.161433},{"is_transit":false,"i_lat":-6.1587309999999995,"line":5,"station_id":"TKO","transit":false,"station_name":"Taman Kota","distance":1614,"time":2,"i_long":106.756522},{"i_lat":-6.159876,"line":0,"is_transit":false,"station_name":"Bojongindah","i_long":106.737035,"station_id":"BOI","time":2,"distance":2334,"transit":false}],[{"time":0,"station_name":"Daru","distance":0,"transit":false,"is_transit":false,"i_lat":-6.338021,"i_long":106.491338,"line":0,"station_id":"DAR"},{"is_transit":false,"station_id":"CJT","line":0,"i_long":106.508482,"transit":false,"time":6,"distance":2675,"station_name":"Cilejit","i_lat":-6.354349},{"station_id":"PRP","distance":7025,"station_name":"Parung Panjang","time":9,"i_long":106.568863,"transit":false,"i_lat":-6.3441410000000005,"line":6,"is_transit":false},{"i_lat":-6.329547,"line":0,"station_name":"Cicayur","is_transit":false,"i_long":106.617853,"distance":5968,"transit":false,"time":8,"station_id":"CC"},{"i_lat":-6.32484,"station_name":"Cisauk","station_id":"CSK","is_transit":false,"i_long":106.640411,"line":0,"transit":false,"time":4,"distance":2519},{"station_id":"SRP","i_lat":-6.319871,"i_long":106.66566,"line":6,"station_name":"Serpong","is_transit":false,"distance":1784,"time":4,"transit":false},{"distance":2413,"time":4,"station_name":"Rawa Buntu","i_lat":-6.314823,"i_long":106.675475,"is_transit":false,"line":6,"station_id":"RU","transit":false},{"station_id":"SDM","line":6,"station_name":"Sudimara","is_transit":false,"i_lat":-6.296963,"transit":false,"i_long":106.712277,"time":6,"distance":4566},{"station_name":"Jurangmangu","distance":1994,"transit":false,"i_lat":-6.288927,"station_id":"JMU","time":4,"i_long":106.728916,"is_transit":false,"line":6},{"i_long":106.74273,"time":3,"is_transit":false,"station_name":"Pondokranji","transit":false,"line":6,"station_id":"PDJ","distance":2179,"i_lat":-6.276362},{"station_id":"KBY","distance":6218,"line":6,"is_transit":false,"station_name":"Kebayoran","transit":false,"i_long":106.780334,"i_lat":-6.237242,"time":8},{"distance":3737,"transit":false,"station_id":"PLM","is_transit":false,"time":7,"i_lat":-6.207404,"i_long":106.79689,"line":6,"station_name":"Palmerah"},{"time":6,"transit":true,"i_lat":-6.185545,"distance":3191,"station_id":"THB","is_transit":true,"station_name":"Tanah Abang","line":1,"i_long":106.811091},{"is_transit":false,"i_lat":-6.20132,"station_id":"KAT","distance":2029,"i_long":106.816351,"line":1,"station_name":"Karet","transit":false,"time":5},{"distance":471,"transit":false,"i_lat":-6.201433,"time":1,"is_transit":false,"i_long":106.819881,"station_name":"Sudirman Baru","line":1,"station_id":"SUDB"},{"transit":false,"i_lat":-6.202263,"distance":280,"line":1,"station_name":"Sudirman","station_id":"SUD","time":1,"is_transit":false,"i_long":106.822649},{"is_transit":true,"transit":false,"station_name":"Manggarai","line":0,"station_id":"MRI","i_long":106.84912,"time":4,"distance":3186,"i_lat":-6.209883},{"station_id":"MTR","transit":false,"station_name":"Matraman","is_transit":false,"line":1,"time":2,"i_long":106.858896,"distance":1275,"i_lat":-6.212485},{"time":8,"distance":1377,"transit":true,"station_id":"JNG","i_long":106.86807400000001,"station_name":"Jatinegara","i_lat":-6.215091,"line":0,"is_transit":true},{"time":2,"i_lat":-6.209188,"station_id":"POK","distance":1236,"line":11,"transit":false,"i_long":106.861737,"is_transit":false,"station_name":"Pondok Jati"},{"distance":1829,"time":2,"i_long":106.855437,"is_transit":false,"station_name":"Kramat","station_id":"KMT","i_lat":-6.193792,"transit":false,"line":11},{"is_transit":false,"line":11,"station_name":"Gang Sentiong","transit":false,"time":1,"i_long":106.850107,"distance":973,"station_id":"GST","i_lat":-6.185975},{"transit":false,"is_transit":false,"line":11,"distance":1567,"station_id":"PSE","i_long":106.84368,"time":8,"i_lat":-6.174784,"station_name":"Pasar Senen"},{"distance":1436,"station_name":"Kemayoran","i_lat":-6.161728,"transit":false,"i_long":106.839204,"line":11,"time":4,"station_id":"KMO","is_transit":false},{"distance":1901,"transit":false,"station_id":"RJW","station_name":"Rajawali","i_lat":-6.14505,"time":5,"i_long":106.836569,"is_transit":false,"line":11},{"distance":1444,"station_id":"KPB","i_lat":-6.132549,"transit":true,"is_transit":true,"station_name":"Kampung Bandan","time":3,"i_long":106.826365,"line":0},{"station_name":"Angke","i_lat":-6.144674,"distance":4102,"line":0,"station_id":"AK","is_transit":false,"time":9,"i_long":106.79867,"transit":false},{"i_long":106.800832,"time":4,"station_id":"DU","line":1,"distance":1230,"transit":true,"i_lat":-6.155215,"is_transit":true,"station_name":"Duri"},{"station_id":"GGL","distance":1700,"transit":false,"is_transit":false,"i_long":106.788277,"time":3,"line":5,"station_name":"Grogol","i_lat":-6.162021},{"i_long":106.771379,"line":5,"station_id":"PSG","is_transit":false,"distance":2036,"time":2,"i_lat":-6.161433,"transit":false,"station_name":"Pesing"},{"line":5,"is_transit":false,"time":2,"i_lat":-6.1587309999999995,"station_name":"Taman Kota","transit":false,"distance":1614,"station_id":"TKO","i_long":106.756522},{"i_lat":-6.159876,"is_transit":false,"transit":false,"time":2,"line":0,"distance":2334,"i_long":106.737035,"station_id":"BOI","station_name":"Bojongindah"}]]}