{"data":[[{"distance":0,"i_long":106.491338,"line":0,"is_transit":false,"station_id":"DAR","station_name":"Daru","transit":false,"time":0,"i_lat":-6.338021},{"line":0,"i_lat":-6.354349,"station_id":"CJT","time":6,"i_long":106.508482,"station_name":"Cilejit","distance":2675,"transit":false,"is_transit":false},{"distance":7025,"station_name":"Parung Panjang","line":6,"i_lat":-6.3441410000000005,"station_id":"PRP","transit":false,"is_transit":false,"time":9,"i_long":106.568863},{"time":8,"is_transit":false,"station_name":"Cicayur","i_lat":-6.329547,"station_id":"CC","distance":5968,"i_long":106.617853,"transit":false,"line":0},{"is_transit":false,"transit":false,"station_name":"Cisauk","i_long":106.640411,"station_id":"CSK","distance":2519,"line":0,"time":4,"i_lat":-6.32484},{"station_id":"SRP","i_lat":-6.319871,"transit":false,"line":6,"i_long":106.66566,"time":4,"is_transit":false,"distance":1784,"station_name":"Serpong"},{"station_id":"RU","is_transit":false,"time":4,"transit":false,"distance":2413,"station_name":"Rawa Buntu","i_lat":-6.314823,"i_long":106.675475,"line":6},{"transit":false,"i_long":106.712277,"line":6,"time":6,"station_name":"Sudimara","is_transit":false,"i_lat":-6.296963,"station_id":"SDM","distance":4566},{"station_name":"Jurangmangu","line":6,"time":4,"i_long":106.728916,"distance":1994,"is_transit":false,"station_id":"JMU","i_lat":-6.288927,"transit":false},{"station_id":"PDJ","station_name":"Pondokranji","i_lat":-6.276362,"is_transit":false,"time":3,"transit":false,"i_long":106.74273,"line":6,"distance":2179},{"station_id":"KBY","distance":6218,"station_name":"Kebayoran","i_long":106.780334,"time":8,"i_lat":-6.237242,"transit":false,"line":6,"is_transit":false},{"line":6,"is_transit":false,"station_id":"PLM","distance":3737,"i_lat":-6.207404,"transit":false,"time":7,"station_name":"Palmerah","i_long":106.79689},{"is_transit":true,"i_long":106.811091,"distance":3191,"line":1,"i_lat":-6.185545,"transit":true,"time":6,"station_name":"Tanah Abang","station_id":"THB"},{"i_lat":-6.155215,"line":1,"i_long":106.800832,"time":8,"is_transit":true,"transit":true,"distance":3632,"station_id":"DU","station_name":"Duri"},{"line":0,"station_name":"Angke","i_lat":-6.144674,"time":4,"i_long":106.79867,"distance":1230,"is_transit":false,"transit":false,"station_id":"AK"},{"station_id":"KPB","i_lat":-6.132549,"distance":4102,"station_name":"Kampung Bandan","i_long":106.826365,"transit":false,"line":0,"time":9,"is_transit":true},{"transit":false,"time":3,"distance":1364,"is_transit":true,"i_lat":-6.137569,"station_name":"Jakarta Kota","i_long":106.812439,"line":0,"station_id":"JAKK"}],[{"i_lat":-6.338021,"i_long":106.491338,"time":0,"is_transit":false,"distance":0,"line":0,"station_name":"Daru","station_id":"DAR","transit":false},{"i_long":106.508482,"distance":2675,"transit":false,"i_lat":-6.354349,"is_transit":false,"station_name":"Cilejit","station_id":"CJT","time":6,"line":0},{"i_long":106.568863,"time":9,"i_lat":-6.3441410000000005,"station_id":"PRP","distance":7025,"is_transit":false,"line":6,"station_name":"Parung Panjang","transit":false},{"i_long":106.617853,"transit":false,"time":8,"distance":5968,"station_name":"Cicayur","line":0,"is_transit":false,"station_id":"CC","i_lat":-6.329547},{"line":0,"station_id":"CSK","distance":2519,"time":4,"station_name":"Cisauk","i_lat":-6.32484,"i_long":106.640411,"is_transit":false,"transit":false},{"time":4,"i_long":106.66566,"station_id":"SRP","station_name":"Serpong","is_transit":false,"transit":false,"i_lat":-6.319871,"line":6,"distance":1784},{"transit":false,"is_transit":false,"station_name":"Rawa Buntu","time":4,"station_id":"RU","distance":2413,"i_lat":-6.314823,"i_long":106.675475,"line":6},{"i_long":106.712277,"line":6,"station_name":"Sudimara","is_transit":false,"station_id":"SDM","transit":false,"i_lat":-6.296963,"time":6,"distance":4566},{"i_lat":-6.288927,"transit":false,"i_long":106.728916,"time":4,"distance":1994,"station_name":"Jurangmangu","line":6,"is_transit":false,"station_id":"JMU"},{"distance":2179,"station_id":"PDJ","station_name":"Pondokranji","transit":false,"i_lat":-6.276362,"time":3,"line":6,"i_long":106.74273,"is_transit":false},{"transit":false,"i_long":106.780334,"line":6,"i_lat":-6.237242,"is_transit":false,"station_name":"Kebayoran","distance":6218,"station_id":"KBY","time":8},{"line":6,"transit":false,"is_transit":false,"station_id":"PLM","time":7,"distance":3737,"station_name":"Palmerah","i_long":106.79689,"i_lat":-6.207404},{"time":6,"is_transit":true,"line":1,"station_name":"Tanah Abang","station_id":"THB","i_long":106.811091,"i_lat":-6.185545,"transit":true,"distance":3191},{"station_name":"Karet","distance":2029,"i_long":106.816351,"transit":false,"line":1,"i_lat":-6.20132,"time":5,"station_id":"KAT","is_transit":false},{"i_lat":-6.201433,"line":1,"is_transit":false,"station_id":"SUDB","distance":471,"station_name":"Sudirman Baru","transit":false,"i_long":106.819881,"time":1},{"distance":280,"i_long":106.822649,"is_transit":false,"transit":false,"line":1,"i_lat":-6.202263,"station_id":"SUD","time":1,"station_name":"Sudirman"},{"transit":true,"time":4,"distance":3186,"line":0,"is_transit":true,"station_id":"MRI","i_long":106.84912,"station_name":"Manggarai","i_lat":-6.209883},{"distance":1590,"is_transit":false,"i_lat":-6.198556,"station_name":"Cikini","time":4,"i_long":106.840169,"line":0,"transit":false,"station_id":"CKI"},{"distance":1750,"station_name":"Gondangdia","transit":false,"is_transit":false,"i_long":106.832183,"time":3,"i_lat":-6.186295,"station_id":"GDD","line":2},{"distance":2015,"station_id":"JUA","transit":false,"i_long":106.828284,"is_transit":false,"time":4,"i_lat":-6.166716,"station_name":"Juanda","line":2},{"distance":1149,"line":2,"station_id":"SW","time":2,"station_name":"Sawah Besar","transit":false,"i_long":106.827103,"is_transit":false,"i_lat":-6.160725},{"i_long":106.82482,"station_name":"Manggabesar","distance":906,"transit":false,"i_lat":-6.149769,"time":2,"is_transit":false,"station_id":"MGB","line":2},{"distance":1080,"station_id":"JAY","time":2,"i_long":106.820901,"i_lat":-6.141205,"transit":false,"station_name":"Jayakarta","line":7,"is_transit":false},{"time":4,"i_lat":-6.137569,"i_long":106.812439,"line":0,"station_id":"JAKK","station_name":"Jakarta Kota","distance":1264,"transit":false,"is_transit":true}],[{"station_id":"DAR","distance":0,"station_name":"Daru","transit":false,"line":0,"time":0,"i_lat":-6.338021,"i_long":106.491338,"is_transit":false},{"station_name":"Cilejit","i_lat":-6.354349,"i_long":106.508482,"transit":false,"line":0,"distance":2675,"time":6,"is_transit":false,"station_id":"CJT"},{"line":6,"station_id":"PRP","i_lat":-6.3441410000000005,"distance":7025,"i_long":106.568863,"is_transit":false,"transit":false,"station_name":"Parung Panjang","time":9},{"distance":5968,"station_id":"CC","time":8,"is_transit":false,"station_name":"Cicayur","transit":false,"i_long":106.617853,"line":0,"i_lat":-6.329547},{"station_id":"CSK","line":0,"transit":false,"station_name":"Cisauk","is_transit":false,"time":4,"distance":2519,"i_lat":-6.32484,"i_long":106.640411},{"is_transit":false,"station_name":"Serpong","i_lat":-6.319871,"transit":false,"time":4,"i_long":106.66566,"distance":1784,"station_id":"SRP","line":6},{"is_transit":false,"distance":2413,"line":6,"station_id":"RU","time":4,"i_long":106.675475,"i_lat":-6.314823,"transit":false,"station_name":"Rawa Buntu"},{"transit":false,"i_lat":-6.296963,"station_name":"Sudimara","i_long":106.712277,"is_transit":false,"distance":4566,"line":6,"station_id":"SDM","time":6},{"station_id":"JMU","distance":1994,"is_transit":false,"transit":false,"i_lat":-6.288927,"i_long":106.728916,"line":6,"time":4,"station_name":"Jurangmangu"},{"line":6,"distance":2179,"transit":false,"i_lat":-6.276362,"station_name":"Pondokranji","station_id":"PDJ","is_transit":false,"i_long":106.74273,"time":3},{"station_name":"Kebayoran","transit":false,"i_long":106.780334,"distance":6218,"time":8,"station_id":"KBY","is_transit":false,"i_lat":-6.237242,"line":6},{"time":7,"distance":3737,"line":6,"station_name":"Palmerah","transit":false,"station_id":"PLM","i_lat":-6.207404,"i_long":106.79689,"is_transit":false},{"station_id":"THB","distance":3191,"i_lat":-6.185545,"is_transit":true,"station_name":"Tanah Abang","i_long":106.811091,"time":6,"transit":true,"line":1},{"i_lat":-6.20132,"station_id":"KAT","is_transit":false,"distance":2029,"line":1,"time":5,"transit":false,"station_name":"Karet","i_long":106.816351},{"station_id":"SUDB","is_transit":false,"station_name":"Sudirman Baru","i_long":106.819881,"line":1,"time":1,"transit":false,"distance":471,"i_lat":-6.201433},{"station_id":"SUD","is_transit":false,"i_long":106.822649,"station_name":"Sudirman","time":1,"distance":280,"transit":false,"i_lat":-6.202263,"line":1},{"is_transit":true,"transit":false,"station_name":"Manggarai","line":0,"distance":3186,"station_id":"MRI","i_lat":-6.209883,"i_long":106.84912,"time":4},{"line":1,"transit":false,"time":2,"is_transit":false,"distance":1275,"station_name":"Matraman","station_id":"MTR","i_lat":-6.212485,"i_long":106.858896},{"line":0,"station_id":"JNG","station_name":"Jatinegara","is_transit":true,"time":8,"transit":true,"distance":1377,"i_lat":-6.215091,"i_long":106.86807400000001},{"line":11,"transit":false,"is_transit":false,"i_long":106.861737,"station_id":"POK","i_lat":-6.209188,"distance":1236,"station_name":"Pondok Jati","time":2},{"station_name":"Kramat","transit":false,"distance":1829,"i_lat":-6.193792,"is_transit":false,"time":2,"i_long":106.855437,"station_id":"KMT","line":11},{"time":1,"station_name":"Gang Sentiong","station_id":"GST","transit":false,"is_transit":false,"i_lat":-6.185975,"distance":973,"line":11,"i_long":106.850107},{"distance":1567,"i_lat":-6.174784,"station_name":"Pasar Senen","station_id":"PSE","is_transit":false,"transit":false,"line":11,"i_long":106.84368,"time":8},{"station_name":"Kemayoran","i_lat":-6.161728,"station_id":"KMO","time":4,"distance":1436,"is_transit":false,"transit":false,"i_long":106.839204,"line":11},{"station_id":"RJW","station_name":"Rajawali","transit":false,"i_lat":-6.14505,"distance":1901,"time":5,"line":11,"is_transit":false,"i_long":106.836569},{"i_long":106.826365,"i_lat":-6.132549,"line":0,"station_name":"Kampung Bandan","time":3,"is_transit":true,"distance":1444,"transit":true,"station_id":"KPB"},{"line":0,"i_long":106.812439,"distance":1364,"station_id":"JAKK","is_transit":true,"time":3,"transit":false,"i_lat":-6.137569,"station_name":"Jakarta Kota"}],[{"distance":0,"i_lat":-6.338021,"station_name":"Daru","station_id":"DAR","is_transit":false,"time":0,"transit":false,"i_long":106.491338,"line":0},{"transit":false,"station_id":"CJT","time":6,"is_transit":false,"line":0,"distance":2675,"station_name":"Cilejit","i_lat":-6.354349,"i_long":106.508482},{"station_name":"Parung Panjang","distance":7025,"line":6,"station_id":"PRP","is_transit":false,"transit":false,"i_lat":-6.3441410000000005,"i_long":106.568863,"time":9},{"distance":5968,"is_transit":false,"time":8,"i_lat":-6.329547,"i_long":106.617853,"station_name":"Cicayur","line":0,"transit":false,"station_id":"CC"},{"station_id":"CSK","distance":2519,"station_name":"Cisauk","i_long":106.640411,"is_transit":false,"line":0,"time":4,"i_lat":-6.32484,"transit":false},{"station_name":"Serpong","station_id":"SRP","distance":1784,"i_lat":-6.319871,"is_transit":false,"transit":false,"i_long":106.66566,"time":4,"line":6},{"i_lat":-6.314823,"line":6,"distance":2413,"time":4,"transit":false,"station_name":"Rawa Buntu","i_long":106.675475,"station_id":"RU","is_transit":false},{"transit":false,"distance":4566,"i_lat":-6.296963,"is_transit":false,"station_name":"Sudimara","station_id":"SDM","i_long":106.712277,"line":6,"time":6},{"distance":1994,"transit":false,"time":4,"line":6,"station_id":"JMU","i_long":106.728916,"station_name":"Jurangmangu","i_lat":-6.288927,"is_transit":false},{"i_long":106.74273,"distance":2179,"station_id":"PDJ","time":3,"station_name":"Pondokranji","i_lat":-6.276362,"is_transit":false,"line":6,"transit":false},{"station_id":"KBY","is_transit":false,"transit":false,"i_lat":-6.237242,"station_name":"Kebayoran","i_long":106.780334,"line":6,"time":8,"distance":6218},{"line":6,"station_id":"PLM","time":7,"is_transit":false,"i_lat":-6.207404,"transit":false,"i_long":106.79689,"station_name":"Palmerah","distance":3737},{"time":6,"is_transit":true,"distance":3191,"i_lat":-6.185545,"i_long":106.811091,"station_id":"THB","station_name":"Tanah Abang","transit":true,"line":1},{"station_name":"Duri","time":8,"line":1,"i_lat":-6.155215,"distance":3632,"i_long":106.800832,"transit":true,"is_transit":true,"station_id":"DU"},{"distance":1230,"station_name":"Angke","i_long":106.79867,"time":4,"is_transit":false,"station_id":"AK","i_lat":-6.144674,"line":0,"transit":false},{"time":9,"transit":true,"station_id":"KPB","is_transit":true,"distance":4102,"i_lat":-6.132549,"line":0,"i_long":106.826365,"station_name":"Kampung Bandan"},{"transit":false,"i_long":106.836569,"distance":1444,"line":11,"is_transit":false,"i_lat":-6.14505,"time":3,"station_name":"Rajawali","station_id":"RJW"},{"i_long":106.839204,"station_name":"Kemayoran","is_transit":false,"station_id":"KMO","time":5,"line":11,"distance":1901,"transit":false,"i_lat":-6.161728},{"time":4,"line":11,"transit":false,"station_id":"PSE","distance":1436,"is_transit":false,"i_lat":-6.174784,"station_name":"Pasar Senen","i_long":106.84368},{"distance":1567,"i_long":106.850107,"time":8,"line":11,"transit":false,"station_id":"GST","is_transit":false,"station_name":"Gang Sentiong","i_lat":-6.185975},{"is_transit":false,"time":1,"station_name":"Kramat","station_id":"KMT","transit":false,"i_lat":-6.193792,"i_long":106.855437,"line":11,"distance":973},{"i_lat":-6.209188,"is_transit":false,"distance":1829,"station_name":"Pondok Jati","line":11,"station_id":"POK","transit":false,"time":2,"i_long":106.861737},{"time":9,"distance":1236,"line":0,"i_lat":-6.215091,"station_id":"JNG","transit":true,"i_long":106.86807400000001,"is_transit":true,"station_name":"Jatinegara"},{"time":2,"distance":1377,"i_lat":-6.212485,"i_long":106.858896,"transit":false,"line":1,"is_transit":false,"station_id":"MTR","station_name":"Matraman"},{"time":2,"i_long":106.84912,"station_id":"MRI","line":0,"is_transit":true,"transit":true,"station_name":"Manggarai","i_lat":-6.209883,"distance":1275},{"is_transit":false,"distance":1590,"i_long":106.840169,"i_lat":-6.198556,"time":4,"station_id":"CKI","station_name":"Cikini","transit":false,"line":0},{"time":3,"station_name":"Gondangdia","i_long":106.832183,"distance":1750,"line":2,"i_lat":-6.186295,"station_id":"GDD","is_transit":false,"transit":false},{"is_transit":false,"i_long":106.828284,"station_name":"Juanda","distance":2015,"time":4,"line":2,"transit":false,"station_id":"JUA","i_lat":-6.166716},{"station_id":"SW","transit":false,"i_lat":-6.160725,"i_long":106.827103,"is_transit":false,"station_name":"Sawah Besar","distance":1149,"time":2,"line":2},{"station_name":"Manggabesar","line":2,"station_id":"MGB","i_lat":-6.149769,"time":2,"i_long":106.82482,"transit":false,"is_transit":false,"distance":906},{"is_transit":false,"transit":false,"time":2,"line":7,"station_id":"JAY","station_name":"Jayakarta","i_long":106.820901,"i_lat":-6.141205,"distance":1080},{"distance":1264,"i_lat":-6.137569,"station_name":"Jakarta Kota","transit":false,"line":0,"station_id":"JAKK","i_long":106.812439,"time":4,"is_transit":true}]]}