{"data":[[{"line":0,"transit":false,"station_id":"DAR","i_lat":-6.338021,"time":0,"distance":0,"is_transit":false,"station_name":"Daru","i_long":106.491338},{"i_long":106.508482,"is_transit":false,"i_lat":-6.354349,"station_id":"CJT","distance":2675,"line":3,"transit":false,"time":6,"station_name":"Cilejit"},{"i_lat":-6.3441410000000005,"station_name":"Parung Panjang","station_id":"PRP","is_transit":false,"time":9,"i_long":106.568863,"line":6,"distance":7025,"transit":false},{"time":8,"transit":false,"station_id":"CC","is_transit":false,"distance":5968,"station_name":"Cicayur","i_long":106.617853,"i_lat":-6.329547,"line":3},{"is_transit":false,"time":4,"distance":2519,"transit":false,"station_id":"CSK","i_long":106.640411,"line":3,"station_name":"Cisauk","i_lat":-6.32484},{"time":4,"transit":false,"i_long":106.66566,"i_lat":-6.319871,"line":6,"station_name":"Serpong","station_id":"SRP","is_transit":false,"distance":1784},{"i_lat":-6.314823,"station_name":"Rawa Buntu","line":6,"i_long":106.675475,"distance":2413,"station_id":"RU","transit":false,"is_transit":false,"time":4},{"line":6,"station_name":"Sudimara","distance":4566,"station_id":"SDM","time":6,"i_lat":-6.296963,"is_transit":false,"i_long":106.712277,"transit":false},{"is_transit":false,"station_id":"JMU","line":6,"i_long":106.728916,"transit":false,"distance":1994,"time":4,"i_lat":-6.288927,"station_name":"Jurangmangu"},{"time":3,"distance":2179,"station_name":"Pondokranji","i_lat":-6.276362,"transit":false,"is_transit":false,"i_long":106.74273,"line":6,"station_id":"PDJ"},{"distance":6218,"i_lat":-6.237242,"transit":false,"time":8,"i_long":106.780334,"line":6,"station_name":"Kebayoran","is_transit":false,"station_id":"KBY"},{"time":7,"distance":3737,"is_transit":false,"i_lat":-6.207404,"station_id":"PLM","station_name":"Palmerah","line":6,"transit":false,"i_long":106.79689},{"line":1,"i_lat":-6.185545,"station_name":"Tanah Abang","is_transit":true,"station_id":"THB","i_long":106.811091,"distance":3191,"time":6,"transit":true},{"line":1,"is_transit":false,"station_id":"KAT","distance":2029,"transit":false,"time":5,"i_lat":-6.20132,"station_name":"Karet","i_long":106.816351},{"transit":false,"line":1,"i_long":106.819881,"i_lat":-6.201433,"is_transit":false,"distance":471,"station_name":"Sudirman Baru","time":1,"station_id":"SUDB"},{"i_long":106.822649,"line":1,"station_name":"Sudirman","is_transit":false,"time":1,"distance":280,"station_id":"SUD","transit":false,"i_lat":-6.202263},{"station_id":"MRI","distance":3186,"transit":true,"station_name":"Manggarai","time":4,"is_transit":true,"i_lat":-6.209883,"i_long":106.84912,"line":2},{"time":4,"is_transit":false,"line":2,"transit":false,"distance":2610,"station_name":"Tebet","i_long":106.857948,"station_id":"TEB","i_lat":-6.226659},{"station_id":"CW","i_lat":-6.242512,"station_name":"Cawang","is_transit":false,"i_long":106.856607,"line":2,"time":2,"distance":1230,"transit":false},{"station_id":"DRN","i_lat":-6.255332,"distance":1546,"time":3,"line":2,"transit":false,"station_name":"Duren Kalibata","is_transit":false,"i_long":106.85449},{"time":2,"line":2,"distance":824,"transit":false,"station_name":"Pasar Minggu Baru","i_long":106.851577,"station_id":"PSMB","i_lat":-6.263214,"is_transit":false},{"line":2,"distance":2380,"is_transit":false,"time":2,"station_name":"Pasar Minggu","i_lat":-6.2842400000000005,"station_id":"PSM","i_long":106.843999,"transit":false},{"is_transit":false,"i_lat":-6.3080680000000005,"transit":false,"time":4,"distance":2820,"station_id":"TNT","i_long":106.838896,"station_name":"Tanjung Barat","line":2},{"station_name":"Lenteng Agung","distance":2671,"i_long":106.832616,"line":2,"i_lat":-6.330363,"station_id":"LNA","transit":false,"time":3,"is_transit":false},{"line":2,"i_lat":-6.339291,"time":2,"distance":1029,"is_transit":false,"station_id":"UP","i_long":106.834175,"transit":false,"station_name":"Univ. Pancasila"},{"station_name":"Univ. Indonesia","line":2,"is_transit":false,"i_long":106.831474,"station_id":"UI","time":3,"transit":false,"distance":2264,"i_lat":-6.360749},{"distance":1109,"is_transit":false,"i_long":106.831114,"i_lat":-6.369073,"time":2,"transit":false,"line":2,"station_id":"POC","station_name":"Pondok Cina"},{"distance":2727,"line":2,"transit":false,"station_name":"Depokbaru","time":4,"i_long":106.819451,"i_lat":-6.391065,"station_id":"DPB","is_transit":false},{"station_id":"DP","distance":1584,"i_lat":-6.405256,"transit":false,"i_long":106.816926,"station_name":"Depok","is_transit":false,"line":2,"time":3},{"station_id":"CTA","station_name":"Citayam","distance":5084,"time":6,"i_lat":-6.448811,"i_long":106.800298,"is_transit":true,"line":2,"transit":true},{"time":0,"station_id":"PDRG","station_name":"Pondok Rajeg","is_transit":false,"i_lat":-6.460735,"i_long":106.824374,"distance":0,"line":21,"transit":false},{"line":21,"is_transit":false,"i_lat":-6.46424,"distance":0,"station_id":"CBN","transit":false,"station_name":"Cibinong","time":0,"i_long":106.851978}],[{"is_transit":false,"transit":false,"distance":0,"station_name":"Daru","time":0,"i_lat":-6.338021,"station_id":"DAR","i_long":106.491338,"line":0},{"station_name":"Cilejit","i_long":106.508482,"time":6,"distance":2675,"station_id":"CJT","line":3,"transit":false,"i_lat":-6.354349,"is_transit":false},{"station_id":"PRP","transit":false,"i_long":106.568863,"distance":7025,"line":6,"time":9,"is_transit":false,"i_lat":-6.3441410000000005,"station_name":"Parung Panjang"},{"is_transit":false,"transit":false,"i_long":106.617853,"line":3,"time":8,"station_name":"Cicayur","distance":5968,"station_id":"CC","i_lat":-6.329547},{"i_lat":-6.32484,"transit":false,"station_name":"Cisauk","distance":2519,"time":4,"i_long":106.640411,"is_transit":false,"station_id":"CSK","line":3},{"is_transit":false,"station_name":"Serpong","i_lat":-6.319871,"time":4,"i_long":106.66566,"station_id":"SRP","line":6,"transit":false,"distance":1784},{"i_long":106.675475,"station_name":"Rawa Buntu","i_lat":-6.314823,"transit":false,"is_transit":false,"time":4,"line":6,"distance":2413,"station_id":"RU"},{"station_name":"Sudimara","distance":4566,"station_id":"SDM","time":6,"i_lat":-6.296963,"transit":false,"is_transit":false,"i_long":106.712277,"line":6},{"transit":false,"station_id":"JMU","i_lat":-6.288927,"station_name":"Jurangmangu","i_long":106.728916,"line":6,"distance":1994,"is_transit":false,"time":4},{"line":6,"station_name":"Pondokranji","is_transit":false,"i_lat":-6.276362,"distance":2179,"i_long":106.74273,"station_id":"PDJ","transit":false,"time":3},{"i_long":106.780334,"time":8,"distance":6218,"i_lat":-6.237242,"station_id":"KBY","line":6,"transit":false,"station_name":"Kebayoran","is_transit":false},{"distance":3737,"i_lat":-6.207404,"transit":false,"line":6,"station_id":"PLM","is_transit":false,"i_long":106.79689,"time":7,"station_name":"Palmerah"},{"i_long":106.811091,"line":1,"distance":3191,"station_id":"THB","transit":true,"station_name":"Tanah Abang","i_lat":-6.185545,"is_transit":true,"time":6},{"transit":false,"line":1,"i_long":106.800832,"distance":3632,"station_id":"DU","i_lat":-6.155215,"station_name":"Duri","is_transit":false,"time":8},{"station_id":"AK","station_name":"Angke","line":1,"is_transit":false,"time":4,"i_lat":-6.144674,"i_long":106.79867,"distance":1230,"transit":false},{"i_long":106.826365,"station_id":"KPB","station_name":"Kampung Bandan","is_transit":true,"transit":true,"distance":4102,"i_lat":-6.132549,"time":9,"line":4},{"i_lat":-6.137569,"is_transit":true,"time":3,"station_id":"JAKK","line":2,"distance":1364,"i_long":106.812439,"station_name":"Jakarta Kota","transit":true},{"i_long":106.820901,"distance":1264,"time":4,"is_transit":false,"transit":false,"i_lat":-6.141205,"line":2,"station_name":"Jayakarta","station_id":"JAY"},{"is_transit":false,"i_long":106.82482,"time":2,"station_id":"MGB","line":2,"i_lat":-6.149769,"transit":false,"station_name":"Manggabesar","distance":1080},{"line":2,"distance":906,"i_lat":-6.160725,"station_name":"Sawah Besar","i_long":106.827103,"is_transit":false,"time":2,"transit":false,"station_id":"SW"},{"distance":1149,"transit":false,"station_name":"Juanda","is_transit":false,"i_long":106.828284,"i_lat":-6.166716,"time":2,"station_id":"JUA","line":2},{"time":4,"line":2,"station_id":"GDD","transit":false,"i_lat":-6.186295,"station_name":"Gondangdia","i_long":106.832183,"is_transit":false,"distance":2015},{"i_long":106.840169,"station_name":"Cikini","distance":1750,"i_lat":-6.198556,"line":2,"transit":false,"is_transit":false,"time":3,"station_id":"CKI"},{"transit":false,"station_id":"MRI","station_name":"Manggarai","i_lat":-6.209883,"i_long":106.84912,"time":4,"line":2,"distance":1590,"is_transit":false},{"i_long":106.857948,"time":4,"transit":false,"i_lat":-6.226659,"is_transit":false,"line":2,"station_id":"TEB","distance":2610,"station_name":"Tebet"},{"station_name":"Cawang","station_id":"CW","i_lat":-6.242512,"is_transit":false,"distance":1230,"time":2,"transit":false,"line":2,"i_long":106.856607},{"distance":1546,"is_transit":false,"transit":false,"station_name":"Duren Kalibata","station_id":"DRN","time":3,"line":2,"i_lat":-6.255332,"i_long":106.85449},{"line":2,"time":2,"distance":824,"station_id":"PSMB","i_lat":-6.263214,"transit":false,"is_transit":false,"station_name":"Pasar Minggu Baru","i_long":106.851577},{"i_lat":-6.2842400000000005,"station_name":"Pasar Minggu","time":2,"is_transit":false,"i_long":106.843999,"distance":2380,"line":2,"station_id":"PSM","transit":false},{"is_transit":false,"line":2,"station_name":"Tanjung Barat","transit":false,"i_long":106.838896,"distance":2820,"time":4,"i_lat":-6.3080680000000005,"station_id":"TNT"},{"station_name":"Lenteng Agung","time":3,"is_transit":false,"transit":false,"i_long":106.832616,"station_id":"LNA","distance":2671,"i_lat":-6.330363,"line":2},{"station_name":"Univ. Pancasila","i_long":106.834175,"time":2,"distance":1029,"transit":false,"line":2,"station_id":"UP","is_transit":false,"i_lat":-6.339291},{"transit":false,"is_transit":false,"station_id":"UI","i_long":106.831474,"line":2,"distance":2264,"time":3,"station_name":"Univ. Indonesia","i_lat":-6.360749},{"is_transit":false,"i_lat":-6.369073,"i_long":106.831114,"distance":1109,"transit":false,"station_id":"POC","station_name":"Pondok Cina","line":2,"time":2},{"i_lat":-6.391065,"i_long":106.819451,"station_id":"DPB","line":2,"time":4,"station_name":"Depokbaru","is_transit":false,"distance":2727,"transit":false},{"line":2,"transit":false,"station_id":"DP","station_name":"Depok","is_transit":false,"i_long":106.816926,"time":3,"i_lat":-6.405256,"distance":1584},{"distance":5084,"station_id":"CTA","i_lat":-6.448811,"line":2,"station_name":"Citayam","transit":true,"time":6,"i_long":106.800298,"is_transit":true},{"distance":0,"station_name":"Pondok Rajeg","i_lat":-6.460735,"station_id":"PDRG","is_transit":false,"time":0,"line":21,"transit":false,"i_long":106.824374},{"time":0,"i_long":106.851978,"transit":false,"station_name":"Cibinong","line":21,"station_id":"CBN","distance":0,"i_lat":-6.46424,"is_transit":false}],[{"is_transit":false,"i_lat":-6.338021,"station_id":"DAR","transit":false,"line":0,"time":0,"i_long":106.491338,"station_name":"Daru","distance":0},{"transit":false,"time":6,"i_long":106.508482,"station_name":"Cilejit","station_id":"CJT","line":3,"is_transit":false,"i_lat":-6.354349,"distance":2675},{"station_id":"PRP","is_transit":false,"i_long":106.568863,"transit":false,"distance":7025,"time":9,"line":6,"station_name":"Parung Panjang","i_lat":-6.3441410000000005},{"transit":false,"is_transit":false,"station_name":"Cicayur","i_long":106.617853,"distance":5968,"line":3,"time":8,"station_id":"CC","i_lat":-6.329547},{"transit":false,"i_lat":-6.32484,"i_long":106.640411,"station_name":"Cisauk","distance":2519,"station_id":"CSK","is_transit":false,"time":4,"line":3},{"time":4,"i_lat":-6.319871,"distance":1784,"station_name":"Serpong","station_id":"SRP","i_long":106.66566,"line":6,"is_transit":false,"transit":false},{"station_id":"RU","i_long":106.675475,"time":4,"transit":false,"i_lat":-6.314823,"distance":2413,"is_transit":false,"line":6,"station_name":"Rawa Buntu"},{"line":6,"is_transit":false,"station_name":"Sudimara","station_id":"SDM","time":6,"distance":4566,"transit":false,"i_lat":-6.296963,"i_long":106.712277},{"is_transit":false,"line":6,"time":4,"station_name":"Jurangmangu","transit":false,"distance":1994,"i_lat":-6.288927,"station_id":"JMU","i_long":106.728916},{"line":6,"transit":false,"station_id":"PDJ","is_transit":false,"i_lat":-6.276362,"distance":2179,"station_name":"Pondokranji","time":3,"i_long":106.74273},{"distance":6218,"transit":false,"i_lat":-6.237242,"i_long":106.780334,"is_transit":false,"station_name":"Kebayoran","time":8,"line":6,"station_id":"KBY"},{"is_transit":false,"station_id":"PLM","transit":false,"station_name":"Palmerah","time":7,"i_lat":-6.207404,"line":6,"distance":3737,"i_long":106.79689},{"is_transit":true,"station_name":"Tanah Abang","transit":true,"station_id":"THB","time":6,"line":1,"distance":3191,"i_lat":-6.185545,"i_long":106.811091},{"station_id":"DU","line":1,"distance":3632,"station_name":"Duri","transit":false,"i_lat":-6.155215,"time":8,"i_long":106.800832,"is_transit":false},{"i_lat":-6.144674,"station_id":"AK","transit":false,"is_transit":false,"station_name":"Angke","line":1,"distance":1230,"i_long":106.79867,"time":4},{"time":9,"station_name":"Kampung Bandan","line":4,"station_id":"KPB","transit":true,"distance":4102,"i_lat":-6.132549,"i_long":106.826365,"is_transit":true},{"station_id":"RJW","time":3,"i_lat":-6.14505,"i_long":106.836569,"transit":false,"distance":1444,"station_name":"Rajawali","line":11,"is_transit":false},{"time":5,"i_lat":-6.161728,"i_long":106.839204,"line":11,"station_name":"Kemayoran","is_transit":false,"distance":1901,"station_id":"KMO","transit":false},{"station_id":"PSE","i_lat":-6.174784,"time":4,"distance":1436,"station_name":"Pasar Senen","is_transit":false,"transit":false,"i_long":106.84368,"line":11},{"is_transit":false,"i_lat":-6.185975,"transit":false,"i_long":106.850107,"time":8,"distance":1567,"station_name":"Gang Sentiong","line":11,"station_id":"GST"},{"station_name":"Kramat","time":1,"distance":973,"line":11,"i_long":106.855437,"is_transit":false,"station_id":"KMT","transit":false,"i_lat":-6.193792},{"station_name":"Pondok Jati","i_lat":-6.209188,"time":2,"is_transit":false,"i_long":106.861737,"distance":1829,"line":11,"transit":false,"station_id":"POK"},{"is_transit":true,"station_id":"JNG","time":9,"line":1,"transit":true,"i_lat":-6.215091,"i_long":106.86807400000001,"distance":1236,"station_name":"Jatinegara"},{"line":1,"is_transit":false,"i_lat":-6.212485,"distance":1377,"transit":false,"station_name":"Matraman","time":2,"i_long":106.858896,"station_id":"MTR"},{"transit":true,"i_lat":-6.209883,"distance":1275,"time":2,"line":2,"station_name":"Manggarai","i_long":106.84912,"station_id":"MRI","is_transit":true},{"i_long":106.857948,"station_id":"TEB","i_lat":-6.226659,"line":2,"station_name":"Tebet","time":4,"distance":2610,"transit":false,"is_transit":false},{"i_lat":-6.242512,"line":2,"time":2,"station_id":"CW","transit":false,"distance":1230,"is_transit":false,"station_name":"Cawang","i_long":106.856607},{"i_lat":-6.255332,"distance":1546,"i_long":106.85449,"station_id":"DRN","transit":false,"station_name":"Duren Kalibata","line":2,"is_transit":false,"time":3},{"i_lat":-6.263214,"station_id":"PSMB","distance":824,"is_transit":false,"line":2,"time":2,"station_name":"Pasar Minggu Baru","transit":false,"i_long":106.851577},{"i_lat":-6.2842400000000005,"time":2,"station_id":"PSM","distance":2380,"i_long":106.843999,"line":2,"is_transit":false,"station_name":"Pasar Minggu","transit":false},{"time":4,"i_long":106.838896,"line":2,"transit":false,"distance":2820,"station_name":"Tanjung Barat","is_transit":false,"i_lat":-6.3080680000000005,"station_id":"TNT"},{"time":3,"line":2,"distance":2671,"i_long":106.832616,"i_lat":-6.330363,"is_transit":false,"transit":false,"station_id":"LNA","station_name":"Lenteng Agung"},{"distance":1029,"station_name":"Univ. Pancasila","time":2,"i_long":106.834175,"line":2,"is_transit":false,"transit":false,"station_id":"UP","i_lat":-6.339291},{"distance":2264,"station_id":"UI","transit":false,"station_name":"Univ. Indonesia","is_transit":false,"line":2,"i_lat":-6.360749,"time":3,"i_long":106.831474},{"time":2,"i_lat":-6.369073,"distance":1109,"transit":false,"station_name":"Pondok Cina","i_long":106.831114,"line":2,"station_id":"POC","is_transit":false},{"station_id":"DPB","is_transit":false,"transit":false,"station_name":"Depokbaru","line":2,"time":4,"distance":2727,"i_lat":-6.391065,"i_long":106.819451},{"i_lat":-6.405256,"is_transit":false,"line":2,"distance":1584,"time":3,"station_name":"Depok","i_long":106.816926,"transit":false,"station_id":"DP"},{"is_transit":true,"station_id":"CTA","i_lat":-6.448811,"time":6,"i_long":106.800298,"transit":true,"line":2,"station_name":"Citayam","distance":5084},{"i_lat":-6.460735,"station_name":"Pondok Rajeg","i_long":106.824374,"distance":0,"is_transit":false,"station_id":"PDRG","line":21,"transit":false,"time":0},{"station_id":"CBN","i_long":106.851978,"transit":false,"station_name":"Cibinong","distance":0,"is_transit":false,"line":21,"i_lat":-6.46424,"time":0}]]}