{"data":[[{"line":0,"station_id":"DAR","distance":0,"transit":false,"i_long":106.491338,"station_name":"Daru","time":0,"is_transit":false,"i_lat":-6.338021},{"i_lat":-6.354349,"is_transit":false,"distance":2675,"transit":false,"i_long":106.508482,"line":0,"time":6,"station_id":"CJT","station_name":"Cilejit"},{"i_long":106.568863,"time":9,"is_transit":false,"transit":false,"distance":7025,"station_name":"Parung Panjang","station_id":"PRP","i_lat":-6.3441410000000005,"line":6},{"transit":false,"line":0,"station_name":"Cicayur","station_id":"CC","distance":5968,"is_transit":false,"time":8,"i_lat":-6.329547,"i_long":106.617853},{"is_transit":false,"station_id":"CSK","time":4,"station_name":"Cisauk","transit":false,"i_lat":-6.32484,"line":0,"distance":2519,"i_long":106.640411},{"time":4,"line":6,"station_name":"Serpong","i_long":106.66566,"is_transit":false,"distance":1784,"transit":false,"i_lat":-6.319871,"station_id":"SRP"},{"time":4,"distance":2413,"station_name":"Rawa Buntu","i_lat":-6.314823,"transit":false,"station_id":"RU","i_long":106.675475,"is_transit":false,"line":6},{"distance":4566,"station_name":"Sudimara","i_long":106.712277,"station_id":"SDM","is_transit":false,"transit":false,"line":6,"i_lat":-6.296963,"time":6},{"station_name":"Jurangmangu","is_transit":false,"i_long":106.728916,"distance":1994,"i_lat":-6.288927,"transit":false,"time":4,"station_id":"JMU","line":6},{"line":6,"is_transit":false,"distance":2179,"station_name":"Pondokranji","station_id":"PDJ","transit":false,"i_lat":-6.276362,"i_long":106.74273,"time":3},{"transit":false,"station_id":"KBY","line":6,"is_transit":false,"time":8,"station_name":"Kebayoran","i_lat":-6.237242,"distance":6218,"i_long":106.780334},{"line":6,"station_id":"PLM","i_long":106.79689,"time":7,"station_name":"Palmerah","transit":false,"is_transit":false,"i_lat":-6.207404,"distance":3737},{"is_transit":true,"line":1,"i_long":106.811091,"transit":true,"station_name":"Tanah Abang","time":6,"i_lat":-6.185545,"distance":3191,"station_id":"THB"},{"i_lat":-6.20132,"is_transit":false,"time":5,"distance":2029,"transit":false,"station_name":"Karet","station_id":"KAT","i_long":106.816351,"line":1},{"line":1,"is_transit":false,"time":1,"transit":false,"i_lat":-6.201433,"station_id":"SUDB","distance":471,"station_name":"Sudirman Baru","i_long":106.819881},{"i_long":106.822649,"time":1,"i_lat":-6.202263,"line":1,"station_name":"Sudirman","is_transit":false,"station_id":"SUD","distance":280,"transit":false},{"is_transit":true,"transit":true,"station_name":"Manggarai","distance":3186,"i_long":106.84912,"station_id":"MRI","time":4,"line":0,"i_lat":-6.209883},{"time":4,"i_lat":-6.226659,"station_name":"Tebet","distance":2610,"transit":false,"line":2,"i_long":106.857948,"station_id":"TEB","is_transit":false},{"i_long":106.856607,"line":0,"distance":1230,"transit":false,"i_lat":-6.242512,"station_id":"CW","time":2,"is_transit":false,"station_name":"Cawang"},{"line":0,"transit":false,"distance":1546,"is_transit":false,"time":3,"station_name":"Duren Kalibata","station_id":"DRN","i_lat":-6.255332,"i_long":106.85449},{"i_long":106.851577,"station_id":"PSMB","is_transit":false,"distance":824,"station_name":"Pasar Minggu Baru","i_lat":-6.263214,"time":2,"transit":false,"line":2},{"station_id":"PSM","transit":false,"is_transit":false,"distance":2380,"i_lat":-6.2842400000000005,"i_long":106.843999,"line":2,"time":2,"station_name":"Pasar Minggu"},{"transit":false,"station_id":"TNT","i_lat":-6.3080680000000005,"line":2,"is_transit":false,"i_long":106.838896,"station_name":"Tanjung Barat","distance":2820,"time":4},{"i_lat":-6.330363,"i_long":106.832616,"line":2,"station_id":"LNA","distance":2671,"transit":false,"is_transit":false,"time":3,"station_name":"Lenteng Agung"}],[{"time":0,"transit":false,"station_id":"DAR","i_lat":-6.338021,"i_long":106.491338,"is_transit":false,"distance":0,"line":0,"station_name":"Daru"},{"transit":false,"i_long":106.508482,"station_id":"CJT","is_transit":false,"time":6,"station_name":"Cilejit","i_lat":-6.354349,"line":0,"distance":2675},{"is_transit":false,"transit":false,"i_long":106.568863,"line":6,"station_id":"PRP","distance":7025,"station_name":"Parung Panjang","i_lat":-6.3441410000000005,"time":9},{"transit":false,"is_transit":false,"station_name":"Cicayur","i_long":106.617853,"line":0,"distance":5968,"i_lat":-6.329547,"time":8,"station_id":"CC"},{"distance":2519,"i_lat":-6.32484,"time":4,"i_long":106.640411,"line":0,"is_transit":false,"station_name":"Cisauk","station_id":"CSK","transit":false},{"line":6,"is_transit":false,"station_id":"SRP","distance":1784,"time":4,"i_lat":-6.319871,"station_name":"Serpong","transit":false,"i_long":106.66566},{"line":6,"station_id":"RU","station_name":"Rawa Buntu","distance":2413,"transit":false,"i_lat":-6.314823,"is_transit":false,"i_long":106.675475,"time":4},{"i_long":106.712277,"station_name":"Sudimara","distance":4566,"transit":false,"i_lat":-6.296963,"line":6,"is_transit":false,"station_id":"SDM","time":6},{"is_transit":false,"station_name":"Jurangmangu","station_id":"JMU","i_lat":-6.288927,"i_long":106.728916,"distance":1994,"time":4,"transit":false,"line":6},{"distance":2179,"transit":false,"i_long":106.74273,"station_id":"PDJ","line":6,"time":3,"i_lat":-6.276362,"station_name":"Pondokranji","is_transit":false},{"distance":6218,"line":6,"station_id":"KBY","is_transit":false,"station_name":"Kebayoran","i_long":106.780334,"transit":false,"time":8,"i_lat":-6.237242},{"line":6,"distance":3737,"station_name":"Palmerah","i_lat":-6.207404,"station_id":"PLM","time":7,"is_transit":false,"transit":false,"i_long":106.79689},{"station_name":"Tanah Abang","transit":true,"i_long":106.811091,"line":1,"station_id":"THB","is_transit":true,"distance":3191,"i_lat":-6.185545,"time":6},{"transit":true,"station_name":"Duri","time":8,"station_id":"DU","distance":3632,"i_long":106.800832,"line":1,"is_transit":true,"i_lat":-6.155215},{"transit":false,"line":0,"i_long":106.79867,"distance":1230,"station_id":"AK","i_lat":-6.144674,"time":4,"station_name":"Angke","is_transit":false},{"i_long":106.826365,"line":0,"station_name":"Kampung Bandan","i_lat":-6.132549,"station_id":"KPB","distance":4102,"time":9,"is_transit":true,"transit":false},{"station_id":"JAKK","time":3,"station_name":"Jakarta Kota","line":0,"distance":1364,"is_transit":true,"transit":true,"i_long":106.812439,"i_lat":-6.137569},{"line":7,"i_long":106.820901,"transit":false,"is_transit":false,"time":4,"distance":1264,"i_lat":-6.141205,"station_id":"JAY","station_name":"Jayakarta"},{"station_name":"Manggabesar","time":2,"line":2,"i_long":106.82482,"station_id":"MGB","transit":false,"distance":1080,"is_transit":false,"i_lat":-6.149769},{"distance":906,"i_long":106.827103,"is_transit":false,"i_lat":-6.160725,"line":2,"station_id":"SW","station_name":"Sawah Besar","transit":false,"time":2},{"time":2,"distance":1149,"station_name":"Juanda","i_lat":-6.166716,"transit":false,"station_id":"JUA","i_long":106.828284,"line":2,"is_transit":false},{"is_transit":false,"transit":false,"time":4,"station_id":"GDD","distance":2015,"i_long":106.832183,"station_name":"Gondangdia","i_lat":-6.186295,"line":2},{"station_name":"Cikini","distance":1750,"time":3,"i_long":106.840169,"i_lat":-6.198556,"line":0,"is_transit":false,"station_id":"CKI","transit":false},{"i_long":106.84912,"distance":1590,"time":4,"i_lat":-6.209883,"line":0,"station_name":"Manggarai","transit":true,"is_transit":true,"station_id":"MRI"},{"i_lat":-6.226659,"line":2,"time":4,"transit":false,"distance":2610,"station_name":"Tebet","station_id":"TEB","is_transit":false,"i_long":106.857948},{"is_transit":false,"transit":false,"station_id":"CW","station_name":"Cawang","time":2,"distance":1230,"i_lat":-6.242512,"line":0,"i_long":106.856607},{"i_lat":-6.255332,"is_transit":false,"i_long":106.85449,"time":3,"line":0,"station_id":"DRN","transit":false,"distance":1546,"station_name":"Duren Kalibata"},{"station_id":"PSMB","i_lat":-6.263214,"line":2,"distance":824,"time":2,"station_name":"Pasar Minggu Baru","i_long":106.851577,"is_transit":false,"transit":false},{"is_transit":false,"distance":2380,"station_name":"Pasar Minggu","line":2,"station_id":"PSM","i_long":106.843999,"time":2,"transit":false,"i_lat":-6.2842400000000005},{"station_id":"TNT","time":4,"distance":2820,"transit":false,"is_transit":false,"station_name":"Tanjung Barat","line":2,"i_long":106.838896,"i_lat":-6.3080680000000005},{"station_id":"LNA","distance":2671,"time":3,"transit":false,"is_transit":false,"station_name":"Lenteng Agung","i_long":106.832616,"i_lat":-6.330363,"line":2}],[{"i_long":106.491338,"line":0,"time":0,"station_id":"DAR","is_transit":false,"station_name":"Daru","distance":0,"transit":false,"i_lat":-6.338021},{"is_transit":false,"station_name":"Cilejit","distance":2675,"i_lat":-6.354349,"line":0,"station_id":"CJT","time":6,"i_long":106.508482,"transit":false},{"i_long":106.568863,"station_id":"PRP","i_lat":-6.3441410000000005,"is_transit":false,"distance":7025,"transit":false,"line":6,"station_name":"Parung Panjang","time":9},{"distance":5968,"i_lat":-6.329547,"i_long":106.617853,"station_id":"CC","time":8,"line":0,"station_name":"Cicayur","transit":false,"is_transit":false},{"distance":2519,"transit":false,"line":0,"i_long":106.640411,"is_transit":false,"time":4,"i_lat":-6.32484,"station_name":"Cisauk","station_id":"CSK"},{"line":6,"transit":false,"distance":1784,"station_name":"Serpong","i_lat":-6.319871,"i_long":106.66566,"station_id":"SRP","is_transit":false,"time":4},{"distance":2413,"i_lat":-6.314823,"station_id":"RU","is_transit":false,"transit":false,"i_long":106.675475,"station_name":"Rawa Buntu","line":6,"time":4},{"transit":false,"i_lat":-6.296963,"i_long":106.712277,"station_id":"SDM","line":6,"time":6,"is_transit":false,"distance":4566,"station_name":"Sudimara"},{"time":4,"transit":false,"station_name":"Jurangmangu","station_id":"JMU","i_lat":-6.288927,"distance":1994,"i_long":106.728916,"line":6,"is_transit":false},{"transit":false,"station_name":"Pondokranji","i_lat":-6.276362,"is_transit":false,"time":3,"distance":2179,"station_id":"PDJ","i_long":106.74273,"line":6},{"time":8,"distance":6218,"line":6,"is_transit":false,"station_name":"Kebayoran","transit":false,"i_long":106.780334,"station_id":"KBY","i_lat":-6.237242},{"station_id":"PLM","time":7,"i_lat":-6.207404,"station_name":"Palmerah","is_transit":false,"transit":false,"distance":3737,"line":6,"i_long":106.79689},{"i_long":106.811091,"station_id":"THB","time":6,"transit":true,"station_name":"Tanah Abang","i_lat":-6.185545,"line":1,"distance":3191,"is_transit":true},{"station_name":"Duri","time":8,"is_transit":true,"i_long":106.800832,"i_lat":-6.155215,"station_id":"DU","distance":3632,"line":1,"transit":true},{"time":4,"station_id":"AK","distance":1230,"i_long":106.79867,"i_lat":-6.144674,"station_name":"Angke","line":0,"transit":false,"is_transit":false},{"i_long":106.826365,"i_lat":-6.132549,"is_transit":true,"station_name":"Kampung Bandan","time":9,"transit":true,"line":0,"station_id":"KPB","distance":4102},{"transit":false,"line":11,"time":3,"is_transit":false,"i_long":106.836569,"station_name":"Rajawali","station_id":"RJW","i_lat":-6.14505,"distance":1444},{"line":11,"i_long":106.839204,"transit":false,"time":5,"station_id":"KMO","is_transit":false,"distance":1901,"station_name":"Kemayoran","i_lat":-6.161728},{"station_name":"Pasar Senen","distance":1436,"is_transit":false,"i_lat":-6.174784,"i_long":106.84368,"time":4,"transit":false,"station_id":"PSE","line":11},{"time":8,"is_transit":false,"station_name":"Gang Sentiong","i_lat":-6.185975,"i_long":106.850107,"line":11,"distance":1567,"transit":false,"station_id":"GST"},{"i_lat":-6.193792,"i_long":106.855437,"time":1,"transit":false,"is_transit":false,"distance":973,"station_name":"Kramat","line":11,"station_id":"KMT"},{"time":2,"i_lat":-6.209188,"is_transit":false,"station_name":"Pondok Jati","transit":false,"line":11,"station_id":"POK","i_long":106.861737,"distance":1829},{"station_name":"Jatinegara","transit":true,"i_lat":-6.215091,"line":0,"is_transit":true,"i_long":106.86807400000001,"station_id":"JNG","time":9,"distance":1236},{"distance":1377,"station_name":"Matraman","transit":false,"time":2,"station_id":"MTR","is_transit":false,"i_lat":-6.212485,"i_long":106.858896,"line":1},{"i_long":106.84912,"is_transit":true,"distance":1275,"time":2,"station_name":"Manggarai","transit":true,"station_id":"MRI","i_lat":-6.209883,"line":0},{"time":4,"distance":2610,"i_long":106.857948,"station_name":"Tebet","i_lat":-6.226659,"station_id":"TEB","line":2,"is_transit":false,"transit":false},{"time":2,"i_lat":-6.242512,"transit":false,"station_id":"CW","is_transit":false,"station_name":"Cawang","i_long":106.856607,"distance":1230,"line":0},{"transit":false,"i_lat":-6.255332,"time":3,"station_name":"Duren Kalibata","i_long":106.85449,"is_transit":false,"station_id":"DRN","distance":1546,"line":0},{"station_id":"PSMB","is_transit":false,"i_long":106.851577,"time":2,"station_name":"Pasar Minggu Baru","i_lat":-6.263214,"line":2,"transit":false,"distance":824},{"distance":2380,"i_lat":-6.2842400000000005,"line":2,"station_id":"PSM","is_transit":false,"time":2,"station_name":"Pasar Minggu","i_long":106.843999,"transit":false},{"distance":2820,"transit":false,"line":2,"station_id":"TNT","time":4,"station_name":"Tanjung Barat","i_lat":-6.3080680000000005,"i_long":106.838896,"is_transit":false},{"line":2,"i_long":106.832616,"i_lat":-6.330363,"station_id":"LNA","time":3,"is_transit":false,"distance":2671,"transit":false,"station_name":"Lenteng Agung"}]]}