{"data":[[{"transit":false,"i_long":106.491338,"time":0,"station_id":"DAR","line":0,"station_name":"Daru","distance":0,"i_lat":-6.338021,"is_transit":false},{"transit":false,"is_transit":false,"time":6,"distance":2675,"line":0,"i_long":106.508482,"station_name":"Cilejit","i_lat":-6.354349,"station_id":"CJT"},{"i_long":106.568863,"time":9,"line":6,"i_lat":-6.3441410000000005,"distance":7025,"station_name":"Parung Panjang","is_transit":false,"station_id":"PRP","transit":false},{"station_id":"CC","line":0,"transit":false,"time":8,"i_lat":-6.329547,"distance":5968,"i_long":106.617853,"is_transit":false,"station_name":"Cicayur"},{"i_long":106.640411,"i_lat":-6.32484,"line":0,"transit":false,"time":4,"station_id":"CSK","distance":2519,"station_name":"Cisauk","is_transit":false},{"i_lat":-6.319871,"station_name":"Serpong","transit":false,"is_transit":false,"distance":1784,"i_long":106.66566,"line":6,"station_id":"SRP","time":4},{"is_transit":false,"transit":false,"station_name":"Rawa Buntu","time":4,"i_lat":-6.314823,"i_long":106.675475,"distance":2413,"line":6,"station_id":"RU"},{"i_long":106.712277,"transit":false,"i_lat":-6.296963,"station_name":"Sudimara","time":6,"distance":4566,"station_id":"SDM","line":6,"is_transit":false},{"i_lat":-6.288927,"i_long":106.728916,"line":6,"transit":false,"time":4,"station_id":"JMU","distance":1994,"station_name":"Jurangmangu","is_transit":false},{"transit":false,"station_id":"PDJ","i_long":106.74273,"is_transit":false,"time":3,"distance":2179,"line":6,"i_lat":-6.276362,"station_name":"Pondokranji"},{"i_lat":-6.237242,"line":6,"distance":6218,"station_id":"KBY","station_name":"Kebayoran","time":8,"transit":false,"is_transit":false,"i_long":106.780334},{"station_id":"PLM","station_name":"Palmerah","i_long":106.79689,"time":7,"line":6,"transit":false,"i_lat":-6.207404,"is_transit":false,"distance":3737},{"line":1,"distance":3191,"time":6,"i_long":106.811091,"station_name":"Tanah Abang","i_lat":-6.185545,"transit":true,"station_id":"THB","is_transit":true},{"line":1,"transit":false,"station_id":"KAT","i_long":106.816351,"station_name":"Karet","is_transit":false,"time":5,"i_lat":-6.20132,"distance":2029},{"station_id":"SUDB","time":1,"transit":false,"station_name":"Sudirman Baru","i_lat":-6.201433,"distance":471,"is_transit":false,"line":1,"i_long":106.819881},{"time":1,"is_transit":false,"transit":false,"distance":280,"i_lat":-6.202263,"station_name":"Sudirman","i_long":106.822649,"line":1,"station_id":"SUD"},{"i_long":106.84912,"distance":3186,"transit":true,"time":4,"is_transit":true,"station_name":"Manggarai","station_id":"MRI","line":0,"i_lat":-6.209883},{"time":4,"station_name":"Tebet","transit":false,"is_transit":false,"distance":2610,"i_lat":-6.226659,"i_long":106.857948,"line":2,"station_id":"TEB"},{"time":2,"station_name":"Cawang","transit":false,"distance":1230,"i_lat":-6.242512,"i_long":106.856607,"is_transit":false,"line":0,"station_id":"CW"},{"line":0,"transit":false,"time":3,"is_transit":false,"station_id":"DRN","i_lat":-6.255332,"distance":1546,"station_name":"Duren Kalibata","i_long":106.85449},{"distance":824,"station_name":"Pasar Minggu Baru","is_transit":false,"i_long":106.851577,"transit":false,"time":2,"i_lat":-6.263214,"line":2,"station_id":"PSMB"},{"transit":false,"time":2,"is_transit":false,"station_name":"Pasar Minggu","station_id":"PSM","i_long":106.843999,"line":2,"i_lat":-6.2842400000000005,"distance":2380},{"transit":false,"station_name":"Tanjung Barat","time":4,"i_lat":-6.3080680000000005,"is_transit":false,"i_long":106.838896,"line":2,"distance":2820,"station_id":"TNT"},{"distance":2671,"i_long":106.832616,"is_transit":false,"i_lat":-6.330363,"transit":false,"station_id":"LNA","line":2,"time":3,"station_name":"Lenteng Agung"},{"is_transit":false,"station_id":"UP","i_long":106.834175,"station_name":"Univ. Pancasila","transit":false,"time":2,"i_lat":-6.339291,"distance":1029,"line":2},{"station_name":"Univ. Indonesia","time":3,"distance":2264,"i_long":106.831474,"line":2,"transit":false,"i_lat":-6.360749,"is_transit":false,"station_id":"UI"},{"line":2,"station_id":"POC","station_name":"Pondok Cina","i_long":106.831114,"i_lat":-6.369073,"is_transit":false,"time":2,"distance":1109,"transit":false},{"is_transit":false,"i_lat":-6.391065,"station_id":"DPB","transit":false,"distance":2727,"i_long":106.819451,"station_name":"Depokbaru","line":0,"time":4},{"is_transit":false,"line":0,"station_id":"DP","i_lat":-6.405256,"transit":false,"distance":1584,"i_long":106.816926,"time":3,"station_name":"Depok"},{"transit":false,"station_id":"CTA","distance":5084,"i_lat":-6.448811,"i_long":106.800298,"time":6,"line":1,"station_name":"Citayam","is_transit":true},{"transit":false,"is_transit":false,"station_name":"Bojonggede","line":0,"time":5,"distance":5197,"i_long":106.792719,"station_id":"BJD","i_lat":-6.493243},{"line":0,"transit":false,"i_lat":-6.530544,"is_transit":false,"i_long":106.800016,"station_name":"Cilebut","station_id":"CLT","time":5,"distance":4331}],[{"distance":0,"i_long":106.491338,"station_name":"Daru","station_id":"DAR","is_transit":false,"i_lat":-6.338021,"line":0,"transit":false,"time":0},{"line":0,"transit":false,"is_transit":false,"time":6,"distance":2675,"station_name":"Cilejit","i_long":106.508482,"station_id":"CJT","i_lat":-6.354349},{"line":6,"i_lat":-6.3441410000000005,"i_long":106.568863,"station_name":"Parung Panjang","transit":false,"time":9,"station_id":"PRP","distance":7025,"is_transit":false},{"time":8,"station_name":"Cicayur","distance":5968,"line":0,"i_long":106.617853,"transit":false,"i_lat":-6.329547,"is_transit":false,"station_id":"CC"},{"i_long":106.640411,"distance":2519,"station_id":"CSK","transit":false,"time":4,"line":0,"i_lat":-6.32484,"station_name":"Cisauk","is_transit":false},{"time":4,"is_transit":false,"i_lat":-6.319871,"line":6,"transit":false,"distance":1784,"station_name":"Serpong","station_id":"SRP","i_long":106.66566},{"time":4,"i_long":106.675475,"station_id":"RU","station_name":"Rawa Buntu","transit":false,"line":6,"i_lat":-6.314823,"is_transit":false,"distance":2413},{"distance":4566,"line":6,"i_lat":-6.296963,"i_long":106.712277,"station_id":"SDM","transit":false,"station_name":"Sudimara","is_transit":false,"time":6},{"transit":false,"is_transit":false,"station_id":"JMU","line":6,"time":4,"station_name":"Jurangmangu","distance":1994,"i_long":106.728916,"i_lat":-6.288927},{"transit":false,"i_lat":-6.276362,"station_id":"PDJ","time":3,"i_long":106.74273,"line":6,"station_name":"Pondokranji","is_transit":false,"distance":2179},{"distance":6218,"is_transit":false,"i_lat":-6.237242,"i_long":106.780334,"transit":false,"line":6,"time":8,"station_id":"KBY","station_name":"Kebayoran"},{"station_id":"PLM","i_long":106.79689,"station_name":"Palmerah","distance":3737,"line":6,"transit":false,"i_lat":-6.207404,"time":7,"is_transit":false},{"is_transit":true,"distance":3191,"station_name":"Tanah Abang","time":6,"i_lat":-6.185545,"i_long":106.811091,"station_id":"THB","transit":true,"line":1},{"i_long":106.800832,"distance":3632,"station_name":"Duri","line":1,"station_id":"DU","i_lat":-6.155215,"transit":true,"is_transit":true,"time":8},{"i_long":106.79867,"line":0,"distance":1230,"transit":false,"i_lat":-6.144674,"station_name":"Angke","time":4,"is_transit":false,"station_id":"AK"},{"transit":false,"i_lat":-6.132549,"station_name":"Kampung Bandan","distance":4102,"station_id":"KPB","time":9,"i_long":106.826365,"line":0,"is_transit":true},{"distance":1364,"station_id":"JAKK","time":3,"transit":true,"i_lat":-6.137569,"station_name":"Jakarta Kota","is_transit":true,"line":0,"i_long":106.812439},{"station_id":"JAY","time":4,"i_long":106.820901,"i_lat":-6.141205,"is_transit":false,"station_name":"Jayakarta","distance":1264,"line":7,"transit":false},{"station_name":"Manggabesar","time":2,"station_id":"MGB","transit":false,"distance":1080,"line":2,"i_long":106.82482,"is_transit":false,"i_lat":-6.149769},{"station_name":"Sawah Besar","is_transit":false,"i_lat":-6.160725,"i_long":106.827103,"distance":906,"line":2,"station_id":"SW","transit":false,"time":2},{"i_lat":-6.166716,"is_transit":false,"time":2,"i_long":106.828284,"line":2,"station_id":"JUA","station_name":"Juanda","distance":1149,"transit":false},{"i_long":106.832183,"station_name":"Gondangdia","line":2,"transit":false,"is_transit":false,"distance":2015,"station_id":"GDD","i_lat":-6.186295,"time":4},{"station_name":"Cikini","is_transit":false,"transit":false,"station_id":"CKI","i_long":106.840169,"time":3,"distance":1750,"i_lat":-6.198556,"line":0},{"distance":1590,"transit":true,"station_name":"Manggarai","is_transit":true,"station_id":"MRI","i_lat":-6.209883,"i_long":106.84912,"line":0,"time":4},{"station_id":"TEB","transit":false,"i_long":106.857948,"station_name":"Tebet","is_transit":false,"distance":2610,"time":4,"line":2,"i_lat":-6.226659},{"time":2,"i_lat":-6.242512,"station_id":"CW","line":0,"transit":false,"is_transit":false,"distance":1230,"i_long":106.856607,"station_name":"Cawang"},{"is_transit":false,"time":3,"transit":false,"station_name":"Duren Kalibata","distance":1546,"station_id":"DRN","i_lat":-6.255332,"line":0,"i_long":106.85449},{"transit":false,"station_id":"PSMB","time":2,"line":2,"i_lat":-6.263214,"i_long":106.851577,"station_name":"Pasar Minggu Baru","distance":824,"is_transit":false},{"station_id":"PSM","i_long":106.843999,"line":2,"station_name":"Pasar Minggu","transit":false,"time":2,"distance":2380,"is_transit":false,"i_lat":-6.2842400000000005},{"transit":false,"line":2,"i_lat":-6.3080680000000005,"station_id":"TNT","is_transit":false,"distance":2820,"time":4,"station_name":"Tanjung Barat","i_long":106.838896},{"station_name":"Lenteng Agung","line":2,"transit":false,"is_transit":false,"distance":2671,"station_id":"LNA","i_lat":-6.330363,"i_long":106.832616,"time":3},{"station_id":"UP","time":2,"station_name":"Univ. Pancasila","line":2,"transit":false,"i_long":106.834175,"is_transit":false,"distance":1029,"i_lat":-6.339291},{"is_transit":false,"station_name":"Univ. Indonesia","line":2,"time":3,"i_long":106.831474,"station_id":"UI","distance":2264,"transit":false,"i_lat":-6.360749},{"transit":false,"time":2,"station_id":"POC","line":2,"station_name":"Pondok Cina","distance":1109,"i_lat":-6.369073,"is_transit":false,"i_long":106.831114},{"i_long":106.819451,"station_name":"Depokbaru","time":4,"transit":false,"line":0,"distance":2727,"i_lat":-6.391065,"station_id":"DPB","is_transit":false},{"station_name":"Depok","time":3,"line":0,"transit":false,"station_id":"DP","is_transit":false,"distance":1584,"i_lat":-6.405256,"i_long":106.816926},{"distance":5084,"line":1,"transit":false,"is_transit":true,"i_lat":-6.448811,"station_name":"Citayam","i_long":106.800298,"time":6,"station_id":"CTA"},{"is_transit":false,"station_id":"BJD","time":5,"i_long":106.792719,"station_name":"Bojonggede","line":0,"distance":5197,"transit":false,"i_lat":-6.493243},{"station_name":"Cilebut","station_id":"CLT","distance":4331,"line":0,"i_lat":-6.530544,"i_long":106.800016,"transit":false,"is_transit":false,"time":5}],[{"time":0,"line":0,"station_name":"Daru","i_lat":-6.338021,"distance":0,"i_long":106.491338,"station_id":"DAR","transit":false,"is_transit":false},{"line":0,"station_name":"Cilejit","i_lat":-6.354349,"i_long":106.508482,"transit":false,"distance":2675,"time":6,"is_transit":false,"station_id":"CJT"},{"i_lat":-6.3441410000000005,"transit":false,"station_id":"PRP","i_long":106.568863,"station_name":"Parung Panjang","is_transit":false,"time":9,"distance":7025,"line":6},{"time":8,"i_lat":-6.329547,"i_long":106.617853,"station_name":"Cicayur","station_id":"CC","transit":false,"is_transit":false,"line":0,"distance":5968},{"station_name":"Cisauk","transit":false,"station_id":"CSK","time":4,"line":0,"i_long":106.640411,"is_transit":false,"distance":2519,"i_lat":-6.32484},{"time":4,"distance":1784,"is_transit":false,"i_lat":-6.319871,"line":6,"station_id":"SRP","transit":false,"i_long":106.66566,"station_name":"Serpong"},{"is_transit":false,"time":4,"transit":false,"distance":2413,"i_lat":-6.314823,"line":6,"station_name":"Rawa Buntu","i_long":106.675475,"station_id":"RU"},{"is_transit":false,"station_id":"SDM","line":6,"station_name":"Sudimara","time":6,"distance":4566,"transit":false,"i_lat":-6.296963,"i_long":106.712277},{"distance":1994,"i_long":106.728916,"station_name":"Jurangmangu","station_id":"JMU","transit":false,"i_lat":-6.288927,"time":4,"is_transit":false,"line":6},{"station_id":"PDJ","station_name":"Pondokranji","i_long":106.74273,"i_lat":-6.276362,"line":6,"transit":false,"time":3,"is_transit":false,"distance":2179},{"is_transit":false,"i_lat":-6.237242,"time":8,"transit":false,"station_id":"KBY","i_long":106.780334,"line":6,"station_name":"Kebayoran","distance":6218},{"i_long":106.79689,"station_id":"PLM","is_transit":false,"distance":3737,"transit":false,"i_lat":-6.207404,"line":6,"time":7,"station_name":"Palmerah"},{"station_id":"THB","is_transit":true,"time":6,"distance":3191,"i_long":106.811091,"line":1,"transit":true,"station_name":"Tanah Abang","i_lat":-6.185545},{"line":1,"station_name":"Duri","station_id":"DU","i_long":106.800832,"i_lat":-6.155215,"transit":true,"is_transit":true,"distance":3632,"time":8},{"station_id":"AK","line":0,"transit":false,"time":4,"i_lat":-6.144674,"is_transit":false,"station_name":"Angke","distance":1230,"i_long":106.79867},{"i_long":106.826365,"line":0,"transit":true,"is_transit":true,"station_id":"KPB","distance":4102,"i_lat":-6.132549,"time":9,"station_name":"Kampung Bandan"},{"station_name":"Rajawali","transit":false,"time":3,"distance":1444,"line":11,"is_transit":false,"i_lat":-6.14505,"i_long":106.836569,"station_id":"RJW"},{"is_transit":false,"i_lat":-6.161728,"transit":false,"time":5,"i_long":106.839204,"line":11,"station_id":"KMO","station_name":"Kemayoran","distance":1901},{"i_long":106.84368,"station_name":"Pasar Senen","is_transit":false,"station_id":"PSE","distance":1436,"transit":false,"time":4,"i_lat":-6.174784,"line":11},{"line":11,"transit":false,"is_transit":false,"i_long":106.850107,"distance":1567,"i_lat":-6.185975,"station_id":"GST","station_name":"Gang Sentiong","time":8},{"station_name":"Kramat","station_id":"KMT","transit":false,"is_transit":false,"i_lat":-6.193792,"distance":973,"i_long":106.855437,"time":1,"line":11},{"i_long":106.861737,"distance":1829,"is_transit":false,"time":2,"station_name":"Pondok Jati","transit":false,"line":11,"station_id":"POK","i_lat":-6.209188},{"station_id":"JNG","transit":true,"distance":1236,"i_long":106.86807400000001,"line":0,"station_name":"Jatinegara","is_transit":true,"time":9,"i_lat":-6.215091},{"distance":1377,"i_lat":-6.212485,"line":1,"is_transit":false,"station_id":"MTR","time":2,"station_name":"Matraman","transit":false,"i_long":106.858896},{"i_long":106.84912,"transit":true,"station_id":"MRI","station_name":"Manggarai","distance":1275,"line":0,"time":2,"i_lat":-6.209883,"is_transit":true},{"station_name":"Tebet","line":2,"station_id":"TEB","i_long":106.857948,"distance":2610,"i_lat":-6.226659,"is_transit":false,"time":4,"transit":false},{"i_long":106.856607,"transit":false,"station_name":"Cawang","time":2,"is_transit":false,"line":0,"i_lat":-6.242512,"distance":1230,"station_id":"CW"},{"i_long":106.85449,"transit":false,"station_name":"Duren Kalibata","is_transit":false,"time":3,"i_lat":-6.255332,"line":0,"station_id":"DRN","distance":1546},{"line":2,"i_lat":-6.263214,"station_id":"PSMB","station_name":"Pasar Minggu Baru","transit":false,"is_transit":false,"distance":824,"time":2,"i_long":106.851577},{"distance":2380,"i_long":106.843999,"i_lat":-6.2842400000000005,"line":2,"station_name":"Pasar Minggu","transit":false,"is_transit":false,"station_id":"PSM","time":2},{"station_id":"TNT","i_lat":-6.3080680000000005,"station_name":"Tanjung Barat","time":4,"i_long":106.838896,"line":2,"is_transit":false,"distance":2820,"transit":false},{"station_name":"Lenteng Agung","distance":2671,"line":2,"transit":false,"time":3,"station_id":"LNA","is_transit":false,"i_lat":-6.330363,"i_long":106.832616},{"station_id":"UP","is_transit":false,"station_name":"Univ. Pancasila","line":2,"distance":1029,"i_long":106.834175,"transit":false,"time":2,"i_lat":-6.339291},{"station_id":"UI","station_name":"Univ. Indonesia","distance":2264,"is_transit":false,"i_lat":-6.360749,"time":3,"transit":false,"i_long":106.831474,"line":2},{"time":2,"station_name":"Pondok Cina","station_id":"POC","transit":false,"is_transit":false,"distance":1109,"i_lat":-6.369073,"i_long":106.831114,"line":2},{"time":4,"distance":2727,"i_lat":-6.391065,"line":0,"i_long":106.819451,"is_transit":false,"station_id":"DPB","station_name":"Depokbaru","transit":false},{"station_name":"Depok","transit":false,"time":3,"station_id":"DP","distance":1584,"i_lat":-6.405256,"i_long":106.816926,"is_transit":false,"line":0},{"station_id":"CTA","distance":5084,"line":1,"transit":false,"is_transit":true,"time":6,"station_name":"Citayam","i_long":106.800298,"i_lat":-6.448811},{"line":0,"i_lat":-6.493243,"station_id":"BJD","transit":false,"is_transit":false,"station_name":"Bojonggede","time":5,"i_long":106.792719,"distance":5197},{"line":0,"i_lat":-6.530544,"transit":false,"distance":4331,"station_id":"CLT","station_name":"Cilebut","is_transit":false,"time":5,"i_long":106.800016}]]}