{"data":[[{"i_lat":-6.338021,"station_name":"Daru","i_long":106.491338,"distance":0,"transit":false,"time":0,"is_transit":false,"station_id":"DAR","line":0},{"distance":2675,"i_long":106.508482,"i_lat":-6.354349,"is_transit":false,"time":6,"station_id":"CJT","station_name":"Cilejit","line":0,"transit":false},{"transit":false,"is_transit":false,"station_name":"Parung Panjang","i_long":106.568863,"station_id":"PRP","distance":7025,"time":9,"i_lat":-6.3441410000000005,"line":6},{"time":8,"distance":5968,"transit":false,"i_lat":-6.329547,"line":0,"station_id":"CC","station_name":"Cicayur","is_transit":false,"i_long":106.617853},{"transit":false,"is_transit":false,"line":0,"station_id":"CSK","time":4,"distance":2519,"i_lat":-6.32484,"i_long":106.640411,"station_name":"Cisauk"},{"station_id":"SRP","distance":1784,"station_name":"Serpong","time":4,"line":6,"i_long":106.66566,"is_transit":false,"transit":false,"i_lat":-6.319871},{"i_long":106.675475,"station_id":"RU","line":6,"distance":2413,"transit":false,"is_transit":false,"time":4,"station_name":"Rawa Buntu","i_lat":-6.314823},{"station_id":"SDM","distance":4566,"transit":false,"i_long":106.712277,"line":6,"time":6,"station_name":"Sudimara","i_lat":-6.296963,"is_transit":false},{"station_name":"Jurangmangu","time":4,"station_id":"JMU","is_transit":false,"distance":1994,"line":6,"i_long":106.728916,"i_lat":-6.288927,"transit":false},{"station_name":"Pondokranji","distance":2179,"i_long":106.74273,"transit":false,"time":3,"station_id":"PDJ","is_transit":false,"i_lat":-6.276362,"line":6},{"distance":6218,"i_long":106.780334,"station_id":"KBY","transit":false,"line":6,"station_name":"Kebayoran","is_transit":false,"time":8,"i_lat":-6.237242},{"time":7,"i_long":106.79689,"transit":false,"station_name":"Palmerah","station_id":"PLM","is_transit":false,"line":6,"i_lat":-6.207404,"distance":3737},{"line":1,"time":6,"station_id":"THB","distance":3191,"transit":true,"i_lat":-6.185545,"is_transit":true,"i_long":106.811091,"station_name":"Tanah Abang"},{"transit":true,"station_name":"Duri","time":8,"i_lat":-6.155215,"is_transit":true,"line":1,"distance":3632,"i_long":106.800832,"station_id":"DU"},{"is_transit":false,"line":5,"transit":false,"i_lat":-6.162021,"station_name":"Grogol","i_long":106.788277,"time":3,"distance":1700,"station_id":"GGL"},{"i_lat":-6.161433,"is_transit":false,"distance":2036,"station_id":"PSG","time":2,"transit":false,"i_long":106.771379,"station_name":"Pesing","line":5},{"transit":false,"i_lat":-6.1587309999999995,"i_long":106.756522,"station_id":"TKO","is_transit":false,"line":5,"distance":1614,"time":2,"station_name":"Taman Kota"},{"distance":2334,"transit":false,"i_lat":-6.159876,"line":0,"i_long":106.737035,"station_id":"BOI","is_transit":false,"time":2,"station_name":"Bojongindah"},{"is_transit":false,"i_lat":-6.162758,"time":4,"i_long":106.723064,"line":5,"transit":false,"station_name":"Rawa Buaya","station_id":"RW","distance":1152},{"is_transit":false,"transit":false,"i_lat":-6.166068,"line":5,"station_name":"Kalideres","i_long":106.701612,"station_id":"KDS","time":3,"distance":2504},{"line":5,"distance":2548,"time":3,"station_id":"PI","is_transit":false,"transit":false,"i_lat":-6.169933,"station_name":"Poris","i_long":106.679458}],[{"line":0,"distance":0,"station_id":"DAR","is_transit":false,"station_name":"Daru","i_long":106.491338,"time":0,"transit":false,"i_lat":-6.338021},{"distance":2675,"is_transit":false,"line":0,"station_id":"CJT","transit":false,"i_long":106.508482,"i_lat":-6.354349,"station_name":"Cilejit","time":6},{"distance":7025,"station_id":"PRP","station_name":"Parung Panjang","is_transit":false,"line":6,"time":9,"transit":false,"i_lat":-6.3441410000000005,"i_long":106.568863},{"i_lat":-6.329547,"is_transit":false,"station_name":"Cicayur","line":0,"station_id":"CC","time":8,"distance":5968,"transit":false,"i_long":106.617853},{"station_id":"CSK","line":0,"i_lat":-6.32484,"time":4,"i_long":106.640411,"is_transit":false,"station_name":"Cisauk","distance":2519,"transit":false},{"transit":false,"time":4,"i_lat":-6.319871,"station_name":"Serpong","station_id":"SRP","line":6,"is_transit":false,"distance":1784,"i_long":106.66566},{"line":6,"time":4,"i_long":106.675475,"station_id":"RU","distance":2413,"transit":false,"is_transit":false,"station_name":"Rawa Buntu","i_lat":-6.314823},{"station_name":"Sudimara","i_lat":-6.296963,"is_transit":false,"station_id":"SDM","time":6,"distance":4566,"i_long":106.712277,"line":6,"transit":false},{"is_transit":false,"transit":false,"line":6,"i_lat":-6.288927,"i_long":106.728916,"station_id":"JMU","distance":1994,"station_name":"Jurangmangu","time":4},{"station_name":"Pondokranji","is_transit":false,"i_lat":-6.276362,"line":6,"i_long":106.74273,"distance":2179,"transit":false,"time":3,"station_id":"PDJ"},{"station_id":"KBY","line":6,"station_name":"Kebayoran","i_long":106.780334,"time":8,"i_lat":-6.237242,"is_transit":false,"distance":6218,"transit":false},{"transit":false,"is_transit":false,"line":6,"i_lat":-6.207404,"station_id":"PLM","i_long":106.79689,"time":7,"distance":3737,"station_name":"Palmerah"},{"station_name":"Tanah Abang","station_id":"THB","is_transit":true,"distance":3191,"line":1,"i_long":106.811091,"time":6,"i_lat":-6.185545,"transit":true},{"is_transit":false,"distance":2029,"time":5,"transit":false,"line":1,"station_name":"Karet","i_lat":-6.20132,"i_long":106.816351,"station_id":"KAT"},{"i_lat":-6.201433,"station_name":"Sudirman Baru","time":1,"distance":471,"station_id":"SUDB","line":1,"i_long":106.819881,"transit":false,"is_transit":false},{"transit":false,"distance":280,"time":1,"i_lat":-6.202263,"station_name":"Sudirman","i_long":106.822649,"station_id":"SUD","line":1,"is_transit":false},{"is_transit":true,"station_id":"MRI","distance":3186,"i_long":106.84912,"line":0,"time":4,"station_name":"Manggarai","transit":true,"i_lat":-6.209883},{"i_long":106.840169,"line":0,"transit":false,"distance":1590,"i_lat":-6.198556,"is_transit":false,"station_name":"Cikini","station_id":"CKI","time":4},{"distance":1750,"station_id":"GDD","i_long":106.832183,"transit":false,"i_lat":-6.186295,"is_transit":false,"time":3,"station_name":"Gondangdia","line":2},{"is_transit":false,"i_lat":-6.166716,"distance":2015,"i_long":106.828284,"line":2,"transit":false,"station_name":"Juanda","station_id":"JUA","time":4},{"station_id":"SW","distance":1149,"i_lat":-6.160725,"transit":false,"line":2,"i_long":106.827103,"is_transit":false,"time":2,"station_name":"Sawah Besar"},{"station_id":"MGB","time":2,"i_lat":-6.149769,"distance":906,"line":2,"transit":false,"i_long":106.82482,"station_name":"Manggabesar","is_transit":false},{"i_long":106.820901,"distance":1080,"transit":false,"time":2,"is_transit":false,"station_id":"JAY","station_name":"Jayakarta","line":7,"i_lat":-6.141205},{"transit":true,"i_long":106.812439,"is_transit":true,"station_id":"JAKK","line":0,"i_lat":-6.137569,"distance":1264,"station_name":"Jakarta Kota","time":4},{"distance":1364,"station_id":"KPB","i_lat":-6.132549,"time":3,"transit":false,"is_transit":true,"i_long":106.826365,"line":0,"station_name":"Kampung Bandan"},{"i_lat":-6.144674,"distance":4102,"station_name":"Angke","time":9,"i_long":106.79867,"transit":false,"station_id":"AK","is_transit":false,"line":0},{"is_transit":true,"distance":1230,"i_long":106.800832,"time":4,"station_name":"Duri","i_lat":-6.155215,"transit":true,"line":1,"station_id":"DU"},{"station_id":"GGL","time":3,"line":5,"is_transit":false,"i_long":106.788277,"distance":1700,"transit":false,"i_lat":-6.162021,"station_name":"Grogol"},{"station_id":"PSG","distance":2036,"transit":false,"i_long":106.771379,"is_transit":false,"time":2,"station_name":"Pesing","i_lat":-6.161433,"line":5},{"line":5,"station_id":"TKO","i_long":106.756522,"time":2,"distance":1614,"transit":false,"i_lat":-6.1587309999999995,"station_name":"Taman Kota","is_transit":false},{"station_name":"Bojongindah","station_id":"BOI","is_transit":false,"distance":2334,"i_long":106.737035,"time":2,"i_lat":-6.159876,"line":0,"transit":false},{"station_name":"Rawa Buaya","station_id":"RW","transit":false,"i_long":106.723064,"time":4,"distance":1152,"is_transit":false,"i_lat":-6.162758,"line":5},{"distance":2504,"transit":false,"line":5,"station_name":"Kalideres","station_id":"KDS","time":3,"is_transit":false,"i_lat":-6.166068,"i_long":106.701612},{"distance":2548,"i_lat":-6.169933,"station_name":"Poris","station_id":"PI","is_transit":false,"time":3,"transit":false,"i_long":106.679458,"line":5}],[{"transit":false,"station_id":"DAR","time":0,"is_transit":false,"line":0,"distance":0,"station_name":"Daru","i_lat":-6.338021,"i_long":106.491338},{"station_name":"Cilejit","distance":2675,"line":0,"station_id":"CJT","is_transit":false,"transit":false,"i_lat":-6.354349,"i_long":106.508482,"time":6},{"distance":7025,"is_transit":false,"time":9,"i_lat":-6.3441410000000005,"i_long":106.568863,"station_name":"Parung Panjang","line":6,"transit":false,"station_id":"PRP"},{"station_id":"CC","distance":5968,"station_name":"Cicayur","i_long":106.617853,"is_transit":false,"line":0,"time":8,"i_lat":-6.329547,"transit":false},{"station_name":"Cisauk","station_id":"CSK","distance":2519,"i_lat":-6.32484,"is_transit":false,"transit":false,"i_long":106.640411,"time":4,"line":0},{"i_lat":-6.319871,"line":6,"distance":1784,"time":4,"transit":false,"station_name":"Serpong","i_long":106.66566,"station_id":"SRP","is_transit":false},{"transit":false,"distance":2413,"i_lat":-6.314823,"is_transit":false,"station_name":"Rawa Buntu","station_id":"RU","i_long":106.675475,"line":6,"time":4},{"distance":4566,"transit":false,"time":6,"line":6,"station_id":"SDM","i_long":106.712277,"station_name":"Sudimara","i_lat":-6.296963,"is_transit":false},{"i_long":106.728916,"distance":1994,"station_id":"JMU","time":4,"station_name":"Jurangmangu","i_lat":-6.288927,"is_transit":false,"line":6,"transit":false},{"station_id":"PDJ","is_transit":false,"transit":false,"i_lat":-6.276362,"station_name":"Pondokranji","i_long":106.74273,"line":6,"time":3,"distance":2179},{"line":6,"station_id":"KBY","time":8,"is_transit":false,"i_lat":-6.237242,"transit":false,"i_long":106.780334,"station_name":"Kebayoran","distance":6218},{"time":7,"is_transit":false,"distance":3737,"i_lat":-6.207404,"i_long":106.79689,"station_id":"PLM","station_name":"Palmerah","transit":false,"line":6},{"station_name":"Tanah Abang","time":6,"line":1,"i_lat":-6.185545,"distance":3191,"i_long":106.811091,"transit":true,"is_transit":true,"station_id":"THB"},{"distance":2029,"station_name":"Karet","i_long":106.816351,"time":5,"is_transit":false,"station_id":"KAT","i_lat":-6.20132,"line":1,"transit":false},{"time":1,"transit":false,"station_id":"SUDB","is_transit":false,"distance":471,"i_lat":-6.201433,"line":1,"i_long":106.819881,"station_name":"Sudirman Baru"},{"transit":false,"i_long":106.822649,"distance":280,"line":1,"is_transit":false,"i_lat":-6.202263,"time":1,"station_name":"Sudirman","station_id":"SUD"},{"transit":false,"is_transit":true,"i_lat":-6.209883,"i_long":106.84912,"station_name":"Manggarai","station_id":"MRI","line":0,"time":4,"distance":3186},{"i_lat":-6.212485,"line":1,"station_id":"MTR","time":2,"station_name":"Matraman","transit":false,"i_long":106.858896,"distance":1275,"is_transit":false},{"line":0,"time":8,"station_name":"Jatinegara","i_lat":-6.215091,"transit":true,"distance":1377,"is_transit":true,"i_long":106.86807400000001,"station_id":"JNG"},{"station_id":"POK","line":11,"station_name":"Pondok Jati","time":2,"i_lat":-6.209188,"is_transit":false,"distance":1236,"transit":false,"i_long":106.861737},{"time":2,"transit":false,"i_lat":-6.193792,"distance":1829,"station_id":"KMT","is_transit":false,"station_name":"Kramat","i_long":106.855437,"line":11},{"time":1,"distance":973,"i_lat":-6.185975,"station_id":"GST","line":11,"i_long":106.850107,"transit":false,"station_name":"Gang Sentiong","is_transit":false},{"transit":false,"i_long":106.84368,"line":11,"time":8,"station_name":"Pasar Senen","i_lat":-6.174784,"is_transit":false,"distance":1567,"station_id":"PSE"},{"station_name":"Kemayoran","i_long":106.839204,"time":4,"line":11,"i_lat":-6.161728,"transit":false,"station_id":"KMO","is_transit":false,"distance":1436},{"station_name":"Rajawali","i_lat":-6.14505,"distance":1901,"time":5,"i_long":106.836569,"line":11,"station_id":"RJW","is_transit":false,"transit":false},{"is_transit":true,"time":3,"distance":1444,"station_name":"Kampung Bandan","i_lat":-6.132549,"line":0,"i_long":106.826365,"station_id":"KPB","transit":true},{"transit":false,"i_long":106.79867,"time":9,"i_lat":-6.144674,"is_transit":false,"line":0,"station_id":"AK","distance":4102,"station_name":"Angke"},{"is_transit":true,"station_name":"Duri","time":4,"i_long":106.800832,"line":1,"i_lat":-6.155215,"station_id":"DU","transit":true,"distance":1230},{"distance":1700,"transit":false,"station_id":"GGL","time":3,"is_transit":false,"station_name":"Grogol","line":5,"i_long":106.788277,"i_lat":-6.162021},{"is_transit":false,"line":5,"station_id":"PSG","distance":2036,"time":2,"i_long":106.771379,"i_lat":-6.161433,"transit":false,"station_name":"Pesing"},{"line":5,"station_name":"Taman Kota","i_lat":-6.1587309999999995,"is_transit":false,"distance":1614,"station_id":"TKO","time":2,"transit":false,"i_long":106.756522},{"is_transit":false,"i_long":106.737035,"line":0,"i_lat":-6.159876,"station_id":"BOI","distance":2334,"time":2,"transit":false,"station_name":"Bojongindah"},{"line":5,"distance":1152,"i_lat":-6.162758,"is_transit":false,"time":4,"station_name":"Rawa Buaya","transit":false,"station_id":"RW","i_long":106.723064},{"i_long":106.701612,"line":5,"transit":false,"time":3,"is_transit":false,"distance":2504,"station_id":"KDS","station_name":"Kalideres","i_lat":-6.166068},{"i_long":106.679458,"station_id":"PI","time":3,"station_name":"Poris","is_transit":false,"distance":2548,"line":5,"i_lat":-6.169933,"transit":false}]]}