{"data":[[{"time":0,"transit":false,"station_name":"Daru","station_id":"DAR","i_lat":-6.338021,"i_long":106.491338,"is_transit":false,"line":0,"distance":0},{"is_transit":false,"i_long":106.508482,"station_name":"Cilejit","station_id":"CJT","distance":2675,"i_lat":-6.354349,"line":0,"time":6,"transit":false},{"line":6,"station_id":"PRP","time":9,"station_name":"Parung Panjang","i_lat":-6.3441410000000005,"transit":false,"is_transit":false,"distance":7025,"i_long":106.568863},{"transit":false,"line":0,"distance":5968,"time":8,"i_lat":-6.329547,"is_transit":false,"station_name":"Cicayur","station_id":"CC","i_long":106.617853},{"distance":2519,"i_lat":-6.32484,"i_long":106.640411,"line":0,"station_id":"CSK","is_transit":false,"transit":false,"time":4,"station_name":"Cisauk"},{"transit":false,"is_transit":false,"distance":1784,"station_id":"SRP","station_name":"Serpong","time":4,"i_lat":-6.319871,"line":6,"i_long":106.66566},{"time":4,"distance":2413,"is_transit":false,"transit":false,"station_name":"Rawa Buntu","i_lat":-6.314823,"i_long":106.675475,"line":6,"station_id":"RU"},{"time":6,"is_transit":false,"transit":false,"i_long":106.712277,"i_lat":-6.296963,"station_id":"SDM","station_name":"Sudimara","distance":4566,"line":6},{"station_name":"Jurangmangu","transit":false,"i_lat":-6.288927,"i_long":106.728916,"distance":1994,"line":6,"is_transit":false,"time":4,"station_id":"JMU"},{"time":3,"station_id":"PDJ","station_name":"Pondokranji","distance":2179,"i_lat":-6.276362,"i_long":106.74273,"is_transit":false,"transit":false,"line":6},{"line":6,"distance":6218,"station_name":"Kebayoran","transit":false,"i_lat":-6.237242,"i_long":106.780334,"station_id":"KBY","is_transit":false,"time":8},{"line":6,"i_long":106.79689,"distance":3737,"time":7,"transit":false,"is_transit":false,"i_lat":-6.207404,"station_name":"Palmerah","station_id":"PLM"},{"station_id":"THB","i_lat":-6.185545,"i_long":106.811091,"line":1,"transit":true,"is_transit":true,"time":6,"distance":3191,"station_name":"Tanah Abang"},{"station_name":"Karet","transit":false,"distance":2029,"is_transit":false,"i_lat":-6.20132,"i_long":106.816351,"line":1,"time":5,"station_id":"KAT"},{"distance":471,"is_transit":false,"station_id":"SUDB","time":1,"transit":false,"i_long":106.819881,"station_name":"Sudirman Baru","line":1,"i_lat":-6.201433},{"distance":280,"is_transit":false,"time":1,"i_long":106.822649,"station_id":"SUD","transit":false,"station_name":"Sudirman","i_lat":-6.202263,"line":1},{"station_id":"MRI","transit":false,"is_transit":true,"i_lat":-6.209883,"i_long":106.84912,"station_name":"Manggarai","line":0,"distance":3186,"time":4},{"time":2,"i_long":106.858896,"transit":false,"distance":1275,"station_name":"Matraman","station_id":"MTR","is_transit":false,"i_lat":-6.212485,"line":1},{"distance":1377,"time":8,"station_name":"Jatinegara","i_lat":-6.215091,"is_transit":true,"station_id":"JNG","i_long":106.86807400000001,"transit":false,"line":0},{"distance":3395,"i_long":106.899548,"is_transit":false,"line":1,"transit":false,"station_id":"KLD","time":3,"station_name":"Klender","i_lat":-6.2135},{"is_transit":false,"distance":3100,"time":2,"i_lat":-6.215568,"station_id":"BUA","transit":false,"line":0,"station_name":"Buaran","i_long":106.922662},{"i_long":106.939679,"i_lat":-6.217455,"time":1,"is_transit":false,"line":1,"distance":1305,"station_id":"KLDB","station_name":"Klenderbaru","transit":false},{"transit":false,"i_lat":-6.219053,"line":0,"station_id":"CUK","is_transit":false,"station_name":"Cakung","i_long":106.951283,"time":8,"distance":1385},{"line":1,"transit":false,"station_id":"KRI","time":3,"is_transit":false,"distance":3097,"i_long":106.977657,"i_lat":-6.224515,"station_name":"Kranji"},{"transit":false,"station_name":"Bekasi","i_lat":-6.236616,"i_long":106.997013,"station_id":"BKS","is_transit":false,"distance":2520,"line":0,"time":4},{"i_lat":-6.248029,"line":0,"i_long":107.016735,"time":2,"distance":2368,"station_name":"Bekasi Timur","station_id":"BKST","is_transit":false,"transit":false},{"time":7,"line":1,"station_name":"Tambun","is_transit":false,"i_long":107.055722,"station_id":"TB","distance":4460,"i_lat":-6.258864,"transit":false}],[{"time":0,"i_lat":-6.338021,"line":0,"station_id":"DAR","station_name":"Daru","transit":false,"distance":0,"is_transit":false,"i_long":106.491338},{"i_long":106.508482,"transit":false,"i_lat":-6.354349,"time":6,"station_name":"Cilejit","line":0,"is_transit":false,"distance":2675,"station_id":"CJT"},{"station_name":"Parung Panjang","transit":false,"line":6,"time":9,"i_lat":-6.3441410000000005,"station_id":"PRP","distance":7025,"is_transit":false,"i_long":106.568863},{"is_transit":false,"i_long":106.617853,"i_lat":-6.329547,"time":8,"transit":false,"station_id":"CC","line":0,"station_name":"Cicayur","distance":5968},{"i_long":106.640411,"is_transit":false,"station_id":"CSK","station_name":"Cisauk","line":0,"transit":false,"time":4,"distance":2519,"i_lat":-6.32484},{"i_long":106.66566,"station_id":"SRP","distance":1784,"is_transit":false,"line":6,"station_name":"Serpong","transit":false,"i_lat":-6.319871,"time":4},{"station_name":"Rawa Buntu","distance":2413,"i_long":106.675475,"time":4,"transit":false,"i_lat":-6.314823,"is_transit":false,"station_id":"RU","line":6},{"is_transit":false,"station_id":"SDM","station_name":"Sudimara","transit":false,"i_long":106.712277,"distance":4566,"line":6,"i_lat":-6.296963,"time":6},{"station_name":"Jurangmangu","transit":false,"distance":1994,"i_long":106.728916,"line":6,"is_transit":false,"station_id":"JMU","time":4,"i_lat":-6.288927},{"line":6,"transit":false,"i_long":106.74273,"time":3,"station_name":"Pondokranji","station_id":"PDJ","is_transit":false,"distance":2179,"i_lat":-6.276362},{"station_name":"Kebayoran","i_lat":-6.237242,"is_transit":false,"distance":6218,"station_id":"KBY","transit":false,"time":8,"i_long":106.780334,"line":6},{"station_id":"PLM","i_long":106.79689,"is_transit":false,"distance":3737,"i_lat":-6.207404,"line":6,"transit":false,"time":7,"station_name":"Palmerah"},{"i_lat":-6.185545,"is_transit":true,"station_name":"Tanah Abang","time":6,"i_long":106.811091,"distance":3191,"line":1,"transit":true,"station_id":"THB"},{"transit":true,"station_name":"Duri","line":1,"i_lat":-6.155215,"station_id":"DU","distance":3632,"time":8,"i_long":106.800832,"is_transit":true},{"time":4,"distance":1230,"i_lat":-6.144674,"i_long":106.79867,"line":0,"transit":false,"station_id":"AK","is_transit":false,"station_name":"Angke"},{"is_transit":true,"distance":4102,"line":0,"i_long":106.826365,"station_id":"KPB","station_name":"Kampung Bandan","transit":true,"i_lat":-6.132549,"time":9},{"distance":1444,"station_name":"Rajawali","i_long":106.836569,"line":11,"time":3,"transit":false,"is_transit":false,"station_id":"RJW","i_lat":-6.14505},{"line":11,"transit":false,"station_id":"KMO","time":5,"distance":1901,"station_name":"Kemayoran","i_lat":-6.161728,"is_transit":false,"i_long":106.839204},{"i_lat":-6.174784,"line":11,"i_long":106.84368,"time":4,"distance":1436,"station_name":"Pasar Senen","transit":false,"station_id":"PSE","is_transit":false},{"is_transit":false,"distance":1567,"station_name":"Gang Sentiong","transit":false,"i_long":106.850107,"i_lat":-6.185975,"line":11,"station_id":"GST","time":8},{"i_lat":-6.193792,"station_id":"KMT","transit":false,"i_long":106.855437,"station_name":"Kramat","time":1,"line":11,"distance":973,"is_transit":false},{"transit":false,"station_name":"Pondok Jati","line":11,"distance":1829,"i_lat":-6.209188,"is_transit":false,"i_long":106.861737,"station_id":"POK","time":2},{"distance":1236,"station_name":"Jatinegara","line":0,"time":9,"transit":true,"is_transit":true,"i_lat":-6.215091,"station_id":"JNG","i_long":106.86807400000001},{"is_transit":false,"transit":false,"station_name":"Klender","station_id":"KLD","time":3,"i_long":106.899548,"distance":3395,"line":1,"i_lat":-6.2135},{"time":2,"is_transit":false,"distance":3100,"station_name":"Buaran","station_id":"BUA","transit":false,"i_lat":-6.215568,"line":0,"i_long":106.922662},{"is_transit":false,"station_id":"KLDB","time":1,"distance":1305,"i_long":106.939679,"station_name":"Klenderbaru","i_lat":-6.217455,"line":1,"transit":false},{"i_lat":-6.219053,"station_id":"CUK","station_name":"Cakung","distance":1385,"is_transit":false,"time":8,"line":0,"i_long":106.951283,"transit":false},{"i_long":106.977657,"time":3,"distance":3097,"transit":false,"line":1,"station_id":"KRI","station_name":"Kranji","i_lat":-6.224515,"is_transit":false},{"i_long":106.997013,"i_lat":-6.236616,"distance":2520,"transit":false,"station_id":"BKS","is_transit":false,"line":0,"time":4,"station_name":"Bekasi"},{"i_long":107.016735,"time":2,"station_id":"BKST","line":0,"transit":false,"station_name":"Bekasi Timur","is_transit":false,"distance":2368,"i_lat":-6.248029},{"is_transit":false,"distance":4460,"line":1,"time":7,"i_long":107.055722,"transit":false,"station_name":"Tambun","i_lat":-6.258864,"station_id":"TB"}],[{"line":0,"i_long":106.491338,"transit":false,"station_name":"Daru","is_transit":false,"time":0,"i_lat":-6.338021,"station_id":"DAR","distance":0},{"distance":2675,"time":6,"station_id":"CJT","is_transit":false,"i_long":106.508482,"transit":false,"line":0,"i_lat":-6.354349,"station_name":"Cilejit"},{"is_transit":false,"i_lat":-6.3441410000000005,"time":9,"station_name":"Parung Panjang","transit":false,"line":6,"i_long":106.568863,"station_id":"PRP","distance":7025},{"is_transit":false,"station_name":"Cicayur","i_long":106.617853,"transit":false,"i_lat":-6.329547,"distance":5968,"line":0,"station_id":"CC","time":8},{"transit":false,"i_long":106.640411,"time":4,"line":0,"station_id":"CSK","station_name":"Cisauk","distance":2519,"i_lat":-6.32484,"is_transit":false},{"time":4,"i_lat":-6.319871,"distance":1784,"station_id":"SRP","station_name":"Serpong","i_long":106.66566,"line":6,"transit":false,"is_transit":false},{"is_transit":false,"line":6,"i_long":106.675475,"i_lat":-6.314823,"station_name":"Rawa Buntu","transit":false,"station_id":"RU","distance":2413,"time":4},{"station_name":"Sudimara","line":6,"station_id":"SDM","i_long":106.712277,"is_transit":false,"time":6,"distance":4566,"transit":false,"i_lat":-6.296963},{"station_name":"Jurangmangu","i_lat":-6.288927,"transit":false,"distance":1994,"line":6,"is_transit":false,"i_long":106.728916,"station_id":"JMU","time":4},{"distance":2179,"line":6,"is_transit":false,"station_id":"PDJ","i_lat":-6.276362,"time":3,"station_name":"Pondokranji","transit":false,"i_long":106.74273},{"transit":false,"i_lat":-6.237242,"distance":6218,"time":8,"is_transit":false,"i_long":106.780334,"station_name":"Kebayoran","station_id":"KBY","line":6},{"station_id":"PLM","is_transit":false,"distance":3737,"station_name":"Palmerah","i_lat":-6.207404,"transit":false,"i_long":106.79689,"time":7,"line":6},{"transit":true,"i_long":106.811091,"station_id":"THB","distance":3191,"is_transit":true,"station_name":"Tanah Abang","i_lat":-6.185545,"time":6,"line":1},{"is_transit":true,"time":8,"station_name":"Duri","i_lat":-6.155215,"distance":3632,"line":1,"station_id":"DU","transit":true,"i_long":106.800832},{"station_id":"AK","is_transit":false,"time":4,"i_lat":-6.144674,"i_long":106.79867,"line":0,"station_name":"Angke","transit":false,"distance":1230},{"station_id":"KPB","station_name":"Kampung Bandan","line":0,"time":9,"transit":false,"i_long":106.826365,"i_lat":-6.132549,"distance":4102,"is_transit":true},{"i_long":106.812439,"distance":1364,"is_transit":true,"station_id":"JAKK","time":3,"station_name":"Jakarta Kota","transit":true,"line":0,"i_lat":-6.137569},{"i_lat":-6.141205,"station_id":"JAY","distance":1264,"is_transit":false,"station_name":"Jayakarta","i_long":106.820901,"time":4,"line":7,"transit":false},{"time":2,"station_name":"Manggabesar","is_transit":false,"distance":1080,"station_id":"MGB","i_lat":-6.149769,"transit":false,"i_long":106.82482,"line":2},{"time":2,"i_long":106.827103,"transit":false,"line":2,"station_id":"SW","distance":906,"station_name":"Sawah Besar","i_lat":-6.160725,"is_transit":false},{"i_long":106.828284,"line":2,"is_transit":false,"i_lat":-6.166716,"transit":false,"station_id":"JUA","station_name":"Juanda","time":2,"distance":1149},{"line":2,"time":4,"transit":false,"station_name":"Gondangdia","station_id":"GDD","i_lat":-6.186295,"is_transit":false,"distance":2015,"i_long":106.832183},{"i_lat":-6.198556,"distance":1750,"is_transit":false,"line":0,"station_name":"Cikini","i_long":106.840169,"station_id":"CKI","time":3,"transit":false},{"distance":1590,"is_transit":true,"station_id":"MRI","i_long":106.84912,"i_lat":-6.209883,"time":4,"line":0,"station_name":"Manggarai","transit":true},{"line":1,"is_transit":false,"i_lat":-6.212485,"station_id":"MTR","transit":false,"distance":1275,"time":2,"station_name":"Matraman","i_long":106.858896},{"i_lat":-6.215091,"time":8,"line":0,"i_long":106.86807400000001,"transit":false,"distance":1377,"station_id":"JNG","is_transit":true,"station_name":"Jatinegara"},{"station_id":"KLD","i_long":106.899548,"time":3,"station_name":"Klender","transit":false,"i_lat":-6.2135,"line":1,"is_transit":false,"distance":3395},{"transit":false,"is_transit":false,"i_lat":-6.215568,"station_id":"BUA","distance":3100,"station_name":"Buaran","i_long":106.922662,"time":2,"line":0},{"station_id":"KLDB","time":1,"transit":false,"i_lat":-6.217455,"is_transit":false,"line":1,"station_name":"Klenderbaru","i_long":106.939679,"distance":1305},{"distance":1385,"line":0,"i_lat":-6.219053,"i_long":106.951283,"station_id":"CUK","is_transit":false,"station_name":"Cakung","transit":false,"time":8},{"i_lat":-6.224515,"station_id":"KRI","station_name":"Kranji","distance":3097,"transit":false,"is_transit":false,"time":3,"i_long":106.977657,"line":1},{"i_long":106.997013,"is_transit":false,"distance":2520,"transit":false,"line":0,"i_lat":-6.236616,"station_name":"Bekasi","time":4,"station_id":"BKS"},{"station_id":"BKST","line":0,"i_long":107.016735,"transit":false,"i_lat":-6.248029,"is_transit":false,"time":2,"station_name":"Bekasi Timur","distance":2368},{"transit":false,"i_lat":-6.258864,"line":1,"time":7,"distance":4460,"i_long":107.055722,"station_id":"TB","is_transit":false,"station_name":"Tambun"}],[{"i_long":106.491338,"distance":0,"is_transit":false,"transit":false,"time":0,"station_id":"DAR","line":0,"station_name":"Daru","i_lat":-6.338021},{"is_transit":false,"distance":2675,"transit":false,"time":6,"station_id":"CJT","i_lat":-6.354349,"i_long":106.508482,"station_name":"Cilejit","line":0},{"station_name":"Parung Panjang","transit":false,"i_long":106.568863,"time":9,"i_lat":-6.3441410000000005,"line":6,"is_transit":false,"distance":7025,"station_id":"PRP"},{"i_lat":-6.329547,"time":8,"station_name":"Cicayur","is_transit":false,"i_long":106.617853,"distance":5968,"transit":false,"line":0,"station_id":"CC"},{"is_transit":false,"distance":2519,"line":0,"i_long":106.640411,"station_name":"Cisauk","i_lat":-6.32484,"time":4,"transit":false,"station_id":"CSK"},{"station_id":"SRP","i_long":106.66566,"is_transit":false,"station_name":"Serpong","distance":1784,"time":4,"line":6,"transit":false,"i_lat":-6.319871},{"station_name":"Rawa Buntu","line":6,"i_lat":-6.314823,"distance":2413,"station_id":"RU","i_long":106.675475,"time":4,"transit":false,"is_transit":false},{"station_name":"Sudimara","is_transit":false,"line":6,"i_lat":-6.296963,"time":6,"transit":false,"station_id":"SDM","i_long":106.712277,"distance":4566},{"time":4,"distance":1994,"transit":false,"station_id":"JMU","is_transit":false,"station_name":"Jurangmangu","line":6,"i_long":106.728916,"i_lat":-6.288927},{"transit":false,"station_id":"PDJ","distance":2179,"station_name":"Pondokranji","i_long":106.74273,"i_lat":-6.276362,"time":3,"is_transit":false,"line":6},{"i_long":106.780334,"i_lat":-6.237242,"is_transit":false,"time":8,"station_id":"KBY","distance":6218,"station_name":"Kebayoran","transit":false,"line":6},{"i_long":106.79689,"is_transit":false,"i_lat":-6.207404,"line":6,"distance":3737,"station_id":"PLM","time":7,"station_name":"Palmerah","transit":false},{"is_transit":true,"time":6,"distance":3191,"transit":true,"station_id":"THB","line":1,"i_long":106.811091,"i_lat":-6.185545,"station_name":"Tanah Abang"},{"station_name":"Karet","distance":2029,"transit":false,"is_transit":false,"i_long":106.816351,"station_id":"KAT","line":1,"time":5,"i_lat":-6.20132},{"distance":471,"transit":false,"i_long":106.819881,"line":1,"i_lat":-6.201433,"station_name":"Sudirman Baru","is_transit":false,"time":1,"station_id":"SUDB"},{"time":1,"is_transit":false,"i_long":106.822649,"line":1,"station_id":"SUD","transit":false,"station_name":"Sudirman","distance":280,"i_lat":-6.202263},{"is_transit":true,"transit":true,"i_lat":-6.209883,"time":4,"distance":3186,"station_name":"Manggarai","i_long":106.84912,"line":0,"station_id":"MRI"},{"transit":false,"is_transit":false,"distance":1590,"station_name":"Cikini","i_lat":-6.198556,"time":4,"i_long":106.840169,"line":0,"station_id":"CKI"},{"line":2,"is_transit":false,"station_id":"GDD","transit":false,"time":3,"i_long":106.832183,"station_name":"Gondangdia","i_lat":-6.186295,"distance":1750},{"transit":false,"line":2,"i_lat":-6.166716,"is_transit":false,"i_long":106.828284,"station_name":"Juanda","time":4,"station_id":"JUA","distance":2015},{"time":2,"distance":1149,"station_name":"Sawah Besar","is_transit":false,"transit":false,"line":2,"station_id":"SW","i_lat":-6.160725,"i_long":106.827103},{"i_lat":-6.149769,"i_long":106.82482,"station_name":"Manggabesar","station_id":"MGB","is_transit":false,"transit":false,"line":2,"distance":906,"time":2},{"distance":1080,"station_id":"JAY","time":2,"line":7,"i_lat":-6.141205,"station_name":"Jayakarta","transit":false,"is_transit":false,"i_long":106.820901},{"i_long":106.812439,"station_name":"Jakarta Kota","time":4,"distance":1264,"transit":true,"station_id":"JAKK","i_lat":-6.137569,"line":0,"is_transit":true},{"station_name":"Kampung Bandan","station_id":"KPB","i_lat":-6.132549,"distance":1364,"i_long":106.826365,"transit":true,"is_transit":true,"time":3,"line":0},{"time":3,"station_name":"Rajawali","is_transit":false,"transit":false,"i_long":106.836569,"line":11,"distance":1444,"station_id":"RJW","i_lat":-6.14505},{"is_transit":false,"station_id":"KMO","i_long":106.839204,"i_lat":-6.161728,"time":5,"transit":false,"line":11,"distance":1901,"station_name":"Kemayoran"},{"station_id":"PSE","station_name":"Pasar Senen","transit":false,"i_lat":-6.174784,"is_transit":false,"i_long":106.84368,"distance":1436,"line":11,"time":4},{"is_transit":false,"transit":false,"time":8,"i_lat":-6.185975,"station_id":"GST","line":11,"i_long":106.850107,"distance":1567,"station_name":"Gang Sentiong"},{"distance":973,"station_id":"KMT","transit":false,"i_long":106.855437,"i_lat":-6.193792,"time":1,"is_transit":false,"station_name":"Kramat","line":11},{"station_name":"Pondok Jati","transit":false,"station_id":"POK","is_transit":false,"distance":1829,"i_lat":-6.209188,"line":11,"i_long":106.861737,"time":2},{"distance":1236,"transit":true,"is_transit":true,"i_lat":-6.215091,"i_long":106.86807400000001,"station_name":"Jatinegara","station_id":"JNG","time":9,"line":0},{"station_id":"KLD","i_long":106.899548,"is_transit":false,"station_name":"Klender","distance":3395,"line":1,"transit":false,"i_lat":-6.2135,"time":3},{"station_id":"BUA","time":2,"distance":3100,"line":0,"i_long":106.922662,"is_transit":false,"station_name":"Buaran","i_lat":-6.215568,"transit":false},{"distance":1305,"time":1,"station_name":"Klenderbaru","i_lat":-6.217455,"station_id":"KLDB","transit":false,"line":1,"is_transit":false,"i_long":106.939679},{"station_id":"CUK","is_transit":false,"transit":false,"line":0,"i_lat":-6.219053,"distance":1385,"station_name":"Cakung","time":8,"i_long":106.951283},{"is_transit":false,"distance":3097,"time":3,"i_lat":-6.224515,"station_id":"KRI","transit":false,"line":1,"i_long":106.977657,"station_name":"Kranji"},{"station_name":"Bekasi","is_transit":false,"station_id":"BKS","distance":2520,"i_long":106.997013,"time":4,"i_lat":-6.236616,"line":0,"transit":false},{"transit":false,"line":0,"is_transit":false,"distance":2368,"time":2,"station_name":"Bekasi Timur","i_long":107.016735,"station_id":"BKST","i_lat":-6.248029},{"i_lat":-6.258864,"transit":false,"distance":4460,"station_name":"Tambun","i_long":107.055722,"line":1,"time":7,"is_transit":false,"station_id":"TB"}]]}