{"data":[[{"distance":0,"time":0,"i_long":106.491338,"transit":false,"station_id":"DAR","station_name":"Daru","is_transit":false,"i_lat":-6.338021,"line":0},{"distance":2675,"transit":false,"station_name":"Cilejit","time":6,"i_lat":-6.354349,"station_id":"CJT","i_long":106.508482,"is_transit":false,"line":3},{"is_transit":false,"distance":7025,"i_long":106.568863,"line":6,"transit":false,"station_id":"PRP","i_lat":-6.3441410000000005,"time":9,"station_name":"Parung Panjang"},{"transit":false,"time":8,"distance":5968,"is_transit":false,"station_name":"Cicayur","line":3,"i_long":106.617853,"i_lat":-6.329547,"station_id":"CC"},{"is_transit":false,"time":4,"station_id":"CSK","i_long":106.640411,"station_name":"Cisauk","distance":2519,"line":3,"i_lat":-6.32484,"transit":false},{"station_name":"Serpong","line":6,"time":4,"station_id":"SRP","transit":false,"is_transit":false,"i_long":106.66566,"distance":1784,"i_lat":-6.319871},{"i_lat":-6.314823,"line":6,"time":4,"i_long":106.675475,"distance":2413,"station_id":"RU","is_transit":false,"transit":false,"station_name":"Rawa Buntu"},{"is_transit":false,"time":6,"transit":false,"line":6,"distance":4566,"station_name":"Sudimara","i_long":106.712277,"station_id":"SDM","i_lat":-6.296963},{"line":6,"transit":false,"time":4,"station_id":"JMU","station_name":"Jurangmangu","is_transit":false,"distance":1994,"i_long":106.728916,"i_lat":-6.288927},{"station_id":"PDJ","transit":false,"is_transit":false,"time":3,"line":6,"station_name":"Pondokranji","i_long":106.74273,"i_lat":-6.276362,"distance":2179},{"station_name":"Kebayoran","is_transit":false,"station_id":"KBY","transit":false,"i_long":106.780334,"line":6,"distance":6218,"i_lat":-6.237242,"time":8},{"time":7,"distance":3737,"station_id":"PLM","transit":false,"is_transit":false,"i_long":106.79689,"i_lat":-6.207404,"station_name":"Palmerah","line":6},{"station_id":"THB","i_long":106.811091,"time":6,"line":1,"i_lat":-6.185545,"station_name":"Tanah Abang","transit":true,"distance":3191,"is_transit":true},{"station_name":"Karet","line":1,"station_id":"KAT","distance":2029,"is_transit":false,"i_lat":-6.20132,"transit":false,"i_long":106.816351,"time":5},{"station_id":"SUDB","time":1,"distance":471,"is_transit":false,"i_lat":-6.201433,"line":1,"station_name":"Sudirman Baru","transit":false,"i_long":106.819881},{"time":1,"is_transit":false,"distance":280,"i_long":106.822649,"station_name":"Sudirman","i_lat":-6.202263,"line":1,"transit":false,"station_id":"SUD"},{"i_lat":-6.209883,"time":4,"i_long":106.84912,"station_id":"MRI","line":2,"station_name":"Manggarai","is_transit":true,"distance":3186,"transit":true},{"i_lat":-6.226659,"is_transit":false,"transit":false,"station_id":"TEB","i_long":106.857948,"station_name":"Tebet","distance":2610,"line":2,"time":4},{"i_long":106.856607,"time":2,"distance":1230,"i_lat":-6.242512,"is_transit":false,"station_id":"CW","transit":false,"station_name":"Cawang","line":2},{"station_id":"DRN","is_transit":false,"distance":1546,"time":3,"i_lat":-6.255332,"i_long":106.85449,"line":2,"station_name":"Duren Kalibata","transit":false},{"station_name":"Pasar Minggu Baru","station_id":"PSMB","transit":false,"line":2,"time":2,"i_long":106.851577,"is_transit":false,"i_lat":-6.263214,"distance":824},{"station_name":"Pasar Minggu","is_transit":false,"transit":false,"i_lat":-6.2842400000000005,"station_id":"PSM","line":2,"distance":2380,"i_long":106.843999,"time":2},{"time":4,"station_name":"Tanjung Barat","station_id":"TNT","transit":false,"i_lat":-6.3080680000000005,"is_transit":false,"distance":2820,"line":2,"i_long":106.838896},{"is_transit":false,"line":2,"i_lat":-6.330363,"time":3,"distance":2671,"station_name":"Lenteng Agung","transit":false,"station_id":"LNA","i_long":106.832616},{"is_transit":false,"transit":false,"i_long":106.834175,"i_lat":-6.339291,"station_id":"UP","station_name":"Univ. Pancasila","line":2,"time":2,"distance":1029}],[{"transit":false,"station_name":"Daru","station_id":"DAR","i_lat":-6.338021,"is_transit":false,"i_long":106.491338,"distance":0,"time":0,"line":0},{"i_long":106.508482,"is_transit":false,"station_name":"Cilejit","station_id":"CJT","line":3,"distance":2675,"time":6,"i_lat":-6.354349,"transit":false},{"transit":false,"i_long":106.568863,"distance":7025,"station_name":"Parung Panjang","is_transit":false,"i_lat":-6.3441410000000005,"time":9,"line":6,"station_id":"PRP"},{"time":8,"station_name":"Cicayur","distance":5968,"is_transit":false,"transit":false,"i_lat":-6.329547,"station_id":"CC","line":3,"i_long":106.617853},{"station_name":"Cisauk","distance":2519,"i_lat":-6.32484,"i_long":106.640411,"transit":false,"time":4,"line":3,"station_id":"CSK","is_transit":false},{"transit":false,"station_name":"Serpong","distance":1784,"time":4,"i_long":106.66566,"line":6,"is_transit":false,"station_id":"SRP","i_lat":-6.319871},{"station_name":"Rawa Buntu","is_transit":false,"time":4,"station_id":"RU","transit":false,"distance":2413,"i_lat":-6.314823,"i_long":106.675475,"line":6},{"transit":false,"station_id":"SDM","line":6,"station_name":"Sudimara","i_lat":-6.296963,"i_long":106.712277,"is_transit":false,"time":6,"distance":4566},{"station_id":"JMU","i_lat":-6.288927,"transit":false,"distance":1994,"time":4,"station_name":"Jurangmangu","i_long":106.728916,"line":6,"is_transit":false},{"station_id":"PDJ","line":6,"transit":false,"is_transit":false,"distance":2179,"station_name":"Pondokranji","time":3,"i_long":106.74273,"i_lat":-6.276362},{"transit":false,"line":6,"distance":6218,"station_name":"Kebayoran","station_id":"KBY","i_long":106.780334,"time":8,"is_transit":false,"i_lat":-6.237242},{"is_transit":false,"station_name":"Palmerah","i_long":106.79689,"station_id":"PLM","time":7,"transit":false,"distance":3737,"line":6,"i_lat":-6.207404},{"line":1,"i_lat":-6.185545,"is_transit":true,"time":6,"station_id":"THB","station_name":"Tanah Abang","distance":3191,"i_long":106.811091,"transit":true},{"transit":false,"is_transit":false,"station_id":"DU","i_lat":-6.155215,"time":8,"line":1,"station_name":"Duri","i_long":106.800832,"distance":3632},{"i_long":106.79867,"is_transit":false,"station_id":"AK","line":1,"station_name":"Angke","distance":1230,"transit":false,"i_lat":-6.144674,"time":4},{"station_id":"KPB","i_long":106.826365,"station_name":"Kampung Bandan","is_transit":true,"time":9,"transit":true,"line":4,"distance":4102,"i_lat":-6.132549},{"transit":true,"station_id":"JAKK","distance":1364,"i_lat":-6.137569,"i_long":106.812439,"station_name":"Jakarta Kota","is_transit":true,"line":2,"time":3},{"time":4,"station_name":"Jayakarta","transit":false,"i_long":106.820901,"distance":1264,"station_id":"JAY","i_lat":-6.141205,"is_transit":false,"line":2},{"i_long":106.82482,"station_id":"MGB","station_name":"Manggabesar","is_transit":false,"distance":1080,"time":2,"transit":false,"i_lat":-6.149769,"line":2},{"is_transit":false,"i_lat":-6.160725,"distance":906,"i_long":106.827103,"time":2,"station_name":"Sawah Besar","station_id":"SW","transit":false,"line":2},{"station_name":"Juanda","is_transit":false,"line":2,"time":2,"transit":false,"i_long":106.828284,"i_lat":-6.166716,"station_id":"JUA","distance":1149},{"time":4,"is_transit":false,"line":2,"station_name":"Gondangdia","transit":false,"i_lat":-6.186295,"i_long":106.832183,"station_id":"GDD","distance":2015},{"is_transit":false,"i_long":106.840169,"station_id":"CKI","station_name":"Cikini","transit":false,"distance":1750,"i_lat":-6.198556,"line":2,"time":3},{"i_long":106.84912,"time":4,"station_id":"MRI","i_lat":-6.209883,"is_transit":false,"distance":1590,"line":2,"transit":false,"station_name":"Manggarai"},{"time":4,"station_name":"Tebet","i_lat":-6.226659,"transit":false,"station_id":"TEB","distance":2610,"is_transit":false,"i_long":106.857948,"line":2},{"line":2,"i_long":106.856607,"time":2,"station_name":"Cawang","is_transit":false,"distance":1230,"transit":false,"station_id":"CW","i_lat":-6.242512},{"line":2,"distance":1546,"i_lat":-6.255332,"station_name":"Duren Kalibata","is_transit":false,"station_id":"DRN","transit":false,"time":3,"i_long":106.85449},{"transit":false,"line":2,"station_name":"Pasar Minggu Baru","station_id":"PSMB","distance":824,"is_transit":false,"time":2,"i_lat":-6.263214,"i_long":106.851577},{"station_id":"PSM","station_name":"Pasar Minggu","time":2,"is_transit":false,"line":2,"distance":2380,"i_lat":-6.2842400000000005,"i_long":106.843999,"transit":false},{"station_id":"TNT","i_lat":-6.3080680000000005,"time":4,"line":2,"station_name":"Tanjung Barat","transit":false,"distance":2820,"i_long":106.838896,"is_transit":false},{"station_name":"Lenteng Agung","i_lat":-6.330363,"distance":2671,"time":3,"line":2,"i_long":106.832616,"is_transit":false,"station_id":"LNA","transit":false},{"i_lat":-6.339291,"station_id":"UP","is_transit":false,"transit":false,"i_long":106.834175,"time":2,"line":2,"station_name":"Univ. Pancasila","distance":1029}],[{"distance":0,"is_transit":false,"transit":false,"i_lat":-6.338021,"time":0,"i_long":106.491338,"station_name":"Daru","station_id":"DAR","line":0},{"line":3,"i_long":106.508482,"time":6,"i_lat":-6.354349,"transit":false,"station_name":"Cilejit","is_transit":false,"distance":2675,"station_id":"CJT"},{"i_lat":-6.3441410000000005,"transit":false,"is_transit":false,"station_name":"Parung Panjang","station_id":"PRP","distance":7025,"time":9,"i_long":106.568863,"line":6},{"station_id":"CC","i_long":106.617853,"station_name":"Cicayur","distance":5968,"line":3,"time":8,"transit":false,"is_transit":false,"i_lat":-6.329547},{"i_long":106.640411,"time":4,"distance":2519,"is_transit":false,"transit":false,"station_name":"Cisauk","station_id":"CSK","i_lat":-6.32484,"line":3},{"station_name":"Serpong","i_lat":-6.319871,"i_long":106.66566,"time":4,"transit":false,"line":6,"is_transit":false,"distance":1784,"station_id":"SRP"},{"distance":2413,"transit":false,"time":4,"i_lat":-6.314823,"is_transit":false,"line":6,"station_name":"Rawa Buntu","i_long":106.675475,"station_id":"RU"},{"station_id":"SDM","i_lat":-6.296963,"i_long":106.712277,"time":6,"distance":4566,"station_name":"Sudimara","is_transit":false,"transit":false,"line":6},{"transit":false,"time":4,"station_name":"Jurangmangu","i_long":106.728916,"line":6,"distance":1994,"is_transit":false,"i_lat":-6.288927,"station_id":"JMU"},{"line":6,"time":3,"station_name":"Pondokranji","is_transit":false,"station_id":"PDJ","transit":false,"distance":2179,"i_lat":-6.276362,"i_long":106.74273},{"transit":false,"station_name":"Kebayoran","time":8,"i_long":106.780334,"station_id":"KBY","distance":6218,"i_lat":-6.237242,"line":6,"is_transit":false},{"i_long":106.79689,"is_transit":false,"distance":3737,"time":7,"station_id":"PLM","line":6,"i_lat":-6.207404,"transit":false,"station_name":"Palmerah"},{"is_transit":true,"i_lat":-6.185545,"line":1,"time":6,"station_id":"THB","distance":3191,"transit":true,"i_long":106.811091,"station_name":"Tanah Abang"},{"transit":false,"i_long":106.800832,"distance":3632,"station_name":"Duri","is_transit":false,"station_id":"DU","i_lat":-6.155215,"time":8,"line":1},{"i_long":106.79867,"time":4,"is_transit":false,"station_name":"Angke","i_lat":-6.144674,"station_id":"AK","line":1,"distance":1230,"transit":false},{"station_name":"Kampung Bandan","station_id":"KPB","i_long":106.826365,"distance":4102,"i_lat":-6.132549,"is_transit":true,"time":9,"transit":true,"line":4},{"station_name":"Rajawali","distance":1444,"station_id":"RJW","i_lat":-6.14505,"i_long":106.836569,"line":11,"time":3,"transit":false,"is_transit":false},{"station_name":"Kemayoran","time":5,"i_lat":-6.161728,"i_long":106.839204,"station_id":"KMO","is_transit":false,"transit":false,"distance":1901,"line":11},{"time":4,"station_name":"Pasar Senen","i_long":106.84368,"station_id":"PSE","i_lat":-6.174784,"line":11,"transit":false,"is_transit":false,"distance":1436},{"i_lat":-6.185975,"is_transit":false,"distance":1567,"line":11,"station_name":"Gang Sentiong","station_id":"GST","i_long":106.850107,"time":8,"transit":false},{"is_transit":false,"time":1,"transit":false,"station_id":"KMT","station_name":"Kramat","i_lat":-6.193792,"distance":973,"i_long":106.855437,"line":11},{"station_name":"Pondok Jati","i_long":106.861737,"i_lat":-6.209188,"station_id":"POK","line":11,"distance":1829,"is_transit":false,"time":2,"transit":false},{"station_id":"JNG","i_lat":-6.215091,"line":1,"i_long":106.86807400000001,"transit":true,"distance":1236,"station_name":"Jatinegara","is_transit":true,"time":9},{"distance":1377,"i_lat":-6.212485,"line":1,"i_long":106.858896,"is_transit":false,"station_id":"MTR","transit":false,"station_name":"Matraman","time":2},{"distance":1275,"station_id":"MRI","is_transit":true,"line":2,"transit":true,"i_lat":-6.209883,"i_long":106.84912,"time":2,"station_name":"Manggarai"},{"transit":false,"line":2,"station_name":"Tebet","time":4,"is_transit":false,"station_id":"TEB","i_lat":-6.226659,"distance":2610,"i_long":106.857948},{"i_long":106.856607,"time":2,"is_transit":false,"transit":false,"distance":1230,"station_id":"CW","i_lat":-6.242512,"station_name":"Cawang","line":2},{"i_lat":-6.255332,"station_id":"DRN","i_long":106.85449,"line":2,"transit":false,"distance":1546,"station_name":"Duren Kalibata","time":3,"is_transit":false},{"station_id":"PSMB","distance":824,"time":2,"i_long":106.851577,"is_transit":false,"i_lat":-6.263214,"station_name":"Pasar Minggu Baru","transit":false,"line":2},{"is_transit":false,"station_id":"PSM","distance":2380,"time":2,"transit":false,"i_lat":-6.2842400000000005,"i_long":106.843999,"line":2,"station_name":"Pasar Minggu"},{"i_long":106.838896,"station_name":"Tanjung Barat","line":2,"transit":false,"is_transit":false,"distance":2820,"station_id":"TNT","i_lat":-6.3080680000000005,"time":4},{"station_id":"LNA","transit":false,"time":3,"distance":2671,"line":2,"i_lat":-6.330363,"i_long":106.832616,"is_transit":false,"station_name":"Lenteng Agung"},{"line":2,"time":2,"distance":1029,"i_lat":-6.339291,"transit":false,"is_transit":false,"station_name":"Univ. Pancasila","station_id":"UP","i_long":106.834175}]]}