{"data":[[{"time":0,"i_lat":-6.338021,"i_long":106.491338,"transit":false,"station_id":"DAR","is_transit":false,"distance":0,"station_name":"Daru","line":0},{"is_transit":false,"distance":3902,"transit":false,"station_name":"Tenjo","time":5,"station_id":"TEJ","i_lat":-6.327251,"i_long":106.460812,"line":6},{"time":5,"transit":false,"is_transit":false,"line":6,"i_long":106.425991,"station_name":"Tigaraksa","station_id":"TGS","distance":2974,"i_lat":-6.328533},{"line":3,"i_long":106.411216,"station_id":"CKY","distance":2651,"is_transit":false,"transit":false,"time":3,"station_name":"Cikoya","i_lat":-6.33561},{"transit":false,"station_id":"MJ","line":6,"i_lat":-6.332307,"time":4,"i_long":106.394373,"is_transit":false,"station_name":"Maja","distance":1853},{"station_name":"Citeras","transit":false,"time":10,"distance":7293,"line":3,"station_id":"CTR","i_lat":-6.334892,"i_long":106.332092,"is_transit":false},{"i_lat":-6.352675,"time":13,"transit":false,"station_name":"Rangkasbitung","station_id":"RK","is_transit":false,"distance":9847,"i_long":106.250396,"line":3}]]}