{"data":[[{"station_id":"DAR","distance":0,"line":0,"time":0,"station_name":"Daru","is_transit":false,"transit":false,"i_lat":-6.338021,"i_long":106.491338},{"line":6,"i_lat":-6.327251,"station_id":"TEJ","distance":3902,"station_name":"Tenjo","time":5,"transit":false,"i_long":106.460812,"is_transit":false},{"distance":2974,"is_transit":false,"line":6,"time":5,"station_id":"TGS","transit":false,"i_lat":-6.328533,"i_long":106.425991,"station_name":"Tigaraksa"},{"transit":false,"distance":2651,"station_name":"Cikoya","is_transit":false,"time":3,"i_lat":-6.33561,"line":3,"i_long":106.411216,"station_id":"CKY"},{"distance":1853,"line":6,"transit":false,"station_id":"MJ","time":4,"station_name":"Maja","is_transit":false,"i_long":106.394373,"i_lat":-6.332307},{"i_lat":-6.334892,"line":3,"station_name":"Citeras","is_transit":false,"i_long":106.332092,"station_id":"CTR","distance":7293,"transit":false,"time":10},{"line":3,"is_transit":false,"i_lat":-6.352675,"station_id":"RK","distance":9847,"time":13,"station_name":"Rangkasbitung","transit":false,"i_long":106.250396}]]}