{"data":[[{"station_name":"Daru","transit":false,"i_lat":-6.338021,"distance":0,"i_long":106.491338,"time":0,"station_id":"DAR","is_transit":false,"line":0},{"time":6,"i_long":106.508482,"station_id":"CJT","transit":false,"distance":2675,"line":0,"i_lat":-6.354349,"station_name":"Cilejit","is_transit":false},{"is_transit":false,"station_name":"Parung Panjang","i_lat":-6.3441410000000005,"station_id":"PRP","time":9,"distance":7025,"transit":false,"i_long":106.568863,"line":6},{"i_lat":-6.329547,"i_long":106.617853,"line":0,"transit":false,"is_transit":false,"time":8,"distance":5968,"station_id":"CC","station_name":"Cicayur"},{"station_id":"CSK","is_transit":false,"time":4,"distance":2519,"transit":false,"i_lat":-6.32484,"i_long":106.640411,"station_name":"Cisauk","line":0},{"i_long":106.66566,"distance":1784,"i_lat":-6.319871,"time":4,"is_transit":false,"line":6,"station_name":"Serpong","station_id":"SRP","transit":false},{"is_transit":false,"distance":2413,"station_id":"RU","time":4,"i_long":106.675475,"i_lat":-6.314823,"transit":false,"line":6,"station_name":"Rawa Buntu"},{"station_id":"SDM","is_transit":false,"station_name":"Sudimara","transit":false,"i_long":106.712277,"line":6,"distance":4566,"time":6,"i_lat":-6.296963},{"station_id":"JMU","line":6,"i_long":106.728916,"transit":false,"station_name":"Jurangmangu","time":4,"is_transit":false,"distance":1994,"i_lat":-6.288927},{"station_id":"PDJ","i_lat":-6.276362,"line":6,"station_name":"Pondokranji","distance":2179,"time":3,"transit":false,"i_long":106.74273,"is_transit":false},{"time":8,"transit":false,"i_long":106.780334,"i_lat":-6.237242,"distance":6218,"is_transit":false,"station_name":"Kebayoran","station_id":"KBY","line":6},{"station_id":"PLM","distance":3737,"line":6,"time":7,"transit":false,"station_name":"Palmerah","is_transit":false,"i_long":106.79689,"i_lat":-6.207404},{"distance":3191,"station_id":"THB","i_long":106.811091,"i_lat":-6.185545,"is_transit":true,"transit":true,"line":1,"time":6,"station_name":"Tanah Abang"},{"transit":false,"i_lat":-6.20132,"distance":2029,"station_id":"KAT","i_long":106.816351,"line":1,"time":5,"is_transit":false,"station_name":"Karet"},{"time":1,"i_long":106.819881,"is_transit":false,"station_name":"Sudirman Baru","line":1,"distance":471,"i_lat":-6.201433,"station_id":"SUDB","transit":false},{"is_transit":false,"time":1,"i_lat":-6.202263,"i_long":106.822649,"distance":280,"station_name":"Sudirman","transit":false,"line":1,"station_id":"SUD"},{"transit":true,"i_lat":-6.209883,"distance":3186,"i_long":106.84912,"station_id":"MRI","line":0,"time":4,"station_name":"Manggarai","is_transit":true},{"station_id":"TEB","i_lat":-6.226659,"is_transit":false,"distance":2610,"transit":false,"i_long":106.857948,"station_name":"Tebet","line":2,"time":4},{"station_id":"CW","is_transit":false,"transit":false,"i_long":106.856607,"station_name":"Cawang","time":2,"distance":1230,"line":0,"i_lat":-6.242512},{"i_lat":-6.255332,"transit":false,"station_name":"Duren Kalibata","is_transit":false,"distance":1546,"i_long":106.85449,"line":0,"station_id":"DRN","time":3},{"distance":824,"i_long":106.851577,"station_name":"Pasar Minggu Baru","time":2,"i_lat":-6.263214,"line":2,"station_id":"PSMB","is_transit":false,"transit":false},{"i_lat":-6.2842400000000005,"time":2,"transit":false,"line":2,"station_name":"Pasar Minggu","distance":2380,"i_long":106.843999,"is_transit":false,"station_id":"PSM"},{"station_id":"TNT","time":4,"i_lat":-6.3080680000000005,"distance":2820,"is_transit":false,"station_name":"Tanjung Barat","i_long":106.838896,"transit":false,"line":2},{"i_lat":-6.330363,"station_id":"LNA","is_transit":false,"distance":2671,"i_long":106.832616,"time":3,"station_name":"Lenteng Agung","line":2,"transit":false},{"is_transit":false,"station_name":"Univ. Pancasila","transit":false,"distance":1029,"i_long":106.834175,"line":2,"time":2,"i_lat":-6.339291,"station_id":"UP"}],[{"distance":0,"station_name":"Daru","station_id":"DAR","time":0,"is_transit":false,"i_lat":-6.338021,"transit":false,"i_long":106.491338,"line":0},{"distance":2675,"station_name":"Cilejit","time":6,"is_transit":false,"transit":false,"i_lat":-6.354349,"i_long":106.508482,"line":0,"station_id":"CJT"},{"i_lat":-6.3441410000000005,"station_id":"PRP","i_long":106.568863,"line":6,"is_transit":false,"distance":7025,"station_name":"Parung Panjang","transit":false,"time":9},{"transit":false,"i_lat":-6.329547,"i_long":106.617853,"time":8,"distance":5968,"is_transit":false,"station_name":"Cicayur","line":0,"station_id":"CC"},{"time":4,"distance":2519,"station_name":"Cisauk","line":0,"station_id":"CSK","transit":false,"i_lat":-6.32484,"i_long":106.640411,"is_transit":false},{"station_id":"SRP","time":4,"distance":1784,"i_lat":-6.319871,"i_long":106.66566,"is_transit":false,"station_name":"Serpong","transit":false,"line":6},{"station_id":"RU","i_long":106.675475,"distance":2413,"station_name":"Rawa Buntu","transit":false,"time":4,"is_transit":false,"line":6,"i_lat":-6.314823},{"station_id":"SDM","is_transit":false,"station_name":"Sudimara","transit":false,"i_lat":-6.296963,"i_long":106.712277,"line":6,"time":6,"distance":4566},{"i_long":106.728916,"transit":false,"station_id":"JMU","distance":1994,"time":4,"i_lat":-6.288927,"line":6,"station_name":"Jurangmangu","is_transit":false},{"is_transit":false,"time":3,"distance":2179,"i_long":106.74273,"transit":false,"i_lat":-6.276362,"line":6,"station_id":"PDJ","station_name":"Pondokranji"},{"is_transit":false,"line":6,"i_long":106.780334,"station_name":"Kebayoran","station_id":"KBY","distance":6218,"transit":false,"i_lat":-6.237242,"time":8},{"line":6,"transit":false,"distance":3737,"i_long":106.79689,"is_transit":false,"time":7,"station_id":"PLM","i_lat":-6.207404,"station_name":"Palmerah"},{"station_name":"Tanah Abang","transit":true,"is_transit":true,"time":6,"i_lat":-6.185545,"line":1,"station_id":"THB","i_long":106.811091,"distance":3191},{"i_lat":-6.155215,"line":1,"i_long":106.800832,"time":8,"distance":3632,"transit":true,"station_id":"DU","is_transit":true,"station_name":"Duri"},{"time":4,"i_long":106.79867,"station_id":"AK","station_name":"Angke","line":0,"is_transit":false,"transit":false,"i_lat":-6.144674,"distance":1230},{"is_transit":true,"line":0,"station_name":"Kampung Bandan","station_id":"KPB","time":9,"transit":false,"i_lat":-6.132549,"distance":4102,"i_long":106.826365},{"time":3,"station_id":"JAKK","is_transit":true,"i_long":106.812439,"transit":true,"station_name":"Jakarta Kota","distance":1364,"i_lat":-6.137569,"line":0},{"i_long":106.820901,"line":7,"is_transit":false,"station_id":"JAY","station_name":"Jayakarta","distance":1264,"time":4,"transit":false,"i_lat":-6.141205},{"is_transit":false,"line":2,"station_id":"MGB","time":2,"station_name":"Manggabesar","distance":1080,"transit":false,"i_long":106.82482,"i_lat":-6.149769},{"line":2,"i_long":106.827103,"station_name":"Sawah Besar","time":2,"i_lat":-6.160725,"transit":false,"station_id":"SW","is_transit":false,"distance":906},{"i_long":106.828284,"station_name":"Juanda","transit":false,"line":2,"i_lat":-6.166716,"time":2,"distance":1149,"station_id":"JUA","is_transit":false},{"transit":false,"station_id":"GDD","station_name":"Gondangdia","i_lat":-6.186295,"distance":2015,"time":4,"i_long":106.832183,"line":2,"is_transit":false},{"line":0,"is_transit":false,"transit":false,"time":3,"distance":1750,"i_long":106.840169,"i_lat":-6.198556,"station_id":"CKI","station_name":"Cikini"},{"station_id":"MRI","distance":1590,"i_lat":-6.209883,"transit":true,"is_transit":true,"station_name":"Manggarai","line":0,"time":4,"i_long":106.84912},{"time":4,"i_long":106.857948,"transit":false,"station_name":"Tebet","line":2,"station_id":"TEB","i_lat":-6.226659,"distance":2610,"is_transit":false},{"i_lat":-6.242512,"is_transit":false,"time":2,"station_name":"Cawang","transit":false,"distance":1230,"line":0,"station_id":"CW","i_long":106.856607},{"is_transit":false,"time":3,"transit":false,"distance":1546,"i_long":106.85449,"station_id":"DRN","station_name":"Duren Kalibata","i_lat":-6.255332,"line":0},{"i_long":106.851577,"distance":824,"station_id":"PSMB","station_name":"Pasar Minggu Baru","transit":false,"line":2,"i_lat":-6.263214,"time":2,"is_transit":false},{"i_lat":-6.2842400000000005,"distance":2380,"station_name":"Pasar Minggu","line":2,"transit":false,"i_long":106.843999,"station_id":"PSM","time":2,"is_transit":false},{"station_id":"TNT","transit":false,"i_long":106.838896,"time":4,"distance":2820,"station_name":"Tanjung Barat","is_transit":false,"i_lat":-6.3080680000000005,"line":2},{"is_transit":false,"time":3,"distance":2671,"i_lat":-6.330363,"transit":false,"station_id":"LNA","i_long":106.832616,"station_name":"Lenteng Agung","line":2},{"distance":1029,"transit":false,"time":2,"i_lat":-6.339291,"i_long":106.834175,"is_transit":false,"station_id":"UP","station_name":"Univ. Pancasila","line":2}],[{"i_long":106.491338,"distance":0,"station_id":"DAR","is_transit":false,"station_name":"Daru","transit":false,"time":0,"line":0,"i_lat":-6.338021},{"line":0,"i_lat":-6.354349,"i_long":106.508482,"station_id":"CJT","time":6,"distance":2675,"transit":false,"station_name":"Cilejit","is_transit":false},{"station_name":"Parung Panjang","station_id":"PRP","i_lat":-6.3441410000000005,"is_transit":false,"distance":7025,"time":9,"transit":false,"i_long":106.568863,"line":6},{"line":0,"is_transit":false,"distance":5968,"transit":false,"i_lat":-6.329547,"time":8,"station_id":"CC","station_name":"Cicayur","i_long":106.617853},{"distance":2519,"time":4,"station_name":"Cisauk","is_transit":false,"transit":false,"i_long":106.640411,"i_lat":-6.32484,"line":0,"station_id":"CSK"},{"station_id":"SRP","i_lat":-6.319871,"i_long":106.66566,"line":6,"transit":false,"distance":1784,"time":4,"station_name":"Serpong","is_transit":false},{"i_long":106.675475,"line":6,"transit":false,"i_lat":-6.314823,"station_name":"Rawa Buntu","distance":2413,"station_id":"RU","is_transit":false,"time":4},{"line":6,"i_lat":-6.296963,"station_id":"SDM","time":6,"station_name":"Sudimara","is_transit":false,"i_long":106.712277,"distance":4566,"transit":false},{"distance":1994,"transit":false,"time":4,"station_id":"JMU","i_lat":-6.288927,"is_transit":false,"line":6,"i_long":106.728916,"station_name":"Jurangmangu"},{"station_name":"Pondokranji","time":3,"transit":false,"i_long":106.74273,"i_lat":-6.276362,"station_id":"PDJ","distance":2179,"line":6,"is_transit":false},{"time":8,"transit":false,"i_long":106.780334,"station_name":"Kebayoran","line":6,"i_lat":-6.237242,"distance":6218,"station_id":"KBY","is_transit":false},{"line":6,"i_long":106.79689,"i_lat":-6.207404,"transit":false,"station_name":"Palmerah","station_id":"PLM","distance":3737,"time":7,"is_transit":false},{"transit":true,"distance":3191,"is_transit":true,"time":6,"i_lat":-6.185545,"station_id":"THB","i_long":106.811091,"line":1,"station_name":"Tanah Abang"},{"distance":3632,"i_lat":-6.155215,"line":1,"is_transit":true,"transit":true,"station_name":"Duri","station_id":"DU","time":8,"i_long":106.800832},{"i_lat":-6.144674,"distance":1230,"i_long":106.79867,"time":4,"station_name":"Angke","transit":false,"station_id":"AK","line":0,"is_transit":false},{"station_id":"KPB","distance":4102,"transit":true,"time":9,"i_lat":-6.132549,"station_name":"Kampung Bandan","line":0,"is_transit":true,"i_long":106.826365},{"station_id":"RJW","distance":1444,"station_name":"Rajawali","transit":false,"is_transit":false,"i_lat":-6.14505,"i_long":106.836569,"time":3,"line":11},{"is_transit":false,"station_id":"KMO","time":5,"station_name":"Kemayoran","transit":false,"i_long":106.839204,"line":11,"i_lat":-6.161728,"distance":1901},{"line":11,"distance":1436,"is_transit":false,"transit":false,"i_long":106.84368,"i_lat":-6.174784,"time":4,"station_id":"PSE","station_name":"Pasar Senen"},{"is_transit":false,"time":8,"i_long":106.850107,"distance":1567,"transit":false,"i_lat":-6.185975,"station_id":"GST","line":11,"station_name":"Gang Sentiong"},{"station_id":"KMT","i_long":106.855437,"line":11,"distance":973,"i_lat":-6.193792,"transit":false,"is_transit":false,"time":1,"station_name":"Kramat"},{"station_name":"Pondok Jati","line":11,"station_id":"POK","is_transit":false,"time":2,"transit":false,"i_long":106.861737,"i_lat":-6.209188,"distance":1829},{"station_name":"Jatinegara","i_long":106.86807400000001,"line":0,"station_id":"JNG","transit":true,"i_lat":-6.215091,"distance":1236,"is_transit":true,"time":9},{"station_id":"MTR","time":2,"i_lat":-6.212485,"i_long":106.858896,"station_name":"Matraman","is_transit":false,"line":1,"transit":false,"distance":1377},{"is_transit":true,"time":2,"station_name":"Manggarai","i_long":106.84912,"transit":true,"station_id":"MRI","distance":1275,"i_lat":-6.209883,"line":0},{"station_id":"TEB","time":4,"is_transit":false,"distance":2610,"transit":false,"station_name":"Tebet","i_lat":-6.226659,"i_long":106.857948,"line":2},{"i_long":106.856607,"line":0,"transit":false,"time":2,"is_transit":false,"distance":1230,"station_id":"CW","station_name":"Cawang","i_lat":-6.242512},{"i_long":106.85449,"station_id":"DRN","time":3,"station_name":"Duren Kalibata","is_transit":false,"distance":1546,"line":0,"i_lat":-6.255332,"transit":false},{"distance":824,"is_transit":false,"i_long":106.851577,"station_id":"PSMB","time":2,"station_name":"Pasar Minggu Baru","transit":false,"line":2,"i_lat":-6.263214},{"i_long":106.843999,"station_name":"Pasar Minggu","transit":false,"line":2,"distance":2380,"i_lat":-6.2842400000000005,"time":2,"station_id":"PSM","is_transit":false},{"distance":2820,"time":4,"transit":false,"i_long":106.838896,"station_name":"Tanjung Barat","line":2,"is_transit":false,"station_id":"TNT","i_lat":-6.3080680000000005},{"is_transit":false,"distance":2671,"time":3,"line":2,"i_lat":-6.330363,"station_name":"Lenteng Agung","i_long":106.832616,"station_id":"LNA","transit":false},{"distance":1029,"transit":false,"i_lat":-6.339291,"time":2,"station_name":"Univ. Pancasila","station_id":"UP","i_long":106.834175,"line":2,"is_transit":false}]]}