{"data":[[{"is_transit":false,"i_long":106.491338,"station_id":"DAR","station_name":"Daru","i_lat":-6.338021,"line":0,"transit":false,"time":0,"distance":0},{"station_name":"Cilejit","transit":false,"i_lat":-6.354349,"station_id":"CJT","distance":2675,"line":3,"time":6,"i_long":106.508482,"is_transit":false},{"is_transit":false,"i_long":106.568863,"station_id":"PRP","distance":7025,"transit":false,"line":6,"station_name":"Parung Panjang","time":9,"i_lat":-6.3441410000000005},{"line":3,"station_name":"Cicayur","time":8,"i_long":106.617853,"is_transit":false,"transit":false,"distance":5968,"station_id":"CC","i_lat":-6.329547},{"is_transit":false,"transit":false,"i_lat":-6.32484,"i_long":106.640411,"station_name":"Cisauk","line":3,"distance":2519,"time":4,"station_id":"CSK"},{"i_long":106.66566,"time":4,"station_id":"SRP","distance":1784,"i_lat":-6.319871,"line":6,"station_name":"Serpong","is_transit":false,"transit":false},{"station_name":"Rawa Buntu","i_long":106.675475,"transit":false,"i_lat":-6.314823,"line":6,"time":4,"distance":2413,"station_id":"RU","is_transit":false},{"is_transit":false,"i_long":106.712277,"distance":4566,"i_lat":-6.296963,"station_name":"Sudimara","transit":false,"station_id":"SDM","line":6,"time":6},{"time":4,"station_name":"Jurangmangu","i_long":106.728916,"station_id":"JMU","distance":1994,"is_transit":false,"i_lat":-6.288927,"transit":false,"line":6},{"is_transit":false,"line":6,"transit":false,"i_lat":-6.276362,"i_long":106.74273,"station_name":"Pondokranji","distance":2179,"time":3,"station_id":"PDJ"},{"distance":6218,"station_id":"KBY","station_name":"Kebayoran","i_long":106.780334,"transit":false,"is_transit":false,"i_lat":-6.237242,"time":8,"line":6},{"is_transit":false,"transit":false,"i_long":106.79689,"station_id":"PLM","time":7,"station_name":"Palmerah","i_lat":-6.207404,"line":6,"distance":3737},{"i_lat":-6.185545,"line":1,"time":6,"is_transit":true,"distance":3191,"station_id":"THB","station_name":"Tanah Abang","i_long":106.811091,"transit":true},{"line":1,"transit":false,"time":5,"i_lat":-6.20132,"distance":2029,"station_name":"Karet","is_transit":false,"i_long":106.816351,"station_id":"KAT"},{"distance":471,"station_name":"Sudirman Baru","station_id":"SUDB","transit":false,"time":1,"is_transit":false,"i_long":106.819881,"line":1,"i_lat":-6.201433},{"station_id":"SUD","time":1,"i_lat":-6.202263,"i_long":106.822649,"line":1,"station_name":"Sudirman","transit":false,"is_transit":false,"distance":280},{"distance":3186,"transit":true,"i_lat":-6.209883,"i_long":106.84912,"line":2,"is_transit":true,"station_id":"MRI","time":4,"station_name":"Manggarai"},{"station_name":"Tebet","line":2,"station_id":"TEB","time":4,"is_transit":false,"transit":false,"i_long":106.857948,"distance":2610,"i_lat":-6.226659},{"time":2,"station_id":"CW","i_long":106.856607,"is_transit":false,"transit":false,"distance":1230,"line":2,"station_name":"Cawang","i_lat":-6.242512},{"transit":false,"time":3,"line":2,"station_name":"Duren Kalibata","i_lat":-6.255332,"i_long":106.85449,"distance":1546,"station_id":"DRN","is_transit":false},{"i_long":106.851577,"station_id":"PSMB","station_name":"Pasar Minggu Baru","is_transit":false,"i_lat":-6.263214,"distance":824,"line":2,"transit":false,"time":2},{"is_transit":false,"distance":2380,"i_long":106.843999,"time":2,"station_id":"PSM","transit":false,"station_name":"Pasar Minggu","i_lat":-6.2842400000000005,"line":2},{"station_id":"TNT","distance":2820,"is_transit":false,"line":2,"i_long":106.838896,"station_name":"Tanjung Barat","i_lat":-6.3080680000000005,"time":4,"transit":false},{"i_lat":-6.330363,"time":3,"distance":2671,"is_transit":false,"transit":false,"station_name":"Lenteng Agung","i_long":106.832616,"line":2,"station_id":"LNA"},{"transit":false,"distance":1029,"time":2,"line":2,"is_transit":false,"i_lat":-6.339291,"station_name":"Univ. Pancasila","station_id":"UP","i_long":106.834175},{"station_id":"UI","distance":2264,"transit":false,"i_long":106.831474,"time":3,"station_name":"Univ. Indonesia","i_lat":-6.360749,"is_transit":false,"line":2},{"time":2,"is_transit":false,"station_name":"Pondok Cina","i_long":106.831114,"transit":false,"i_lat":-6.369073,"distance":1109,"line":2,"station_id":"POC"},{"is_transit":false,"i_long":106.819451,"station_name":"Depokbaru","time":4,"station_id":"DPB","distance":2727,"transit":false,"i_lat":-6.391065,"line":2},{"station_id":"DP","is_transit":false,"transit":false,"time":3,"distance":1584,"station_name":"Depok","i_lat":-6.405256,"i_long":106.816926,"line":2},{"transit":true,"station_name":"Citayam","i_lat":-6.448811,"time":6,"distance":5084,"i_long":106.800298,"station_id":"CTA","line":2,"is_transit":true},{"station_id":"PDRG","i_lat":-6.460735,"time":0,"transit":false,"i_long":106.824374,"line":21,"is_transit":false,"distance":0,"station_name":"Pondok Rajeg"},{"is_transit":false,"distance":0,"i_lat":-6.46424,"time":0,"i_long":106.851978,"station_name":"Cibinong","station_id":"CBN","transit":false,"line":21}],[{"distance":0,"station_id":"DAR","time":0,"is_transit":false,"station_name":"Daru","i_lat":-6.338021,"i_long":106.491338,"line":0,"transit":false},{"line":3,"is_transit":false,"station_name":"Cilejit","i_long":106.508482,"station_id":"CJT","time":6,"transit":false,"i_lat":-6.354349,"distance":2675},{"distance":7025,"is_transit":false,"transit":false,"i_long":106.568863,"station_name":"Parung Panjang","station_id":"PRP","line":6,"time":9,"i_lat":-6.3441410000000005},{"transit":false,"line":3,"distance":5968,"station_name":"Cicayur","i_lat":-6.329547,"is_transit":false,"i_long":106.617853,"station_id":"CC","time":8},{"distance":2519,"transit":false,"station_id":"CSK","is_transit":false,"station_name":"Cisauk","i_long":106.640411,"time":4,"i_lat":-6.32484,"line":3},{"i_lat":-6.319871,"station_id":"SRP","distance":1784,"line":6,"station_name":"Serpong","i_long":106.66566,"is_transit":false,"transit":false,"time":4},{"distance":2413,"i_long":106.675475,"station_name":"Rawa Buntu","station_id":"RU","time":4,"transit":false,"i_lat":-6.314823,"line":6,"is_transit":false},{"transit":false,"station_id":"SDM","distance":4566,"time":6,"station_name":"Sudimara","i_lat":-6.296963,"i_long":106.712277,"line":6,"is_transit":false},{"is_transit":false,"i_long":106.728916,"time":4,"distance":1994,"station_name":"Jurangmangu","line":6,"i_lat":-6.288927,"transit":false,"station_id":"JMU"},{"station_id":"PDJ","time":3,"transit":false,"i_lat":-6.276362,"is_transit":false,"station_name":"Pondokranji","i_long":106.74273,"line":6,"distance":2179},{"i_lat":-6.237242,"i_long":106.780334,"station_name":"Kebayoran","time":8,"line":6,"is_transit":false,"transit":false,"distance":6218,"station_id":"KBY"},{"i_lat":-6.207404,"station_id":"PLM","distance":3737,"time":7,"is_transit":false,"transit":false,"station_name":"Palmerah","line":6,"i_long":106.79689},{"i_lat":-6.185545,"i_long":106.811091,"time":6,"transit":true,"station_id":"THB","line":1,"is_transit":true,"station_name":"Tanah Abang","distance":3191},{"transit":false,"is_transit":false,"i_lat":-6.155215,"i_long":106.800832,"station_id":"DU","time":8,"line":1,"station_name":"Duri","distance":3632},{"is_transit":false,"time":4,"i_lat":-6.144674,"line":1,"transit":false,"station_id":"AK","distance":1230,"station_name":"Angke","i_long":106.79867},{"i_lat":-6.132549,"station_name":"Kampung Bandan","distance":4102,"is_transit":true,"time":9,"line":4,"i_long":106.826365,"transit":true,"station_id":"KPB"},{"time":3,"transit":true,"distance":1364,"is_transit":true,"line":2,"i_lat":-6.137569,"station_name":"Jakarta Kota","station_id":"JAKK","i_long":106.812439},{"transit":false,"i_lat":-6.141205,"distance":1264,"station_name":"Jayakarta","i_long":106.820901,"line":2,"is_transit":false,"time":4,"station_id":"JAY"},{"i_long":106.82482,"i_lat":-6.149769,"line":2,"distance":1080,"time":2,"is_transit":false,"station_name":"Manggabesar","station_id":"MGB","transit":false},{"station_id":"SW","transit":false,"distance":906,"i_lat":-6.160725,"station_name":"Sawah Besar","is_transit":false,"i_long":106.827103,"line":2,"time":2},{"station_id":"JUA","time":2,"is_transit":false,"station_name":"Juanda","i_lat":-6.166716,"line":2,"distance":1149,"i_long":106.828284,"transit":false},{"distance":2015,"line":2,"station_id":"GDD","time":4,"i_long":106.832183,"is_transit":false,"transit":false,"station_name":"Gondangdia","i_lat":-6.186295},{"line":2,"i_long":106.840169,"distance":1750,"i_lat":-6.198556,"time":3,"is_transit":false,"transit":false,"station_id":"CKI","station_name":"Cikini"},{"distance":1590,"station_name":"Manggarai","time":4,"i_long":106.84912,"line":2,"transit":false,"station_id":"MRI","is_transit":false,"i_lat":-6.209883},{"transit":false,"i_lat":-6.226659,"line":2,"distance":2610,"i_long":106.857948,"time":4,"station_name":"Tebet","station_id":"TEB","is_transit":false},{"is_transit":false,"i_long":106.856607,"line":2,"time":2,"i_lat":-6.242512,"distance":1230,"transit":false,"station_name":"Cawang","station_id":"CW"},{"is_transit":false,"transit":false,"station_name":"Duren Kalibata","station_id":"DRN","time":3,"distance":1546,"i_long":106.85449,"i_lat":-6.255332,"line":2},{"i_lat":-6.263214,"distance":824,"transit":false,"line":2,"station_id":"PSMB","time":2,"is_transit":false,"station_name":"Pasar Minggu Baru","i_long":106.851577},{"station_id":"PSM","i_lat":-6.2842400000000005,"is_transit":false,"station_name":"Pasar Minggu","transit":false,"distance":2380,"time":2,"i_long":106.843999,"line":2},{"transit":false,"is_transit":false,"station_name":"Tanjung Barat","i_lat":-6.3080680000000005,"i_long":106.838896,"line":2,"station_id":"TNT","time":4,"distance":2820},{"line":2,"is_transit":false,"time":3,"station_id":"LNA","distance":2671,"transit":false,"station_name":"Lenteng Agung","i_lat":-6.330363,"i_long":106.832616},{"transit":false,"line":2,"station_id":"UP","time":2,"is_transit":false,"i_long":106.834175,"i_lat":-6.339291,"station_name":"Univ. Pancasila","distance":1029},{"i_long":106.831474,"station_id":"UI","time":3,"is_transit":false,"station_name":"Univ. Indonesia","line":2,"distance":2264,"i_lat":-6.360749,"transit":false},{"station_id":"POC","i_long":106.831114,"line":2,"i_lat":-6.369073,"distance":1109,"is_transit":false,"time":2,"transit":false,"station_name":"Pondok Cina"},{"is_transit":false,"time":4,"station_name":"Depokbaru","i_lat":-6.391065,"transit":false,"i_long":106.819451,"line":2,"station_id":"DPB","distance":2727},{"transit":false,"station_id":"DP","time":3,"station_name":"Depok","distance":1584,"is_transit":false,"i_lat":-6.405256,"line":2,"i_long":106.816926},{"is_transit":true,"transit":true,"i_lat":-6.448811,"station_name":"Citayam","i_long":106.800298,"station_id":"CTA","time":6,"distance":5084,"line":2},{"station_id":"PDRG","is_transit":false,"distance":0,"i_long":106.824374,"i_lat":-6.460735,"line":21,"time":0,"transit":false,"station_name":"Pondok Rajeg"},{"i_long":106.851978,"line":21,"distance":0,"time":0,"is_transit":false,"transit":false,"i_lat":-6.46424,"station_id":"CBN","station_name":"Cibinong"}],[{"i_long":106.491338,"time":0,"distance":0,"i_lat":-6.338021,"station_name":"Daru","line":0,"station_id":"DAR","is_transit":false,"transit":false},{"station_id":"CJT","is_transit":false,"line":3,"transit":false,"distance":2675,"i_long":106.508482,"time":6,"i_lat":-6.354349,"station_name":"Cilejit"},{"is_transit":false,"i_long":106.568863,"station_name":"Parung Panjang","transit":false,"i_lat":-6.3441410000000005,"time":9,"line":6,"distance":7025,"station_id":"PRP"},{"line":3,"time":8,"is_transit":false,"transit":false,"i_lat":-6.329547,"i_long":106.617853,"station_name":"Cicayur","station_id":"CC","distance":5968},{"station_name":"Cisauk","distance":2519,"is_transit":false,"i_lat":-6.32484,"i_long":106.640411,"line":3,"transit":false,"time":4,"station_id":"CSK"},{"i_lat":-6.319871,"time":4,"station_id":"SRP","station_name":"Serpong","distance":1784,"transit":false,"line":6,"is_transit":false,"i_long":106.66566},{"time":4,"station_id":"RU","transit":false,"distance":2413,"i_long":106.675475,"is_transit":false,"i_lat":-6.314823,"line":6,"station_name":"Rawa Buntu"},{"transit":false,"i_long":106.712277,"station_name":"Sudimara","station_id":"SDM","line":6,"i_lat":-6.296963,"distance":4566,"time":6,"is_transit":false},{"station_name":"Jurangmangu","line":6,"i_long":106.728916,"time":4,"station_id":"JMU","distance":1994,"transit":false,"is_transit":false,"i_lat":-6.288927},{"line":6,"station_id":"PDJ","time":3,"distance":2179,"is_transit":false,"station_name":"Pondokranji","i_lat":-6.276362,"transit":false,"i_long":106.74273},{"i_lat":-6.237242,"station_name":"Kebayoran","line":6,"distance":6218,"is_transit":false,"station_id":"KBY","i_long":106.780334,"time":8,"transit":false},{"station_name":"Palmerah","transit":false,"distance":3737,"station_id":"PLM","is_transit":false,"i_lat":-6.207404,"time":7,"i_long":106.79689,"line":6},{"i_long":106.811091,"station_name":"Tanah Abang","distance":3191,"is_transit":true,"line":1,"transit":true,"station_id":"THB","i_lat":-6.185545,"time":6},{"i_lat":-6.155215,"line":1,"transit":false,"distance":3632,"i_long":106.800832,"station_id":"DU","time":8,"is_transit":false,"station_name":"Duri"},{"station_id":"AK","station_name":"Angke","transit":false,"line":1,"is_transit":false,"i_lat":-6.144674,"distance":1230,"time":4,"i_long":106.79867},{"is_transit":true,"station_name":"Kampung Bandan","transit":true,"station_id":"KPB","line":4,"time":9,"i_long":106.826365,"i_lat":-6.132549,"distance":4102},{"station_name":"Rajawali","line":11,"station_id":"RJW","is_transit":false,"time":3,"transit":false,"i_lat":-6.14505,"i_long":106.836569,"distance":1444},{"is_transit":false,"station_name":"Kemayoran","line":11,"i_long":106.839204,"distance":1901,"station_id":"KMO","transit":false,"time":5,"i_lat":-6.161728},{"line":11,"distance":1436,"station_id":"PSE","transit":false,"time":4,"is_transit":false,"station_name":"Pasar Senen","i_long":106.84368,"i_lat":-6.174784},{"distance":1567,"i_lat":-6.185975,"is_transit":false,"station_name":"Gang Sentiong","i_long":106.850107,"transit":false,"station_id":"GST","time":8,"line":11},{"i_lat":-6.193792,"i_long":106.855437,"station_id":"KMT","line":11,"time":1,"station_name":"Kramat","transit":false,"distance":973,"is_transit":false},{"station_id":"POK","station_name":"Pondok Jati","time":2,"line":11,"i_long":106.861737,"is_transit":false,"transit":false,"i_lat":-6.209188,"distance":1829},{"time":9,"is_transit":true,"transit":true,"i_long":106.86807400000001,"line":1,"station_id":"JNG","station_name":"Jatinegara","distance":1236,"i_lat":-6.215091},{"transit":false,"line":1,"station_name":"Matraman","i_long":106.858896,"time":2,"i_lat":-6.212485,"station_id":"MTR","distance":1377,"is_transit":false},{"distance":1275,"is_transit":true,"i_lat":-6.209883,"transit":true,"time":2,"i_long":106.84912,"station_name":"Manggarai","line":2,"station_id":"MRI"},{"i_lat":-6.226659,"i_long":106.857948,"station_name":"Tebet","line":2,"transit":false,"distance":2610,"time":4,"station_id":"TEB","is_transit":false},{"line":2,"i_lat":-6.242512,"is_transit":false,"station_name":"Cawang","i_long":106.856607,"time":2,"station_id":"CW","distance":1230,"transit":false},{"station_id":"DRN","i_long":106.85449,"distance":1546,"transit":false,"is_transit":false,"time":3,"line":2,"i_lat":-6.255332,"station_name":"Duren Kalibata"},{"transit":false,"station_id":"PSMB","distance":824,"is_transit":false,"time":2,"station_name":"Pasar Minggu Baru","i_lat":-6.263214,"i_long":106.851577,"line":2},{"station_id":"PSM","i_long":106.843999,"distance":2380,"is_transit":false,"station_name":"Pasar Minggu","line":2,"time":2,"transit":false,"i_lat":-6.2842400000000005},{"is_transit":false,"line":2,"station_id":"TNT","time":4,"i_lat":-6.3080680000000005,"distance":2820,"transit":false,"station_name":"Tanjung Barat","i_long":106.838896},{"i_long":106.832616,"i_lat":-6.330363,"is_transit":false,"station_name":"Lenteng Agung","transit":false,"time":3,"distance":2671,"line":2,"station_id":"LNA"},{"time":2,"station_id":"UP","i_lat":-6.339291,"is_transit":false,"i_long":106.834175,"distance":1029,"transit":false,"station_name":"Univ. Pancasila","line":2},{"line":2,"i_long":106.831474,"is_transit":false,"i_lat":-6.360749,"station_id":"UI","distance":2264,"time":3,"transit":false,"station_name":"Univ. Indonesia"},{"line":2,"transit":false,"distance":1109,"station_name":"Pondok Cina","i_lat":-6.369073,"is_transit":false,"time":2,"station_id":"POC","i_long":106.831114},{"i_lat":-6.391065,"is_transit":false,"station_id":"DPB","time":4,"station_name":"Depokbaru","line":2,"distance":2727,"transit":false,"i_long":106.819451},{"time":3,"line":2,"station_id":"DP","i_long":106.816926,"station_name":"Depok","i_lat":-6.405256,"is_transit":false,"transit":false,"distance":1584},{"i_long":106.800298,"station_name":"Citayam","station_id":"CTA","time":6,"transit":true,"i_lat":-6.448811,"is_transit":true,"distance":5084,"line":2},{"i_lat":-6.460735,"is_transit":false,"line":21,"station_id":"PDRG","transit":false,"i_long":106.824374,"station_name":"Pondok Rajeg","time":0,"distance":0},{"time":0,"i_long":106.851978,"station_id":"CBN","is_transit":false,"distance":0,"line":21,"i_lat":-6.46424,"station_name":"Cibinong","transit":false}]]}