{"data":[[{"transit":false,"i_long":106.491338,"distance":0,"line":0,"i_lat":-6.338021,"station_id":"DAR","station_name":"Daru","time":0,"is_transit":false},{"i_long":106.508482,"is_transit":false,"station_id":"CJT","transit":false,"time":6,"distance":2675,"i_lat":-6.354349,"station_name":"Cilejit","line":3},{"i_long":106.568863,"line":6,"i_lat":-6.3441410000000005,"time":9,"station_id":"PRP","transit":false,"is_transit":false,"distance":7025,"station_name":"Parung Panjang"},{"i_lat":-6.329547,"station_name":"Cicayur","i_long":106.617853,"transit":false,"time":8,"is_transit":false,"station_id":"CC","line":3,"distance":5968},{"i_long":106.640411,"is_transit":false,"distance":2519,"line":3,"station_name":"Cisauk","transit":false,"time":4,"station_id":"CSK","i_lat":-6.32484},{"distance":1784,"i_long":106.66566,"transit":false,"station_id":"SRP","is_transit":false,"station_name":"Serpong","line":6,"time":4,"i_lat":-6.319871},{"i_long":106.675475,"is_transit":false,"line":6,"distance":2413,"i_lat":-6.314823,"station_name":"Rawa Buntu","station_id":"RU","transit":false,"time":4},{"i_long":106.712277,"station_name":"Sudimara","is_transit":false,"station_id":"SDM","i_lat":-6.296963,"line":6,"transit":false,"distance":4566,"time":6},{"i_lat":-6.288927,"station_id":"JMU","transit":false,"distance":1994,"is_transit":false,"station_name":"Jurangmangu","time":4,"i_long":106.728916,"line":6},{"station_name":"Pondokranji","distance":2179,"is_transit":false,"i_lat":-6.276362,"i_long":106.74273,"time":3,"line":6,"station_id":"PDJ","transit":false},{"i_long":106.780334,"station_id":"KBY","station_name":"Kebayoran","time":8,"i_lat":-6.237242,"line":6,"distance":6218,"is_transit":false,"transit":false},{"i_long":106.79689,"transit":false,"station_name":"Palmerah","is_transit":false,"distance":3737,"station_id":"PLM","line":6,"time":7,"i_lat":-6.207404},{"is_transit":true,"time":6,"line":1,"station_id":"THB","station_name":"Tanah Abang","i_lat":-6.185545,"i_long":106.811091,"transit":true,"distance":3191},{"i_lat":-6.155215,"station_name":"Duri","station_id":"DU","line":1,"time":8,"distance":3632,"i_long":106.800832,"is_transit":true,"transit":true},{"time":3,"i_lat":-6.162021,"distance":1700,"station_id":"GGL","i_long":106.788277,"transit":false,"line":5,"is_transit":false,"station_name":"Grogol"},{"distance":2036,"transit":false,"time":2,"is_transit":false,"line":5,"station_name":"Pesing","i_lat":-6.161433,"station_id":"PSG","i_long":106.771379},{"line":5,"distance":1614,"is_transit":false,"station_id":"TKO","station_name":"Taman Kota","time":2,"transit":false,"i_lat":-6.1587309999999995,"i_long":106.756522},{"station_name":"Bojongindah","distance":2334,"i_long":106.737035,"is_transit":false,"line":5,"station_id":"BOI","i_lat":-6.159876,"time":2,"transit":false}],[{"line":0,"station_name":"Daru","i_lat":-6.338021,"transit":false,"is_transit":false,"distance":0,"station_id":"DAR","time":0,"i_long":106.491338},{"is_transit":false,"station_id":"CJT","transit":false,"i_long":106.508482,"line":3,"i_lat":-6.354349,"time":6,"station_name":"Cilejit","distance":2675},{"station_name":"Parung Panjang","station_id":"PRP","transit":false,"i_long":106.568863,"line":6,"time":9,"is_transit":false,"distance":7025,"i_lat":-6.3441410000000005},{"distance":5968,"i_lat":-6.329547,"transit":false,"station_id":"CC","i_long":106.617853,"is_transit":false,"line":3,"time":8,"station_name":"Cicayur"},{"line":3,"i_long":106.640411,"distance":2519,"station_name":"Cisauk","is_transit":false,"time":4,"station_id":"CSK","i_lat":-6.32484,"transit":false},{"station_name":"Serpong","station_id":"SRP","line":6,"transit":false,"time":4,"i_long":106.66566,"is_transit":false,"i_lat":-6.319871,"distance":1784},{"transit":false,"i_lat":-6.314823,"station_id":"RU","i_long":106.675475,"distance":2413,"line":6,"station_name":"Rawa Buntu","is_transit":false,"time":4},{"is_transit":false,"i_lat":-6.296963,"time":6,"distance":4566,"line":6,"station_id":"SDM","transit":false,"i_long":106.712277,"station_name":"Sudimara"},{"is_transit":false,"distance":1994,"i_lat":-6.288927,"station_id":"JMU","line":6,"time":4,"i_long":106.728916,"transit":false,"station_name":"Jurangmangu"},{"station_name":"Pondokranji","is_transit":false,"i_lat":-6.276362,"distance":2179,"line":6,"station_id":"PDJ","i_long":106.74273,"transit":false,"time":3},{"distance":6218,"station_name":"Kebayoran","time":8,"is_transit":false,"i_lat":-6.237242,"line":6,"station_id":"KBY","transit":false,"i_long":106.780334},{"i_long":106.79689,"time":7,"station_name":"Palmerah","i_lat":-6.207404,"transit":false,"is_transit":false,"distance":3737,"line":6,"station_id":"PLM"},{"distance":3191,"is_transit":true,"station_id":"THB","i_lat":-6.185545,"transit":true,"i_long":106.811091,"station_name":"Tanah Abang","time":6,"line":1},{"station_name":"Karet","distance":2029,"is_transit":false,"time":5,"station_id":"KAT","line":1,"transit":false,"i_lat":-6.20132,"i_long":106.816351},{"i_long":106.819881,"time":1,"transit":false,"is_transit":false,"station_id":"SUDB","station_name":"Sudirman Baru","distance":471,"line":1,"i_lat":-6.201433},{"transit":false,"time":1,"i_long":106.822649,"station_id":"SUD","line":1,"station_name":"Sudirman","distance":280,"i_lat":-6.202263,"is_transit":false},{"station_name":"Manggarai","i_lat":-6.209883,"station_id":"MRI","i_long":106.84912,"time":4,"line":2,"transit":true,"is_transit":true,"distance":3186},{"i_lat":-6.198556,"transit":false,"line":2,"i_long":106.840169,"distance":1590,"station_name":"Cikini","time":4,"is_transit":false,"station_id":"CKI"},{"time":3,"station_id":"GDD","station_name":"Gondangdia","line":2,"distance":1750,"transit":false,"is_transit":false,"i_long":106.832183,"i_lat":-6.186295},{"is_transit":false,"station_name":"Juanda","i_long":106.828284,"station_id":"JUA","time":4,"line":2,"transit":false,"distance":2015,"i_lat":-6.166716},{"i_lat":-6.160725,"i_long":106.827103,"station_name":"Sawah Besar","line":2,"transit":false,"time":2,"distance":1149,"is_transit":false,"station_id":"SW"},{"transit":false,"distance":906,"is_transit":false,"i_long":106.82482,"line":2,"station_id":"MGB","time":2,"i_lat":-6.149769,"station_name":"Manggabesar"},{"i_long":106.820901,"transit":false,"station_id":"JAY","line":2,"time":2,"distance":1080,"is_transit":false,"station_name":"Jayakarta","i_lat":-6.141205},{"distance":1264,"line":2,"time":4,"i_lat":-6.137569,"i_long":106.812439,"transit":true,"is_transit":true,"station_name":"Jakarta Kota","station_id":"JAKK"},{"i_lat":-6.132549,"line":4,"is_transit":true,"transit":true,"station_name":"Kampung Bandan","station_id":"KPB","time":3,"distance":1364,"i_long":106.826365},{"distance":4102,"i_lat":-6.144674,"time":9,"line":1,"is_transit":false,"station_name":"Angke","station_id":"AK","transit":false,"i_long":106.79867},{"distance":1230,"i_lat":-6.155215,"is_transit":true,"i_long":106.800832,"station_id":"DU","transit":true,"line":1,"station_name":"Duri","time":4},{"is_transit":false,"station_id":"GGL","i_lat":-6.162021,"transit":false,"i_long":106.788277,"station_name":"Grogol","distance":1700,"line":5,"time":3},{"distance":2036,"station_id":"PSG","i_long":106.771379,"line":5,"time":2,"station_name":"Pesing","transit":false,"is_transit":false,"i_lat":-6.161433},{"is_transit":false,"station_id":"TKO","line":5,"station_name":"Taman Kota","time":2,"distance":1614,"i_lat":-6.1587309999999995,"i_long":106.756522,"transit":false},{"line":5,"station_id":"BOI","i_long":106.737035,"transit":false,"station_name":"Bojongindah","time":2,"distance":2334,"is_transit":false,"i_lat":-6.159876}],[{"station_name":"Daru","i_lat":-6.338021,"line":0,"time":0,"distance":0,"transit":false,"station_id":"DAR","is_transit":false,"i_long":106.491338},{"distance":2675,"station_name":"Cilejit","is_transit":false,"transit":false,"i_long":106.508482,"station_id":"CJT","time":6,"line":3,"i_lat":-6.354349},{"transit":false,"i_lat":-6.3441410000000005,"line":6,"distance":7025,"station_name":"Parung Panjang","time":9,"is_transit":false,"station_id":"PRP","i_long":106.568863},{"i_lat":-6.329547,"station_id":"CC","line":3,"i_long":106.617853,"station_name":"Cicayur","distance":5968,"transit":false,"time":8,"is_transit":false},{"distance":2519,"is_transit":false,"station_name":"Cisauk","i_long":106.640411,"line":3,"station_id":"CSK","time":4,"transit":false,"i_lat":-6.32484},{"station_name":"Serpong","i_long":106.66566,"is_transit":false,"station_id":"SRP","i_lat":-6.319871,"time":4,"distance":1784,"transit":false,"line":6},{"transit":false,"is_transit":false,"station_name":"Rawa Buntu","station_id":"RU","i_long":106.675475,"line":6,"distance":2413,"i_lat":-6.314823,"time":4},{"line":6,"transit":false,"distance":4566,"i_lat":-6.296963,"is_transit":false,"station_id":"SDM","station_name":"Sudimara","time":6,"i_long":106.712277},{"i_lat":-6.288927,"station_name":"Jurangmangu","time":4,"is_transit":false,"station_id":"JMU","line":6,"i_long":106.728916,"transit":false,"distance":1994},{"station_id":"PDJ","i_long":106.74273,"is_transit":false,"line":6,"transit":false,"time":3,"i_lat":-6.276362,"distance":2179,"station_name":"Pondokranji"},{"distance":6218,"is_transit":false,"station_id":"KBY","time":8,"line":6,"i_lat":-6.237242,"i_long":106.780334,"station_name":"Kebayoran","transit":false},{"i_long":106.79689,"line":6,"i_lat":-6.207404,"transit":false,"time":7,"is_transit":false,"station_id":"PLM","distance":3737,"station_name":"Palmerah"},{"time":6,"station_id":"THB","transit":true,"station_name":"Tanah Abang","is_transit":true,"i_lat":-6.185545,"i_long":106.811091,"line":1,"distance":3191},{"line":1,"time":5,"distance":2029,"station_id":"KAT","i_lat":-6.20132,"transit":false,"i_long":106.816351,"station_name":"Karet","is_transit":false},{"station_name":"Sudirman Baru","is_transit":false,"i_lat":-6.201433,"station_id":"SUDB","distance":471,"transit":false,"time":1,"i_long":106.819881,"line":1},{"line":1,"i_lat":-6.202263,"time":1,"station_name":"Sudirman","distance":280,"is_transit":false,"i_long":106.822649,"transit":false,"station_id":"SUD"},{"time":4,"line":2,"station_name":"Manggarai","station_id":"MRI","is_transit":false,"i_long":106.84912,"transit":false,"i_lat":-6.209883,"distance":3186},{"distance":1275,"station_name":"Matraman","time":2,"i_long":106.858896,"line":1,"is_transit":false,"transit":false,"station_id":"MTR","i_lat":-6.212485},{"line":1,"transit":true,"time":8,"distance":1377,"is_transit":true,"station_name":"Jatinegara","i_long":106.86807400000001,"i_lat":-6.215091,"station_id":"JNG"},{"time":2,"is_transit":false,"distance":1236,"transit":false,"station_id":"POK","line":11,"i_long":106.861737,"station_name":"Pondok Jati","i_lat":-6.209188},{"distance":1829,"i_lat":-6.193792,"line":11,"station_id":"KMT","is_transit":false,"i_long":106.855437,"station_name":"Kramat","transit":false,"time":2},{"station_name":"Gang Sentiong","i_long":106.850107,"distance":973,"transit":false,"i_lat":-6.185975,"station_id":"GST","line":11,"time":1,"is_transit":false},{"time":8,"station_name":"Pasar Senen","is_transit":false,"distance":1567,"i_lat":-6.174784,"station_id":"PSE","i_long":106.84368,"line":11,"transit":false},{"i_long":106.839204,"time":4,"station_name":"Kemayoran","distance":1436,"station_id":"KMO","i_lat":-6.161728,"transit":false,"is_transit":false,"line":11},{"is_transit":false,"i_lat":-6.14505,"transit":false,"station_name":"Rajawali","distance":1901,"time":5,"i_long":106.836569,"line":11,"station_id":"RJW"},{"line":4,"station_id":"KPB","i_long":106.826365,"station_name":"Kampung Bandan","is_transit":true,"time":3,"transit":true,"i_lat":-6.132549,"distance":1444},{"station_id":"AK","i_lat":-6.144674,"station_name":"Angke","time":9,"distance":4102,"is_transit":false,"line":1,"transit":false,"i_long":106.79867},{"station_name":"Duri","station_id":"DU","i_lat":-6.155215,"is_transit":true,"i_long":106.800832,"line":1,"transit":true,"distance":1230,"time":4},{"line":5,"station_id":"GGL","distance":1700,"station_name":"Grogol","is_transit":false,"time":3,"i_lat":-6.162021,"i_long":106.788277,"transit":false},{"time":2,"distance":2036,"is_transit":false,"station_id":"PSG","i_long":106.771379,"transit":false,"station_name":"Pesing","line":5,"i_lat":-6.161433},{"station_name":"Taman Kota","i_lat":-6.1587309999999995,"line":5,"is_transit":false,"i_long":106.756522,"transit":false,"station_id":"TKO","distance":1614,"time":2},{"time":2,"transit":false,"is_transit":false,"station_id":"BOI","i_lat":-6.159876,"station_name":"Bojongindah","distance":2334,"i_long":106.737035,"line":5}]]}