{"data":[[{"station_id":"DAR","distance":0,"station_name":"Daru","time":0,"i_long":106.491338,"i_lat":-6.338021,"is_transit":false,"transit":false,"line":0},{"time":6,"distance":2675,"line":3,"i_long":106.508482,"station_id":"CJT","transit":false,"station_name":"Cilejit","is_transit":false,"i_lat":-6.354349},{"i_lat":-6.3441410000000005,"time":9,"is_transit":false,"station_name":"Parung Panjang","line":6,"distance":7025,"i_long":106.568863,"station_id":"PRP","transit":false},{"station_name":"Cicayur","i_lat":-6.329547,"station_id":"CC","transit":false,"time":8,"distance":5968,"i_long":106.617853,"line":3,"is_transit":false},{"is_transit":false,"distance":2519,"station_id":"CSK","i_long":106.640411,"time":4,"station_name":"Cisauk","line":3,"transit":false,"i_lat":-6.32484},{"station_name":"Serpong","station_id":"SRP","time":4,"is_transit":false,"transit":false,"distance":1784,"i_lat":-6.319871,"i_long":106.66566,"line":6},{"time":4,"is_transit":false,"transit":false,"station_name":"Rawa Buntu","i_lat":-6.314823,"station_id":"RU","i_long":106.675475,"line":6,"distance":2413},{"station_id":"SDM","i_lat":-6.296963,"station_name":"Sudimara","transit":false,"i_long":106.712277,"time":6,"distance":4566,"line":6,"is_transit":false},{"time":4,"distance":1994,"station_id":"JMU","station_name":"Jurangmangu","i_long":106.728916,"line":6,"is_transit":false,"transit":false,"i_lat":-6.288927},{"station_id":"PDJ","distance":2179,"i_lat":-6.276362,"station_name":"Pondokranji","is_transit":false,"time":3,"transit":false,"i_long":106.74273,"line":6},{"distance":6218,"i_lat":-6.237242,"transit":false,"i_long":106.780334,"time":8,"station_name":"Kebayoran","station_id":"KBY","is_transit":false,"line":6},{"line":6,"i_lat":-6.207404,"transit":false,"station_name":"Palmerah","distance":3737,"time":7,"station_id":"PLM","i_long":106.79689,"is_transit":false},{"line":1,"time":6,"station_name":"Tanah Abang","distance":3191,"is_transit":true,"i_lat":-6.185545,"transit":true,"station_id":"THB","i_long":106.811091},{"i_long":106.800832,"station_id":"DU","line":1,"i_lat":-6.155215,"is_transit":true,"station_name":"Duri","time":8,"distance":3632,"transit":true},{"time":3,"transit":false,"is_transit":false,"line":5,"distance":1700,"station_id":"GGL","i_lat":-6.162021,"i_long":106.788277,"station_name":"Grogol"},{"station_id":"PSG","distance":2036,"line":5,"time":2,"is_transit":false,"transit":false,"i_lat":-6.161433,"i_long":106.771379,"station_name":"Pesing"},{"i_long":106.756522,"time":2,"station_name":"Taman Kota","station_id":"TKO","is_transit":false,"line":5,"transit":false,"distance":1614,"i_lat":-6.1587309999999995},{"distance":2334,"transit":false,"i_long":106.737035,"line":5,"time":2,"is_transit":false,"station_id":"BOI","i_lat":-6.159876,"station_name":"Bojongindah"},{"transit":false,"time":4,"i_long":106.723064,"station_name":"Rawa Buaya","distance":1152,"station_id":"RW","is_transit":false,"i_lat":-6.162758,"line":5}],[{"i_long":106.491338,"is_transit":false,"transit":false,"line":0,"distance":0,"i_lat":-6.338021,"station_name":"Daru","time":0,"station_id":"DAR"},{"station_id":"CJT","i_long":106.508482,"distance":2675,"station_name":"Cilejit","line":3,"is_transit":false,"time":6,"i_lat":-6.354349,"transit":false},{"line":6,"station_name":"Parung Panjang","i_lat":-6.3441410000000005,"time":9,"is_transit":false,"i_long":106.568863,"transit":false,"station_id":"PRP","distance":7025},{"time":8,"i_long":106.617853,"transit":false,"is_transit":false,"station_name":"Cicayur","station_id":"CC","distance":5968,"i_lat":-6.329547,"line":3},{"time":4,"i_lat":-6.32484,"i_long":106.640411,"line":3,"transit":false,"station_name":"Cisauk","station_id":"CSK","is_transit":false,"distance":2519},{"time":4,"is_transit":false,"distance":1784,"transit":false,"station_name":"Serpong","i_long":106.66566,"line":6,"station_id":"SRP","i_lat":-6.319871},{"station_name":"Rawa Buntu","time":4,"distance":2413,"i_long":106.675475,"station_id":"RU","transit":false,"is_transit":false,"i_lat":-6.314823,"line":6},{"i_lat":-6.296963,"transit":false,"station_name":"Sudimara","distance":4566,"line":6,"time":6,"i_long":106.712277,"station_id":"SDM","is_transit":false},{"i_long":106.728916,"transit":false,"line":6,"i_lat":-6.288927,"station_name":"Jurangmangu","time":4,"is_transit":false,"distance":1994,"station_id":"JMU"},{"i_long":106.74273,"is_transit":false,"line":6,"station_id":"PDJ","transit":false,"time":3,"station_name":"Pondokranji","distance":2179,"i_lat":-6.276362},{"i_long":106.780334,"line":6,"distance":6218,"i_lat":-6.237242,"transit":false,"station_name":"Kebayoran","is_transit":false,"time":8,"station_id":"KBY"},{"is_transit":false,"i_lat":-6.207404,"line":6,"transit":false,"i_long":106.79689,"station_id":"PLM","time":7,"distance":3737,"station_name":"Palmerah"},{"line":1,"transit":true,"station_id":"THB","i_lat":-6.185545,"time":6,"distance":3191,"is_transit":true,"station_name":"Tanah Abang","i_long":106.811091},{"line":1,"transit":false,"is_transit":false,"i_lat":-6.20132,"i_long":106.816351,"station_name":"Karet","station_id":"KAT","time":5,"distance":2029},{"time":1,"distance":471,"station_id":"SUDB","station_name":"Sudirman Baru","i_lat":-6.201433,"i_long":106.819881,"transit":false,"is_transit":false,"line":1},{"time":1,"i_lat":-6.202263,"i_long":106.822649,"transit":false,"is_transit":false,"line":1,"station_name":"Sudirman","distance":280,"station_id":"SUD"},{"i_lat":-6.209883,"station_name":"Manggarai","time":4,"line":2,"transit":true,"station_id":"MRI","distance":3186,"i_long":106.84912,"is_transit":true},{"line":2,"station_id":"CKI","i_long":106.840169,"i_lat":-6.198556,"is_transit":false,"transit":false,"station_name":"Cikini","time":4,"distance":1590},{"i_long":106.832183,"station_id":"GDD","is_transit":false,"i_lat":-6.186295,"line":2,"time":3,"station_name":"Gondangdia","transit":false,"distance":1750},{"distance":2015,"i_lat":-6.166716,"station_name":"Juanda","i_long":106.828284,"time":4,"station_id":"JUA","is_transit":false,"line":2,"transit":false},{"station_name":"Sawah Besar","distance":1149,"is_transit":false,"time":2,"station_id":"SW","i_lat":-6.160725,"i_long":106.827103,"transit":false,"line":2},{"station_name":"Manggabesar","transit":false,"i_lat":-6.149769,"station_id":"MGB","is_transit":false,"time":2,"line":2,"distance":906,"i_long":106.82482},{"time":2,"is_transit":false,"transit":false,"station_id":"JAY","station_name":"Jayakarta","i_lat":-6.141205,"line":2,"i_long":106.820901,"distance":1080},{"i_long":106.812439,"i_lat":-6.137569,"transit":true,"station_id":"JAKK","time":4,"distance":1264,"line":2,"is_transit":true,"station_name":"Jakarta Kota"},{"time":3,"is_transit":true,"i_long":106.826365,"transit":true,"station_name":"Kampung Bandan","distance":1364,"i_lat":-6.132549,"station_id":"KPB","line":4},{"i_lat":-6.144674,"i_long":106.79867,"time":9,"distance":4102,"station_id":"AK","line":1,"is_transit":false,"transit":false,"station_name":"Angke"},{"station_name":"Duri","time":4,"i_long":106.800832,"station_id":"DU","line":1,"i_lat":-6.155215,"distance":1230,"transit":true,"is_transit":true},{"i_long":106.788277,"station_name":"Grogol","time":3,"distance":1700,"i_lat":-6.162021,"transit":false,"line":5,"station_id":"GGL","is_transit":false},{"station_name":"Pesing","station_id":"PSG","time":2,"transit":false,"i_lat":-6.161433,"line":5,"distance":2036,"i_long":106.771379,"is_transit":false},{"station_name":"Taman Kota","is_transit":false,"distance":1614,"transit":false,"i_lat":-6.1587309999999995,"i_long":106.756522,"line":5,"time":2,"station_id":"TKO"},{"is_transit":false,"station_name":"Bojongindah","time":2,"i_lat":-6.159876,"transit":false,"distance":2334,"station_id":"BOI","i_long":106.737035,"line":5},{"station_name":"Rawa Buaya","i_lat":-6.162758,"distance":1152,"is_transit":false,"i_long":106.723064,"transit":false,"time":4,"station_id":"RW","line":5}],[{"time":0,"i_lat":-6.338021,"is_transit":false,"distance":0,"i_long":106.491338,"transit":false,"station_name":"Daru","line":0,"station_id":"DAR"},{"line":3,"time":6,"station_id":"CJT","i_lat":-6.354349,"i_long":106.508482,"station_name":"Cilejit","is_transit":false,"distance":2675,"transit":false},{"distance":7025,"is_transit":false,"station_id":"PRP","i_long":106.568863,"i_lat":-6.3441410000000005,"time":9,"transit":false,"line":6,"station_name":"Parung Panjang"},{"station_id":"CC","station_name":"Cicayur","distance":5968,"transit":false,"i_long":106.617853,"line":3,"is_transit":false,"time":8,"i_lat":-6.329547},{"station_id":"CSK","transit":false,"i_long":106.640411,"line":3,"station_name":"Cisauk","time":4,"distance":2519,"is_transit":false,"i_lat":-6.32484},{"i_long":106.66566,"time":4,"station_id":"SRP","line":6,"i_lat":-6.319871,"station_name":"Serpong","transit":false,"distance":1784,"is_transit":false},{"line":6,"time":4,"is_transit":false,"distance":2413,"station_name":"Rawa Buntu","i_lat":-6.314823,"transit":false,"station_id":"RU","i_long":106.675475},{"line":6,"i_long":106.712277,"station_id":"SDM","station_name":"Sudimara","time":6,"i_lat":-6.296963,"transit":false,"is_transit":false,"distance":4566},{"is_transit":false,"station_name":"Jurangmangu","transit":false,"distance":1994,"i_lat":-6.288927,"station_id":"JMU","i_long":106.728916,"line":6,"time":4},{"distance":2179,"station_id":"PDJ","time":3,"i_lat":-6.276362,"transit":false,"i_long":106.74273,"line":6,"is_transit":false,"station_name":"Pondokranji"},{"line":6,"is_transit":false,"distance":6218,"i_long":106.780334,"transit":false,"time":8,"station_name":"Kebayoran","station_id":"KBY","i_lat":-6.237242},{"i_lat":-6.207404,"station_name":"Palmerah","station_id":"PLM","is_transit":false,"distance":3737,"transit":false,"time":7,"i_long":106.79689,"line":6},{"transit":true,"i_long":106.811091,"station_name":"Tanah Abang","station_id":"THB","time":6,"i_lat":-6.185545,"line":1,"is_transit":true,"distance":3191},{"distance":2029,"transit":false,"time":5,"is_transit":false,"i_lat":-6.20132,"i_long":106.816351,"station_id":"KAT","station_name":"Karet","line":1},{"time":1,"i_lat":-6.201433,"is_transit":false,"line":1,"distance":471,"transit":false,"station_name":"Sudirman Baru","station_id":"SUDB","i_long":106.819881},{"is_transit":false,"line":1,"distance":280,"i_long":106.822649,"station_id":"SUD","station_name":"Sudirman","i_lat":-6.202263,"time":1,"transit":false},{"time":4,"distance":3186,"transit":false,"station_id":"MRI","i_long":106.84912,"is_transit":false,"i_lat":-6.209883,"station_name":"Manggarai","line":2},{"i_lat":-6.212485,"line":1,"distance":1275,"transit":false,"station_id":"MTR","time":2,"i_long":106.858896,"station_name":"Matraman","is_transit":false},{"i_long":106.86807400000001,"distance":1377,"transit":true,"line":1,"station_id":"JNG","station_name":"Jatinegara","is_transit":true,"time":8,"i_lat":-6.215091},{"line":11,"station_name":"Pondok Jati","transit":false,"distance":1236,"is_transit":false,"time":2,"i_long":106.861737,"station_id":"POK","i_lat":-6.209188},{"station_name":"Kramat","is_transit":false,"station_id":"KMT","line":11,"transit":false,"i_lat":-6.193792,"distance":1829,"time":2,"i_long":106.855437},{"i_lat":-6.185975,"distance":973,"i_long":106.850107,"is_transit":false,"station_name":"Gang Sentiong","line":11,"time":1,"transit":false,"station_id":"GST"},{"i_long":106.84368,"i_lat":-6.174784,"station_id":"PSE","transit":false,"is_transit":false,"distance":1567,"time":8,"line":11,"station_name":"Pasar Senen"},{"transit":false,"i_lat":-6.161728,"i_long":106.839204,"time":4,"station_id":"KMO","line":11,"distance":1436,"station_name":"Kemayoran","is_transit":false},{"is_transit":false,"distance":1901,"station_id":"RJW","line":11,"transit":false,"i_lat":-6.14505,"station_name":"Rajawali","time":5,"i_long":106.836569},{"i_lat":-6.132549,"line":4,"i_long":106.826365,"is_transit":true,"station_name":"Kampung Bandan","transit":true,"time":3,"station_id":"KPB","distance":1444},{"distance":4102,"is_transit":false,"transit":false,"station_id":"AK","station_name":"Angke","time":9,"i_long":106.79867,"i_lat":-6.144674,"line":1},{"i_lat":-6.155215,"line":1,"is_transit":true,"station_id":"DU","distance":1230,"i_long":106.800832,"transit":true,"station_name":"Duri","time":4},{"transit":false,"station_name":"Grogol","i_long":106.788277,"time":3,"line":5,"station_id":"GGL","distance":1700,"i_lat":-6.162021,"is_transit":false},{"transit":false,"is_transit":false,"station_name":"Pesing","time":2,"i_long":106.771379,"station_id":"PSG","distance":2036,"i_lat":-6.161433,"line":5},{"is_transit":false,"distance":1614,"i_lat":-6.1587309999999995,"time":2,"station_id":"TKO","i_long":106.756522,"station_name":"Taman Kota","line":5,"transit":false},{"station_id":"BOI","transit":false,"time":2,"station_name":"Bojongindah","distance":2334,"is_transit":false,"i_lat":-6.159876,"i_long":106.737035,"line":5},{"station_name":"Rawa Buaya","i_long":106.723064,"time":4,"is_transit":false,"station_id":"RW","i_lat":-6.162758,"line":5,"distance":1152,"transit":false}]]}