{"data":[[{"station_name":"Daru","line":0,"is_transit":false,"time":0,"i_long":106.491338,"transit":false,"i_lat":-6.338021,"station_id":"DAR","distance":0},{"distance":2675,"is_transit":false,"line":3,"station_id":"CJT","transit":false,"i_long":106.508482,"station_name":"Cilejit","time":6,"i_lat":-6.354349},{"distance":7025,"transit":false,"time":9,"station_name":"Parung Panjang","is_transit":false,"station_id":"PRP","i_lat":-6.3441410000000005,"i_long":106.568863,"line":6},{"i_long":106.617853,"is_transit":false,"distance":5968,"station_name":"Cicayur","station_id":"CC","time":8,"transit":false,"line":3,"i_lat":-6.329547},{"distance":2519,"i_long":106.640411,"station_name":"Cisauk","transit":false,"time":4,"line":3,"is_transit":false,"station_id":"CSK","i_lat":-6.32484},{"i_long":106.66566,"line":6,"distance":1784,"time":4,"station_id":"SRP","is_transit":false,"transit":false,"station_name":"Serpong","i_lat":-6.319871},{"transit":false,"line":6,"station_name":"Rawa Buntu","i_lat":-6.314823,"time":4,"distance":2413,"is_transit":false,"i_long":106.675475,"station_id":"RU"},{"distance":4566,"time":6,"station_id":"SDM","transit":false,"i_lat":-6.296963,"i_long":106.712277,"line":6,"station_name":"Sudimara","is_transit":false},{"transit":false,"time":4,"distance":1994,"i_long":106.728916,"is_transit":false,"i_lat":-6.288927,"line":6,"station_name":"Jurangmangu","station_id":"JMU"},{"transit":false,"station_id":"PDJ","distance":2179,"time":3,"i_long":106.74273,"is_transit":false,"line":6,"station_name":"Pondokranji","i_lat":-6.276362},{"transit":false,"distance":6218,"i_long":106.780334,"i_lat":-6.237242,"time":8,"is_transit":false,"station_id":"KBY","line":6,"station_name":"Kebayoran"},{"station_name":"Palmerah","transit":false,"distance":3737,"is_transit":false,"i_long":106.79689,"line":6,"time":7,"i_lat":-6.207404,"station_id":"PLM"},{"distance":3191,"is_transit":true,"station_name":"Tanah Abang","i_lat":-6.185545,"i_long":106.811091,"line":1,"time":6,"station_id":"THB","transit":true},{"station_name":"Karet","transit":false,"line":1,"is_transit":false,"i_long":106.816351,"station_id":"KAT","distance":2029,"i_lat":-6.20132,"time":5},{"i_long":106.819881,"time":1,"station_name":"Sudirman Baru","is_transit":false,"i_lat":-6.201433,"line":1,"distance":471,"station_id":"SUDB","transit":false},{"is_transit":false,"i_long":106.822649,"station_name":"Sudirman","distance":280,"station_id":"SUD","i_lat":-6.202263,"time":1,"transit":false,"line":1},{"transit":true,"time":4,"distance":3186,"i_long":106.84912,"is_transit":true,"station_name":"Manggarai","station_id":"MRI","line":2,"i_lat":-6.209883},{"distance":2610,"station_name":"Tebet","i_long":106.857948,"transit":false,"time":4,"station_id":"TEB","is_transit":false,"line":2,"i_lat":-6.226659},{"distance":1230,"is_transit":false,"i_lat":-6.242512,"i_long":106.856607,"time":2,"station_name":"Cawang","transit":false,"station_id":"CW","line":2},{"station_name":"Duren Kalibata","i_long":106.85449,"transit":false,"i_lat":-6.255332,"line":2,"is_transit":false,"distance":1546,"time":3,"station_id":"DRN"},{"transit":false,"distance":824,"time":2,"is_transit":false,"i_lat":-6.263214,"line":2,"station_id":"PSMB","station_name":"Pasar Minggu Baru","i_long":106.851577}],[{"station_id":"DAR","time":0,"line":0,"is_transit":false,"station_name":"Daru","i_long":106.491338,"i_lat":-6.338021,"transit":false,"distance":0},{"transit":false,"station_name":"Cilejit","time":6,"distance":2675,"station_id":"CJT","i_long":106.508482,"i_lat":-6.354349,"is_transit":false,"line":3},{"line":6,"i_long":106.568863,"station_id":"PRP","station_name":"Parung Panjang","distance":7025,"transit":false,"is_transit":false,"time":9,"i_lat":-6.3441410000000005},{"line":3,"distance":5968,"transit":false,"station_id":"CC","station_name":"Cicayur","time":8,"is_transit":false,"i_long":106.617853,"i_lat":-6.329547},{"distance":2519,"is_transit":false,"station_name":"Cisauk","station_id":"CSK","time":4,"i_lat":-6.32484,"transit":false,"i_long":106.640411,"line":3},{"transit":false,"i_lat":-6.319871,"station_id":"SRP","station_name":"Serpong","i_long":106.66566,"line":6,"distance":1784,"time":4,"is_transit":false},{"station_name":"Rawa Buntu","is_transit":false,"i_long":106.675475,"transit":false,"line":6,"time":4,"distance":2413,"station_id":"RU","i_lat":-6.314823},{"line":6,"time":6,"i_lat":-6.296963,"transit":false,"distance":4566,"is_transit":false,"station_id":"SDM","station_name":"Sudimara","i_long":106.712277},{"line":6,"i_long":106.728916,"time":4,"station_name":"Jurangmangu","is_transit":false,"transit":false,"station_id":"JMU","distance":1994,"i_lat":-6.288927},{"distance":2179,"i_long":106.74273,"station_id":"PDJ","line":6,"transit":false,"station_name":"Pondokranji","is_transit":false,"i_lat":-6.276362,"time":3},{"distance":6218,"station_name":"Kebayoran","i_lat":-6.237242,"i_long":106.780334,"time":8,"station_id":"KBY","line":6,"is_transit":false,"transit":false},{"distance":3737,"i_long":106.79689,"transit":false,"time":7,"station_name":"Palmerah","station_id":"PLM","i_lat":-6.207404,"line":6,"is_transit":false},{"station_name":"Tanah Abang","is_transit":true,"transit":true,"time":6,"distance":3191,"line":1,"i_lat":-6.185545,"i_long":106.811091,"station_id":"THB"},{"time":8,"station_id":"DU","i_lat":-6.155215,"distance":3632,"i_long":106.800832,"line":1,"is_transit":false,"station_name":"Duri","transit":false},{"i_long":106.79867,"station_name":"Angke","distance":1230,"time":4,"is_transit":false,"line":1,"transit":false,"station_id":"AK","i_lat":-6.144674},{"i_long":106.826365,"i_lat":-6.132549,"station_id":"KPB","line":4,"is_transit":true,"time":9,"station_name":"Kampung Bandan","transit":true,"distance":4102},{"line":2,"distance":1364,"transit":true,"station_name":"Jakarta Kota","time":3,"is_transit":true,"station_id":"JAKK","i_long":106.812439,"i_lat":-6.137569},{"transit":false,"station_id":"JAY","time":4,"line":2,"distance":1264,"is_transit":false,"station_name":"Jayakarta","i_long":106.820901,"i_lat":-6.141205},{"transit":false,"distance":1080,"time":2,"station_id":"MGB","i_long":106.82482,"i_lat":-6.149769,"line":2,"is_transit":false,"station_name":"Manggabesar"},{"is_transit":false,"station_id":"SW","transit":false,"distance":906,"i_lat":-6.160725,"time":2,"station_name":"Sawah Besar","i_long":106.827103,"line":2},{"transit":false,"i_lat":-6.166716,"distance":1149,"i_long":106.828284,"time":2,"station_id":"JUA","line":2,"is_transit":false,"station_name":"Juanda"},{"i_long":106.832183,"time":4,"station_name":"Gondangdia","station_id":"GDD","is_transit":false,"i_lat":-6.186295,"line":2,"transit":false,"distance":2015},{"time":3,"station_name":"Cikini","line":2,"i_long":106.840169,"transit":false,"distance":1750,"i_lat":-6.198556,"is_transit":false,"station_id":"CKI"},{"distance":1590,"i_lat":-6.209883,"line":2,"time":4,"is_transit":false,"i_long":106.84912,"station_name":"Manggarai","transit":false,"station_id":"MRI"},{"time":4,"line":2,"i_lat":-6.226659,"station_name":"Tebet","distance":2610,"i_long":106.857948,"transit":false,"is_transit":false,"station_id":"TEB"},{"i_lat":-6.242512,"distance":1230,"line":2,"station_id":"CW","i_long":106.856607,"station_name":"Cawang","transit":false,"is_transit":false,"time":2},{"is_transit":false,"distance":1546,"station_name":"Duren Kalibata","i_lat":-6.255332,"i_long":106.85449,"transit":false,"line":2,"time":3,"station_id":"DRN"},{"station_name":"Pasar Minggu Baru","line":2,"transit":false,"i_lat":-6.263214,"time":2,"i_long":106.851577,"is_transit":false,"station_id":"PSMB","distance":824}],[{"station_id":"DAR","is_transit":false,"distance":0,"i_lat":-6.338021,"line":0,"time":0,"i_long":106.491338,"transit":false,"station_name":"Daru"},{"station_name":"Cilejit","transit":false,"is_transit":false,"station_id":"CJT","distance":2675,"i_lat":-6.354349,"line":3,"time":6,"i_long":106.508482},{"is_transit":false,"line":6,"station_name":"Parung Panjang","i_lat":-6.3441410000000005,"time":9,"station_id":"PRP","distance":7025,"i_long":106.568863,"transit":false},{"line":3,"station_id":"CC","is_transit":false,"i_long":106.617853,"station_name":"Cicayur","transit":false,"time":8,"i_lat":-6.329547,"distance":5968},{"distance":2519,"time":4,"i_lat":-6.32484,"station_name":"Cisauk","is_transit":false,"station_id":"CSK","transit":false,"line":3,"i_long":106.640411},{"station_name":"Serpong","i_long":106.66566,"transit":false,"i_lat":-6.319871,"is_transit":false,"time":4,"station_id":"SRP","distance":1784,"line":6},{"time":4,"transit":false,"i_lat":-6.314823,"distance":2413,"station_id":"RU","i_long":106.675475,"station_name":"Rawa Buntu","is_transit":false,"line":6},{"station_id":"SDM","distance":4566,"is_transit":false,"i_lat":-6.296963,"i_long":106.712277,"line":6,"time":6,"station_name":"Sudimara","transit":false},{"time":4,"transit":false,"station_id":"JMU","i_long":106.728916,"line":6,"is_transit":false,"station_name":"Jurangmangu","distance":1994,"i_lat":-6.288927},{"distance":2179,"transit":false,"i_lat":-6.276362,"i_long":106.74273,"is_transit":false,"time":3,"station_id":"PDJ","station_name":"Pondokranji","line":6},{"i_long":106.780334,"distance":6218,"line":6,"station_name":"Kebayoran","i_lat":-6.237242,"transit":false,"time":8,"is_transit":false,"station_id":"KBY"},{"station_name":"Palmerah","station_id":"PLM","i_lat":-6.207404,"i_long":106.79689,"transit":false,"distance":3737,"line":6,"time":7,"is_transit":false},{"line":1,"distance":3191,"station_id":"THB","time":6,"station_name":"Tanah Abang","is_transit":true,"i_long":106.811091,"transit":true,"i_lat":-6.185545},{"distance":3632,"station_name":"Duri","is_transit":false,"i_long":106.800832,"i_lat":-6.155215,"line":1,"time":8,"transit":false,"station_id":"DU"},{"distance":1230,"time":4,"i_long":106.79867,"station_name":"Angke","i_lat":-6.144674,"station_id":"AK","line":1,"transit":false,"is_transit":false},{"i_long":106.826365,"transit":true,"station_name":"Kampung Bandan","time":9,"is_transit":true,"distance":4102,"station_id":"KPB","i_lat":-6.132549,"line":4},{"transit":false,"i_long":106.836569,"line":11,"time":3,"is_transit":false,"distance":1444,"station_id":"RJW","i_lat":-6.14505,"station_name":"Rajawali"},{"i_long":106.839204,"station_name":"Kemayoran","is_transit":false,"distance":1901,"i_lat":-6.161728,"line":11,"transit":false,"station_id":"KMO","time":5},{"line":11,"distance":1436,"is_transit":false,"transit":false,"station_id":"PSE","i_lat":-6.174784,"i_long":106.84368,"station_name":"Pasar Senen","time":4},{"station_id":"GST","time":8,"i_long":106.850107,"station_name":"Gang Sentiong","i_lat":-6.185975,"transit":false,"line":11,"is_transit":false,"distance":1567},{"station_name":"Kramat","time":1,"i_lat":-6.193792,"station_id":"KMT","transit":false,"distance":973,"is_transit":false,"i_long":106.855437,"line":11},{"station_id":"POK","i_long":106.861737,"i_lat":-6.209188,"transit":false,"station_name":"Pondok Jati","line":11,"is_transit":false,"distance":1829,"time":2},{"distance":1236,"i_lat":-6.215091,"station_name":"Jatinegara","i_long":106.86807400000001,"line":1,"station_id":"JNG","is_transit":true,"time":9,"transit":true},{"is_transit":false,"time":2,"i_long":106.858896,"station_name":"Matraman","station_id":"MTR","distance":1377,"i_lat":-6.212485,"line":1,"transit":false},{"transit":true,"time":2,"distance":1275,"i_lat":-6.209883,"station_id":"MRI","station_name":"Manggarai","line":2,"i_long":106.84912,"is_transit":true},{"station_id":"TEB","transit":false,"i_long":106.857948,"distance":2610,"i_lat":-6.226659,"line":2,"station_name":"Tebet","time":4,"is_transit":false},{"i_lat":-6.242512,"station_id":"CW","transit":false,"i_long":106.856607,"line":2,"time":2,"distance":1230,"station_name":"Cawang","is_transit":false},{"station_name":"Duren Kalibata","transit":false,"is_transit":false,"distance":1546,"station_id":"DRN","time":3,"line":2,"i_lat":-6.255332,"i_long":106.85449},{"station_name":"Pasar Minggu Baru","transit":false,"is_transit":false,"station_id":"PSMB","i_lat":-6.263214,"i_long":106.851577,"line":2,"time":2,"distance":824}]]}