{"data":[[{"transit":false,"i_long":106.491338,"distance":0,"time":0,"line":0,"i_lat":-6.338021,"station_id":"DAR","is_transit":false,"station_name":"Daru"},{"distance":3902,"station_name":"Tenjo","is_transit":false,"station_id":"TEJ","i_lat":-6.327251,"time":5,"transit":false,"i_long":106.460812,"line":6},{"station_name":"Tigaraksa","transit":false,"i_long":106.425991,"station_id":"TGS","is_transit":false,"i_lat":-6.328533,"line":6,"time":5,"distance":2974},{"is_transit":false,"station_name":"Cikoya","station_id":"CKY","transit":false,"time":3,"i_lat":-6.33561,"i_long":106.411216,"line":3,"distance":2651},{"distance":1853,"is_transit":false,"i_lat":-6.332307,"transit":false,"time":4,"station_id":"MJ","station_name":"Maja","line":6,"i_long":106.394373},{"time":10,"station_id":"CTR","distance":7293,"i_lat":-6.334892,"i_long":106.332092,"transit":false,"station_name":"Citeras","line":3,"is_transit":false},{"station_name":"Rangkasbitung","is_transit":false,"line":3,"i_long":106.250396,"time":13,"i_lat":-6.352675,"station_id":"RK","transit":false,"distance":9847}]]}