{"data":[[{"i_lat":-6.338021,"distance":0,"station_id":"DAR","i_long":106.491338,"station_name":"Daru","transit":false,"line":0,"time":0,"is_transit":false},{"station_id":"CJT","i_long":106.508482,"i_lat":-6.354349,"line":3,"time":6,"transit":false,"distance":2675,"station_name":"Cilejit","is_transit":false},{"station_name":"Parung Panjang","transit":false,"station_id":"PRP","distance":7025,"line":6,"i_long":106.568863,"i_lat":-6.3441410000000005,"time":9,"is_transit":false},{"distance":5968,"i_long":106.617853,"i_lat":-6.329547,"line":3,"station_id":"CC","time":8,"station_name":"Cicayur","is_transit":false,"transit":false},{"i_long":106.640411,"distance":2519,"station_id":"CSK","is_transit":false,"time":4,"line":3,"i_lat":-6.32484,"station_name":"Cisauk","transit":false},{"time":4,"transit":false,"distance":1784,"i_lat":-6.319871,"i_long":106.66566,"station_id":"SRP","line":6,"station_name":"Serpong","is_transit":false},{"i_lat":-6.314823,"station_id":"RU","is_transit":false,"transit":false,"station_name":"Rawa Buntu","distance":2413,"i_long":106.675475,"time":4,"line":6},{"i_long":106.712277,"transit":false,"i_lat":-6.296963,"is_transit":false,"line":6,"station_id":"SDM","distance":4566,"time":6,"station_name":"Sudimara"},{"line":6,"is_transit":false,"distance":1994,"station_id":"JMU","transit":false,"time":4,"i_lat":-6.288927,"station_name":"Jurangmangu","i_long":106.728916},{"line":6,"station_name":"Pondokranji","time":3,"transit":false,"i_lat":-6.276362,"i_long":106.74273,"station_id":"PDJ","is_transit":false,"distance":2179},{"transit":false,"time":8,"i_lat":-6.237242,"i_long":106.780334,"distance":6218,"station_name":"Kebayoran","is_transit":false,"station_id":"KBY","line":6},{"station_name":"Palmerah","is_transit":false,"transit":false,"station_id":"PLM","i_lat":-6.207404,"time":7,"distance":3737,"i_long":106.79689,"line":6},{"station_name":"Tanah Abang","is_transit":true,"transit":true,"time":6,"i_long":106.811091,"distance":3191,"i_lat":-6.185545,"station_id":"THB","line":1},{"distance":3632,"i_long":106.800832,"transit":true,"i_lat":-6.155215,"time":8,"station_id":"DU","station_name":"Duri","line":1,"is_transit":true},{"i_long":106.788277,"station_id":"GGL","is_transit":false,"transit":false,"distance":1700,"i_lat":-6.162021,"station_name":"Grogol","time":3,"line":5},{"line":5,"i_long":106.771379,"transit":false,"station_id":"PSG","distance":2036,"station_name":"Pesing","is_transit":false,"time":2,"i_lat":-6.161433},{"transit":false,"time":2,"distance":1614,"i_lat":-6.1587309999999995,"i_long":106.756522,"station_name":"Taman Kota","is_transit":false,"line":5,"station_id":"TKO"},{"is_transit":false,"line":5,"station_id":"BOI","station_name":"Bojongindah","transit":false,"time":2,"distance":2334,"i_long":106.737035,"i_lat":-6.159876},{"transit":false,"time":4,"line":5,"is_transit":false,"distance":1152,"station_id":"RW","i_lat":-6.162758,"station_name":"Rawa Buaya","i_long":106.723064},{"i_lat":-6.166068,"line":5,"transit":false,"time":3,"is_transit":false,"station_name":"Kalideres","distance":2504,"station_id":"KDS","i_long":106.701612}],[{"transit":false,"time":0,"distance":0,"i_lat":-6.338021,"station_name":"Daru","i_long":106.491338,"line":0,"is_transit":false,"station_id":"DAR"},{"distance":2675,"i_long":106.508482,"station_id":"CJT","is_transit":false,"i_lat":-6.354349,"station_name":"Cilejit","time":6,"transit":false,"line":3},{"i_long":106.568863,"transit":false,"station_name":"Parung Panjang","line":6,"is_transit":false,"time":9,"distance":7025,"station_id":"PRP","i_lat":-6.3441410000000005},{"distance":5968,"time":8,"line":3,"transit":false,"station_name":"Cicayur","is_transit":false,"i_long":106.617853,"station_id":"CC","i_lat":-6.329547},{"time":4,"station_name":"Cisauk","line":3,"station_id":"CSK","is_transit":false,"distance":2519,"transit":false,"i_long":106.640411,"i_lat":-6.32484},{"i_long":106.66566,"is_transit":false,"i_lat":-6.319871,"distance":1784,"time":4,"line":6,"station_name":"Serpong","transit":false,"station_id":"SRP"},{"line":6,"transit":false,"is_transit":false,"i_lat":-6.314823,"time":4,"station_id":"RU","i_long":106.675475,"station_name":"Rawa Buntu","distance":2413},{"transit":false,"line":6,"distance":4566,"i_lat":-6.296963,"station_name":"Sudimara","time":6,"is_transit":false,"station_id":"SDM","i_long":106.712277},{"transit":false,"station_name":"Jurangmangu","line":6,"station_id":"JMU","time":4,"distance":1994,"is_transit":false,"i_lat":-6.288927,"i_long":106.728916},{"distance":2179,"line":6,"station_id":"PDJ","station_name":"Pondokranji","transit":false,"i_lat":-6.276362,"i_long":106.74273,"is_transit":false,"time":3},{"is_transit":false,"time":8,"distance":6218,"line":6,"station_name":"Kebayoran","i_lat":-6.237242,"station_id":"KBY","transit":false,"i_long":106.780334},{"is_transit":false,"transit":false,"station_id":"PLM","line":6,"station_name":"Palmerah","time":7,"i_lat":-6.207404,"i_long":106.79689,"distance":3737},{"station_name":"Tanah Abang","station_id":"THB","transit":true,"line":1,"time":6,"i_lat":-6.185545,"is_transit":true,"distance":3191,"i_long":106.811091},{"station_id":"KAT","station_name":"Karet","distance":2029,"i_lat":-6.20132,"is_transit":false,"transit":false,"line":1,"time":5,"i_long":106.816351},{"transit":false,"is_transit":false,"station_name":"Sudirman Baru","time":1,"distance":471,"i_lat":-6.201433,"i_long":106.819881,"line":1,"station_id":"SUDB"},{"station_name":"Sudirman","station_id":"SUD","i_lat":-6.202263,"distance":280,"transit":false,"is_transit":false,"time":1,"i_long":106.822649,"line":1},{"distance":3186,"station_id":"MRI","time":4,"transit":true,"i_long":106.84912,"i_lat":-6.209883,"line":2,"station_name":"Manggarai","is_transit":true},{"station_name":"Cikini","transit":false,"i_lat":-6.198556,"station_id":"CKI","i_long":106.840169,"line":2,"is_transit":false,"distance":1590,"time":4},{"station_id":"GDD","transit":false,"is_transit":false,"time":3,"i_lat":-6.186295,"line":2,"distance":1750,"i_long":106.832183,"station_name":"Gondangdia"},{"is_transit":false,"distance":2015,"line":2,"station_name":"Juanda","station_id":"JUA","i_long":106.828284,"transit":false,"time":4,"i_lat":-6.166716},{"transit":false,"time":2,"station_id":"SW","distance":1149,"station_name":"Sawah Besar","line":2,"is_transit":false,"i_long":106.827103,"i_lat":-6.160725},{"station_name":"Manggabesar","transit":false,"i_lat":-6.149769,"i_long":106.82482,"distance":906,"line":2,"station_id":"MGB","time":2,"is_transit":false},{"line":2,"time":2,"i_long":106.820901,"distance":1080,"is_transit":false,"station_id":"JAY","station_name":"Jayakarta","transit":false,"i_lat":-6.141205},{"station_id":"JAKK","i_long":106.812439,"is_transit":true,"i_lat":-6.137569,"line":2,"station_name":"Jakarta Kota","transit":true,"distance":1264,"time":4},{"station_name":"Kampung Bandan","i_long":106.826365,"i_lat":-6.132549,"station_id":"KPB","is_transit":true,"distance":1364,"time":3,"line":4,"transit":true},{"transit":false,"line":1,"distance":4102,"i_long":106.79867,"i_lat":-6.144674,"time":9,"is_transit":false,"station_id":"AK","station_name":"Angke"},{"transit":true,"is_transit":true,"station_id":"DU","distance":1230,"i_lat":-6.155215,"line":1,"time":4,"i_long":106.800832,"station_name":"Duri"},{"line":5,"station_name":"Grogol","is_transit":false,"station_id":"GGL","i_long":106.788277,"transit":false,"distance":1700,"i_lat":-6.162021,"time":3},{"station_id":"PSG","is_transit":false,"line":5,"time":2,"i_lat":-6.161433,"distance":2036,"transit":false,"i_long":106.771379,"station_name":"Pesing"},{"station_name":"Taman Kota","is_transit":false,"transit":false,"time":2,"i_lat":-6.1587309999999995,"i_long":106.756522,"distance":1614,"line":5,"station_id":"TKO"},{"is_transit":false,"transit":false,"time":2,"station_name":"Bojongindah","distance":2334,"i_lat":-6.159876,"i_long":106.737035,"station_id":"BOI","line":5},{"i_long":106.723064,"is_transit":false,"line":5,"transit":false,"station_id":"RW","station_name":"Rawa Buaya","i_lat":-6.162758,"time":4,"distance":1152},{"station_name":"Kalideres","station_id":"KDS","transit":false,"distance":2504,"i_long":106.701612,"i_lat":-6.166068,"line":5,"time":3,"is_transit":false}],[{"transit":false,"i_long":106.491338,"line":0,"distance":0,"is_transit":false,"station_id":"DAR","i_lat":-6.338021,"station_name":"Daru","time":0},{"line":3,"station_id":"CJT","station_name":"Cilejit","transit":false,"is_transit":false,"time":6,"distance":2675,"i_long":106.508482,"i_lat":-6.354349},{"i_lat":-6.3441410000000005,"station_id":"PRP","line":6,"i_long":106.568863,"station_name":"Parung Panjang","transit":false,"time":9,"is_transit":false,"distance":7025},{"distance":5968,"line":3,"i_long":106.617853,"station_name":"Cicayur","is_transit":false,"station_id":"CC","time":8,"transit":false,"i_lat":-6.329547},{"transit":false,"time":4,"line":3,"is_transit":false,"station_id":"CSK","i_lat":-6.32484,"distance":2519,"i_long":106.640411,"station_name":"Cisauk"},{"station_name":"Serpong","is_transit":false,"line":6,"distance":1784,"i_lat":-6.319871,"transit":false,"station_id":"SRP","time":4,"i_long":106.66566},{"transit":false,"time":4,"station_name":"Rawa Buntu","i_lat":-6.314823,"is_transit":false,"line":6,"distance":2413,"i_long":106.675475,"station_id":"RU"},{"line":6,"time":6,"is_transit":false,"i_long":106.712277,"i_lat":-6.296963,"station_name":"Sudimara","station_id":"SDM","transit":false,"distance":4566},{"transit":false,"station_id":"JMU","distance":1994,"line":6,"time":4,"station_name":"Jurangmangu","i_lat":-6.288927,"is_transit":false,"i_long":106.728916},{"line":6,"station_id":"PDJ","time":3,"distance":2179,"station_name":"Pondokranji","transit":false,"i_long":106.74273,"is_transit":false,"i_lat":-6.276362},{"transit":false,"station_id":"KBY","i_lat":-6.237242,"i_long":106.780334,"station_name":"Kebayoran","line":6,"time":8,"distance":6218,"is_transit":false},{"i_long":106.79689,"line":6,"time":7,"transit":false,"is_transit":false,"distance":3737,"station_name":"Palmerah","i_lat":-6.207404,"station_id":"PLM"},{"distance":3191,"is_transit":true,"station_id":"THB","line":1,"time":6,"i_long":106.811091,"i_lat":-6.185545,"transit":true,"station_name":"Tanah Abang"},{"transit":false,"station_id":"KAT","distance":2029,"i_lat":-6.20132,"station_name":"Karet","line":1,"time":5,"i_long":106.816351,"is_transit":false},{"transit":false,"line":1,"is_transit":false,"time":1,"i_lat":-6.201433,"station_name":"Sudirman Baru","station_id":"SUDB","i_long":106.819881,"distance":471},{"station_id":"SUD","i_lat":-6.202263,"is_transit":false,"line":1,"station_name":"Sudirman","transit":false,"time":1,"distance":280,"i_long":106.822649},{"i_long":106.84912,"station_name":"Manggarai","is_transit":false,"transit":false,"i_lat":-6.209883,"line":2,"station_id":"MRI","distance":3186,"time":4},{"distance":1275,"line":1,"station_name":"Matraman","station_id":"MTR","i_lat":-6.212485,"i_long":106.858896,"time":2,"transit":false,"is_transit":false},{"is_transit":true,"distance":1377,"station_id":"JNG","i_lat":-6.215091,"time":8,"i_long":106.86807400000001,"line":1,"transit":true,"station_name":"Jatinegara"},{"station_id":"POK","station_name":"Pondok Jati","is_transit":false,"transit":false,"distance":1236,"i_long":106.861737,"time":2,"line":11,"i_lat":-6.209188},{"transit":false,"station_name":"Kramat","is_transit":false,"time":2,"i_lat":-6.193792,"i_long":106.855437,"distance":1829,"line":11,"station_id":"KMT"},{"station_name":"Gang Sentiong","time":1,"i_lat":-6.185975,"transit":false,"distance":973,"station_id":"GST","i_long":106.850107,"is_transit":false,"line":11},{"time":8,"distance":1567,"i_lat":-6.174784,"i_long":106.84368,"station_name":"Pasar Senen","line":11,"is_transit":false,"transit":false,"station_id":"PSE"},{"i_long":106.839204,"time":4,"station_id":"KMO","is_transit":false,"distance":1436,"transit":false,"i_lat":-6.161728,"line":11,"station_name":"Kemayoran"},{"transit":false,"line":11,"station_id":"RJW","i_lat":-6.14505,"i_long":106.836569,"is_transit":false,"distance":1901,"time":5,"station_name":"Rajawali"},{"station_id":"KPB","transit":true,"station_name":"Kampung Bandan","is_transit":true,"distance":1444,"i_lat":-6.132549,"i_long":106.826365,"line":4,"time":3},{"is_transit":false,"i_long":106.79867,"transit":false,"station_id":"AK","time":9,"distance":4102,"station_name":"Angke","i_lat":-6.144674,"line":1},{"i_long":106.800832,"is_transit":true,"line":1,"distance":1230,"i_lat":-6.155215,"station_id":"DU","transit":true,"station_name":"Duri","time":4},{"distance":1700,"time":3,"i_lat":-6.162021,"i_long":106.788277,"transit":false,"line":5,"station_name":"Grogol","station_id":"GGL","is_transit":false},{"station_name":"Pesing","time":2,"distance":2036,"line":5,"transit":false,"i_long":106.771379,"i_lat":-6.161433,"station_id":"PSG","is_transit":false},{"is_transit":false,"distance":1614,"station_name":"Taman Kota","transit":false,"time":2,"i_lat":-6.1587309999999995,"i_long":106.756522,"station_id":"TKO","line":5},{"is_transit":false,"distance":2334,"time":2,"station_name":"Bojongindah","line":5,"station_id":"BOI","transit":false,"i_lat":-6.159876,"i_long":106.737035},{"station_id":"RW","station_name":"Rawa Buaya","time":4,"i_lat":-6.162758,"line":5,"distance":1152,"is_transit":false,"transit":false,"i_long":106.723064},{"i_lat":-6.166068,"time":3,"station_name":"Kalideres","i_long":106.701612,"is_transit":false,"distance":2504,"line":5,"transit":false,"station_id":"KDS"}]]}