{"data":[[{"is_transit":false,"station_name":"Daru","i_long":106.491338,"time":0,"line":0,"i_lat":-6.338021,"station_id":"DAR","distance":0,"transit":false},{"i_lat":-6.354349,"time":6,"i_long":106.508482,"distance":2675,"line":3,"transit":false,"station_id":"CJT","is_transit":false,"station_name":"Cilejit"},{"station_name":"Parung Panjang","time":9,"transit":false,"is_transit":false,"distance":7025,"i_lat":-6.3441410000000005,"i_long":106.568863,"station_id":"PRP","line":6},{"station_name":"Cicayur","transit":false,"station_id":"CC","is_transit":false,"i_lat":-6.329547,"i_long":106.617853,"line":3,"distance":5968,"time":8},{"transit":false,"distance":2519,"i_long":106.640411,"is_transit":false,"station_id":"CSK","i_lat":-6.32484,"line":3,"time":4,"station_name":"Cisauk"},{"station_id":"SRP","is_transit":false,"i_lat":-6.319871,"distance":1784,"i_long":106.66566,"station_name":"Serpong","time":4,"line":6,"transit":false},{"i_long":106.675475,"is_transit":false,"line":6,"station_name":"Rawa Buntu","station_id":"RU","time":4,"i_lat":-6.314823,"transit":false,"distance":2413},{"time":6,"transit":false,"i_lat":-6.296963,"station_name":"Sudimara","is_transit":false,"station_id":"SDM","distance":4566,"i_long":106.712277,"line":6},{"distance":1994,"line":6,"station_id":"JMU","station_name":"Jurangmangu","i_lat":-6.288927,"is_transit":false,"i_long":106.728916,"time":4,"transit":false},{"is_transit":false,"line":6,"distance":2179,"transit":false,"time":3,"station_id":"PDJ","i_lat":-6.276362,"station_name":"Pondokranji","i_long":106.74273},{"station_name":"Kebayoran","transit":false,"line":6,"time":8,"i_lat":-6.237242,"is_transit":false,"station_id":"KBY","i_long":106.780334,"distance":6218},{"station_name":"Palmerah","i_long":106.79689,"station_id":"PLM","line":6,"is_transit":false,"time":7,"transit":false,"i_lat":-6.207404,"distance":3737},{"i_lat":-6.185545,"is_transit":true,"station_name":"Tanah Abang","distance":3191,"station_id":"THB","i_long":106.811091,"line":1,"transit":true,"time":6},{"station_name":"Karet","line":1,"distance":2029,"station_id":"KAT","transit":false,"is_transit":false,"time":5,"i_lat":-6.20132,"i_long":106.816351},{"is_transit":false,"time":1,"distance":471,"station_name":"Sudirman Baru","i_long":106.819881,"station_id":"SUDB","transit":false,"i_lat":-6.201433,"line":1},{"transit":false,"i_lat":-6.202263,"distance":280,"time":1,"station_id":"SUD","line":1,"i_long":106.822649,"station_name":"Sudirman","is_transit":false},{"station_id":"MRI","i_lat":-6.209883,"i_long":106.84912,"line":2,"time":4,"distance":3186,"station_name":"Manggarai","is_transit":true,"transit":true},{"station_name":"Tebet","time":4,"distance":2610,"i_lat":-6.226659,"is_transit":false,"line":2,"station_id":"TEB","i_long":106.857948,"transit":false},{"transit":false,"line":2,"station_name":"Cawang","time":2,"is_transit":false,"station_id":"CW","distance":1230,"i_lat":-6.242512,"i_long":106.856607},{"time":3,"line":2,"station_id":"DRN","i_long":106.85449,"i_lat":-6.255332,"station_name":"Duren Kalibata","distance":1546,"is_transit":false,"transit":false},{"station_name":"Pasar Minggu Baru","station_id":"PSMB","time":2,"is_transit":false,"i_lat":-6.263214,"i_long":106.851577,"transit":false,"distance":824,"line":2},{"distance":2380,"station_id":"PSM","is_transit":false,"line":2,"time":2,"station_name":"Pasar Minggu","i_lat":-6.2842400000000005,"transit":false,"i_long":106.843999},{"transit":false,"station_id":"TNT","i_long":106.838896,"is_transit":false,"time":4,"station_name":"Tanjung Barat","distance":2820,"i_lat":-6.3080680000000005,"line":2},{"transit":false,"distance":2671,"i_long":106.832616,"time":3,"station_id":"LNA","line":2,"station_name":"Lenteng Agung","i_lat":-6.330363,"is_transit":false}],[{"station_name":"Daru","distance":0,"time":0,"station_id":"DAR","i_long":106.491338,"transit":false,"is_transit":false,"line":0,"i_lat":-6.338021},{"i_long":106.508482,"distance":2675,"i_lat":-6.354349,"transit":false,"is_transit":false,"time":6,"line":3,"station_name":"Cilejit","station_id":"CJT"},{"station_id":"PRP","is_transit":false,"i_long":106.568863,"i_lat":-6.3441410000000005,"distance":7025,"line":6,"transit":false,"time":9,"station_name":"Parung Panjang"},{"station_id":"CC","line":3,"time":8,"i_lat":-6.329547,"i_long":106.617853,"is_transit":false,"station_name":"Cicayur","distance":5968,"transit":false},{"transit":false,"station_id":"CSK","is_transit":false,"line":3,"time":4,"i_long":106.640411,"distance":2519,"i_lat":-6.32484,"station_name":"Cisauk"},{"line":6,"i_lat":-6.319871,"time":4,"i_long":106.66566,"station_id":"SRP","transit":false,"is_transit":false,"distance":1784,"station_name":"Serpong"},{"is_transit":false,"station_name":"Rawa Buntu","i_long":106.675475,"time":4,"station_id":"RU","line":6,"distance":2413,"transit":false,"i_lat":-6.314823},{"distance":4566,"i_long":106.712277,"transit":false,"line":6,"station_name":"Sudimara","time":6,"station_id":"SDM","is_transit":false,"i_lat":-6.296963},{"i_lat":-6.288927,"distance":1994,"line":6,"i_long":106.728916,"station_id":"JMU","station_name":"Jurangmangu","time":4,"transit":false,"is_transit":false},{"distance":2179,"i_long":106.74273,"i_lat":-6.276362,"is_transit":false,"station_id":"PDJ","station_name":"Pondokranji","line":6,"time":3,"transit":false},{"line":6,"i_lat":-6.237242,"i_long":106.780334,"transit":false,"station_id":"KBY","is_transit":false,"station_name":"Kebayoran","time":8,"distance":6218},{"time":7,"line":6,"station_name":"Palmerah","is_transit":false,"i_lat":-6.207404,"distance":3737,"i_long":106.79689,"station_id":"PLM","transit":false},{"i_long":106.811091,"line":1,"transit":true,"is_transit":true,"time":6,"station_name":"Tanah Abang","station_id":"THB","distance":3191,"i_lat":-6.185545},{"distance":3632,"line":1,"time":8,"station_name":"Duri","i_long":106.800832,"i_lat":-6.155215,"transit":false,"station_id":"DU","is_transit":false},{"time":4,"i_lat":-6.144674,"station_name":"Angke","distance":1230,"station_id":"AK","is_transit":false,"line":1,"transit":false,"i_long":106.79867},{"i_long":106.826365,"line":4,"i_lat":-6.132549,"transit":true,"station_id":"KPB","is_transit":true,"distance":4102,"time":9,"station_name":"Kampung Bandan"},{"station_id":"JAKK","time":3,"station_name":"Jakarta Kota","is_transit":true,"distance":1364,"i_long":106.812439,"line":2,"i_lat":-6.137569,"transit":true},{"is_transit":false,"station_name":"Jayakarta","transit":false,"time":4,"distance":1264,"i_long":106.820901,"line":2,"station_id":"JAY","i_lat":-6.141205},{"transit":false,"station_id":"MGB","is_transit":false,"station_name":"Manggabesar","time":2,"i_lat":-6.149769,"distance":1080,"line":2,"i_long":106.82482},{"station_id":"SW","i_long":106.827103,"time":2,"is_transit":false,"line":2,"i_lat":-6.160725,"transit":false,"distance":906,"station_name":"Sawah Besar"},{"line":2,"distance":1149,"is_transit":false,"i_lat":-6.166716,"station_name":"Juanda","i_long":106.828284,"station_id":"JUA","transit":false,"time":2},{"distance":2015,"i_long":106.832183,"line":2,"station_id":"GDD","transit":false,"time":4,"is_transit":false,"i_lat":-6.186295,"station_name":"Gondangdia"},{"i_long":106.840169,"station_id":"CKI","is_transit":false,"transit":false,"time":3,"line":2,"i_lat":-6.198556,"distance":1750,"station_name":"Cikini"},{"station_id":"MRI","transit":false,"is_transit":false,"line":2,"station_name":"Manggarai","time":4,"i_lat":-6.209883,"i_long":106.84912,"distance":1590},{"i_lat":-6.226659,"distance":2610,"time":4,"is_transit":false,"station_id":"TEB","line":2,"transit":false,"station_name":"Tebet","i_long":106.857948},{"i_lat":-6.242512,"time":2,"i_long":106.856607,"station_name":"Cawang","distance":1230,"is_transit":false,"station_id":"CW","line":2,"transit":false},{"i_long":106.85449,"transit":false,"station_name":"Duren Kalibata","distance":1546,"time":3,"is_transit":false,"i_lat":-6.255332,"line":2,"station_id":"DRN"},{"line":2,"station_name":"Pasar Minggu Baru","transit":false,"station_id":"PSMB","distance":824,"is_transit":false,"i_lat":-6.263214,"i_long":106.851577,"time":2},{"time":2,"distance":2380,"station_name":"Pasar Minggu","transit":false,"line":2,"i_long":106.843999,"i_lat":-6.2842400000000005,"is_transit":false,"station_id":"PSM"},{"i_long":106.838896,"station_id":"TNT","line":2,"station_name":"Tanjung Barat","time":4,"i_lat":-6.3080680000000005,"transit":false,"distance":2820,"is_transit":false},{"transit":false,"station_name":"Lenteng Agung","i_lat":-6.330363,"is_transit":false,"i_long":106.832616,"time":3,"line":2,"station_id":"LNA","distance":2671}],[{"station_id":"DAR","is_transit":false,"distance":0,"i_lat":-6.338021,"i_long":106.491338,"transit":false,"time":0,"station_name":"Daru","line":0},{"i_long":106.508482,"line":3,"distance":2675,"station_id":"CJT","transit":false,"time":6,"station_name":"Cilejit","i_lat":-6.354349,"is_transit":false},{"i_lat":-6.3441410000000005,"station_name":"Parung Panjang","i_long":106.568863,"time":9,"station_id":"PRP","distance":7025,"transit":false,"line":6,"is_transit":false},{"station_id":"CC","transit":false,"distance":5968,"i_lat":-6.329547,"line":3,"is_transit":false,"station_name":"Cicayur","time":8,"i_long":106.617853},{"station_id":"CSK","time":4,"line":3,"i_lat":-6.32484,"station_name":"Cisauk","distance":2519,"is_transit":false,"transit":false,"i_long":106.640411},{"i_lat":-6.319871,"time":4,"transit":false,"station_id":"SRP","station_name":"Serpong","distance":1784,"i_long":106.66566,"line":6,"is_transit":false},{"time":4,"is_transit":false,"station_name":"Rawa Buntu","transit":false,"i_lat":-6.314823,"distance":2413,"line":6,"i_long":106.675475,"station_id":"RU"},{"i_lat":-6.296963,"line":6,"distance":4566,"i_long":106.712277,"is_transit":false,"transit":false,"station_id":"SDM","time":6,"station_name":"Sudimara"},{"i_long":106.728916,"i_lat":-6.288927,"is_transit":false,"station_name":"Jurangmangu","time":4,"line":6,"transit":false,"station_id":"JMU","distance":1994},{"station_id":"PDJ","i_long":106.74273,"transit":false,"distance":2179,"line":6,"time":3,"i_lat":-6.276362,"is_transit":false,"station_name":"Pondokranji"},{"line":6,"distance":6218,"transit":false,"i_lat":-6.237242,"station_name":"Kebayoran","station_id":"KBY","i_long":106.780334,"is_transit":false,"time":8},{"station_name":"Palmerah","transit":false,"is_transit":false,"i_lat":-6.207404,"i_long":106.79689,"line":6,"station_id":"PLM","time":7,"distance":3737},{"line":1,"transit":true,"station_id":"THB","i_long":106.811091,"is_transit":true,"distance":3191,"station_name":"Tanah Abang","i_lat":-6.185545,"time":6},{"is_transit":false,"station_name":"Duri","transit":false,"station_id":"DU","line":1,"time":8,"distance":3632,"i_long":106.800832,"i_lat":-6.155215},{"station_name":"Angke","is_transit":false,"station_id":"AK","i_long":106.79867,"transit":false,"time":4,"distance":1230,"line":1,"i_lat":-6.144674},{"station_name":"Kampung Bandan","transit":true,"station_id":"KPB","is_transit":true,"i_long":106.826365,"distance":4102,"line":4,"time":9,"i_lat":-6.132549},{"i_lat":-6.14505,"station_name":"Rajawali","time":3,"transit":false,"is_transit":false,"i_long":106.836569,"line":11,"distance":1444,"station_id":"RJW"},{"i_lat":-6.161728,"line":11,"distance":1901,"i_long":106.839204,"is_transit":false,"station_id":"KMO","station_name":"Kemayoran","transit":false,"time":5},{"station_id":"PSE","transit":false,"station_name":"Pasar Senen","i_lat":-6.174784,"i_long":106.84368,"line":11,"is_transit":false,"time":4,"distance":1436},{"line":11,"is_transit":false,"station_name":"Gang Sentiong","i_lat":-6.185975,"i_long":106.850107,"station_id":"GST","transit":false,"time":8,"distance":1567},{"i_lat":-6.193792,"station_id":"KMT","station_name":"Kramat","i_long":106.855437,"time":1,"distance":973,"transit":false,"is_transit":false,"line":11},{"i_lat":-6.209188,"time":2,"station_name":"Pondok Jati","line":11,"transit":false,"i_long":106.861737,"station_id":"POK","distance":1829,"is_transit":false},{"transit":true,"i_long":106.86807400000001,"station_id":"JNG","is_transit":true,"line":1,"station_name":"Jatinegara","distance":1236,"time":9,"i_lat":-6.215091},{"time":2,"station_name":"Matraman","transit":false,"station_id":"MTR","is_transit":false,"i_lat":-6.212485,"distance":1377,"line":1,"i_long":106.858896},{"line":2,"distance":1275,"transit":true,"time":2,"station_id":"MRI","station_name":"Manggarai","i_long":106.84912,"is_transit":true,"i_lat":-6.209883},{"i_long":106.857948,"distance":2610,"line":2,"i_lat":-6.226659,"is_transit":false,"station_id":"TEB","station_name":"Tebet","time":4,"transit":false},{"transit":false,"line":2,"is_transit":false,"time":2,"i_long":106.856607,"station_id":"CW","distance":1230,"station_name":"Cawang","i_lat":-6.242512},{"station_name":"Duren Kalibata","transit":false,"line":2,"station_id":"DRN","time":3,"i_lat":-6.255332,"distance":1546,"i_long":106.85449,"is_transit":false},{"is_transit":false,"distance":824,"i_lat":-6.263214,"time":2,"i_long":106.851577,"station_id":"PSMB","station_name":"Pasar Minggu Baru","line":2,"transit":false},{"station_name":"Pasar Minggu","time":2,"distance":2380,"is_transit":false,"i_long":106.843999,"station_id":"PSM","line":2,"transit":false,"i_lat":-6.2842400000000005},{"transit":false,"station_name":"Tanjung Barat","time":4,"is_transit":false,"i_lat":-6.3080680000000005,"distance":2820,"i_long":106.838896,"line":2,"station_id":"TNT"},{"transit":false,"station_name":"Lenteng Agung","time":3,"station_id":"LNA","is_transit":false,"distance":2671,"i_lat":-6.330363,"line":2,"i_long":106.832616}]]}