{"data":[[{"station_id":"DAR","time":0,"transit":false,"i_lat":-6.338021,"is_transit":false,"i_long":106.491338,"station_name":"Daru","distance":0,"line":0},{"distance":2675,"is_transit":false,"station_name":"Cilejit","station_id":"CJT","transit":false,"time":6,"i_lat":-6.354349,"line":3,"i_long":106.508482},{"station_name":"Parung Panjang","i_lat":-6.3441410000000005,"transit":false,"is_transit":false,"distance":7025,"line":6,"i_long":106.568863,"time":9,"station_id":"PRP"},{"i_lat":-6.329547,"distance":5968,"i_long":106.617853,"station_name":"Cicayur","line":3,"station_id":"CC","is_transit":false,"time":8,"transit":false},{"i_lat":-6.32484,"station_name":"Cisauk","transit":false,"distance":2519,"time":4,"i_long":106.640411,"line":3,"station_id":"CSK","is_transit":false},{"distance":1784,"station_name":"Serpong","station_id":"SRP","time":4,"i_lat":-6.319871,"i_long":106.66566,"is_transit":false,"line":6,"transit":false},{"transit":false,"station_name":"Rawa Buntu","station_id":"RU","i_long":106.675475,"is_transit":false,"time":4,"distance":2413,"i_lat":-6.314823,"line":6},{"distance":4566,"station_name":"Sudimara","is_transit":false,"i_long":106.712277,"transit":false,"i_lat":-6.296963,"station_id":"SDM","line":6,"time":6},{"is_transit":false,"i_lat":-6.288927,"line":6,"station_id":"JMU","station_name":"Jurangmangu","transit":false,"time":4,"distance":1994,"i_long":106.728916},{"i_lat":-6.276362,"line":6,"i_long":106.74273,"is_transit":false,"transit":false,"station_id":"PDJ","station_name":"Pondokranji","distance":2179,"time":3},{"station_name":"Kebayoran","distance":6218,"i_long":106.780334,"line":6,"is_transit":false,"time":8,"i_lat":-6.237242,"transit":false,"station_id":"KBY"},{"transit":false,"distance":3737,"line":6,"is_transit":false,"i_lat":-6.207404,"time":7,"station_id":"PLM","station_name":"Palmerah","i_long":106.79689},{"transit":true,"station_name":"Tanah Abang","i_lat":-6.185545,"i_long":106.811091,"station_id":"THB","time":6,"distance":3191,"line":1,"is_transit":true},{"station_id":"KAT","time":5,"distance":2029,"i_lat":-6.20132,"line":1,"station_name":"Karet","transit":false,"is_transit":false,"i_long":106.816351},{"station_id":"SUDB","i_lat":-6.201433,"distance":471,"is_transit":false,"i_long":106.819881,"transit":false,"station_name":"Sudirman Baru","line":1,"time":1},{"station_id":"SUD","line":1,"is_transit":false,"i_long":106.822649,"i_lat":-6.202263,"time":1,"distance":280,"transit":false,"station_name":"Sudirman"},{"line":2,"transit":false,"station_name":"Manggarai","is_transit":false,"i_lat":-6.209883,"distance":3186,"station_id":"MRI","time":4,"i_long":106.84912},{"line":1,"distance":1275,"station_name":"Matraman","i_lat":-6.212485,"station_id":"MTR","transit":false,"is_transit":false,"time":2,"i_long":106.858896},{"transit":false,"station_name":"Jatinegara","station_id":"JNG","time":8,"i_long":106.86807400000001,"line":1,"is_transit":false,"i_lat":-6.215091,"distance":1377},{"time":3,"i_lat":-6.2135,"is_transit":false,"station_name":"Klender","station_id":"KLD","i_long":106.899548,"line":1,"distance":3395,"transit":false},{"i_lat":-6.215568,"time":2,"line":1,"distance":3100,"i_long":106.922662,"station_id":"BUA","station_name":"Buaran","is_transit":false,"transit":false},{"time":1,"i_lat":-6.217455,"transit":false,"i_long":106.939679,"station_name":"Klenderbaru","station_id":"KLDB","distance":1305,"is_transit":false,"line":1}],[{"station_name":"Daru","is_transit":false,"time":0,"transit":false,"station_id":"DAR","distance":0,"line":0,"i_long":106.491338,"i_lat":-6.338021},{"line":3,"station_name":"Cilejit","distance":2675,"transit":false,"is_transit":false,"i_long":106.508482,"i_lat":-6.354349,"station_id":"CJT","time":6},{"is_transit":false,"time":9,"line":6,"transit":false,"distance":7025,"station_name":"Parung Panjang","i_lat":-6.3441410000000005,"i_long":106.568863,"station_id":"PRP"},{"time":8,"i_long":106.617853,"station_id":"CC","line":3,"distance":5968,"i_lat":-6.329547,"transit":false,"is_transit":false,"station_name":"Cicayur"},{"transit":false,"station_name":"Cisauk","is_transit":false,"station_id":"CSK","distance":2519,"time":4,"i_long":106.640411,"i_lat":-6.32484,"line":3},{"line":6,"transit":false,"time":4,"i_long":106.66566,"i_lat":-6.319871,"distance":1784,"station_name":"Serpong","is_transit":false,"station_id":"SRP"},{"distance":2413,"station_id":"RU","station_name":"Rawa Buntu","is_transit":false,"line":6,"time":4,"transit":false,"i_long":106.675475,"i_lat":-6.314823},{"time":6,"distance":4566,"station_name":"Sudimara","line":6,"i_lat":-6.296963,"transit":false,"i_long":106.712277,"station_id":"SDM","is_transit":false},{"i_lat":-6.288927,"i_long":106.728916,"transit":false,"time":4,"line":6,"station_id":"JMU","station_name":"Jurangmangu","distance":1994,"is_transit":false},{"i_long":106.74273,"distance":2179,"time":3,"line":6,"station_id":"PDJ","station_name":"Pondokranji","i_lat":-6.276362,"transit":false,"is_transit":false},{"station_id":"KBY","i_long":106.780334,"station_name":"Kebayoran","time":8,"i_lat":-6.237242,"transit":false,"line":6,"distance":6218,"is_transit":false},{"i_long":106.79689,"distance":3737,"is_transit":false,"i_lat":-6.207404,"station_name":"Palmerah","station_id":"PLM","time":7,"transit":false,"line":6},{"transit":true,"time":6,"is_transit":true,"i_lat":-6.185545,"station_name":"Tanah Abang","i_long":106.811091,"line":1,"station_id":"THB","distance":3191},{"i_long":106.800832,"station_id":"DU","line":1,"transit":false,"i_lat":-6.155215,"station_name":"Duri","is_transit":false,"distance":3632,"time":8},{"transit":false,"is_transit":false,"distance":1230,"i_long":106.79867,"line":1,"station_name":"Angke","station_id":"AK","time":4,"i_lat":-6.144674},{"i_lat":-6.132549,"transit":true,"time":9,"i_long":106.826365,"is_transit":true,"line":4,"station_id":"KPB","station_name":"Kampung Bandan","distance":4102},{"i_lat":-6.14505,"station_name":"Rajawali","time":3,"is_transit":false,"line":11,"station_id":"RJW","distance":1444,"transit":false,"i_long":106.836569},{"transit":false,"distance":1901,"station_id":"KMO","is_transit":false,"time":5,"station_name":"Kemayoran","i_long":106.839204,"i_lat":-6.161728,"line":11},{"transit":false,"station_id":"PSE","is_transit":false,"time":4,"station_name":"Pasar Senen","distance":1436,"i_lat":-6.174784,"i_long":106.84368,"line":11},{"transit":false,"station_name":"Gang Sentiong","is_transit":false,"time":8,"distance":1567,"station_id":"GST","i_lat":-6.185975,"line":11,"i_long":106.850107},{"distance":973,"is_transit":false,"transit":false,"station_name":"Kramat","station_id":"KMT","line":11,"i_lat":-6.193792,"time":1,"i_long":106.855437},{"line":11,"station_name":"Pondok Jati","station_id":"POK","i_long":106.861737,"is_transit":false,"time":2,"distance":1829,"i_lat":-6.209188,"transit":false},{"line":1,"distance":1236,"station_id":"JNG","transit":true,"i_long":106.86807400000001,"is_transit":true,"station_name":"Jatinegara","time":9,"i_lat":-6.215091},{"line":1,"time":3,"distance":3395,"station_id":"KLD","i_lat":-6.2135,"is_transit":false,"transit":false,"i_long":106.899548,"station_name":"Klender"},{"i_lat":-6.215568,"time":2,"i_long":106.922662,"is_transit":false,"station_id":"BUA","line":1,"station_name":"Buaran","distance":3100,"transit":false},{"station_id":"KLDB","station_name":"Klenderbaru","line":1,"i_long":106.939679,"time":1,"i_lat":-6.217455,"distance":1305,"is_transit":false,"transit":false}],[{"distance":0,"line":0,"station_name":"Daru","station_id":"DAR","i_long":106.491338,"transit":false,"is_transit":false,"time":0,"i_lat":-6.338021},{"i_long":106.508482,"is_transit":false,"line":3,"distance":2675,"i_lat":-6.354349,"transit":false,"station_id":"CJT","station_name":"Cilejit","time":6},{"line":6,"station_id":"PRP","station_name":"Parung Panjang","time":9,"is_transit":false,"i_lat":-6.3441410000000005,"transit":false,"i_long":106.568863,"distance":7025},{"i_long":106.617853,"i_lat":-6.329547,"line":3,"station_id":"CC","time":8,"is_transit":false,"station_name":"Cicayur","transit":false,"distance":5968},{"transit":false,"distance":2519,"i_long":106.640411,"i_lat":-6.32484,"station_name":"Cisauk","time":4,"line":3,"is_transit":false,"station_id":"CSK"},{"station_id":"SRP","line":6,"distance":1784,"i_lat":-6.319871,"station_name":"Serpong","is_transit":false,"time":4,"transit":false,"i_long":106.66566},{"distance":2413,"is_transit":false,"i_long":106.675475,"station_name":"Rawa Buntu","station_id":"RU","i_lat":-6.314823,"time":4,"transit":false,"line":6},{"station_id":"SDM","i_long":106.712277,"line":6,"time":6,"transit":false,"is_transit":false,"i_lat":-6.296963,"distance":4566,"station_name":"Sudimara"},{"transit":false,"is_transit":false,"time":4,"i_lat":-6.288927,"i_long":106.728916,"station_id":"JMU","station_name":"Jurangmangu","distance":1994,"line":6},{"transit":false,"station_name":"Pondokranji","time":3,"is_transit":false,"station_id":"PDJ","i_long":106.74273,"line":6,"i_lat":-6.276362,"distance":2179},{"transit":false,"i_long":106.780334,"station_name":"Kebayoran","time":8,"distance":6218,"i_lat":-6.237242,"line":6,"is_transit":false,"station_id":"KBY"},{"transit":false,"time":7,"station_name":"Palmerah","station_id":"PLM","i_lat":-6.207404,"is_transit":false,"distance":3737,"i_long":106.79689,"line":6},{"transit":true,"i_long":106.811091,"station_name":"Tanah Abang","station_id":"THB","distance":3191,"time":6,"i_lat":-6.185545,"line":1,"is_transit":true},{"transit":false,"distance":3632,"i_long":106.800832,"is_transit":false,"line":1,"station_name":"Duri","station_id":"DU","time":8,"i_lat":-6.155215},{"time":4,"station_id":"AK","distance":1230,"i_lat":-6.144674,"station_name":"Angke","line":1,"is_transit":false,"transit":false,"i_long":106.79867},{"station_id":"KPB","line":4,"transit":true,"is_transit":true,"distance":4102,"station_name":"Kampung Bandan","i_lat":-6.132549,"i_long":106.826365,"time":9},{"time":3,"distance":1364,"station_name":"Jakarta Kota","line":2,"transit":true,"is_transit":true,"station_id":"JAKK","i_lat":-6.137569,"i_long":106.812439},{"transit":false,"i_lat":-6.141205,"station_id":"JAY","time":4,"station_name":"Jayakarta","distance":1264,"is_transit":false,"i_long":106.820901,"line":2},{"is_transit":false,"line":2,"station_id":"MGB","i_lat":-6.149769,"time":2,"distance":1080,"i_long":106.82482,"station_name":"Manggabesar","transit":false},{"is_transit":false,"i_lat":-6.160725,"transit":false,"time":2,"station_name":"Sawah Besar","line":2,"i_long":106.827103,"station_id":"SW","distance":906},{"time":2,"i_long":106.828284,"is_transit":false,"i_lat":-6.166716,"station_name":"Juanda","line":2,"station_id":"JUA","distance":1149,"transit":false},{"i_long":106.832183,"distance":2015,"station_name":"Gondangdia","line":2,"transit":false,"time":4,"station_id":"GDD","is_transit":false,"i_lat":-6.186295},{"station_id":"CKI","time":3,"station_name":"Cikini","i_long":106.840169,"transit":false,"distance":1750,"line":2,"i_lat":-6.198556,"is_transit":false},{"station_id":"MRI","transit":true,"i_lat":-6.209883,"distance":1590,"i_long":106.84912,"line":2,"station_name":"Manggarai","time":4,"is_transit":true},{"time":2,"i_lat":-6.212485,"i_long":106.858896,"distance":1275,"transit":false,"station_id":"MTR","line":1,"station_name":"Matraman","is_transit":false},{"is_transit":false,"i_lat":-6.215091,"transit":false,"time":8,"station_id":"JNG","distance":1377,"i_long":106.86807400000001,"line":1,"station_name":"Jatinegara"},{"is_transit":false,"station_name":"Klender","i_lat":-6.2135,"distance":3395,"i_long":106.899548,"line":1,"time":3,"station_id":"KLD","transit":false},{"station_name":"Buaran","transit":false,"distance":3100,"line":1,"station_id":"BUA","is_transit":false,"i_long":106.922662,"time":2,"i_lat":-6.215568},{"transit":false,"time":1,"distance":1305,"i_long":106.939679,"i_lat":-6.217455,"is_transit":false,"station_name":"Klenderbaru","station_id":"KLDB","line":1}],[{"is_transit":false,"distance":0,"time":0,"transit":false,"i_lat":-6.338021,"line":0,"station_name":"Daru","i_long":106.491338,"station_id":"DAR"},{"station_name":"Cilejit","line":3,"distance":2675,"time":6,"i_lat":-6.354349,"is_transit":false,"station_id":"CJT","i_long":106.508482,"transit":false},{"station_id":"PRP","transit":false,"station_name":"Parung Panjang","distance":7025,"i_lat":-6.3441410000000005,"time":9,"is_transit":false,"i_long":106.568863,"line":6},{"is_transit":false,"station_id":"CC","line":3,"time":8,"i_lat":-6.329547,"transit":false,"station_name":"Cicayur","distance":5968,"i_long":106.617853},{"station_name":"Cisauk","is_transit":false,"time":4,"transit":false,"i_lat":-6.32484,"station_id":"CSK","line":3,"distance":2519,"i_long":106.640411},{"line":6,"time":4,"distance":1784,"i_long":106.66566,"i_lat":-6.319871,"is_transit":false,"transit":false,"station_name":"Serpong","station_id":"SRP"},{"station_name":"Rawa Buntu","i_lat":-6.314823,"line":6,"distance":2413,"i_long":106.675475,"is_transit":false,"time":4,"transit":false,"station_id":"RU"},{"distance":4566,"i_long":106.712277,"i_lat":-6.296963,"transit":false,"station_id":"SDM","time":6,"station_name":"Sudimara","is_transit":false,"line":6},{"i_long":106.728916,"transit":false,"station_id":"JMU","distance":1994,"station_name":"Jurangmangu","i_lat":-6.288927,"line":6,"is_transit":false,"time":4},{"time":3,"distance":2179,"i_long":106.74273,"line":6,"station_name":"Pondokranji","transit":false,"station_id":"PDJ","is_transit":false,"i_lat":-6.276362},{"transit":false,"station_name":"Kebayoran","distance":6218,"i_long":106.780334,"time":8,"station_id":"KBY","line":6,"is_transit":false,"i_lat":-6.237242},{"transit":false,"is_transit":false,"i_long":106.79689,"line":6,"station_id":"PLM","distance":3737,"station_name":"Palmerah","i_lat":-6.207404,"time":7},{"i_long":106.811091,"is_transit":true,"station_id":"THB","time":6,"distance":3191,"station_name":"Tanah Abang","transit":true,"line":1,"i_lat":-6.185545},{"time":5,"distance":2029,"transit":false,"station_name":"Karet","is_transit":false,"i_lat":-6.20132,"i_long":106.816351,"line":1,"station_id":"KAT"},{"station_id":"SUDB","line":1,"station_name":"Sudirman Baru","i_lat":-6.201433,"is_transit":false,"transit":false,"distance":471,"time":1,"i_long":106.819881},{"is_transit":false,"i_long":106.822649,"distance":280,"station_id":"SUD","transit":false,"line":1,"station_name":"Sudirman","i_lat":-6.202263,"time":1},{"transit":true,"line":2,"distance":3186,"i_long":106.84912,"is_transit":true,"station_name":"Manggarai","time":4,"i_lat":-6.209883,"station_id":"MRI"},{"i_long":106.840169,"distance":1590,"station_name":"Cikini","is_transit":false,"station_id":"CKI","i_lat":-6.198556,"transit":false,"line":2,"time":4},{"is_transit":false,"distance":1750,"station_name":"Gondangdia","i_lat":-6.186295,"i_long":106.832183,"line":2,"station_id":"GDD","time":3,"transit":false},{"i_long":106.828284,"station_name":"Juanda","is_transit":false,"time":4,"distance":2015,"station_id":"JUA","transit":false,"line":2,"i_lat":-6.166716},{"i_lat":-6.160725,"transit":false,"i_long":106.827103,"distance":1149,"station_id":"SW","is_transit":false,"station_name":"Sawah Besar","time":2,"line":2},{"is_transit":false,"i_lat":-6.149769,"distance":906,"station_name":"Manggabesar","i_long":106.82482,"line":2,"transit":false,"station_id":"MGB","time":2},{"station_name":"Jayakarta","station_id":"JAY","is_transit":false,"i_long":106.820901,"transit":false,"distance":1080,"line":2,"time":2,"i_lat":-6.141205},{"i_lat":-6.137569,"transit":true,"line":2,"station_id":"JAKK","station_name":"Jakarta Kota","time":4,"distance":1264,"i_long":106.812439,"is_transit":true},{"station_id":"KPB","time":3,"i_long":106.826365,"station_name":"Kampung Bandan","is_transit":true,"distance":1364,"i_lat":-6.132549,"line":4,"transit":true},{"station_id":"RJW","line":11,"time":3,"i_long":106.836569,"transit":false,"is_transit":false,"i_lat":-6.14505,"station_name":"Rajawali","distance":1444},{"i_lat":-6.161728,"transit":false,"line":11,"station_id":"KMO","station_name":"Kemayoran","is_transit":false,"i_long":106.839204,"time":5,"distance":1901},{"line":11,"time":4,"transit":false,"i_long":106.84368,"i_lat":-6.174784,"distance":1436,"station_id":"PSE","station_name":"Pasar Senen","is_transit":false},{"transit":false,"station_name":"Gang Sentiong","time":8,"station_id":"GST","i_lat":-6.185975,"is_transit":false,"i_long":106.850107,"line":11,"distance":1567},{"time":1,"distance":973,"is_transit":false,"transit":false,"i_long":106.855437,"station_name":"Kramat","station_id":"KMT","line":11,"i_lat":-6.193792},{"line":11,"transit":false,"i_long":106.861737,"time":2,"station_id":"POK","station_name":"Pondok Jati","i_lat":-6.209188,"is_transit":false,"distance":1829},{"transit":true,"station_name":"Jatinegara","station_id":"JNG","i_lat":-6.215091,"time":9,"is_transit":true,"i_long":106.86807400000001,"line":1,"distance":1236},{"transit":false,"is_transit":false,"line":1,"i_lat":-6.2135,"station_name":"Klender","station_id":"KLD","time":3,"i_long":106.899548,"distance":3395},{"distance":3100,"i_long":106.922662,"line":1,"station_id":"BUA","time":2,"transit":false,"is_transit":false,"i_lat":-6.215568,"station_name":"Buaran"},{"is_transit":false,"station_id":"KLDB","i_lat":-6.217455,"time":1,"distance":1305,"line":1,"i_long":106.939679,"transit":false,"station_name":"Klenderbaru"}]]}