{"data":[[{"distance":0,"line":0,"station_name":"Daru","i_long":106.491338,"station_id":"DAR","is_transit":false,"time":0,"transit":false,"i_lat":-6.338021},{"i_long":106.508482,"station_id":"CJT","is_transit":false,"i_lat":-6.354349,"time":6,"transit":false,"distance":2675,"line":0,"station_name":"Cilejit"},{"station_id":"PRP","is_transit":false,"distance":7025,"i_lat":-6.3441410000000005,"station_name":"Parung Panjang","time":9,"i_long":106.568863,"line":6,"transit":false},{"time":8,"i_long":106.617853,"line":0,"is_transit":false,"distance":5968,"i_lat":-6.329547,"transit":false,"station_name":"Cicayur","station_id":"CC"},{"station_id":"CSK","is_transit":false,"station_name":"Cisauk","distance":2519,"i_lat":-6.32484,"i_long":106.640411,"line":0,"transit":false,"time":4},{"station_id":"SRP","time":4,"distance":1784,"is_transit":false,"station_name":"Serpong","i_long":106.66566,"transit":false,"i_lat":-6.319871,"line":6},{"station_id":"RU","station_name":"Rawa Buntu","is_transit":false,"i_lat":-6.314823,"line":6,"distance":2413,"transit":false,"i_long":106.675475,"time":4},{"is_transit":false,"time":6,"station_id":"SDM","i_long":106.712277,"line":6,"distance":4566,"i_lat":-6.296963,"station_name":"Sudimara","transit":false},{"time":4,"station_name":"Jurangmangu","i_long":106.728916,"transit":false,"i_lat":-6.288927,"station_id":"JMU","distance":1994,"is_transit":false,"line":6},{"is_transit":false,"station_id":"PDJ","i_lat":-6.276362,"transit":false,"i_long":106.74273,"time":3,"line":6,"station_name":"Pondokranji","distance":2179},{"station_id":"KBY","i_lat":-6.237242,"line":6,"time":8,"station_name":"Kebayoran","transit":false,"distance":6218,"i_long":106.780334,"is_transit":false},{"i_lat":-6.207404,"time":7,"transit":false,"distance":3737,"is_transit":false,"i_long":106.79689,"station_id":"PLM","line":6,"station_name":"Palmerah"},{"line":1,"station_name":"Tanah Abang","time":6,"is_transit":true,"distance":3191,"i_long":106.811091,"station_id":"THB","transit":true,"i_lat":-6.185545},{"time":5,"i_long":106.816351,"line":1,"is_transit":false,"station_id":"KAT","station_name":"Karet","distance":2029,"transit":false,"i_lat":-6.20132},{"transit":false,"is_transit":false,"station_name":"Sudirman Baru","station_id":"SUDB","time":1,"i_long":106.819881,"i_lat":-6.201433,"distance":471,"line":1},{"transit":false,"line":1,"time":1,"station_id":"SUD","i_lat":-6.202263,"is_transit":false,"station_name":"Sudirman","distance":280,"i_long":106.822649},{"transit":false,"station_id":"MRI","is_transit":true,"i_long":106.84912,"i_lat":-6.209883,"line":0,"station_name":"Manggarai","time":4,"distance":3186},{"i_long":106.858896,"time":2,"i_lat":-6.212485,"station_id":"MTR","line":1,"station_name":"Matraman","is_transit":false,"distance":1275,"transit":false},{"time":8,"distance":1377,"is_transit":true,"i_long":106.86807400000001,"station_id":"JNG","i_lat":-6.215091,"transit":false,"station_name":"Jatinegara","line":0},{"transit":false,"i_lat":-6.2135,"time":3,"i_long":106.899548,"station_name":"Klender","station_id":"KLD","is_transit":false,"distance":3395,"line":1},{"station_name":"Buaran","station_id":"BUA","is_transit":false,"distance":3100,"time":2,"i_long":106.922662,"transit":false,"line":0,"i_lat":-6.215568}],[{"station_name":"Daru","distance":0,"station_id":"DAR","is_transit":false,"time":0,"i_long":106.491338,"line":0,"transit":false,"i_lat":-6.338021},{"time":6,"i_lat":-6.354349,"transit":false,"distance":2675,"station_id":"CJT","i_long":106.508482,"line":0,"station_name":"Cilejit","is_transit":false},{"distance":7025,"station_id":"PRP","transit":false,"time":9,"station_name":"Parung Panjang","i_long":106.568863,"line":6,"i_lat":-6.3441410000000005,"is_transit":false},{"is_transit":false,"time":8,"line":0,"station_id":"CC","station_name":"Cicayur","transit":false,"i_long":106.617853,"distance":5968,"i_lat":-6.329547},{"station_id":"CSK","station_name":"Cisauk","i_lat":-6.32484,"distance":2519,"transit":false,"i_long":106.640411,"is_transit":false,"time":4,"line":0},{"i_long":106.66566,"is_transit":false,"time":4,"line":6,"distance":1784,"station_id":"SRP","i_lat":-6.319871,"station_name":"Serpong","transit":false},{"distance":2413,"transit":false,"is_transit":false,"time":4,"line":6,"i_long":106.675475,"i_lat":-6.314823,"station_id":"RU","station_name":"Rawa Buntu"},{"i_long":106.712277,"station_id":"SDM","line":6,"transit":false,"i_lat":-6.296963,"station_name":"Sudimara","distance":4566,"is_transit":false,"time":6},{"i_lat":-6.288927,"station_id":"JMU","is_transit":false,"time":4,"line":6,"i_long":106.728916,"station_name":"Jurangmangu","distance":1994,"transit":false},{"line":6,"station_name":"Pondokranji","i_lat":-6.276362,"transit":false,"station_id":"PDJ","i_long":106.74273,"distance":2179,"time":3,"is_transit":false},{"is_transit":false,"station_id":"KBY","station_name":"Kebayoran","time":8,"transit":false,"i_long":106.780334,"line":6,"distance":6218,"i_lat":-6.237242},{"station_name":"Palmerah","time":7,"distance":3737,"station_id":"PLM","line":6,"i_long":106.79689,"is_transit":false,"transit":false,"i_lat":-6.207404},{"i_lat":-6.185545,"distance":3191,"transit":true,"is_transit":true,"i_long":106.811091,"line":1,"time":6,"station_name":"Tanah Abang","station_id":"THB"},{"distance":3632,"time":8,"i_long":106.800832,"line":1,"transit":true,"station_name":"Duri","station_id":"DU","is_transit":true,"i_lat":-6.155215},{"station_id":"AK","is_transit":false,"station_name":"Angke","distance":1230,"transit":false,"time":4,"i_long":106.79867,"i_lat":-6.144674,"line":0},{"time":9,"station_id":"KPB","station_name":"Kampung Bandan","transit":true,"i_long":106.826365,"line":0,"is_transit":true,"i_lat":-6.132549,"distance":4102},{"is_transit":false,"line":11,"transit":false,"time":3,"i_long":106.836569,"station_id":"RJW","distance":1444,"i_lat":-6.14505,"station_name":"Rajawali"},{"station_name":"Kemayoran","station_id":"KMO","transit":false,"i_long":106.839204,"time":5,"distance":1901,"i_lat":-6.161728,"line":11,"is_transit":false},{"transit":false,"line":11,"is_transit":false,"time":4,"station_id":"PSE","i_long":106.84368,"station_name":"Pasar Senen","distance":1436,"i_lat":-6.174784},{"i_lat":-6.185975,"station_name":"Gang Sentiong","i_long":106.850107,"line":11,"time":8,"station_id":"GST","distance":1567,"transit":false,"is_transit":false},{"distance":973,"i_lat":-6.193792,"is_transit":false,"line":11,"station_id":"KMT","time":1,"i_long":106.855437,"station_name":"Kramat","transit":false},{"station_id":"POK","i_long":106.861737,"distance":1829,"line":11,"i_lat":-6.209188,"time":2,"is_transit":false,"transit":false,"station_name":"Pondok Jati"},{"line":0,"station_id":"JNG","time":9,"transit":true,"distance":1236,"is_transit":true,"i_lat":-6.215091,"i_long":106.86807400000001,"station_name":"Jatinegara"},{"distance":3395,"line":1,"transit":false,"is_transit":false,"station_id":"KLD","station_name":"Klender","i_lat":-6.2135,"time":3,"i_long":106.899548},{"station_name":"Buaran","i_lat":-6.215568,"i_long":106.922662,"line":0,"distance":3100,"station_id":"BUA","time":2,"is_transit":false,"transit":false}],[{"transit":false,"station_id":"DAR","time":0,"station_name":"Daru","i_lat":-6.338021,"i_long":106.491338,"is_transit":false,"distance":0,"line":0},{"line":0,"transit":false,"station_name":"Cilejit","i_lat":-6.354349,"time":6,"distance":2675,"is_transit":false,"station_id":"CJT","i_long":106.508482},{"i_lat":-6.3441410000000005,"station_name":"Parung Panjang","distance":7025,"line":6,"transit":false,"is_transit":false,"i_long":106.568863,"time":9,"station_id":"PRP"},{"transit":false,"station_name":"Cicayur","station_id":"CC","i_lat":-6.329547,"is_transit":false,"i_long":106.617853,"distance":5968,"line":0,"time":8},{"station_name":"Cisauk","station_id":"CSK","time":4,"i_lat":-6.32484,"is_transit":false,"distance":2519,"transit":false,"i_long":106.640411,"line":0},{"station_id":"SRP","distance":1784,"line":6,"station_name":"Serpong","transit":false,"is_transit":false,"i_long":106.66566,"time":4,"i_lat":-6.319871},{"time":4,"transit":false,"line":6,"distance":2413,"is_transit":false,"i_lat":-6.314823,"station_id":"RU","station_name":"Rawa Buntu","i_long":106.675475},{"is_transit":false,"distance":4566,"line":6,"time":6,"station_id":"SDM","i_lat":-6.296963,"transit":false,"i_long":106.712277,"station_name":"Sudimara"},{"station_name":"Jurangmangu","is_transit":false,"time":4,"i_lat":-6.288927,"distance":1994,"transit":false,"i_long":106.728916,"station_id":"JMU","line":6},{"transit":false,"station_id":"PDJ","i_long":106.74273,"line":6,"station_name":"Pondokranji","time":3,"distance":2179,"is_transit":false,"i_lat":-6.276362},{"station_id":"KBY","transit":false,"i_lat":-6.237242,"is_transit":false,"i_long":106.780334,"time":8,"line":6,"station_name":"Kebayoran","distance":6218},{"station_name":"Palmerah","transit":false,"i_long":106.79689,"station_id":"PLM","is_transit":false,"time":7,"line":6,"i_lat":-6.207404,"distance":3737},{"distance":3191,"station_name":"Tanah Abang","station_id":"THB","is_transit":true,"time":6,"i_lat":-6.185545,"i_long":106.811091,"line":1,"transit":true},{"time":8,"i_long":106.800832,"station_id":"DU","line":1,"is_transit":true,"station_name":"Duri","transit":true,"distance":3632,"i_lat":-6.155215},{"i_lat":-6.144674,"time":4,"line":0,"transit":false,"station_name":"Angke","is_transit":false,"i_long":106.79867,"distance":1230,"station_id":"AK"},{"station_id":"KPB","transit":false,"i_lat":-6.132549,"i_long":106.826365,"line":0,"station_name":"Kampung Bandan","is_transit":true,"distance":4102,"time":9},{"line":0,"transit":true,"station_name":"Jakarta Kota","is_transit":true,"time":3,"station_id":"JAKK","i_lat":-6.137569,"distance":1364,"i_long":106.812439},{"i_lat":-6.141205,"station_name":"Jayakarta","i_long":106.820901,"transit":false,"time":4,"line":7,"station_id":"JAY","is_transit":false,"distance":1264},{"is_transit":false,"distance":1080,"station_id":"MGB","time":2,"transit":false,"station_name":"Manggabesar","i_lat":-6.149769,"i_long":106.82482,"line":2},{"i_long":106.827103,"distance":906,"transit":false,"is_transit":false,"i_lat":-6.160725,"station_id":"SW","line":2,"station_name":"Sawah Besar","time":2},{"i_lat":-6.166716,"station_id":"JUA","station_name":"Juanda","line":2,"time":2,"transit":false,"i_long":106.828284,"is_transit":false,"distance":1149},{"is_transit":false,"i_long":106.832183,"transit":false,"station_id":"GDD","station_name":"Gondangdia","time":4,"i_lat":-6.186295,"line":2,"distance":2015},{"transit":false,"i_lat":-6.198556,"i_long":106.840169,"distance":1750,"line":0,"is_transit":false,"station_id":"CKI","time":3,"station_name":"Cikini"},{"is_transit":true,"transit":true,"line":0,"station_id":"MRI","time":4,"distance":1590,"i_lat":-6.209883,"i_long":106.84912,"station_name":"Manggarai"},{"station_name":"Matraman","is_transit":false,"time":2,"station_id":"MTR","distance":1275,"i_long":106.858896,"transit":false,"i_lat":-6.212485,"line":1},{"transit":false,"station_id":"JNG","is_transit":true,"i_lat":-6.215091,"time":8,"i_long":106.86807400000001,"distance":1377,"line":0,"station_name":"Jatinegara"},{"is_transit":false,"line":1,"i_lat":-6.2135,"station_name":"Klender","time":3,"distance":3395,"transit":false,"i_long":106.899548,"station_id":"KLD"},{"is_transit":false,"transit":false,"line":0,"i_long":106.922662,"distance":3100,"i_lat":-6.215568,"station_id":"BUA","station_name":"Buaran","time":2}],[{"line":0,"transit":false,"i_long":106.491338,"station_name":"Daru","i_lat":-6.338021,"station_id":"DAR","time":0,"is_transit":false,"distance":0},{"line":0,"is_transit":false,"time":6,"i_long":106.508482,"distance":2675,"i_lat":-6.354349,"transit":false,"station_id":"CJT","station_name":"Cilejit"},{"i_lat":-6.3441410000000005,"is_transit":false,"transit":false,"time":9,"station_name":"Parung Panjang","distance":7025,"i_long":106.568863,"line":6,"station_id":"PRP"},{"is_transit":false,"station_name":"Cicayur","distance":5968,"station_id":"CC","transit":false,"i_long":106.617853,"time":8,"i_lat":-6.329547,"line":0},{"station_id":"CSK","transit":false,"line":0,"i_lat":-6.32484,"time":4,"station_name":"Cisauk","i_long":106.640411,"distance":2519,"is_transit":false},{"distance":1784,"i_long":106.66566,"i_lat":-6.319871,"time":4,"line":6,"station_id":"SRP","station_name":"Serpong","is_transit":false,"transit":false},{"station_name":"Rawa Buntu","time":4,"distance":2413,"transit":false,"is_transit":false,"i_lat":-6.314823,"station_id":"RU","line":6,"i_long":106.675475},{"time":6,"is_transit":false,"station_id":"SDM","distance":4566,"i_long":106.712277,"i_lat":-6.296963,"line":6,"transit":false,"station_name":"Sudimara"},{"i_long":106.728916,"time":4,"distance":1994,"i_lat":-6.288927,"is_transit":false,"transit":false,"line":6,"station_id":"JMU","station_name":"Jurangmangu"},{"is_transit":false,"line":6,"station_id":"PDJ","station_name":"Pondokranji","distance":2179,"transit":false,"i_lat":-6.276362,"i_long":106.74273,"time":3},{"is_transit":false,"distance":6218,"time":8,"line":6,"station_name":"Kebayoran","transit":false,"station_id":"KBY","i_lat":-6.237242,"i_long":106.780334},{"time":7,"distance":3737,"i_lat":-6.207404,"transit":false,"station_id":"PLM","station_name":"Palmerah","is_transit":false,"line":6,"i_long":106.79689},{"transit":true,"is_transit":true,"station_name":"Tanah Abang","distance":3191,"i_long":106.811091,"station_id":"THB","time":6,"i_lat":-6.185545,"line":1},{"time":5,"station_name":"Karet","distance":2029,"transit":false,"station_id":"KAT","is_transit":false,"i_lat":-6.20132,"line":1,"i_long":106.816351},{"is_transit":false,"i_long":106.819881,"station_id":"SUDB","transit":false,"time":1,"i_lat":-6.201433,"distance":471,"station_name":"Sudirman Baru","line":1},{"transit":false,"i_lat":-6.202263,"is_transit":false,"station_name":"Sudirman","time":1,"distance":280,"i_long":106.822649,"station_id":"SUD","line":1},{"time":4,"station_name":"Manggarai","i_long":106.84912,"distance":3186,"station_id":"MRI","transit":true,"is_transit":true,"i_lat":-6.209883,"line":0},{"transit":false,"distance":1590,"i_long":106.840169,"time":4,"is_transit":false,"i_lat":-6.198556,"line":0,"station_id":"CKI","station_name":"Cikini"},{"time":3,"i_lat":-6.186295,"station_name":"Gondangdia","transit":false,"distance":1750,"station_id":"GDD","is_transit":false,"i_long":106.832183,"line":2},{"time":4,"i_long":106.828284,"station_name":"Juanda","i_lat":-6.166716,"is_transit":false,"station_id":"JUA","distance":2015,"transit":false,"line":2},{"i_lat":-6.160725,"station_name":"Sawah Besar","station_id":"SW","distance":1149,"time":2,"line":2,"transit":false,"is_transit":false,"i_long":106.827103},{"line":2,"is_transit":false,"time":2,"i_lat":-6.149769,"distance":906,"transit":false,"station_name":"Manggabesar","i_long":106.82482,"station_id":"MGB"},{"station_id":"JAY","is_transit":false,"i_long":106.820901,"i_lat":-6.141205,"distance":1080,"line":7,"time":2,"station_name":"Jayakarta","transit":false},{"station_id":"JAKK","station_name":"Jakarta Kota","transit":true,"line":0,"distance":1264,"i_lat":-6.137569,"is_transit":true,"time":4,"i_long":106.812439},{"station_id":"KPB","i_lat":-6.132549,"time":3,"is_transit":true,"distance":1364,"transit":true,"i_long":106.826365,"line":0,"station_name":"Kampung Bandan"},{"time":3,"i_lat":-6.14505,"station_id":"RJW","distance":1444,"transit":false,"i_long":106.836569,"station_name":"Rajawali","is_transit":false,"line":11},{"is_transit":false,"time":5,"transit":false,"distance":1901,"i_long":106.839204,"station_name":"Kemayoran","i_lat":-6.161728,"line":11,"station_id":"KMO"},{"transit":false,"station_id":"PSE","station_name":"Pasar Senen","i_long":106.84368,"time":4,"is_transit":false,"distance":1436,"i_lat":-6.174784,"line":11},{"station_name":"Gang Sentiong","time":8,"line":11,"station_id":"GST","i_long":106.850107,"is_transit":false,"distance":1567,"transit":false,"i_lat":-6.185975},{"station_name":"Kramat","transit":false,"line":11,"station_id":"KMT","is_transit":false,"time":1,"distance":973,"i_lat":-6.193792,"i_long":106.855437},{"is_transit":false,"i_long":106.861737,"transit":false,"i_lat":-6.209188,"station_name":"Pondok Jati","distance":1829,"line":11,"time":2,"station_id":"POK"},{"time":9,"transit":true,"i_lat":-6.215091,"station_id":"JNG","is_transit":true,"line":0,"distance":1236,"i_long":106.86807400000001,"station_name":"Jatinegara"},{"i_lat":-6.2135,"i_long":106.899548,"is_transit":false,"station_id":"KLD","distance":3395,"station_name":"Klender","line":1,"time":3,"transit":false},{"i_lat":-6.215568,"time":2,"line":0,"i_long":106.922662,"station_id":"BUA","distance":3100,"transit":false,"is_transit":false,"station_name":"Buaran"}]]}