{"data":[[{"is_transit":false,"i_lat":-6.338021,"i_long":106.491338,"line":0,"time":0,"station_id":"DAR","distance":0,"transit":false,"station_name":"Daru"},{"distance":2675,"i_lat":-6.354349,"i_long":106.508482,"is_transit":false,"time":6,"transit":false,"line":3,"station_id":"CJT","station_name":"Cilejit"},{"line":6,"time":9,"station_name":"Parung Panjang","transit":false,"i_lat":-6.3441410000000005,"i_long":106.568863,"is_transit":false,"distance":7025,"station_id":"PRP"},{"distance":5968,"station_name":"Cicayur","is_transit":false,"i_lat":-6.329547,"line":3,"transit":false,"station_id":"CC","time":8,"i_long":106.617853},{"i_lat":-6.32484,"time":4,"is_transit":false,"station_name":"Cisauk","distance":2519,"station_id":"CSK","transit":false,"i_long":106.640411,"line":3},{"transit":false,"station_id":"SRP","station_name":"Serpong","distance":1784,"line":6,"i_long":106.66566,"time":4,"i_lat":-6.319871,"is_transit":false},{"line":6,"station_id":"RU","distance":2413,"i_long":106.675475,"station_name":"Rawa Buntu","i_lat":-6.314823,"transit":false,"time":4,"is_transit":false},{"time":6,"station_id":"SDM","i_lat":-6.296963,"is_transit":false,"i_long":106.712277,"line":6,"distance":4566,"station_name":"Sudimara","transit":false},{"time":4,"transit":false,"station_name":"Jurangmangu","i_lat":-6.288927,"i_long":106.728916,"station_id":"JMU","line":6,"is_transit":false,"distance":1994},{"i_lat":-6.276362,"station_name":"Pondokranji","is_transit":false,"transit":false,"distance":2179,"time":3,"station_id":"PDJ","line":6,"i_long":106.74273},{"i_lat":-6.237242,"is_transit":false,"station_id":"KBY","i_long":106.780334,"line":6,"time":8,"distance":6218,"station_name":"Kebayoran","transit":false},{"i_long":106.79689,"station_id":"PLM","station_name":"Palmerah","is_transit":false,"transit":false,"distance":3737,"line":6,"i_lat":-6.207404,"time":7},{"transit":true,"time":6,"distance":3191,"station_id":"THB","station_name":"Tanah Abang","line":1,"i_lat":-6.185545,"i_long":106.811091,"is_transit":true},{"line":1,"is_transit":true,"distance":3632,"station_name":"Duri","transit":true,"i_lat":-6.155215,"time":8,"station_id":"DU","i_long":106.800832},{"i_long":106.788277,"time":3,"line":5,"station_id":"GRG","i_lat":-6.162021,"is_transit":false,"distance":1700,"station_name":"Grogol","transit":false},{"distance":2036,"station_name":"Pesing","i_long":106.771379,"time":2,"i_lat":-6.161433,"station_id":"PSG","is_transit":false,"line":5,"transit":false},{"is_transit":false,"station_name":"Taman Kota","i_long":106.756522,"station_id":"TKO","i_lat":-6.1587309999999995,"distance":1614,"transit":false,"time":2,"line":5},{"station_name":"Bojongindah","i_long":106.737035,"transit":false,"time":2,"station_id":"BOI","is_transit":false,"i_lat":-6.159876,"distance":2334,"line":5},{"station_name":"Rawa Buaya","is_transit":false,"i_lat":-6.162758,"i_long":106.723064,"line":5,"distance":1152,"station_id":"RW","transit":false,"time":4},{"station_name":"Kalideres","time":3,"is_transit":false,"i_lat":-6.166068,"i_long":106.701612,"line":5,"distance":2504,"transit":false,"station_id":"KDS"},{"station_id":"PI","is_transit":false,"transit":false,"time":3,"distance":2548,"i_long":106.679458,"i_lat":-6.169933,"line":5,"station_name":"Poris"},{"station_name":"Batuceper","station_id":"BPR","distance":1834,"i_lat":-6.171811,"time":3,"line":5,"is_transit":false,"i_long":106.665036,"transit":false},{"station_name":"Tanah Tinggi","time":3,"i_long":106.64657,"station_id":"THI","line":5,"is_transit":false,"distance":2028,"transit":false,"i_lat":-6.17331},{"distance":1547,"i_lat":-6.176583,"line":5,"i_long":106.632761,"transit":false,"station_name":"Tangerang","station_id":"TNG","is_transit":false,"time":3}],[{"station_id":"DAR","time":0,"transit":false,"i_long":106.491338,"distance":0,"station_name":"Daru","is_transit":false,"i_lat":-6.338021,"line":0},{"i_long":106.508482,"transit":false,"distance":2675,"i_lat":-6.354349,"is_transit":false,"line":3,"station_id":"CJT","time":6,"station_name":"Cilejit"},{"is_transit":false,"transit":false,"i_lat":-6.3441410000000005,"station_name":"Parung Panjang","i_long":106.568863,"distance":7025,"time":9,"line":6,"station_id":"PRP"},{"station_id":"CC","time":8,"transit":false,"station_name":"Cicayur","is_transit":false,"i_lat":-6.329547,"distance":5968,"i_long":106.617853,"line":3},{"is_transit":false,"station_name":"Cisauk","line":3,"transit":false,"i_lat":-6.32484,"station_id":"CSK","distance":2519,"i_long":106.640411,"time":4},{"is_transit":false,"time":4,"line":6,"station_id":"SRP","i_lat":-6.319871,"station_name":"Serpong","i_long":106.66566,"distance":1784,"transit":false},{"station_id":"RU","i_lat":-6.314823,"transit":false,"station_name":"Rawa Buntu","time":4,"distance":2413,"i_long":106.675475,"line":6,"is_transit":false},{"i_lat":-6.296963,"transit":false,"distance":4566,"station_name":"Sudimara","is_transit":false,"time":6,"station_id":"SDM","line":6,"i_long":106.712277},{"time":4,"station_id":"JMU","station_name":"Jurangmangu","i_lat":-6.288927,"line":6,"distance":1994,"transit":false,"is_transit":false,"i_long":106.728916},{"line":6,"time":3,"distance":2179,"transit":false,"station_id":"PDJ","station_name":"Pondokranji","is_transit":false,"i_lat":-6.276362,"i_long":106.74273},{"transit":false,"distance":6218,"station_name":"Kebayoran","i_lat":-6.237242,"time":8,"i_long":106.780334,"is_transit":false,"station_id":"KBY","line":6},{"station_id":"PLM","time":7,"distance":3737,"i_lat":-6.207404,"station_name":"Palmerah","i_long":106.79689,"line":6,"transit":false,"is_transit":false},{"i_long":106.811091,"station_id":"THB","station_name":"Tanah Abang","distance":3191,"i_lat":-6.185545,"time":6,"transit":true,"is_transit":true,"line":1},{"station_name":"Karet","i_long":106.816351,"transit":false,"is_transit":false,"time":5,"station_id":"KAT","distance":2029,"line":1,"i_lat":-6.20132},{"station_id":"SUDB","i_lat":-6.201433,"time":1,"is_transit":false,"i_long":106.819881,"transit":false,"station_name":"Sudirman Baru","distance":471,"line":1},{"station_name":"Sudirman","distance":280,"is_transit":false,"transit":false,"i_lat":-6.202263,"station_id":"SUD","line":1,"time":1,"i_long":106.822649},{"transit":true,"station_id":"MRI","distance":3186,"time":4,"i_long":106.84912,"i_lat":-6.209883,"is_transit":true,"station_name":"Manggarai","line":2},{"i_long":106.840169,"line":2,"time":4,"is_transit":false,"station_name":"Cikini","transit":false,"i_lat":-6.198556,"station_id":"CKI","distance":1590},{"time":3,"transit":false,"station_id":"GDD","is_transit":false,"distance":1750,"i_long":106.832183,"station_name":"Gondangdia","i_lat":-6.186295,"line":2},{"station_name":"Juanda","transit":false,"is_transit":false,"line":2,"distance":2015,"station_id":"JUA","i_long":106.828284,"i_lat":-6.166716,"time":4},{"line":2,"i_lat":-6.160725,"distance":1149,"transit":false,"station_name":"Sawah Besar","time":2,"i_long":106.827103,"station_id":"SW","is_transit":false},{"is_transit":false,"station_name":"Manggabesar","time":2,"transit":false,"station_id":"MGB","line":2,"distance":906,"i_long":106.82482,"i_lat":-6.149769},{"time":2,"i_long":106.820901,"station_id":"JAY","is_transit":false,"station_name":"Jayakarta","distance":1080,"transit":false,"i_lat":-6.141205,"line":2},{"is_transit":true,"station_name":"Jakarta Kota","line":2,"transit":true,"i_long":106.812439,"station_id":"JAKK","distance":1264,"i_lat":-6.137569,"time":4},{"i_lat":-6.132549,"station_name":"Kampung Bandan","station_id":"KPB","time":3,"distance":1364,"is_transit":true,"i_long":106.826365,"transit":true,"line":4},{"time":9,"station_id":"AK","i_long":106.79867,"is_transit":false,"i_lat":-6.144674,"station_name":"Angke","distance":4102,"transit":false,"line":1},{"distance":1230,"line":1,"time":4,"i_lat":-6.155215,"is_transit":true,"transit":true,"i_long":106.800832,"station_id":"DU","station_name":"Duri"},{"station_name":"Grogol","distance":1700,"station_id":"GRG","time":3,"i_lat":-6.162021,"i_long":106.788277,"is_transit":false,"line":5,"transit":false},{"station_id":"PSG","distance":2036,"i_lat":-6.161433,"i_long":106.771379,"station_name":"Pesing","line":5,"is_transit":false,"transit":false,"time":2},{"station_name":"Taman Kota","time":2,"transit":false,"line":5,"i_lat":-6.1587309999999995,"station_id":"TKO","i_long":106.756522,"distance":1614,"is_transit":false},{"distance":2334,"i_lat":-6.159876,"time":2,"transit":false,"station_name":"Bojongindah","is_transit":false,"station_id":"BOI","line":5,"i_long":106.737035},{"i_long":106.723064,"time":4,"station_name":"Rawa Buaya","is_transit":false,"station_id":"RW","i_lat":-6.162758,"distance":1152,"line":5,"transit":false},{"transit":false,"distance":2504,"time":3,"station_id":"KDS","i_lat":-6.166068,"line":5,"is_transit":false,"station_name":"Kalideres","i_long":106.701612},{"is_transit":false,"time":3,"distance":2548,"i_long":106.679458,"transit":false,"station_name":"Poris","line":5,"i_lat":-6.169933,"station_id":"PI"},{"station_name":"Batuceper","i_lat":-6.171811,"time":3,"station_id":"BPR","line":5,"transit":false,"is_transit":false,"distance":1834,"i_long":106.665036},{"station_name":"Tanah Tinggi","transit":false,"time":3,"distance":2028,"i_lat":-6.17331,"line":5,"station_id":"THI","is_transit":false,"i_long":106.64657},{"i_long":106.632761,"station_name":"Tangerang","time":3,"transit":false,"station_id":"TNG","line":5,"is_transit":false,"i_lat":-6.176583,"distance":1547}],[{"distance":0,"station_name":"Daru","transit":false,"is_transit":false,"time":0,"i_lat":-6.338021,"line":0,"station_id":"DAR","i_long":106.491338},{"i_long":106.508482,"station_id":"CJT","is_transit":false,"i_lat":-6.354349,"transit":false,"station_name":"Cilejit","time":6,"line":3,"distance":2675},{"station_id":"PRP","time":9,"station_name":"Parung Panjang","is_transit":false,"distance":7025,"i_lat":-6.3441410000000005,"i_long":106.568863,"line":6,"transit":false},{"station_name":"Cicayur","distance":5968,"station_id":"CC","line":3,"i_long":106.617853,"is_transit":false,"transit":false,"i_lat":-6.329547,"time":8},{"is_transit":false,"i_lat":-6.32484,"time":4,"distance":2519,"station_id":"CSK","line":3,"station_name":"Cisauk","transit":false,"i_long":106.640411},{"time":4,"station_id":"SRP","is_transit":false,"distance":1784,"line":6,"station_name":"Serpong","i_lat":-6.319871,"i_long":106.66566,"transit":false},{"distance":2413,"line":6,"transit":false,"station_name":"Rawa Buntu","station_id":"RU","is_transit":false,"i_lat":-6.314823,"i_long":106.675475,"time":4},{"time":6,"is_transit":false,"station_name":"Sudimara","i_lat":-6.296963,"distance":4566,"i_long":106.712277,"line":6,"transit":false,"station_id":"SDM"},{"is_transit":false,"distance":1994,"station_id":"JMU","line":6,"station_name":"Jurangmangu","time":4,"i_long":106.728916,"i_lat":-6.288927,"transit":false},{"station_id":"PDJ","distance":2179,"transit":false,"is_transit":false,"i_long":106.74273,"line":6,"time":3,"station_name":"Pondokranji","i_lat":-6.276362},{"station_name":"Kebayoran","line":6,"transit":false,"is_transit":false,"i_long":106.780334,"station_id":"KBY","time":8,"distance":6218,"i_lat":-6.237242},{"transit":false,"station_id":"PLM","i_long":106.79689,"station_name":"Palmerah","is_transit":false,"i_lat":-6.207404,"time":7,"line":6,"distance":3737},{"i_lat":-6.185545,"distance":3191,"i_long":106.811091,"line":1,"station_name":"Tanah Abang","time":6,"transit":true,"station_id":"THB","is_transit":true},{"distance":2029,"transit":false,"station_name":"Karet","i_lat":-6.20132,"station_id":"KAT","line":1,"is_transit":false,"i_long":106.816351,"time":5},{"i_long":106.819881,"station_name":"Sudirman Baru","i_lat":-6.201433,"transit":false,"station_id":"SUDB","is_transit":false,"line":1,"time":1,"distance":471},{"transit":false,"i_long":106.822649,"is_transit":false,"time":1,"i_lat":-6.202263,"station_id":"SUD","line":1,"distance":280,"station_name":"Sudirman"},{"station_id":"MRI","transit":false,"is_transit":false,"station_name":"Manggarai","time":4,"distance":3186,"i_lat":-6.209883,"i_long":106.84912,"line":2},{"line":1,"station_id":"MTR","i_lat":-6.212485,"i_long":106.858896,"transit":false,"is_transit":false,"time":2,"station_name":"Matraman","distance":1275},{"i_lat":-6.215091,"station_name":"Jatinegara","distance":1377,"line":1,"station_id":"JNG","i_long":106.86807400000001,"transit":true,"is_transit":true,"time":8},{"time":2,"i_lat":-6.209188,"is_transit":false,"i_long":106.861737,"line":11,"transit":false,"station_id":"POK","distance":1236,"station_name":"Pondok Jati"},{"station_name":"Kramat","station_id":"KMT","is_transit":false,"i_lat":-6.193792,"time":2,"distance":1829,"i_long":106.855437,"transit":false,"line":11},{"station_name":"Gang Sentiong","station_id":"GST","transit":false,"distance":973,"time":1,"i_lat":-6.185975,"i_long":106.850107,"line":11,"is_transit":false},{"transit":false,"station_name":"Pasar Senen","i_lat":-6.174784,"i_long":106.84368,"line":11,"is_transit":false,"station_id":"PSE","distance":1567,"time":8},{"time":4,"distance":1436,"station_name":"Kemayoran","i_lat":-6.161728,"i_long":106.839204,"line":11,"is_transit":false,"transit":false,"station_id":"KMO"},{"is_transit":false,"i_lat":-6.14505,"station_name":"Rajawali","line":11,"transit":false,"time":5,"distance":1901,"i_long":106.836569,"station_id":"RJW"},{"is_transit":true,"i_lat":-6.132549,"line":4,"transit":true,"station_id":"KPB","station_name":"Kampung Bandan","time":3,"distance":1444,"i_long":106.826365},{"time":9,"i_lat":-6.144674,"line":1,"station_id":"AK","distance":4102,"transit":false,"i_long":106.79867,"station_name":"Angke","is_transit":false},{"distance":1230,"station_id":"DU","time":4,"i_long":106.800832,"line":1,"i_lat":-6.155215,"transit":true,"station_name":"Duri","is_transit":true},{"i_long":106.788277,"line":5,"time":3,"i_lat":-6.162021,"station_id":"GRG","distance":1700,"is_transit":false,"station_name":"Grogol","transit":false},{"distance":2036,"station_id":"PSG","station_name":"Pesing","transit":false,"line":5,"is_transit":false,"i_lat":-6.161433,"time":2,"i_long":106.771379},{"line":5,"i_lat":-6.1587309999999995,"station_name":"Taman Kota","is_transit":false,"transit":false,"station_id":"TKO","time":2,"distance":1614,"i_long":106.756522},{"i_lat":-6.159876,"distance":2334,"station_id":"BOI","is_transit":false,"time":2,"station_name":"Bojongindah","line":5,"transit":false,"i_long":106.737035},{"i_lat":-6.162758,"line":5,"distance":1152,"i_long":106.723064,"station_id":"RW","is_transit":false,"time":4,"transit":false,"station_name":"Rawa Buaya"},{"line":5,"transit":false,"time":3,"station_name":"Kalideres","is_transit":false,"i_long":106.701612,"station_id":"KDS","i_lat":-6.166068,"distance":2504},{"time":3,"distance":2548,"transit":false,"is_transit":false,"station_id":"PI","line":5,"station_name":"Poris","i_long":106.679458,"i_lat":-6.169933},{"time":3,"station_id":"BPR","i_long":106.665036,"is_transit":false,"i_lat":-6.171811,"line":5,"station_name":"Batuceper","distance":1834,"transit":false},{"line":5,"station_name":"Tanah Tinggi","i_long":106.64657,"station_id":"THI","is_transit":false,"distance":2028,"time":3,"transit":false,"i_lat":-6.17331},{"station_name":"Tangerang","is_transit":false,"i_lat":-6.176583,"line":5,"i_long":106.632761,"station_id":"TNG","distance":1547,"time":3,"transit":false}]]}