{"data":[[{"i_long":106.491338,"station_name":"Daru","station_id":"DAR","line":0,"transit":false,"distance":0,"is_transit":false,"time":0,"i_lat":-6.338021},{"is_transit":false,"transit":false,"i_long":106.508482,"station_name":"Cilejit","time":6,"distance":2675,"line":3,"station_id":"CJT","i_lat":-6.354349},{"station_name":"Parung Panjang","i_lat":-6.3441410000000005,"line":6,"time":9,"distance":7025,"station_id":"PRP","i_long":106.568863,"transit":false,"is_transit":false},{"transit":false,"line":3,"time":8,"station_id":"CC","distance":5968,"station_name":"Cicayur","i_long":106.617853,"is_transit":false,"i_lat":-6.329547},{"i_long":106.640411,"time":4,"distance":2519,"transit":false,"i_lat":-6.32484,"line":3,"is_transit":false,"station_name":"Cisauk","station_id":"CSK"},{"i_long":106.66566,"station_name":"Serpong","line":6,"distance":1784,"time":4,"transit":false,"is_transit":false,"i_lat":-6.319871,"station_id":"SRP"},{"distance":2413,"station_name":"Rawa Buntu","time":4,"i_long":106.675475,"line":6,"transit":false,"is_transit":false,"i_lat":-6.314823,"station_id":"RU"},{"i_long":106.712277,"time":6,"station_name":"Sudimara","i_lat":-6.296963,"transit":false,"line":6,"is_transit":false,"distance":4566,"station_id":"SDM"},{"station_id":"JMU","line":6,"station_name":"Jurangmangu","i_long":106.728916,"transit":false,"distance":1994,"is_transit":false,"time":4,"i_lat":-6.288927},{"i_lat":-6.276362,"station_id":"PDJ","is_transit":false,"i_long":106.74273,"distance":2179,"time":3,"transit":false,"line":6,"station_name":"Pondokranji"},{"line":6,"transit":false,"time":8,"i_lat":-6.237242,"station_id":"KBY","station_name":"Kebayoran","distance":6218,"i_long":106.780334,"is_transit":false},{"distance":3737,"station_id":"PLM","i_lat":-6.207404,"i_long":106.79689,"station_name":"Palmerah","time":7,"is_transit":false,"transit":false,"line":6},{"line":1,"distance":3191,"station_name":"Tanah Abang","is_transit":true,"station_id":"THB","i_lat":-6.185545,"time":6,"i_long":106.811091,"transit":true},{"line":1,"is_transit":false,"station_name":"Duri","transit":false,"i_long":106.800832,"i_lat":-6.155215,"station_id":"DU","time":8,"distance":3632},{"is_transit":false,"time":4,"transit":false,"station_name":"Angke","i_lat":-6.144674,"i_long":106.79867,"line":1,"station_id":"AK","distance":1230},{"station_name":"Kampung Bandan","i_lat":-6.132549,"line":4,"is_transit":true,"time":9,"station_id":"KPB","i_long":106.826365,"distance":4102,"transit":true},{"time":3,"distance":1444,"is_transit":false,"transit":false,"i_lat":-6.14505,"line":11,"i_long":106.836569,"station_id":"RJW","station_name":"Rajawali"},{"line":11,"is_transit":false,"i_lat":-6.161728,"distance":1901,"transit":false,"time":5,"station_name":"Kemayoran","i_long":106.839204,"station_id":"KMO"},{"transit":false,"station_name":"Pasar Senen","i_long":106.84368,"line":11,"time":4,"i_lat":-6.174784,"is_transit":false,"station_id":"PSE","distance":1436},{"time":8,"distance":1567,"i_long":106.850107,"station_name":"Gang Sentiong","line":11,"transit":false,"station_id":"GST","is_transit":false,"i_lat":-6.185975},{"distance":973,"station_name":"Kramat","is_transit":false,"line":11,"transit":false,"i_lat":-6.193792,"i_long":106.855437,"station_id":"KMT","time":1}],[{"time":0,"distance":0,"i_lat":-6.338021,"i_long":106.491338,"station_name":"Daru","station_id":"DAR","line":0,"transit":false,"is_transit":false},{"i_lat":-6.354349,"station_name":"Cilejit","line":3,"i_long":106.508482,"time":6,"station_id":"CJT","is_transit":false,"distance":2675,"transit":false},{"i_long":106.568863,"time":9,"is_transit":false,"line":6,"station_id":"PRP","distance":7025,"transit":false,"i_lat":-6.3441410000000005,"station_name":"Parung Panjang"},{"station_id":"CC","station_name":"Cicayur","distance":5968,"is_transit":false,"transit":false,"i_lat":-6.329547,"i_long":106.617853,"line":3,"time":8},{"line":3,"is_transit":false,"station_name":"Cisauk","i_long":106.640411,"station_id":"CSK","i_lat":-6.32484,"transit":false,"time":4,"distance":2519},{"i_lat":-6.319871,"transit":false,"distance":1784,"line":6,"station_id":"SRP","time":4,"station_name":"Serpong","i_long":106.66566,"is_transit":false},{"distance":2413,"station_id":"RU","i_long":106.675475,"is_transit":false,"time":4,"line":6,"i_lat":-6.314823,"station_name":"Rawa Buntu","transit":false},{"distance":4566,"time":6,"i_long":106.712277,"transit":false,"line":6,"i_lat":-6.296963,"station_name":"Sudimara","station_id":"SDM","is_transit":false},{"time":4,"station_name":"Jurangmangu","i_long":106.728916,"transit":false,"line":6,"is_transit":false,"station_id":"JMU","i_lat":-6.288927,"distance":1994},{"distance":2179,"i_long":106.74273,"transit":false,"line":6,"i_lat":-6.276362,"station_id":"PDJ","is_transit":false,"station_name":"Pondokranji","time":3},{"transit":false,"is_transit":false,"i_long":106.780334,"line":6,"time":8,"station_id":"KBY","distance":6218,"i_lat":-6.237242,"station_name":"Kebayoran"},{"station_id":"PLM","distance":3737,"station_name":"Palmerah","time":7,"i_long":106.79689,"i_lat":-6.207404,"is_transit":false,"transit":false,"line":6},{"time":6,"distance":3191,"line":1,"i_long":106.811091,"station_id":"THB","transit":true,"is_transit":true,"station_name":"Tanah Abang","i_lat":-6.185545},{"i_lat":-6.20132,"time":5,"is_transit":false,"station_name":"Karet","line":1,"distance":2029,"i_long":106.816351,"station_id":"KAT","transit":false},{"station_name":"Sudirman Baru","i_lat":-6.201433,"station_id":"SUDB","transit":false,"time":1,"distance":471,"i_long":106.819881,"line":1,"is_transit":false},{"is_transit":false,"station_id":"SUD","distance":280,"i_long":106.822649,"time":1,"station_name":"Sudirman","line":1,"transit":false,"i_lat":-6.202263},{"station_name":"Manggarai","station_id":"MRI","time":4,"is_transit":false,"transit":false,"distance":3186,"i_lat":-6.209883,"i_long":106.84912,"line":2},{"time":2,"line":1,"i_lat":-6.212485,"distance":1275,"station_id":"MTR","is_transit":false,"transit":false,"station_name":"Matraman","i_long":106.858896},{"station_name":"Jatinegara","i_lat":-6.215091,"distance":1377,"line":1,"time":8,"station_id":"JNG","transit":true,"is_transit":true,"i_long":106.86807400000001},{"transit":false,"i_long":106.861737,"line":11,"is_transit":false,"time":2,"station_id":"POK","distance":1236,"i_lat":-6.209188,"station_name":"Pondok Jati"},{"i_long":106.855437,"is_transit":false,"distance":1829,"transit":false,"station_id":"KMT","line":11,"time":2,"station_name":"Kramat","i_lat":-6.193792}],[{"i_lat":-6.338021,"time":0,"station_name":"Daru","distance":0,"station_id":"DAR","transit":false,"is_transit":false,"i_long":106.491338,"line":0},{"station_name":"Cilejit","time":6,"is_transit":false,"distance":2675,"i_lat":-6.354349,"line":3,"i_long":106.508482,"transit":false,"station_id":"CJT"},{"station_name":"Parung Panjang","transit":false,"i_long":106.568863,"time":9,"line":6,"is_transit":false,"i_lat":-6.3441410000000005,"station_id":"PRP","distance":7025},{"time":8,"station_id":"CC","station_name":"Cicayur","i_lat":-6.329547,"distance":5968,"i_long":106.617853,"is_transit":false,"transit":false,"line":3},{"i_long":106.640411,"time":4,"i_lat":-6.32484,"station_id":"CSK","line":3,"is_transit":false,"distance":2519,"station_name":"Cisauk","transit":false},{"time":4,"station_name":"Serpong","station_id":"SRP","line":6,"is_transit":false,"transit":false,"i_lat":-6.319871,"distance":1784,"i_long":106.66566},{"distance":2413,"i_lat":-6.314823,"station_id":"RU","is_transit":false,"line":6,"time":4,"station_name":"Rawa Buntu","i_long":106.675475,"transit":false},{"station_id":"SDM","distance":4566,"transit":false,"line":6,"i_long":106.712277,"is_transit":false,"time":6,"station_name":"Sudimara","i_lat":-6.296963},{"transit":false,"line":6,"distance":1994,"i_lat":-6.288927,"time":4,"station_name":"Jurangmangu","i_long":106.728916,"is_transit":false,"station_id":"JMU"},{"distance":2179,"i_long":106.74273,"time":3,"station_id":"PDJ","transit":false,"line":6,"i_lat":-6.276362,"is_transit":false,"station_name":"Pondokranji"},{"station_id":"KBY","i_lat":-6.237242,"is_transit":false,"time":8,"distance":6218,"line":6,"station_name":"Kebayoran","i_long":106.780334,"transit":false},{"time":7,"station_name":"Palmerah","transit":false,"i_long":106.79689,"line":6,"distance":3737,"is_transit":false,"i_lat":-6.207404,"station_id":"PLM"},{"i_long":106.811091,"distance":3191,"time":6,"station_name":"Tanah Abang","is_transit":true,"i_lat":-6.185545,"line":1,"station_id":"THB","transit":true},{"transit":false,"line":1,"time":8,"i_lat":-6.155215,"is_transit":false,"station_name":"Duri","distance":3632,"i_long":106.800832,"station_id":"DU"},{"station_name":"Angke","station_id":"AK","line":1,"distance":1230,"i_lat":-6.144674,"transit":false,"is_transit":false,"time":4,"i_long":106.79867},{"station_name":"Kampung Bandan","is_transit":true,"distance":4102,"transit":true,"time":9,"i_lat":-6.132549,"line":4,"i_long":106.826365,"station_id":"KPB"},{"i_lat":-6.137569,"is_transit":true,"i_long":106.812439,"line":2,"station_id":"JAKK","distance":1364,"time":3,"station_name":"Jakarta Kota","transit":true},{"time":4,"transit":false,"i_long":106.820901,"line":2,"station_name":"Jayakarta","i_lat":-6.141205,"station_id":"JAY","is_transit":false,"distance":1264},{"station_id":"MGB","i_lat":-6.149769,"line":2,"is_transit":false,"transit":false,"distance":1080,"time":2,"station_name":"Manggabesar","i_long":106.82482},{"is_transit":false,"i_lat":-6.160725,"i_long":106.827103,"station_id":"SW","distance":906,"time":2,"station_name":"Sawah Besar","line":2,"transit":false},{"i_lat":-6.166716,"station_name":"Juanda","distance":1149,"station_id":"JUA","time":2,"line":2,"transit":false,"is_transit":false,"i_long":106.828284},{"distance":2015,"is_transit":false,"i_lat":-6.186295,"line":2,"transit":false,"station_id":"GDD","time":4,"station_name":"Gondangdia","i_long":106.832183},{"i_long":106.840169,"line":2,"time":3,"transit":false,"i_lat":-6.198556,"distance":1750,"is_transit":false,"station_id":"CKI","station_name":"Cikini"},{"distance":1590,"is_transit":true,"station_id":"MRI","i_lat":-6.209883,"i_long":106.84912,"line":2,"station_name":"Manggarai","time":4,"transit":true},{"time":2,"line":1,"transit":false,"i_lat":-6.212485,"station_name":"Matraman","distance":1275,"i_long":106.858896,"station_id":"MTR","is_transit":false},{"line":1,"i_lat":-6.215091,"i_long":106.86807400000001,"distance":1377,"is_transit":true,"transit":true,"station_id":"JNG","time":8,"station_name":"Jatinegara"},{"i_lat":-6.209188,"time":2,"transit":false,"line":11,"station_id":"POK","is_transit":false,"distance":1236,"station_name":"Pondok Jati","i_long":106.861737},{"station_name":"Kramat","is_transit":false,"transit":false,"distance":1829,"time":2,"i_long":106.855437,"i_lat":-6.193792,"station_id":"KMT","line":11}],[{"i_long":106.491338,"station_name":"Daru","line":0,"transit":false,"station_id":"DAR","distance":0,"time":0,"is_transit":false,"i_lat":-6.338021},{"station_id":"CJT","is_transit":false,"distance":2675,"time":6,"transit":false,"i_long":106.508482,"i_lat":-6.354349,"station_name":"Cilejit","line":3},{"transit":false,"time":9,"i_long":106.568863,"distance":7025,"i_lat":-6.3441410000000005,"station_name":"Parung Panjang","is_transit":false,"line":6,"station_id":"PRP"},{"distance":5968,"i_lat":-6.329547,"transit":false,"time":8,"station_id":"CC","is_transit":false,"station_name":"Cicayur","i_long":106.617853,"line":3},{"station_id":"CSK","is_transit":false,"line":3,"time":4,"transit":false,"i_lat":-6.32484,"station_name":"Cisauk","i_long":106.640411,"distance":2519},{"time":4,"station_name":"Serpong","i_long":106.66566,"is_transit":false,"transit":false,"distance":1784,"i_lat":-6.319871,"line":6,"station_id":"SRP"},{"is_transit":false,"line":6,"i_lat":-6.314823,"transit":false,"distance":2413,"i_long":106.675475,"station_id":"RU","time":4,"station_name":"Rawa Buntu"},{"station_name":"Sudimara","i_long":106.712277,"transit":false,"time":6,"station_id":"SDM","distance":4566,"i_lat":-6.296963,"line":6,"is_transit":false},{"i_lat":-6.288927,"i_long":106.728916,"station_name":"Jurangmangu","line":6,"station_id":"JMU","time":4,"is_transit":false,"distance":1994,"transit":false},{"i_lat":-6.276362,"station_id":"PDJ","station_name":"Pondokranji","is_transit":false,"time":3,"transit":false,"i_long":106.74273,"line":6,"distance":2179},{"station_name":"Kebayoran","is_transit":false,"i_long":106.780334,"distance":6218,"station_id":"KBY","i_lat":-6.237242,"time":8,"transit":false,"line":6},{"time":7,"line":6,"distance":3737,"station_name":"Palmerah","i_lat":-6.207404,"is_transit":false,"i_long":106.79689,"transit":false,"station_id":"PLM"},{"transit":true,"is_transit":true,"i_lat":-6.185545,"station_name":"Tanah Abang","i_long":106.811091,"line":1,"station_id":"THB","time":6,"distance":3191},{"transit":false,"time":5,"station_name":"Karet","is_transit":false,"station_id":"KAT","i_lat":-6.20132,"distance":2029,"i_long":106.816351,"line":1},{"i_lat":-6.201433,"i_long":106.819881,"is_transit":false,"time":1,"line":1,"distance":471,"transit":false,"station_name":"Sudirman Baru","station_id":"SUDB"},{"is_transit":false,"i_long":106.822649,"station_id":"SUD","line":1,"time":1,"distance":280,"transit":false,"station_name":"Sudirman","i_lat":-6.202263},{"distance":3186,"station_id":"MRI","time":4,"i_lat":-6.209883,"transit":true,"line":2,"is_transit":true,"i_long":106.84912,"station_name":"Manggarai"},{"is_transit":false,"line":2,"time":4,"transit":false,"station_id":"CKI","i_long":106.840169,"station_name":"Cikini","i_lat":-6.198556,"distance":1590},{"station_id":"GDD","line":2,"i_long":106.832183,"i_lat":-6.186295,"station_name":"Gondangdia","distance":1750,"transit":false,"time":3,"is_transit":false},{"station_id":"JUA","line":2,"distance":2015,"time":4,"transit":false,"i_long":106.828284,"station_name":"Juanda","i_lat":-6.166716,"is_transit":false},{"line":2,"time":2,"distance":1149,"i_lat":-6.160725,"is_transit":false,"i_long":106.827103,"station_id":"SW","transit":false,"station_name":"Sawah Besar"},{"line":2,"station_name":"Manggabesar","time":2,"distance":906,"is_transit":false,"i_long":106.82482,"station_id":"MGB","transit":false,"i_lat":-6.149769},{"station_id":"JAY","time":2,"is_transit":false,"i_lat":-6.141205,"i_long":106.820901,"station_name":"Jayakarta","distance":1080,"transit":false,"line":2},{"i_lat":-6.137569,"line":2,"station_id":"JAKK","time":4,"distance":1264,"station_name":"Jakarta Kota","is_transit":true,"i_long":106.812439,"transit":true},{"i_lat":-6.132549,"transit":true,"station_id":"KPB","distance":1364,"i_long":106.826365,"line":4,"is_transit":true,"time":3,"station_name":"Kampung Bandan"},{"transit":false,"station_id":"RJW","is_transit":false,"time":3,"station_name":"Rajawali","distance":1444,"i_long":106.836569,"line":11,"i_lat":-6.14505},{"distance":1901,"is_transit":false,"i_lat":-6.161728,"transit":false,"station_name":"Kemayoran","station_id":"KMO","time":5,"i_long":106.839204,"line":11},{"distance":1436,"station_name":"Pasar Senen","transit":false,"is_transit":false,"time":4,"i_lat":-6.174784,"station_id":"PSE","i_long":106.84368,"line":11},{"station_id":"GST","is_transit":false,"distance":1567,"transit":false,"time":8,"i_lat":-6.185975,"station_name":"Gang Sentiong","i_long":106.850107,"line":11},{"station_id":"KMT","transit":false,"station_name":"Kramat","is_transit":false,"i_long":106.855437,"time":1,"distance":973,"i_lat":-6.193792,"line":11}]]}