{"data":[[{"distance":0,"i_lat":-6.338021,"line":0,"station_id":"DAR","time":0,"i_long":106.491338,"is_transit":false,"transit":false,"station_name":"Daru"},{"station_id":"CJT","transit":false,"distance":2675,"i_lat":-6.354349,"i_long":106.508482,"time":6,"station_name":"Cilejit","line":3,"is_transit":false},{"station_id":"PRP","i_long":106.568863,"time":9,"line":6,"distance":7025,"transit":false,"is_transit":false,"i_lat":-6.3441410000000005,"station_name":"Parung Panjang"},{"i_long":106.617853,"line":3,"distance":5968,"transit":false,"i_lat":-6.329547,"time":8,"is_transit":false,"station_name":"Cicayur","station_id":"CC"},{"i_long":106.640411,"station_id":"CSK","time":4,"line":3,"distance":2519,"is_transit":false,"station_name":"Cisauk","transit":false,"i_lat":-6.32484},{"i_lat":-6.319871,"i_long":106.66566,"is_transit":false,"station_name":"Serpong","time":4,"line":6,"distance":1784,"station_id":"SRP","transit":false},{"station_name":"Rawa Buntu","distance":2413,"time":4,"transit":false,"i_lat":-6.314823,"line":6,"is_transit":false,"i_long":106.675475,"station_id":"RU"},{"time":6,"station_name":"Sudimara","is_transit":false,"station_id":"SDM","transit":false,"i_long":106.712277,"line":6,"i_lat":-6.296963,"distance":4566},{"time":4,"station_name":"Jurangmangu","i_long":106.728916,"i_lat":-6.288927,"line":6,"station_id":"JMU","distance":1994,"is_transit":false,"transit":false},{"distance":2179,"is_transit":false,"line":6,"station_name":"Pondokranji","time":3,"i_lat":-6.276362,"transit":false,"i_long":106.74273,"station_id":"PDJ"},{"transit":false,"i_long":106.780334,"line":6,"is_transit":false,"time":8,"station_id":"KBY","station_name":"Kebayoran","i_lat":-6.237242,"distance":6218},{"transit":false,"station_name":"Palmerah","is_transit":false,"line":6,"i_long":106.79689,"i_lat":-6.207404,"station_id":"PLM","distance":3737,"time":7},{"transit":true,"station_id":"THB","i_long":106.811091,"line":1,"time":6,"station_name":"Tanah Abang","distance":3191,"i_lat":-6.185545,"is_transit":true},{"station_name":"Karet","is_transit":false,"i_lat":-6.20132,"station_id":"KAT","distance":2029,"time":5,"transit":false,"line":1,"i_long":106.816351},{"i_long":106.819881,"is_transit":false,"distance":471,"station_name":"Sudirman Baru","i_lat":-6.201433,"time":1,"transit":false,"line":1,"station_id":"SUDB"},{"transit":false,"station_name":"Sudirman","i_long":106.822649,"i_lat":-6.202263,"line":1,"station_id":"SUD","distance":280,"is_transit":false,"time":1},{"transit":true,"station_name":"Manggarai","time":4,"is_transit":true,"i_long":106.84912,"i_lat":-6.209883,"distance":3186,"line":2,"station_id":"MRI"},{"distance":2610,"i_long":106.857948,"line":2,"i_lat":-6.226659,"transit":false,"station_id":"TEB","is_transit":false,"station_name":"Tebet","time":4},{"transit":false,"station_name":"Cawang","line":2,"station_id":"CW","distance":1230,"is_transit":false,"i_long":106.856607,"time":2,"i_lat":-6.242512},{"line":2,"station_name":"Duren Kalibata","transit":false,"is_transit":false,"i_long":106.85449,"i_lat":-6.255332,"time":3,"station_id":"DRN","distance":1546},{"line":2,"i_lat":-6.263214,"transit":false,"station_id":"PSMB","distance":824,"i_long":106.851577,"time":2,"is_transit":false,"station_name":"Pasar Minggu Baru"},{"transit":false,"is_transit":false,"station_name":"Pasar Minggu","station_id":"PSM","time":2,"distance":2380,"i_lat":-6.2842400000000005,"i_long":106.843999,"line":2},{"i_lat":-6.3080680000000005,"is_transit":false,"station_id":"TNT","line":2,"transit":false,"i_long":106.838896,"station_name":"Tanjung Barat","distance":2820,"time":4},{"time":3,"i_lat":-6.330363,"transit":false,"distance":2671,"i_long":106.832616,"line":2,"station_id":"LNA","is_transit":false,"station_name":"Lenteng Agung"},{"station_name":"Univ. Pancasila","i_lat":-6.339291,"transit":false,"is_transit":false,"i_long":106.834175,"station_id":"UP","time":2,"distance":1029,"line":2},{"station_name":"Univ. Indonesia","line":2,"station_id":"UI","time":3,"i_lat":-6.360749,"distance":2264,"transit":false,"i_long":106.831474,"is_transit":false},{"distance":1109,"line":2,"is_transit":false,"station_id":"POC","i_long":106.831114,"time":2,"i_lat":-6.369073,"transit":false,"station_name":"Pondok Cina"},{"station_id":"DPB","distance":2727,"i_lat":-6.391065,"time":4,"i_long":106.819451,"is_transit":false,"station_name":"Depokbaru","line":2,"transit":false},{"station_id":"DP","i_lat":-6.405256,"station_name":"Depok","time":3,"distance":1584,"i_long":106.816926,"transit":false,"is_transit":false,"line":2},{"station_id":"CTA","i_long":106.800298,"transit":true,"station_name":"Citayam","is_transit":true,"distance":5084,"i_lat":-6.448811,"time":6,"line":2},{"station_id":"PDRG","time":0,"i_lat":-6.460735,"i_long":106.824374,"line":21,"is_transit":false,"distance":0,"station_name":"Pondok Rajeg","transit":false},{"time":0,"i_lat":-6.46424,"transit":false,"station_name":"Cibinong","line":21,"station_id":"CBN","distance":0,"i_long":106.851978,"is_transit":false}],[{"transit":false,"station_id":"DAR","line":0,"i_lat":-6.338021,"is_transit":false,"distance":0,"station_name":"Daru","i_long":106.491338,"time":0},{"station_id":"CJT","is_transit":false,"time":6,"i_lat":-6.354349,"station_name":"Cilejit","line":3,"i_long":106.508482,"transit":false,"distance":2675},{"station_name":"Parung Panjang","distance":7025,"station_id":"PRP","i_lat":-6.3441410000000005,"i_long":106.568863,"transit":false,"time":9,"is_transit":false,"line":6},{"i_lat":-6.329547,"distance":5968,"transit":false,"is_transit":false,"station_name":"Cicayur","line":3,"time":8,"station_id":"CC","i_long":106.617853},{"distance":2519,"line":3,"station_name":"Cisauk","i_lat":-6.32484,"i_long":106.640411,"transit":false,"is_transit":false,"station_id":"CSK","time":4},{"is_transit":false,"transit":false,"station_name":"Serpong","distance":1784,"i_lat":-6.319871,"station_id":"SRP","i_long":106.66566,"time":4,"line":6},{"i_lat":-6.314823,"distance":2413,"time":4,"is_transit":false,"station_name":"Rawa Buntu","i_long":106.675475,"transit":false,"line":6,"station_id":"RU"},{"time":6,"station_id":"SDM","station_name":"Sudimara","transit":false,"i_long":106.712277,"i_lat":-6.296963,"line":6,"distance":4566,"is_transit":false},{"transit":false,"distance":1994,"line":6,"is_transit":false,"station_name":"Jurangmangu","station_id":"JMU","time":4,"i_long":106.728916,"i_lat":-6.288927},{"line":6,"transit":false,"station_name":"Pondokranji","time":3,"i_long":106.74273,"distance":2179,"is_transit":false,"i_lat":-6.276362,"station_id":"PDJ"},{"transit":false,"station_name":"Kebayoran","line":6,"distance":6218,"i_lat":-6.237242,"station_id":"KBY","i_long":106.780334,"is_transit":false,"time":8},{"transit":false,"is_transit":false,"station_name":"Palmerah","station_id":"PLM","i_long":106.79689,"line":6,"distance":3737,"i_lat":-6.207404,"time":7},{"i_lat":-6.185545,"distance":3191,"is_transit":true,"station_name":"Tanah Abang","transit":true,"time":6,"station_id":"THB","i_long":106.811091,"line":1},{"transit":false,"i_lat":-6.155215,"station_name":"Duri","time":8,"distance":3632,"station_id":"DU","i_long":106.800832,"line":1,"is_transit":false},{"station_id":"AK","transit":false,"i_lat":-6.144674,"station_name":"Angke","line":1,"distance":1230,"i_long":106.79867,"time":4,"is_transit":false},{"is_transit":true,"station_name":"Kampung Bandan","time":9,"station_id":"KPB","distance":4102,"i_lat":-6.132549,"i_long":106.826365,"line":4,"transit":true},{"station_id":"JAKK","transit":true,"station_name":"Jakarta Kota","distance":1364,"time":3,"i_lat":-6.137569,"is_transit":true,"i_long":106.812439,"line":2},{"transit":false,"i_long":106.820901,"line":2,"station_name":"Jayakarta","is_transit":false,"time":4,"station_id":"JAY","i_lat":-6.141205,"distance":1264},{"station_name":"Manggabesar","i_lat":-6.149769,"distance":1080,"transit":false,"station_id":"MGB","i_long":106.82482,"is_transit":false,"line":2,"time":2},{"time":2,"transit":false,"station_id":"SW","i_lat":-6.160725,"i_long":106.827103,"line":2,"station_name":"Sawah Besar","is_transit":false,"distance":906},{"time":2,"station_id":"JUA","is_transit":false,"distance":1149,"i_long":106.828284,"transit":false,"i_lat":-6.166716,"line":2,"station_name":"Juanda"},{"is_transit":false,"station_id":"GDD","line":2,"time":4,"i_lat":-6.186295,"station_name":"Gondangdia","distance":2015,"i_long":106.832183,"transit":false},{"station_id":"CKI","distance":1750,"i_lat":-6.198556,"i_long":106.840169,"time":3,"is_transit":false,"station_name":"Cikini","line":2,"transit":false},{"i_lat":-6.209883,"station_id":"MRI","station_name":"Manggarai","line":2,"i_long":106.84912,"is_transit":false,"distance":1590,"transit":false,"time":4},{"is_transit":false,"transit":false,"station_id":"TEB","station_name":"Tebet","distance":2610,"time":4,"i_long":106.857948,"i_lat":-6.226659,"line":2},{"distance":1230,"station_name":"Cawang","i_lat":-6.242512,"time":2,"i_long":106.856607,"station_id":"CW","is_transit":false,"line":2,"transit":false},{"station_id":"DRN","is_transit":false,"distance":1546,"line":2,"time":3,"i_long":106.85449,"i_lat":-6.255332,"transit":false,"station_name":"Duren Kalibata"},{"time":2,"i_lat":-6.263214,"station_name":"Pasar Minggu Baru","station_id":"PSMB","distance":824,"i_long":106.851577,"transit":false,"is_transit":false,"line":2},{"line":2,"station_name":"Pasar Minggu","station_id":"PSM","is_transit":false,"i_lat":-6.2842400000000005,"distance":2380,"i_long":106.843999,"transit":false,"time":2},{"transit":false,"station_id":"TNT","i_lat":-6.3080680000000005,"station_name":"Tanjung Barat","is_transit":false,"i_long":106.838896,"distance":2820,"line":2,"time":4},{"station_name":"Lenteng Agung","time":3,"station_id":"LNA","distance":2671,"is_transit":false,"line":2,"i_lat":-6.330363,"i_long":106.832616,"transit":false},{"is_transit":false,"i_lat":-6.339291,"station_name":"Univ. Pancasila","station_id":"UP","distance":1029,"transit":false,"i_long":106.834175,"time":2,"line":2},{"distance":2264,"line":2,"is_transit":false,"i_lat":-6.360749,"time":3,"station_name":"Univ. Indonesia","station_id":"UI","i_long":106.831474,"transit":false},{"time":2,"is_transit":false,"station_name":"Pondok Cina","distance":1109,"i_long":106.831114,"line":2,"transit":false,"station_id":"POC","i_lat":-6.369073},{"distance":2727,"is_transit":false,"i_lat":-6.391065,"transit":false,"time":4,"line":2,"station_name":"Depokbaru","station_id":"DPB","i_long":106.819451},{"station_id":"DP","line":2,"is_transit":false,"transit":false,"station_name":"Depok","time":3,"i_lat":-6.405256,"distance":1584,"i_long":106.816926},{"line":2,"is_transit":true,"station_id":"CTA","time":6,"i_lat":-6.448811,"distance":5084,"station_name":"Citayam","i_long":106.800298,"transit":true},{"i_lat":-6.460735,"transit":false,"station_name":"Pondok Rajeg","line":21,"station_id":"PDRG","distance":0,"i_long":106.824374,"time":0,"is_transit":false},{"i_long":106.851978,"line":21,"station_name":"Cibinong","is_transit":false,"i_lat":-6.46424,"transit":false,"time":0,"distance":0,"station_id":"CBN"}],[{"station_name":"Daru","time":0,"station_id":"DAR","distance":0,"transit":false,"is_transit":false,"line":0,"i_lat":-6.338021,"i_long":106.491338},{"line":3,"is_transit":false,"station_id":"CJT","station_name":"Cilejit","time":6,"i_long":106.508482,"distance":2675,"i_lat":-6.354349,"transit":false},{"is_transit":false,"station_id":"PRP","time":9,"line":6,"station_name":"Parung Panjang","i_lat":-6.3441410000000005,"i_long":106.568863,"transit":false,"distance":7025},{"i_lat":-6.329547,"station_name":"Cicayur","transit":false,"is_transit":false,"i_long":106.617853,"line":3,"station_id":"CC","time":8,"distance":5968},{"distance":2519,"is_transit":false,"i_lat":-6.32484,"time":4,"station_name":"Cisauk","transit":false,"station_id":"CSK","i_long":106.640411,"line":3},{"distance":1784,"station_id":"SRP","line":6,"i_lat":-6.319871,"transit":false,"is_transit":false,"station_name":"Serpong","i_long":106.66566,"time":4},{"is_transit":false,"station_id":"RU","distance":2413,"i_long":106.675475,"line":6,"time":4,"transit":false,"station_name":"Rawa Buntu","i_lat":-6.314823},{"line":6,"i_long":106.712277,"distance":4566,"station_id":"SDM","i_lat":-6.296963,"is_transit":false,"station_name":"Sudimara","transit":false,"time":6},{"distance":1994,"transit":false,"is_transit":false,"i_lat":-6.288927,"line":6,"station_id":"JMU","station_name":"Jurangmangu","time":4,"i_long":106.728916},{"distance":2179,"i_long":106.74273,"station_name":"Pondokranji","is_transit":false,"transit":false,"i_lat":-6.276362,"time":3,"line":6,"station_id":"PDJ"},{"i_lat":-6.237242,"time":8,"transit":false,"i_long":106.780334,"distance":6218,"line":6,"station_id":"KBY","is_transit":false,"station_name":"Kebayoran"},{"distance":3737,"i_lat":-6.207404,"is_transit":false,"station_id":"PLM","line":6,"transit":false,"station_name":"Palmerah","i_long":106.79689,"time":7},{"station_name":"Tanah Abang","time":6,"distance":3191,"is_transit":true,"i_lat":-6.185545,"transit":true,"i_long":106.811091,"line":1,"station_id":"THB"},{"i_lat":-6.155215,"i_long":106.800832,"station_name":"Duri","distance":3632,"is_transit":false,"station_id":"DU","time":8,"transit":false,"line":1},{"line":1,"distance":1230,"time":4,"transit":false,"station_name":"Angke","i_lat":-6.144674,"station_id":"AK","is_transit":false,"i_long":106.79867},{"distance":4102,"i_long":106.826365,"line":4,"station_id":"KPB","i_lat":-6.132549,"transit":true,"is_transit":true,"time":9,"station_name":"Kampung Bandan"},{"i_long":106.836569,"time":3,"is_transit":false,"transit":false,"i_lat":-6.14505,"station_id":"RJW","line":11,"station_name":"Rajawali","distance":1444},{"is_transit":false,"transit":false,"station_id":"KMO","station_name":"Kemayoran","i_lat":-6.161728,"i_long":106.839204,"time":5,"distance":1901,"line":11},{"i_lat":-6.174784,"line":11,"is_transit":false,"station_id":"PSE","i_long":106.84368,"transit":false,"station_name":"Pasar Senen","time":4,"distance":1436},{"station_id":"GST","station_name":"Gang Sentiong","is_transit":false,"transit":false,"time":8,"i_long":106.850107,"line":11,"distance":1567,"i_lat":-6.185975},{"time":1,"distance":973,"is_transit":false,"station_name":"Kramat","station_id":"KMT","line":11,"transit":false,"i_lat":-6.193792,"i_long":106.855437},{"line":11,"i_long":106.861737,"distance":1829,"station_name":"Pondok Jati","is_transit":false,"time":2,"station_id":"POK","transit":false,"i_lat":-6.209188},{"time":9,"is_transit":true,"transit":true,"line":1,"i_lat":-6.215091,"distance":1236,"station_id":"JNG","station_name":"Jatinegara","i_long":106.86807400000001},{"station_id":"MTR","transit":false,"time":2,"i_long":106.858896,"i_lat":-6.212485,"line":1,"is_transit":false,"distance":1377,"station_name":"Matraman"},{"time":2,"i_lat":-6.209883,"transit":true,"i_long":106.84912,"line":2,"is_transit":true,"distance":1275,"station_id":"MRI","station_name":"Manggarai"},{"transit":false,"is_transit":false,"i_lat":-6.226659,"line":2,"time":4,"distance":2610,"station_name":"Tebet","i_long":106.857948,"station_id":"TEB"},{"distance":1230,"i_lat":-6.242512,"time":2,"i_long":106.856607,"line":2,"station_name":"Cawang","transit":false,"is_transit":false,"station_id":"CW"},{"line":2,"is_transit":false,"station_name":"Duren Kalibata","time":3,"i_long":106.85449,"i_lat":-6.255332,"transit":false,"distance":1546,"station_id":"DRN"},{"i_long":106.851577,"distance":824,"time":2,"station_name":"Pasar Minggu Baru","station_id":"PSMB","line":2,"i_lat":-6.263214,"transit":false,"is_transit":false},{"station_name":"Pasar Minggu","distance":2380,"line":2,"time":2,"i_lat":-6.2842400000000005,"station_id":"PSM","is_transit":false,"i_long":106.843999,"transit":false},{"is_transit":false,"station_name":"Tanjung Barat","station_id":"TNT","distance":2820,"time":4,"i_lat":-6.3080680000000005,"i_long":106.838896,"line":2,"transit":false},{"i_long":106.832616,"transit":false,"line":2,"is_transit":false,"time":3,"station_name":"Lenteng Agung","station_id":"LNA","distance":2671,"i_lat":-6.330363},{"distance":1029,"station_id":"UP","station_name":"Univ. Pancasila","i_lat":-6.339291,"time":2,"i_long":106.834175,"line":2,"is_transit":false,"transit":false},{"station_id":"UI","line":2,"is_transit":false,"distance":2264,"i_long":106.831474,"transit":false,"time":3,"station_name":"Univ. Indonesia","i_lat":-6.360749},{"i_lat":-6.369073,"station_name":"Pondok Cina","distance":1109,"i_long":106.831114,"is_transit":false,"station_id":"POC","time":2,"line":2,"transit":false},{"station_id":"DPB","is_transit":false,"i_lat":-6.391065,"i_long":106.819451,"line":2,"transit":false,"station_name":"Depokbaru","time":4,"distance":2727},{"distance":1584,"station_name":"Depok","i_long":106.816926,"transit":false,"i_lat":-6.405256,"is_transit":false,"time":3,"line":2,"station_id":"DP"},{"station_id":"CTA","i_lat":-6.448811,"line":2,"is_transit":true,"time":6,"station_name":"Citayam","transit":true,"i_long":106.800298,"distance":5084},{"time":0,"i_lat":-6.460735,"is_transit":false,"i_long":106.824374,"station_id":"PDRG","transit":false,"line":21,"distance":0,"station_name":"Pondok Rajeg"},{"station_id":"CBN","time":0,"transit":false,"distance":0,"line":21,"station_name":"Cibinong","i_long":106.851978,"is_transit":false,"i_lat":-6.46424}]]}