{"data":[[{"distance":0,"time":0,"is_transit":false,"transit":false,"i_long":106.491338,"i_lat":-6.338021,"line":0,"station_id":"DAR","station_name":"Daru"},{"i_lat":-6.354349,"transit":false,"station_name":"Cilejit","i_long":106.508482,"line":3,"station_id":"CJT","is_transit":false,"distance":2675,"time":6},{"station_id":"PRP","station_name":"Parung Panjang","transit":false,"i_lat":-6.3441410000000005,"i_long":106.568863,"is_transit":false,"distance":7025,"line":6,"time":9},{"i_long":106.617853,"station_name":"Cicayur","distance":5968,"i_lat":-6.329547,"time":8,"transit":false,"station_id":"CC","is_transit":false,"line":3},{"station_name":"Cisauk","is_transit":false,"distance":2519,"station_id":"CSK","i_lat":-6.32484,"time":4,"line":3,"transit":false,"i_long":106.640411},{"is_transit":false,"i_lat":-6.319871,"distance":1784,"station_id":"SRP","station_name":"Serpong","transit":false,"i_long":106.66566,"line":6,"time":4},{"station_name":"Rawa Buntu","is_transit":false,"transit":false,"time":4,"i_long":106.675475,"i_lat":-6.314823,"station_id":"RU","distance":2413,"line":6},{"time":6,"station_id":"SDM","is_transit":false,"station_name":"Sudimara","distance":4566,"i_lat":-6.296963,"transit":false,"i_long":106.712277,"line":6},{"transit":false,"i_long":106.728916,"station_name":"Jurangmangu","station_id":"JMU","distance":1994,"i_lat":-6.288927,"is_transit":false,"line":6,"time":4},{"time":3,"i_lat":-6.276362,"transit":false,"line":6,"station_id":"PDJ","distance":2179,"station_name":"Pondokranji","i_long":106.74273,"is_transit":false},{"is_transit":false,"i_lat":-6.237242,"transit":false,"i_long":106.780334,"distance":6218,"station_name":"Kebayoran","line":6,"time":8,"station_id":"KBY"},{"line":6,"distance":3737,"i_lat":-6.207404,"station_name":"Palmerah","station_id":"PLM","is_transit":false,"time":7,"i_long":106.79689,"transit":false},{"time":6,"distance":3191,"transit":true,"i_long":106.811091,"station_name":"Tanah Abang","is_transit":true,"station_id":"THB","line":1,"i_lat":-6.185545},{"i_lat":-6.155215,"is_transit":true,"station_id":"DU","station_name":"Duri","i_long":106.800832,"time":8,"line":1,"transit":true,"distance":3632},{"distance":1700,"i_long":106.788277,"station_id":"GRG","time":3,"station_name":"Grogol","is_transit":false,"line":5,"transit":false,"i_lat":-6.162021},{"distance":2036,"line":5,"is_transit":false,"transit":false,"i_lat":-6.161433,"station_id":"PSG","station_name":"Pesing","time":2,"i_long":106.771379},{"is_transit":false,"i_lat":-6.1587309999999995,"distance":1614,"line":5,"time":2,"station_name":"Taman Kota","transit":false,"station_id":"TKO","i_long":106.756522},{"distance":2334,"is_transit":false,"i_lat":-6.159876,"line":5,"transit":false,"time":2,"i_long":106.737035,"station_id":"BOI","station_name":"Bojongindah"}],[{"station_name":"Daru","station_id":"DAR","time":0,"i_lat":-6.338021,"i_long":106.491338,"is_transit":false,"distance":0,"transit":false,"line":0},{"line":3,"distance":2675,"i_long":106.508482,"time":6,"is_transit":false,"transit":false,"station_name":"Cilejit","station_id":"CJT","i_lat":-6.354349},{"line":6,"is_transit":false,"station_name":"Parung Panjang","transit":false,"distance":7025,"i_lat":-6.3441410000000005,"time":9,"station_id":"PRP","i_long":106.568863},{"station_id":"CC","is_transit":false,"i_long":106.617853,"station_name":"Cicayur","distance":5968,"line":3,"time":8,"i_lat":-6.329547,"transit":false},{"transit":false,"i_lat":-6.32484,"station_name":"Cisauk","i_long":106.640411,"distance":2519,"line":3,"is_transit":false,"station_id":"CSK","time":4},{"distance":1784,"station_name":"Serpong","i_lat":-6.319871,"i_long":106.66566,"transit":false,"line":6,"time":4,"station_id":"SRP","is_transit":false},{"i_long":106.675475,"transit":false,"distance":2413,"station_name":"Rawa Buntu","is_transit":false,"line":6,"time":4,"station_id":"RU","i_lat":-6.314823},{"distance":4566,"transit":false,"station_name":"Sudimara","time":6,"i_lat":-6.296963,"i_long":106.712277,"station_id":"SDM","is_transit":false,"line":6},{"transit":false,"station_id":"JMU","line":6,"i_lat":-6.288927,"is_transit":false,"distance":1994,"i_long":106.728916,"time":4,"station_name":"Jurangmangu"},{"is_transit":false,"transit":false,"i_lat":-6.276362,"distance":2179,"station_name":"Pondokranji","station_id":"PDJ","time":3,"line":6,"i_long":106.74273},{"distance":6218,"time":8,"station_id":"KBY","i_long":106.780334,"line":6,"transit":false,"station_name":"Kebayoran","i_lat":-6.237242,"is_transit":false},{"station_name":"Palmerah","i_long":106.79689,"distance":3737,"line":6,"station_id":"PLM","is_transit":false,"transit":false,"i_lat":-6.207404,"time":7},{"station_id":"THB","distance":3191,"line":1,"is_transit":true,"time":6,"i_long":106.811091,"i_lat":-6.185545,"station_name":"Tanah Abang","transit":true},{"transit":false,"distance":2029,"station_id":"KAT","is_transit":false,"i_lat":-6.20132,"line":1,"station_name":"Karet","i_long":106.816351,"time":5},{"is_transit":false,"line":1,"transit":false,"i_long":106.819881,"i_lat":-6.201433,"station_id":"SUDB","distance":471,"time":1,"station_name":"Sudirman Baru"},{"is_transit":false,"line":1,"transit":false,"i_lat":-6.202263,"station_name":"Sudirman","i_long":106.822649,"station_id":"SUD","time":1,"distance":280},{"i_long":106.84912,"time":4,"transit":true,"is_transit":true,"station_name":"Manggarai","i_lat":-6.209883,"line":2,"distance":3186,"station_id":"MRI"},{"transit":false,"distance":1590,"line":2,"station_name":"Cikini","i_long":106.840169,"station_id":"CKI","is_transit":false,"time":4,"i_lat":-6.198556},{"line":2,"station_name":"Gondangdia","transit":false,"i_lat":-6.186295,"is_transit":false,"time":3,"i_long":106.832183,"station_id":"GDD","distance":1750},{"distance":2015,"is_transit":false,"time":4,"station_id":"JUA","station_name":"Juanda","i_lat":-6.166716,"i_long":106.828284,"line":2,"transit":false},{"i_long":106.827103,"station_name":"Sawah Besar","line":2,"station_id":"SW","transit":false,"distance":1149,"time":2,"i_lat":-6.160725,"is_transit":false},{"i_long":106.82482,"station_id":"MGB","time":2,"i_lat":-6.149769,"transit":false,"station_name":"Manggabesar","is_transit":false,"line":2,"distance":906},{"station_name":"Jayakarta","line":2,"is_transit":false,"distance":1080,"station_id":"JAY","time":2,"i_lat":-6.141205,"i_long":106.820901,"transit":false},{"transit":true,"station_id":"JAKK","i_long":106.812439,"i_lat":-6.137569,"line":2,"distance":1264,"station_name":"Jakarta Kota","time":4,"is_transit":true},{"distance":1364,"station_name":"Kampung Bandan","line":4,"time":3,"is_transit":true,"i_lat":-6.132549,"transit":true,"station_id":"KPB","i_long":106.826365},{"line":1,"i_long":106.79867,"distance":4102,"station_name":"Angke","time":9,"transit":false,"i_lat":-6.144674,"station_id":"AK","is_transit":false},{"line":1,"distance":1230,"station_id":"DU","i_lat":-6.155215,"transit":true,"station_name":"Duri","is_transit":true,"time":4,"i_long":106.800832},{"transit":false,"i_lat":-6.162021,"distance":1700,"i_long":106.788277,"line":5,"station_id":"GRG","is_transit":false,"station_name":"Grogol","time":3},{"i_lat":-6.161433,"time":2,"i_long":106.771379,"station_id":"PSG","line":5,"station_name":"Pesing","distance":2036,"transit":false,"is_transit":false},{"line":5,"station_id":"TKO","time":2,"distance":1614,"transit":false,"station_name":"Taman Kota","is_transit":false,"i_lat":-6.1587309999999995,"i_long":106.756522},{"time":2,"station_id":"BOI","line":5,"station_name":"Bojongindah","i_long":106.737035,"distance":2334,"is_transit":false,"i_lat":-6.159876,"transit":false}],[{"i_long":106.491338,"distance":0,"i_lat":-6.338021,"line":0,"transit":false,"station_id":"DAR","time":0,"station_name":"Daru","is_transit":false},{"distance":2675,"station_name":"Cilejit","i_long":106.508482,"station_id":"CJT","i_lat":-6.354349,"line":3,"time":6,"transit":false,"is_transit":false},{"station_id":"PRP","i_long":106.568863,"station_name":"Parung Panjang","transit":false,"distance":7025,"is_transit":false,"line":6,"time":9,"i_lat":-6.3441410000000005},{"line":3,"i_long":106.617853,"distance":5968,"transit":false,"station_id":"CC","time":8,"station_name":"Cicayur","is_transit":false,"i_lat":-6.329547},{"line":3,"transit":false,"is_transit":false,"station_name":"Cisauk","station_id":"CSK","distance":2519,"time":4,"i_lat":-6.32484,"i_long":106.640411},{"time":4,"distance":1784,"transit":false,"is_transit":false,"i_lat":-6.319871,"line":6,"station_name":"Serpong","station_id":"SRP","i_long":106.66566},{"line":6,"station_name":"Rawa Buntu","time":4,"distance":2413,"station_id":"RU","i_long":106.675475,"is_transit":false,"transit":false,"i_lat":-6.314823},{"is_transit":false,"line":6,"station_id":"SDM","station_name":"Sudimara","i_long":106.712277,"distance":4566,"i_lat":-6.296963,"transit":false,"time":6},{"i_long":106.728916,"i_lat":-6.288927,"time":4,"distance":1994,"station_id":"JMU","transit":false,"line":6,"station_name":"Jurangmangu","is_transit":false},{"station_name":"Pondokranji","time":3,"i_lat":-6.276362,"transit":false,"i_long":106.74273,"distance":2179,"is_transit":false,"line":6,"station_id":"PDJ"},{"is_transit":false,"i_lat":-6.237242,"i_long":106.780334,"line":6,"station_name":"Kebayoran","distance":6218,"time":8,"transit":false,"station_id":"KBY"},{"distance":3737,"i_lat":-6.207404,"i_long":106.79689,"transit":false,"station_name":"Palmerah","is_transit":false,"station_id":"PLM","time":7,"line":6},{"transit":true,"station_name":"Tanah Abang","time":6,"line":1,"i_lat":-6.185545,"i_long":106.811091,"distance":3191,"station_id":"THB","is_transit":true},{"station_name":"Karet","is_transit":false,"line":1,"time":5,"station_id":"KAT","transit":false,"i_lat":-6.20132,"distance":2029,"i_long":106.816351},{"i_lat":-6.201433,"time":1,"is_transit":false,"station_id":"SUDB","station_name":"Sudirman Baru","distance":471,"i_long":106.819881,"line":1,"transit":false},{"transit":false,"i_lat":-6.202263,"station_id":"SUD","station_name":"Sudirman","i_long":106.822649,"distance":280,"is_transit":false,"time":1,"line":1},{"transit":false,"time":4,"station_id":"MRI","line":2,"i_long":106.84912,"distance":3186,"station_name":"Manggarai","i_lat":-6.209883,"is_transit":false},{"time":2,"distance":1275,"is_transit":false,"station_id":"MTR","i_lat":-6.212485,"i_long":106.858896,"station_name":"Matraman","transit":false,"line":1},{"distance":1377,"i_long":106.86807400000001,"station_name":"Jatinegara","station_id":"JNG","is_transit":true,"time":8,"i_lat":-6.215091,"line":1,"transit":true},{"distance":1236,"station_name":"Pondok Jati","transit":false,"i_lat":-6.209188,"i_long":106.861737,"is_transit":false,"line":11,"station_id":"POK","time":2},{"transit":false,"station_name":"Kramat","time":2,"distance":1829,"is_transit":false,"i_lat":-6.193792,"line":11,"i_long":106.855437,"station_id":"KMT"},{"i_lat":-6.185975,"i_long":106.850107,"station_name":"Gang Sentiong","is_transit":false,"distance":973,"station_id":"GST","line":11,"time":1,"transit":false},{"time":8,"distance":1567,"i_lat":-6.174784,"station_name":"Pasar Senen","i_long":106.84368,"station_id":"PSE","transit":false,"line":11,"is_transit":false},{"transit":false,"station_id":"KMO","line":11,"i_lat":-6.161728,"distance":1436,"is_transit":false,"time":4,"station_name":"Kemayoran","i_long":106.839204},{"distance":1901,"line":11,"station_id":"RJW","transit":false,"station_name":"Rajawali","is_transit":false,"time":5,"i_lat":-6.14505,"i_long":106.836569},{"station_name":"Kampung Bandan","i_long":106.826365,"i_lat":-6.132549,"transit":true,"line":4,"station_id":"KPB","is_transit":true,"distance":1444,"time":3},{"line":1,"distance":4102,"is_transit":false,"transit":false,"time":9,"station_id":"AK","i_lat":-6.144674,"station_name":"Angke","i_long":106.79867},{"distance":1230,"is_transit":true,"i_lat":-6.155215,"station_id":"DU","time":4,"line":1,"transit":true,"i_long":106.800832,"station_name":"Duri"},{"station_id":"GRG","station_name":"Grogol","distance":1700,"line":5,"transit":false,"i_lat":-6.162021,"i_long":106.788277,"is_transit":false,"time":3},{"i_long":106.771379,"is_transit":false,"i_lat":-6.161433,"station_id":"PSG","line":5,"station_name":"Pesing","time":2,"transit":false,"distance":2036},{"line":5,"station_id":"TKO","is_transit":false,"time":2,"distance":1614,"station_name":"Taman Kota","i_lat":-6.1587309999999995,"i_long":106.756522,"transit":false},{"distance":2334,"station_id":"BOI","is_transit":false,"i_lat":-6.159876,"time":2,"line":5,"station_name":"Bojongindah","transit":false,"i_long":106.737035}]]}