{"data":[[{"time":0,"i_lat":-6.338021,"distance":0,"station_name":"Daru","transit":false,"line":0,"station_id":"DAR","is_transit":false,"i_long":106.491338},{"station_id":"CJT","is_transit":false,"i_lat":-6.354349,"distance":2675,"i_long":106.508482,"line":3,"time":6,"station_name":"Cilejit","transit":false},{"i_long":106.568863,"time":9,"transit":false,"is_transit":false,"i_lat":-6.3441410000000005,"station_name":"Parung Panjang","station_id":"PRP","distance":7025,"line":6},{"i_long":106.617853,"distance":5968,"station_id":"CC","is_transit":false,"i_lat":-6.329547,"transit":false,"time":8,"line":3,"station_name":"Cicayur"},{"station_id":"CSK","time":4,"distance":2519,"is_transit":false,"i_lat":-6.32484,"station_name":"Cisauk","transit":false,"i_long":106.640411,"line":3},{"station_name":"Serpong","i_lat":-6.319871,"time":4,"station_id":"SRP","is_transit":false,"i_long":106.66566,"line":6,"transit":false,"distance":1784},{"station_id":"RU","time":4,"i_long":106.675475,"i_lat":-6.314823,"is_transit":false,"transit":false,"distance":2413,"station_name":"Rawa Buntu","line":6},{"i_lat":-6.296963,"distance":4566,"is_transit":false,"station_name":"Sudimara","i_long":106.712277,"transit":false,"station_id":"SDM","time":6,"line":6},{"line":6,"distance":1994,"station_name":"Jurangmangu","i_long":106.728916,"transit":false,"station_id":"JMU","is_transit":false,"time":4,"i_lat":-6.288927},{"station_id":"PDJ","i_lat":-6.276362,"is_transit":false,"distance":2179,"transit":false,"station_name":"Pondokranji","time":3,"i_long":106.74273,"line":6},{"transit":false,"i_lat":-6.237242,"line":6,"time":8,"station_id":"KBY","station_name":"Kebayoran","distance":6218,"i_long":106.780334,"is_transit":false},{"transit":false,"is_transit":false,"station_name":"Palmerah","station_id":"PLM","line":6,"time":7,"i_long":106.79689,"i_lat":-6.207404,"distance":3737},{"station_name":"Tanah Abang","line":1,"is_transit":true,"i_long":106.811091,"station_id":"THB","i_lat":-6.185545,"distance":3191,"time":6,"transit":true},{"i_long":106.800832,"i_lat":-6.155215,"line":1,"station_id":"DU","distance":3632,"time":8,"is_transit":true,"transit":true,"station_name":"Duri"},{"station_name":"Grogol","line":5,"i_long":106.788277,"transit":false,"is_transit":false,"distance":1700,"station_id":"GGL","i_lat":-6.162021,"time":3},{"distance":2036,"station_name":"Pesing","station_id":"PSG","time":2,"i_lat":-6.161433,"transit":false,"is_transit":false,"i_long":106.771379,"line":5},{"time":2,"station_name":"Taman Kota","i_long":106.756522,"line":5,"station_id":"TKO","is_transit":false,"transit":false,"distance":1614,"i_lat":-6.1587309999999995},{"distance":2334,"i_lat":-6.159876,"station_id":"BOI","station_name":"Bojongindah","time":2,"transit":false,"i_long":106.737035,"line":5,"is_transit":false},{"station_id":"RW","distance":1152,"station_name":"Rawa Buaya","is_transit":false,"i_lat":-6.162758,"i_long":106.723064,"transit":false,"time":4,"line":5}],[{"distance":0,"i_lat":-6.338021,"transit":false,"is_transit":false,"station_id":"DAR","line":0,"station_name":"Daru","i_long":106.491338,"time":0},{"station_id":"CJT","i_lat":-6.354349,"station_name":"Cilejit","line":3,"distance":2675,"time":6,"is_transit":false,"i_long":106.508482,"transit":false},{"station_id":"PRP","distance":7025,"transit":false,"line":6,"time":9,"i_long":106.568863,"station_name":"Parung Panjang","is_transit":false,"i_lat":-6.3441410000000005},{"time":8,"station_id":"CC","distance":5968,"i_long":106.617853,"station_name":"Cicayur","line":3,"transit":false,"is_transit":false,"i_lat":-6.329547},{"station_name":"Cisauk","i_long":106.640411,"line":3,"station_id":"CSK","i_lat":-6.32484,"time":4,"distance":2519,"transit":false,"is_transit":false},{"i_lat":-6.319871,"line":6,"is_transit":false,"transit":false,"time":4,"station_id":"SRP","distance":1784,"i_long":106.66566,"station_name":"Serpong"},{"station_id":"RU","time":4,"is_transit":false,"transit":false,"i_lat":-6.314823,"station_name":"Rawa Buntu","distance":2413,"i_long":106.675475,"line":6},{"station_id":"SDM","line":6,"i_lat":-6.296963,"transit":false,"distance":4566,"time":6,"station_name":"Sudimara","i_long":106.712277,"is_transit":false},{"is_transit":false,"i_lat":-6.288927,"station_name":"Jurangmangu","i_long":106.728916,"time":4,"transit":false,"station_id":"JMU","line":6,"distance":1994},{"i_lat":-6.276362,"station_id":"PDJ","i_long":106.74273,"is_transit":false,"transit":false,"station_name":"Pondokranji","time":3,"line":6,"distance":2179},{"transit":false,"station_id":"KBY","is_transit":false,"time":8,"station_name":"Kebayoran","distance":6218,"i_lat":-6.237242,"i_long":106.780334,"line":6},{"distance":3737,"line":6,"i_long":106.79689,"i_lat":-6.207404,"time":7,"station_name":"Palmerah","station_id":"PLM","transit":false,"is_transit":false},{"station_id":"THB","i_lat":-6.185545,"is_transit":true,"line":1,"station_name":"Tanah Abang","transit":true,"time":6,"distance":3191,"i_long":106.811091},{"line":1,"station_id":"KAT","station_name":"Karet","distance":2029,"transit":false,"is_transit":false,"i_lat":-6.20132,"i_long":106.816351,"time":5},{"station_id":"SUDB","transit":false,"station_name":"Sudirman Baru","line":1,"is_transit":false,"i_long":106.819881,"distance":471,"i_lat":-6.201433,"time":1},{"distance":280,"transit":false,"time":1,"is_transit":false,"line":1,"station_name":"Sudirman","i_lat":-6.202263,"i_long":106.822649,"station_id":"SUD"},{"station_id":"MRI","distance":3186,"line":2,"transit":true,"i_lat":-6.209883,"is_transit":true,"station_name":"Manggarai","time":4,"i_long":106.84912},{"station_name":"Cikini","station_id":"CKI","is_transit":false,"time":4,"distance":1590,"i_long":106.840169,"i_lat":-6.198556,"transit":false,"line":2},{"i_lat":-6.186295,"station_id":"GDD","line":2,"time":3,"distance":1750,"i_long":106.832183,"is_transit":false,"transit":false,"station_name":"Gondangdia"},{"is_transit":false,"station_id":"JUA","transit":false,"distance":2015,"time":4,"i_lat":-6.166716,"station_name":"Juanda","i_long":106.828284,"line":2},{"transit":false,"distance":1149,"i_long":106.827103,"station_name":"Sawah Besar","is_transit":false,"line":2,"time":2,"station_id":"SW","i_lat":-6.160725},{"i_lat":-6.149769,"i_long":106.82482,"line":2,"station_name":"Manggabesar","station_id":"MGB","transit":false,"is_transit":false,"time":2,"distance":906},{"time":2,"i_long":106.820901,"line":2,"is_transit":false,"station_id":"JAY","distance":1080,"transit":false,"station_name":"Jayakarta","i_lat":-6.141205},{"station_id":"JAKK","distance":1264,"i_lat":-6.137569,"is_transit":true,"i_long":106.812439,"line":2,"station_name":"Jakarta Kota","time":4,"transit":true},{"transit":true,"station_id":"KPB","i_long":106.826365,"line":4,"station_name":"Kampung Bandan","is_transit":true,"time":3,"distance":1364,"i_lat":-6.132549},{"line":1,"i_lat":-6.144674,"station_id":"AK","distance":4102,"transit":false,"is_transit":false,"station_name":"Angke","time":9,"i_long":106.79867},{"station_id":"DU","station_name":"Duri","transit":true,"distance":1230,"is_transit":true,"line":1,"i_lat":-6.155215,"time":4,"i_long":106.800832},{"distance":1700,"station_name":"Grogol","line":5,"i_lat":-6.162021,"time":3,"i_long":106.788277,"transit":false,"station_id":"GGL","is_transit":false},{"line":5,"distance":2036,"i_lat":-6.161433,"i_long":106.771379,"station_id":"PSG","transit":false,"is_transit":false,"station_name":"Pesing","time":2},{"is_transit":false,"time":2,"transit":false,"line":5,"station_name":"Taman Kota","i_lat":-6.1587309999999995,"distance":1614,"i_long":106.756522,"station_id":"TKO"},{"is_transit":false,"transit":false,"time":2,"i_lat":-6.159876,"distance":2334,"station_name":"Bojongindah","line":5,"station_id":"BOI","i_long":106.737035},{"is_transit":false,"time":4,"i_lat":-6.162758,"i_long":106.723064,"station_id":"RW","transit":false,"station_name":"Rawa Buaya","distance":1152,"line":5}],[{"station_name":"Daru","line":0,"i_lat":-6.338021,"station_id":"DAR","i_long":106.491338,"is_transit":false,"transit":false,"time":0,"distance":0},{"transit":false,"i_lat":-6.354349,"i_long":106.508482,"station_id":"CJT","is_transit":false,"distance":2675,"station_name":"Cilejit","time":6,"line":3},{"station_id":"PRP","distance":7025,"i_lat":-6.3441410000000005,"transit":false,"is_transit":false,"time":9,"station_name":"Parung Panjang","line":6,"i_long":106.568863},{"is_transit":false,"line":3,"transit":false,"distance":5968,"station_name":"Cicayur","time":8,"station_id":"CC","i_lat":-6.329547,"i_long":106.617853},{"station_id":"CSK","distance":2519,"i_long":106.640411,"is_transit":false,"line":3,"time":4,"i_lat":-6.32484,"station_name":"Cisauk","transit":false},{"transit":false,"station_id":"SRP","time":4,"i_long":106.66566,"distance":1784,"i_lat":-6.319871,"is_transit":false,"station_name":"Serpong","line":6},{"station_id":"RU","i_lat":-6.314823,"station_name":"Rawa Buntu","i_long":106.675475,"line":6,"transit":false,"time":4,"distance":2413,"is_transit":false},{"line":6,"time":6,"i_lat":-6.296963,"transit":false,"station_id":"SDM","is_transit":false,"station_name":"Sudimara","distance":4566,"i_long":106.712277},{"transit":false,"line":6,"station_name":"Jurangmangu","station_id":"JMU","is_transit":false,"i_lat":-6.288927,"i_long":106.728916,"time":4,"distance":1994},{"station_id":"PDJ","transit":false,"time":3,"i_lat":-6.276362,"is_transit":false,"line":6,"station_name":"Pondokranji","distance":2179,"i_long":106.74273},{"is_transit":false,"line":6,"time":8,"station_name":"Kebayoran","station_id":"KBY","i_lat":-6.237242,"distance":6218,"i_long":106.780334,"transit":false},{"i_long":106.79689,"transit":false,"time":7,"distance":3737,"station_id":"PLM","i_lat":-6.207404,"line":6,"station_name":"Palmerah","is_transit":false},{"transit":true,"station_id":"THB","distance":3191,"i_lat":-6.185545,"line":1,"time":6,"station_name":"Tanah Abang","i_long":106.811091,"is_transit":true},{"station_id":"KAT","station_name":"Karet","time":5,"i_long":106.816351,"i_lat":-6.20132,"is_transit":false,"distance":2029,"transit":false,"line":1},{"i_long":106.819881,"station_name":"Sudirman Baru","station_id":"SUDB","line":1,"is_transit":false,"time":1,"transit":false,"i_lat":-6.201433,"distance":471},{"station_id":"SUD","distance":280,"line":1,"i_long":106.822649,"i_lat":-6.202263,"transit":false,"station_name":"Sudirman","is_transit":false,"time":1},{"line":2,"transit":false,"distance":3186,"station_id":"MRI","time":4,"station_name":"Manggarai","is_transit":false,"i_long":106.84912,"i_lat":-6.209883},{"station_id":"MTR","transit":false,"station_name":"Matraman","distance":1275,"time":2,"i_lat":-6.212485,"is_transit":false,"line":1,"i_long":106.858896},{"station_name":"Jatinegara","time":8,"is_transit":true,"line":1,"i_long":106.86807400000001,"station_id":"JNG","transit":true,"distance":1377,"i_lat":-6.215091},{"station_name":"Pondok Jati","station_id":"POK","transit":false,"i_lat":-6.209188,"i_long":106.861737,"line":11,"time":2,"distance":1236,"is_transit":false},{"i_long":106.855437,"transit":false,"station_id":"KMT","is_transit":false,"time":2,"line":11,"station_name":"Kramat","distance":1829,"i_lat":-6.193792},{"i_long":106.850107,"station_name":"Gang Sentiong","time":1,"distance":973,"line":11,"station_id":"GST","i_lat":-6.185975,"transit":false,"is_transit":false},{"transit":false,"i_lat":-6.174784,"time":8,"distance":1567,"station_id":"PSE","i_long":106.84368,"station_name":"Pasar Senen","is_transit":false,"line":11},{"is_transit":false,"line":11,"time":4,"distance":1436,"station_id":"KMO","i_lat":-6.161728,"transit":false,"station_name":"Kemayoran","i_long":106.839204},{"i_lat":-6.14505,"line":11,"time":5,"station_name":"Rajawali","is_transit":false,"station_id":"RJW","i_long":106.836569,"transit":false,"distance":1901},{"transit":true,"time":3,"station_name":"Kampung Bandan","distance":1444,"station_id":"KPB","line":4,"i_lat":-6.132549,"is_transit":true,"i_long":106.826365},{"station_id":"AK","distance":4102,"i_long":106.79867,"i_lat":-6.144674,"line":1,"station_name":"Angke","is_transit":false,"time":9,"transit":false},{"i_lat":-6.155215,"distance":1230,"i_long":106.800832,"is_transit":true,"station_id":"DU","time":4,"station_name":"Duri","transit":true,"line":1},{"is_transit":false,"i_lat":-6.162021,"line":5,"i_long":106.788277,"transit":false,"station_name":"Grogol","time":3,"distance":1700,"station_id":"GGL"},{"time":2,"distance":2036,"station_name":"Pesing","station_id":"PSG","is_transit":false,"transit":false,"i_lat":-6.161433,"i_long":106.771379,"line":5},{"is_transit":false,"transit":false,"time":2,"station_id":"TKO","i_lat":-6.1587309999999995,"station_name":"Taman Kota","distance":1614,"i_long":106.756522,"line":5},{"line":5,"is_transit":false,"transit":false,"time":2,"i_lat":-6.159876,"distance":2334,"station_id":"BOI","station_name":"Bojongindah","i_long":106.737035},{"station_name":"Rawa Buaya","distance":1152,"line":5,"transit":false,"time":4,"i_long":106.723064,"is_transit":false,"i_lat":-6.162758,"station_id":"RW"}]]}