{"data":[[{"station_id":"DAR","time":0,"transit":false,"distance":0,"i_long":106.491338,"station_name":"Daru","is_transit":false,"line":0,"i_lat":-6.338021},{"transit":false,"line":3,"distance":2675,"station_id":"CJT","station_name":"Cilejit","time":6,"i_lat":-6.354349,"i_long":106.508482,"is_transit":false},{"station_id":"PRP","is_transit":false,"i_lat":-6.3441410000000005,"i_long":106.568863,"line":6,"time":9,"distance":7025,"station_name":"Parung Panjang","transit":false},{"station_name":"Cicayur","transit":false,"line":3,"is_transit":false,"i_long":106.617853,"i_lat":-6.329547,"time":8,"station_id":"CC","distance":5968},{"station_name":"Cisauk","transit":false,"time":4,"distance":2519,"i_lat":-6.32484,"station_id":"CSK","is_transit":false,"i_long":106.640411,"line":3},{"i_long":106.66566,"station_name":"Serpong","i_lat":-6.319871,"time":4,"transit":false,"is_transit":false,"station_id":"SRP","distance":1784,"line":6},{"station_name":"Rawa Buntu","station_id":"RU","transit":false,"i_long":106.675475,"is_transit":false,"i_lat":-6.314823,"distance":2413,"line":6,"time":4},{"time":6,"i_lat":-6.296963,"i_long":106.712277,"transit":false,"line":6,"is_transit":false,"station_id":"SDM","distance":4566,"station_name":"Sudimara"},{"transit":false,"time":4,"distance":1994,"i_long":106.728916,"i_lat":-6.288927,"line":6,"is_transit":false,"station_name":"Jurangmangu","station_id":"JMU"},{"transit":false,"station_name":"Pondokranji","time":3,"i_long":106.74273,"distance":2179,"i_lat":-6.276362,"line":6,"station_id":"PDJ","is_transit":false},{"line":6,"distance":6218,"i_lat":-6.237242,"transit":false,"is_transit":false,"time":8,"station_name":"Kebayoran","station_id":"KBY","i_long":106.780334},{"line":6,"distance":3737,"station_id":"PLM","i_long":106.79689,"i_lat":-6.207404,"time":7,"station_name":"Palmerah","transit":false,"is_transit":false},{"i_long":106.811091,"distance":3191,"i_lat":-6.185545,"station_name":"Tanah Abang","line":1,"station_id":"THB","transit":true,"is_transit":true,"time":6},{"i_long":106.816351,"station_name":"Karet","is_transit":false,"time":5,"line":1,"station_id":"KAT","i_lat":-6.20132,"distance":2029,"transit":false},{"time":1,"station_id":"SUDB","transit":false,"station_name":"Sudirman Baru","is_transit":false,"i_long":106.819881,"line":1,"i_lat":-6.201433,"distance":471},{"line":1,"station_id":"SUD","is_transit":false,"i_lat":-6.202263,"station_name":"Sudirman","time":1,"i_long":106.822649,"transit":false,"distance":280}],[{"i_long":106.491338,"transit":false,"station_id":"DAR","i_lat":-6.338021,"distance":0,"is_transit":false,"line":0,"time":0,"station_name":"Daru"},{"distance":2675,"line":3,"i_lat":-6.354349,"time":6,"is_transit":false,"station_id":"CJT","transit":false,"station_name":"Cilejit","i_long":106.508482},{"station_id":"PRP","i_long":106.568863,"station_name":"Parung Panjang","is_transit":false,"transit":false,"line":6,"distance":7025,"i_lat":-6.3441410000000005,"time":9},{"i_long":106.617853,"time":8,"line":3,"transit":false,"station_name":"Cicayur","i_lat":-6.329547,"is_transit":false,"distance":5968,"station_id":"CC"},{"is_transit":false,"time":4,"transit":false,"i_lat":-6.32484,"station_name":"Cisauk","station_id":"CSK","distance":2519,"line":3,"i_long":106.640411},{"station_id":"SRP","time":4,"is_transit":false,"distance":1784,"line":6,"transit":false,"i_lat":-6.319871,"station_name":"Serpong","i_long":106.66566},{"station_name":"Rawa Buntu","time":4,"station_id":"RU","is_transit":false,"distance":2413,"i_lat":-6.314823,"transit":false,"line":6,"i_long":106.675475},{"is_transit":false,"transit":false,"station_id":"SDM","time":6,"i_long":106.712277,"i_lat":-6.296963,"line":6,"station_name":"Sudimara","distance":4566},{"line":6,"is_transit":false,"station_name":"Jurangmangu","station_id":"JMU","i_long":106.728916,"time":4,"distance":1994,"i_lat":-6.288927,"transit":false},{"transit":false,"station_name":"Pondokranji","line":6,"is_transit":false,"i_lat":-6.276362,"i_long":106.74273,"time":3,"distance":2179,"station_id":"PDJ"},{"station_id":"KBY","is_transit":false,"i_long":106.780334,"i_lat":-6.237242,"time":8,"station_name":"Kebayoran","distance":6218,"transit":false,"line":6},{"time":7,"i_long":106.79689,"line":6,"distance":3737,"station_id":"PLM","station_name":"Palmerah","is_transit":false,"transit":false,"i_lat":-6.207404},{"station_name":"Tanah Abang","distance":3191,"transit":true,"station_id":"THB","i_long":106.811091,"line":1,"is_transit":true,"i_lat":-6.185545,"time":6},{"transit":false,"station_name":"Duri","time":8,"i_lat":-6.155215,"i_long":106.800832,"line":1,"distance":3632,"is_transit":false,"station_id":"DU"},{"i_lat":-6.144674,"line":1,"station_id":"AK","distance":1230,"station_name":"Angke","is_transit":false,"transit":false,"time":4,"i_long":106.79867},{"i_lat":-6.132549,"is_transit":true,"station_id":"KPB","i_long":106.826365,"station_name":"Kampung Bandan","transit":true,"time":9,"line":4,"distance":4102},{"i_lat":-6.137569,"station_id":"JAKK","i_long":106.812439,"line":2,"station_name":"Jakarta Kota","distance":1364,"is_transit":true,"transit":true,"time":3},{"line":2,"station_name":"Jayakarta","time":4,"i_long":106.820901,"transit":false,"station_id":"JAY","distance":1264,"is_transit":false,"i_lat":-6.141205},{"i_long":106.82482,"distance":1080,"i_lat":-6.149769,"line":2,"transit":false,"station_id":"MGB","time":2,"is_transit":false,"station_name":"Manggabesar"},{"i_long":106.827103,"line":2,"station_name":"Sawah Besar","distance":906,"time":2,"station_id":"SW","i_lat":-6.160725,"transit":false,"is_transit":false},{"i_long":106.828284,"time":2,"is_transit":false,"transit":false,"i_lat":-6.166716,"line":2,"station_name":"Juanda","distance":1149,"station_id":"JUA"},{"station_id":"GDD","i_long":106.832183,"i_lat":-6.186295,"time":4,"distance":2015,"is_transit":false,"station_name":"Gondangdia","transit":false,"line":2},{"i_long":106.840169,"station_id":"CKI","distance":1750,"i_lat":-6.198556,"is_transit":false,"station_name":"Cikini","time":3,"transit":false,"line":2},{"distance":1590,"time":4,"i_lat":-6.209883,"station_id":"MRI","transit":true,"i_long":106.84912,"line":2,"station_name":"Manggarai","is_transit":true},{"distance":3186,"i_lat":-6.202263,"station_name":"Sudirman","station_id":"SUD","is_transit":false,"line":1,"i_long":106.822649,"transit":false,"time":4}],[{"is_transit":false,"transit":false,"time":0,"i_lat":-6.338021,"i_long":106.491338,"station_name":"Daru","distance":0,"station_id":"DAR","line":0},{"transit":false,"i_long":106.508482,"time":6,"distance":2675,"i_lat":-6.354349,"line":3,"is_transit":false,"station_name":"Cilejit","station_id":"CJT"},{"i_long":106.568863,"distance":7025,"line":6,"time":9,"station_id":"PRP","transit":false,"station_name":"Parung Panjang","is_transit":false,"i_lat":-6.3441410000000005},{"i_lat":-6.329547,"station_name":"Cicayur","i_long":106.617853,"line":3,"station_id":"CC","is_transit":false,"transit":false,"time":8,"distance":5968},{"distance":2519,"i_lat":-6.32484,"transit":false,"is_transit":false,"time":4,"line":3,"station_id":"CSK","station_name":"Cisauk","i_long":106.640411},{"transit":false,"station_name":"Serpong","line":6,"i_lat":-6.319871,"is_transit":false,"time":4,"distance":1784,"i_long":106.66566,"station_id":"SRP"},{"station_id":"RU","time":4,"line":6,"transit":false,"distance":2413,"is_transit":false,"i_lat":-6.314823,"i_long":106.675475,"station_name":"Rawa Buntu"},{"transit":false,"station_name":"Sudimara","line":6,"i_lat":-6.296963,"time":6,"station_id":"SDM","distance":4566,"i_long":106.712277,"is_transit":false},{"i_long":106.728916,"is_transit":false,"i_lat":-6.288927,"time":4,"station_id":"JMU","line":6,"station_name":"Jurangmangu","transit":false,"distance":1994},{"i_lat":-6.276362,"station_id":"PDJ","time":3,"distance":2179,"is_transit":false,"line":6,"transit":false,"station_name":"Pondokranji","i_long":106.74273},{"line":6,"station_id":"KBY","time":8,"distance":6218,"i_long":106.780334,"i_lat":-6.237242,"is_transit":false,"station_name":"Kebayoran","transit":false},{"transit":false,"station_name":"Palmerah","is_transit":false,"time":7,"i_long":106.79689,"station_id":"PLM","distance":3737,"i_lat":-6.207404,"line":6},{"transit":true,"is_transit":true,"i_long":106.811091,"distance":3191,"time":6,"i_lat":-6.185545,"station_name":"Tanah Abang","line":1,"station_id":"THB"},{"station_id":"DU","time":8,"distance":3632,"i_lat":-6.155215,"station_name":"Duri","transit":false,"is_transit":false,"i_long":106.800832,"line":1},{"station_name":"Angke","i_lat":-6.144674,"distance":1230,"transit":false,"is_transit":false,"line":1,"time":4,"i_long":106.79867,"station_id":"AK"},{"station_id":"KPB","i_long":106.826365,"line":4,"station_name":"Kampung Bandan","distance":4102,"i_lat":-6.132549,"time":9,"transit":true,"is_transit":true},{"distance":1444,"i_lat":-6.14505,"station_id":"RJW","station_name":"Rajawali","time":3,"line":11,"i_long":106.836569,"is_transit":false,"transit":false},{"i_long":106.839204,"station_id":"KMO","transit":false,"is_transit":false,"distance":1901,"time":5,"i_lat":-6.161728,"line":11,"station_name":"Kemayoran"},{"station_id":"PSE","transit":false,"time":4,"is_transit":false,"distance":1436,"i_lat":-6.174784,"i_long":106.84368,"line":11,"station_name":"Pasar Senen"},{"transit":false,"distance":1567,"station_name":"Gang Sentiong","line":11,"i_lat":-6.185975,"is_transit":false,"time":8,"station_id":"GST","i_long":106.850107},{"line":11,"i_lat":-6.193792,"time":1,"transit":false,"is_transit":false,"i_long":106.855437,"station_name":"Kramat","station_id":"KMT","distance":973},{"distance":1829,"line":11,"station_name":"Pondok Jati","time":2,"transit":false,"i_lat":-6.209188,"i_long":106.861737,"station_id":"POK","is_transit":false},{"line":1,"transit":true,"station_id":"JNG","is_transit":true,"distance":1236,"station_name":"Jatinegara","time":9,"i_lat":-6.215091,"i_long":106.86807400000001},{"station_id":"MTR","line":1,"is_transit":false,"time":2,"transit":false,"i_long":106.858896,"station_name":"Matraman","distance":1377,"i_lat":-6.212485},{"time":2,"line":2,"transit":false,"station_name":"Manggarai","i_lat":-6.209883,"is_transit":false,"i_long":106.84912,"station_id":"MRI","distance":1275},{"line":1,"time":4,"transit":false,"station_name":"Sudirman","station_id":"SUD","i_lat":-6.202263,"distance":3186,"is_transit":false,"i_long":106.822649}]]}