{"data":[[{"distance":0,"station_name":"Daru","i_long":106.491338,"station_id":"DAR","i_lat":-6.338021,"line":0,"time":0,"transit":false,"is_transit":false},{"station_id":"CJT","i_long":106.508482,"station_name":"Cilejit","transit":false,"distance":2675,"is_transit":false,"line":3,"time":6,"i_lat":-6.354349},{"line":6,"i_long":106.568863,"distance":7025,"transit":false,"station_id":"PRP","time":9,"station_name":"Parung Panjang","is_transit":false,"i_lat":-6.3441410000000005},{"line":3,"transit":false,"is_transit":false,"station_name":"Cicayur","distance":5968,"station_id":"CC","time":8,"i_lat":-6.329547,"i_long":106.617853},{"time":4,"distance":2519,"transit":false,"is_transit":false,"i_lat":-6.32484,"line":3,"station_name":"Cisauk","station_id":"CSK","i_long":106.640411},{"line":6,"station_name":"Serpong","time":4,"distance":1784,"station_id":"SRP","i_long":106.66566,"is_transit":false,"transit":false,"i_lat":-6.319871},{"is_transit":false,"line":6,"station_id":"RU","station_name":"Rawa Buntu","i_long":106.675475,"distance":2413,"i_lat":-6.314823,"transit":false,"time":4},{"i_long":106.712277,"i_lat":-6.296963,"time":6,"distance":4566,"station_id":"SDM","transit":false,"line":6,"station_name":"Sudimara","is_transit":false},{"station_name":"Jurangmangu","time":4,"i_lat":-6.288927,"transit":false,"i_long":106.728916,"distance":1994,"is_transit":false,"line":6,"station_id":"JMU"},{"is_transit":false,"i_lat":-6.276362,"i_long":106.74273,"line":6,"station_name":"Pondokranji","time":3,"distance":2179,"transit":false,"station_id":"PDJ"},{"distance":6218,"i_lat":-6.237242,"i_long":106.780334,"station_name":"Kebayoran","transit":false,"is_transit":false,"station_id":"KBY","time":8,"line":6},{"is_transit":false,"station_name":"Palmerah","transit":false,"line":6,"i_lat":-6.207404,"i_long":106.79689,"distance":3737,"time":7,"station_id":"PLM"},{"station_name":"Tanah Abang","is_transit":true,"line":1,"time":6,"station_id":"THB","transit":true,"i_lat":-6.185545,"distance":3191,"i_long":106.811091},{"i_lat":-6.20132,"time":5,"is_transit":false,"station_id":"KAT","station_name":"Karet","distance":2029,"i_long":106.816351,"line":1,"transit":false},{"transit":false,"i_lat":-6.201433,"station_id":"SUDB","station_name":"Sudirman Baru","i_long":106.819881,"distance":471,"time":1,"is_transit":false,"line":1},{"transit":false,"time":1,"station_id":"SUD","line":1,"i_long":106.822649,"distance":280,"station_name":"Sudirman","i_lat":-6.202263,"is_transit":false},{"is_transit":false,"transit":false,"i_long":106.84912,"distance":3186,"time":4,"station_id":"MRI","station_name":"Manggarai","i_lat":-6.209883,"line":2},{"i_lat":-6.212485,"i_long":106.858896,"station_name":"Matraman","time":2,"line":1,"transit":false,"distance":1275,"station_id":"MTR","is_transit":false},{"time":8,"distance":1377,"i_long":106.86807400000001,"is_transit":false,"line":1,"station_id":"JNG","i_lat":-6.215091,"transit":false,"station_name":"Jatinegara"},{"transit":false,"distance":3395,"i_lat":-6.2135,"i_long":106.899548,"station_name":"Klender","line":1,"time":3,"station_id":"KLD","is_transit":false},{"station_id":"BUA","time":2,"i_long":106.922662,"distance":3100,"line":1,"is_transit":false,"i_lat":-6.215568,"station_name":"Buaran","transit":false},{"station_id":"KLDB","line":1,"time":1,"is_transit":false,"i_long":106.939679,"i_lat":-6.217455,"transit":false,"distance":1305,"station_name":"Klenderbaru"}],[{"i_long":106.491338,"i_lat":-6.338021,"station_name":"Daru","station_id":"DAR","time":0,"transit":false,"is_transit":false,"line":0,"distance":0},{"i_lat":-6.354349,"station_name":"Cilejit","i_long":106.508482,"line":3,"time":6,"station_id":"CJT","transit":false,"is_transit":false,"distance":2675},{"station_id":"PRP","i_long":106.568863,"station_name":"Parung Panjang","distance":7025,"transit":false,"i_lat":-6.3441410000000005,"line":6,"time":9,"is_transit":false},{"station_id":"CC","is_transit":false,"i_long":106.617853,"transit":false,"station_name":"Cicayur","distance":5968,"line":3,"time":8,"i_lat":-6.329547},{"time":4,"i_long":106.640411,"line":3,"distance":2519,"station_name":"Cisauk","is_transit":false,"transit":false,"station_id":"CSK","i_lat":-6.32484},{"is_transit":false,"distance":1784,"transit":false,"i_lat":-6.319871,"station_name":"Serpong","i_long":106.66566,"station_id":"SRP","time":4,"line":6},{"station_name":"Rawa Buntu","i_long":106.675475,"line":6,"i_lat":-6.314823,"is_transit":false,"transit":false,"station_id":"RU","distance":2413,"time":4},{"station_name":"Sudimara","transit":false,"distance":4566,"is_transit":false,"station_id":"SDM","i_lat":-6.296963,"time":6,"i_long":106.712277,"line":6},{"i_lat":-6.288927,"time":4,"transit":false,"line":6,"is_transit":false,"distance":1994,"station_name":"Jurangmangu","i_long":106.728916,"station_id":"JMU"},{"station_id":"PDJ","time":3,"is_transit":false,"distance":2179,"transit":false,"i_lat":-6.276362,"line":6,"station_name":"Pondokranji","i_long":106.74273},{"station_id":"KBY","distance":6218,"line":6,"time":8,"station_name":"Kebayoran","is_transit":false,"transit":false,"i_lat":-6.237242,"i_long":106.780334},{"line":6,"i_lat":-6.207404,"station_id":"PLM","distance":3737,"station_name":"Palmerah","time":7,"transit":false,"i_long":106.79689,"is_transit":false},{"is_transit":true,"distance":3191,"line":1,"time":6,"station_id":"THB","transit":true,"i_lat":-6.185545,"i_long":106.811091,"station_name":"Tanah Abang"},{"transit":false,"distance":3632,"station_name":"Duri","is_transit":false,"time":8,"i_lat":-6.155215,"line":1,"i_long":106.800832,"station_id":"DU"},{"distance":1230,"line":1,"transit":false,"station_id":"AK","time":4,"station_name":"Angke","is_transit":false,"i_long":106.79867,"i_lat":-6.144674},{"i_lat":-6.132549,"line":4,"station_name":"Kampung Bandan","is_transit":true,"i_long":106.826365,"station_id":"KPB","distance":4102,"transit":true,"time":9},{"line":11,"is_transit":false,"i_lat":-6.14505,"station_id":"RJW","distance":1444,"time":3,"station_name":"Rajawali","transit":false,"i_long":106.836569},{"i_long":106.839204,"i_lat":-6.161728,"station_name":"Kemayoran","is_transit":false,"transit":false,"distance":1901,"station_id":"KMO","time":5,"line":11},{"line":11,"station_name":"Pasar Senen","time":4,"transit":false,"is_transit":false,"i_lat":-6.174784,"i_long":106.84368,"distance":1436,"station_id":"PSE"},{"transit":false,"i_long":106.850107,"is_transit":false,"time":8,"line":11,"station_name":"Gang Sentiong","distance":1567,"i_lat":-6.185975,"station_id":"GST"},{"i_long":106.855437,"station_id":"KMT","time":1,"station_name":"Kramat","is_transit":false,"distance":973,"transit":false,"line":11,"i_lat":-6.193792},{"transit":false,"i_lat":-6.209188,"i_long":106.861737,"line":11,"station_id":"POK","is_transit":false,"distance":1829,"time":2,"station_name":"Pondok Jati"},{"station_name":"Jatinegara","transit":true,"time":9,"is_transit":true,"i_lat":-6.215091,"station_id":"JNG","distance":1236,"i_long":106.86807400000001,"line":1},{"i_long":106.899548,"line":1,"i_lat":-6.2135,"is_transit":false,"time":3,"station_name":"Klender","station_id":"KLD","distance":3395,"transit":false},{"i_lat":-6.215568,"distance":3100,"station_id":"BUA","station_name":"Buaran","time":2,"is_transit":false,"transit":false,"i_long":106.922662,"line":1},{"i_long":106.939679,"line":1,"distance":1305,"i_lat":-6.217455,"station_name":"Klenderbaru","is_transit":false,"time":1,"transit":false,"station_id":"KLDB"}],[{"station_name":"Daru","line":0,"distance":0,"is_transit":false,"transit":false,"time":0,"i_lat":-6.338021,"station_id":"DAR","i_long":106.491338},{"line":3,"transit":false,"station_name":"Cilejit","is_transit":false,"distance":2675,"time":6,"i_lat":-6.354349,"station_id":"CJT","i_long":106.508482},{"i_lat":-6.3441410000000005,"transit":false,"station_name":"Parung Panjang","is_transit":false,"station_id":"PRP","time":9,"i_long":106.568863,"distance":7025,"line":6},{"transit":false,"is_transit":false,"time":8,"distance":5968,"station_name":"Cicayur","i_lat":-6.329547,"line":3,"i_long":106.617853,"station_id":"CC"},{"time":4,"i_lat":-6.32484,"is_transit":false,"i_long":106.640411,"station_id":"CSK","distance":2519,"line":3,"transit":false,"station_name":"Cisauk"},{"i_long":106.66566,"i_lat":-6.319871,"line":6,"time":4,"transit":false,"station_id":"SRP","station_name":"Serpong","is_transit":false,"distance":1784},{"line":6,"station_name":"Rawa Buntu","station_id":"RU","transit":false,"i_lat":-6.314823,"is_transit":false,"time":4,"i_long":106.675475,"distance":2413},{"i_long":106.712277,"distance":4566,"is_transit":false,"station_id":"SDM","time":6,"station_name":"Sudimara","transit":false,"i_lat":-6.296963,"line":6},{"station_name":"Jurangmangu","distance":1994,"i_lat":-6.288927,"station_id":"JMU","i_long":106.728916,"is_transit":false,"line":6,"time":4,"transit":false},{"station_name":"Pondokranji","i_lat":-6.276362,"station_id":"PDJ","distance":2179,"transit":false,"is_transit":false,"time":3,"line":6,"i_long":106.74273},{"transit":false,"station_name":"Kebayoran","i_long":106.780334,"i_lat":-6.237242,"line":6,"is_transit":false,"station_id":"KBY","time":8,"distance":6218},{"i_long":106.79689,"distance":3737,"transit":false,"i_lat":-6.207404,"is_transit":false,"time":7,"station_id":"PLM","station_name":"Palmerah","line":6},{"i_lat":-6.185545,"line":1,"distance":3191,"transit":true,"station_id":"THB","is_transit":true,"time":6,"station_name":"Tanah Abang","i_long":106.811091},{"i_lat":-6.155215,"line":1,"station_id":"DU","distance":3632,"time":8,"transit":false,"is_transit":false,"i_long":106.800832,"station_name":"Duri"},{"transit":false,"line":1,"station_id":"AK","i_long":106.79867,"i_lat":-6.144674,"station_name":"Angke","distance":1230,"is_transit":false,"time":4},{"time":9,"i_long":106.826365,"is_transit":true,"line":4,"station_id":"KPB","station_name":"Kampung Bandan","distance":4102,"transit":true,"i_lat":-6.132549},{"line":2,"i_lat":-6.137569,"station_id":"JAKK","station_name":"Jakarta Kota","i_long":106.812439,"distance":1364,"is_transit":true,"time":3,"transit":true},{"station_id":"JAY","is_transit":false,"i_lat":-6.141205,"station_name":"Jayakarta","distance":1264,"time":4,"line":2,"i_long":106.820901,"transit":false},{"transit":false,"is_transit":false,"station_name":"Manggabesar","station_id":"MGB","distance":1080,"time":2,"i_long":106.82482,"line":2,"i_lat":-6.149769},{"station_name":"Sawah Besar","i_long":106.827103,"distance":906,"i_lat":-6.160725,"transit":false,"station_id":"SW","line":2,"is_transit":false,"time":2},{"time":2,"is_transit":false,"transit":false,"i_long":106.828284,"station_name":"Juanda","i_lat":-6.166716,"distance":1149,"station_id":"JUA","line":2},{"station_name":"Gondangdia","i_long":106.832183,"time":4,"i_lat":-6.186295,"station_id":"GDD","distance":2015,"is_transit":false,"line":2,"transit":false},{"is_transit":false,"time":3,"station_id":"CKI","station_name":"Cikini","i_lat":-6.198556,"line":2,"i_long":106.840169,"transit":false,"distance":1750},{"time":4,"is_transit":true,"distance":1590,"i_lat":-6.209883,"station_name":"Manggarai","station_id":"MRI","line":2,"i_long":106.84912,"transit":true},{"station_name":"Matraman","time":2,"transit":false,"i_lat":-6.212485,"station_id":"MTR","distance":1275,"i_long":106.858896,"line":1,"is_transit":false},{"station_id":"JNG","time":8,"distance":1377,"station_name":"Jatinegara","is_transit":false,"transit":false,"i_lat":-6.215091,"i_long":106.86807400000001,"line":1},{"i_long":106.899548,"line":1,"distance":3395,"transit":false,"time":3,"station_id":"KLD","i_lat":-6.2135,"station_name":"Klender","is_transit":false},{"transit":false,"station_name":"Buaran","i_long":106.922662,"station_id":"BUA","i_lat":-6.215568,"distance":3100,"time":2,"line":1,"is_transit":false},{"transit":false,"station_name":"Klenderbaru","i_lat":-6.217455,"is_transit":false,"i_long":106.939679,"line":1,"time":1,"distance":1305,"station_id":"KLDB"}],[{"line":0,"station_name":"Daru","station_id":"DAR","is_transit":false,"distance":0,"transit":false,"i_long":106.491338,"i_lat":-6.338021,"time":0},{"is_transit":false,"time":6,"i_long":106.508482,"station_id":"CJT","station_name":"Cilejit","distance":2675,"transit":false,"i_lat":-6.354349,"line":3},{"line":6,"time":9,"station_name":"Parung Panjang","distance":7025,"station_id":"PRP","transit":false,"i_lat":-6.3441410000000005,"i_long":106.568863,"is_transit":false},{"i_long":106.617853,"transit":false,"station_name":"Cicayur","station_id":"CC","time":8,"i_lat":-6.329547,"is_transit":false,"line":3,"distance":5968},{"station_id":"CSK","is_transit":false,"distance":2519,"time":4,"i_lat":-6.32484,"transit":false,"i_long":106.640411,"line":3,"station_name":"Cisauk"},{"i_long":106.66566,"is_transit":false,"line":6,"time":4,"transit":false,"i_lat":-6.319871,"station_id":"SRP","distance":1784,"station_name":"Serpong"},{"station_name":"Rawa Buntu","station_id":"RU","distance":2413,"i_long":106.675475,"i_lat":-6.314823,"transit":false,"line":6,"time":4,"is_transit":false},{"i_long":106.712277,"station_id":"SDM","is_transit":false,"time":6,"i_lat":-6.296963,"station_name":"Sudimara","transit":false,"line":6,"distance":4566},{"station_id":"JMU","station_name":"Jurangmangu","transit":false,"i_lat":-6.288927,"is_transit":false,"time":4,"line":6,"distance":1994,"i_long":106.728916},{"i_lat":-6.276362,"station_name":"Pondokranji","i_long":106.74273,"line":6,"time":3,"transit":false,"is_transit":false,"station_id":"PDJ","distance":2179},{"transit":false,"i_lat":-6.237242,"i_long":106.780334,"line":6,"station_id":"KBY","is_transit":false,"time":8,"station_name":"Kebayoran","distance":6218},{"i_lat":-6.207404,"i_long":106.79689,"time":7,"transit":false,"station_id":"PLM","line":6,"is_transit":false,"distance":3737,"station_name":"Palmerah"},{"i_lat":-6.185545,"station_id":"THB","is_transit":true,"distance":3191,"transit":true,"time":6,"station_name":"Tanah Abang","i_long":106.811091,"line":1},{"station_name":"Karet","distance":2029,"line":1,"time":5,"station_id":"KAT","transit":false,"i_long":106.816351,"is_transit":false,"i_lat":-6.20132},{"station_name":"Sudirman Baru","i_lat":-6.201433,"i_long":106.819881,"is_transit":false,"transit":false,"line":1,"time":1,"station_id":"SUDB","distance":471},{"line":1,"station_name":"Sudirman","i_long":106.822649,"station_id":"SUD","distance":280,"transit":false,"time":1,"is_transit":false,"i_lat":-6.202263},{"i_lat":-6.209883,"is_transit":true,"station_id":"MRI","station_name":"Manggarai","distance":3186,"line":2,"i_long":106.84912,"transit":true,"time":4},{"station_id":"CKI","i_long":106.840169,"station_name":"Cikini","is_transit":false,"time":4,"transit":false,"line":2,"distance":1590,"i_lat":-6.198556},{"station_id":"GDD","transit":false,"distance":1750,"i_lat":-6.186295,"i_long":106.832183,"station_name":"Gondangdia","is_transit":false,"line":2,"time":3},{"is_transit":false,"line":2,"transit":false,"i_long":106.828284,"time":4,"distance":2015,"station_id":"JUA","i_lat":-6.166716,"station_name":"Juanda"},{"transit":false,"station_id":"SW","i_lat":-6.160725,"time":2,"distance":1149,"line":2,"is_transit":false,"station_name":"Sawah Besar","i_long":106.827103},{"time":2,"station_id":"MGB","transit":false,"i_long":106.82482,"line":2,"station_name":"Manggabesar","i_lat":-6.149769,"is_transit":false,"distance":906},{"i_lat":-6.141205,"line":2,"time":2,"station_name":"Jayakarta","is_transit":false,"distance":1080,"i_long":106.820901,"transit":false,"station_id":"JAY"},{"station_name":"Jakarta Kota","i_lat":-6.137569,"transit":true,"i_long":106.812439,"station_id":"JAKK","line":2,"is_transit":true,"time":4,"distance":1264},{"distance":1364,"transit":true,"station_id":"KPB","station_name":"Kampung Bandan","i_long":106.826365,"i_lat":-6.132549,"time":3,"line":4,"is_transit":true},{"i_long":106.836569,"station_id":"RJW","time":3,"distance":1444,"station_name":"Rajawali","i_lat":-6.14505,"transit":false,"line":11,"is_transit":false},{"time":5,"line":11,"i_lat":-6.161728,"transit":false,"is_transit":false,"station_name":"Kemayoran","distance":1901,"i_long":106.839204,"station_id":"KMO"},{"transit":false,"time":4,"distance":1436,"is_transit":false,"line":11,"i_long":106.84368,"i_lat":-6.174784,"station_id":"PSE","station_name":"Pasar Senen"},{"i_long":106.850107,"station_id":"GST","is_transit":false,"i_lat":-6.185975,"line":11,"transit":false,"station_name":"Gang Sentiong","distance":1567,"time":8},{"station_id":"KMT","time":1,"i_long":106.855437,"is_transit":false,"distance":973,"line":11,"transit":false,"i_lat":-6.193792,"station_name":"Kramat"},{"station_name":"Pondok Jati","distance":1829,"time":2,"station_id":"POK","i_long":106.861737,"i_lat":-6.209188,"is_transit":false,"line":11,"transit":false},{"i_long":106.86807400000001,"station_id":"JNG","i_lat":-6.215091,"is_transit":true,"line":1,"time":9,"distance":1236,"transit":true,"station_name":"Jatinegara"},{"i_lat":-6.2135,"station_id":"KLD","transit":false,"i_long":106.899548,"line":1,"station_name":"Klender","time":3,"distance":3395,"is_transit":false},{"is_transit":false,"time":2,"distance":3100,"station_id":"BUA","transit":false,"station_name":"Buaran","i_lat":-6.215568,"i_long":106.922662,"line":1},{"is_transit":false,"time":1,"transit":false,"station_id":"KLDB","station_name":"Klenderbaru","line":1,"i_long":106.939679,"distance":1305,"i_lat":-6.217455}]]}