{"data":[[{"station_name":"Daru","time":0,"station_id":"DAR","i_long":106.491338,"is_transit":false,"line":0,"i_lat":-6.338021,"transit":false,"distance":0},{"transit":false,"i_lat":-6.354349,"distance":2675,"i_long":106.508482,"line":3,"station_id":"CJT","time":6,"is_transit":false,"station_name":"Cilejit"},{"station_id":"PRP","i_lat":-6.3441410000000005,"time":9,"transit":false,"is_transit":false,"station_name":"Parung Panjang","i_long":106.568863,"line":6,"distance":7025},{"time":8,"distance":5968,"station_id":"CC","line":3,"i_long":106.617853,"is_transit":false,"station_name":"Cicayur","i_lat":-6.329547,"transit":false},{"i_long":106.640411,"station_name":"Cisauk","line":3,"i_lat":-6.32484,"distance":2519,"transit":false,"is_transit":false,"station_id":"CSK","time":4},{"distance":1784,"i_lat":-6.319871,"station_name":"Serpong","transit":false,"station_id":"SRP","time":4,"line":6,"i_long":106.66566,"is_transit":false},{"is_transit":false,"distance":2413,"station_id":"RU","i_long":106.675475,"transit":false,"time":4,"station_name":"Rawa Buntu","i_lat":-6.314823,"line":6},{"station_id":"SDM","station_name":"Sudimara","time":6,"i_lat":-6.296963,"distance":4566,"is_transit":false,"transit":false,"i_long":106.712277,"line":6},{"time":4,"station_name":"Jurangmangu","i_lat":-6.288927,"i_long":106.728916,"distance":1994,"line":6,"station_id":"JMU","transit":false,"is_transit":false},{"transit":false,"time":3,"line":6,"is_transit":false,"i_lat":-6.276362,"i_long":106.74273,"station_id":"PDJ","station_name":"Pondokranji","distance":2179},{"i_long":106.780334,"transit":false,"i_lat":-6.237242,"distance":6218,"is_transit":false,"line":6,"station_name":"Kebayoran","time":8,"station_id":"KBY"},{"transit":false,"distance":3737,"time":7,"station_name":"Palmerah","is_transit":false,"i_lat":-6.207404,"i_long":106.79689,"station_id":"PLM","line":6},{"i_long":106.811091,"line":1,"distance":3191,"time":6,"station_id":"THB","station_name":"Tanah Abang","is_transit":true,"transit":true,"i_lat":-6.185545},{"transit":false,"is_transit":false,"i_long":106.816351,"time":5,"i_lat":-6.20132,"line":1,"station_id":"KAT","distance":2029,"station_name":"Karet"},{"i_long":106.819881,"station_name":"Sudirman Baru","line":1,"i_lat":-6.201433,"station_id":"SUDB","time":1,"is_transit":false,"distance":471,"transit":false},{"transit":false,"station_name":"Sudirman","is_transit":false,"i_lat":-6.202263,"distance":280,"line":1,"station_id":"SUD","time":1,"i_long":106.822649}],[{"i_long":106.491338,"is_transit":false,"transit":false,"time":0,"line":0,"station_name":"Daru","distance":0,"station_id":"DAR","i_lat":-6.338021},{"i_lat":-6.354349,"station_name":"Cilejit","is_transit":false,"time":6,"distance":2675,"station_id":"CJT","line":3,"transit":false,"i_long":106.508482},{"station_id":"PRP","time":9,"i_long":106.568863,"line":6,"distance":7025,"i_lat":-6.3441410000000005,"is_transit":false,"station_name":"Parung Panjang","transit":false},{"transit":false,"station_name":"Cicayur","time":8,"i_lat":-6.329547,"station_id":"CC","i_long":106.617853,"is_transit":false,"distance":5968,"line":3},{"station_id":"CSK","time":4,"line":3,"i_lat":-6.32484,"transit":false,"distance":2519,"i_long":106.640411,"is_transit":false,"station_name":"Cisauk"},{"i_lat":-6.319871,"i_long":106.66566,"station_name":"Serpong","time":4,"transit":false,"station_id":"SRP","line":6,"distance":1784,"is_transit":false},{"station_name":"Rawa Buntu","station_id":"RU","i_lat":-6.314823,"distance":2413,"transit":false,"time":4,"i_long":106.675475,"line":6,"is_transit":false},{"station_name":"Sudimara","transit":false,"is_transit":false,"i_long":106.712277,"time":6,"distance":4566,"line":6,"i_lat":-6.296963,"station_id":"SDM"},{"station_id":"JMU","i_lat":-6.288927,"line":6,"is_transit":false,"i_long":106.728916,"station_name":"Jurangmangu","time":4,"transit":false,"distance":1994},{"i_long":106.74273,"time":3,"station_id":"PDJ","line":6,"distance":2179,"transit":false,"i_lat":-6.276362,"is_transit":false,"station_name":"Pondokranji"},{"transit":false,"is_transit":false,"i_long":106.780334,"i_lat":-6.237242,"line":6,"station_name":"Kebayoran","time":8,"distance":6218,"station_id":"KBY"},{"station_name":"Palmerah","line":6,"is_transit":false,"i_long":106.79689,"transit":false,"station_id":"PLM","i_lat":-6.207404,"time":7,"distance":3737},{"transit":true,"station_name":"Tanah Abang","distance":3191,"line":1,"is_transit":true,"time":6,"i_lat":-6.185545,"station_id":"THB","i_long":106.811091},{"is_transit":false,"i_long":106.800832,"station_name":"Duri","distance":3632,"station_id":"DU","line":1,"time":8,"transit":false,"i_lat":-6.155215},{"station_name":"Angke","station_id":"AK","transit":false,"i_long":106.79867,"time":4,"line":1,"is_transit":false,"distance":1230,"i_lat":-6.144674},{"transit":true,"station_id":"KPB","is_transit":true,"i_long":106.826365,"line":4,"station_name":"Kampung Bandan","distance":4102,"time":9,"i_lat":-6.132549},{"time":3,"station_id":"JAKK","transit":true,"station_name":"Jakarta Kota","distance":1364,"i_lat":-6.137569,"is_transit":true,"i_long":106.812439,"line":2},{"line":2,"station_name":"Jayakarta","i_long":106.820901,"is_transit":false,"station_id":"JAY","transit":false,"time":4,"distance":1264,"i_lat":-6.141205},{"line":2,"i_long":106.82482,"is_transit":false,"station_name":"Manggabesar","transit":false,"time":2,"distance":1080,"station_id":"MGB","i_lat":-6.149769},{"transit":false,"line":2,"station_id":"SW","station_name":"Sawah Besar","time":2,"i_lat":-6.160725,"is_transit":false,"i_long":106.827103,"distance":906},{"station_name":"Juanda","transit":false,"is_transit":false,"station_id":"JUA","time":2,"distance":1149,"line":2,"i_lat":-6.166716,"i_long":106.828284},{"is_transit":false,"line":2,"i_long":106.832183,"station_id":"GDD","transit":false,"time":4,"distance":2015,"i_lat":-6.186295,"station_name":"Gondangdia"},{"line":2,"i_lat":-6.198556,"station_id":"CKI","distance":1750,"i_long":106.840169,"is_transit":false,"transit":false,"time":3,"station_name":"Cikini"},{"is_transit":true,"station_name":"Manggarai","station_id":"MRI","transit":true,"distance":1590,"time":4,"line":2,"i_lat":-6.209883,"i_long":106.84912},{"i_lat":-6.202263,"distance":3186,"is_transit":false,"station_id":"SUD","station_name":"Sudirman","transit":false,"line":1,"time":4,"i_long":106.822649}],[{"transit":false,"i_lat":-6.338021,"station_id":"DAR","station_name":"Daru","is_transit":false,"distance":0,"line":0,"i_long":106.491338,"time":0},{"distance":2675,"station_name":"Cilejit","time":6,"line":3,"is_transit":false,"station_id":"CJT","transit":false,"i_lat":-6.354349,"i_long":106.508482},{"i_long":106.568863,"time":9,"line":6,"is_transit":false,"distance":7025,"i_lat":-6.3441410000000005,"transit":false,"station_name":"Parung Panjang","station_id":"PRP"},{"distance":5968,"line":3,"is_transit":false,"station_id":"CC","transit":false,"time":8,"station_name":"Cicayur","i_lat":-6.329547,"i_long":106.617853},{"line":3,"time":4,"distance":2519,"station_id":"CSK","is_transit":false,"station_name":"Cisauk","transit":false,"i_long":106.640411,"i_lat":-6.32484},{"distance":1784,"line":6,"station_id":"SRP","transit":false,"time":4,"i_long":106.66566,"is_transit":false,"station_name":"Serpong","i_lat":-6.319871},{"i_long":106.675475,"station_name":"Rawa Buntu","distance":2413,"i_lat":-6.314823,"line":6,"station_id":"RU","transit":false,"time":4,"is_transit":false},{"time":6,"distance":4566,"i_lat":-6.296963,"i_long":106.712277,"line":6,"station_id":"SDM","station_name":"Sudimara","is_transit":false,"transit":false},{"i_long":106.728916,"i_lat":-6.288927,"is_transit":false,"time":4,"station_name":"Jurangmangu","transit":false,"distance":1994,"station_id":"JMU","line":6},{"distance":2179,"i_lat":-6.276362,"time":3,"is_transit":false,"station_name":"Pondokranji","i_long":106.74273,"station_id":"PDJ","transit":false,"line":6},{"distance":6218,"time":8,"station_id":"KBY","line":6,"station_name":"Kebayoran","is_transit":false,"transit":false,"i_lat":-6.237242,"i_long":106.780334},{"station_name":"Palmerah","transit":false,"time":7,"distance":3737,"station_id":"PLM","i_long":106.79689,"line":6,"is_transit":false,"i_lat":-6.207404},{"distance":3191,"station_name":"Tanah Abang","is_transit":true,"i_lat":-6.185545,"i_long":106.811091,"station_id":"THB","line":1,"transit":true,"time":6},{"i_lat":-6.155215,"line":1,"station_name":"Duri","is_transit":false,"station_id":"DU","transit":false,"i_long":106.800832,"time":8,"distance":3632},{"time":4,"station_id":"AK","i_lat":-6.144674,"line":1,"is_transit":false,"i_long":106.79867,"station_name":"Angke","distance":1230,"transit":false},{"distance":4102,"is_transit":true,"time":9,"i_long":106.826365,"station_id":"KPB","transit":true,"line":4,"station_name":"Kampung Bandan","i_lat":-6.132549},{"station_name":"Rajawali","is_transit":false,"time":3,"i_long":106.836569,"transit":false,"i_lat":-6.14505,"station_id":"RJW","distance":1444,"line":11},{"transit":false,"time":5,"is_transit":false,"i_long":106.839204,"distance":1901,"station_name":"Kemayoran","station_id":"KMO","i_lat":-6.161728,"line":11},{"distance":1436,"station_id":"PSE","station_name":"Pasar Senen","i_lat":-6.174784,"is_transit":false,"time":4,"transit":false,"i_long":106.84368,"line":11},{"line":11,"station_name":"Gang Sentiong","is_transit":false,"distance":1567,"transit":false,"i_long":106.850107,"i_lat":-6.185975,"station_id":"GST","time":8},{"i_long":106.855437,"is_transit":false,"i_lat":-6.193792,"line":11,"station_id":"KMT","transit":false,"distance":973,"time":1,"station_name":"Kramat"},{"transit":false,"station_id":"POK","station_name":"Pondok Jati","is_transit":false,"distance":1829,"line":11,"i_long":106.861737,"time":2,"i_lat":-6.209188},{"distance":1236,"station_name":"Jatinegara","transit":true,"station_id":"JNG","i_long":106.86807400000001,"time":9,"i_lat":-6.215091,"line":1,"is_transit":true},{"station_name":"Matraman","time":2,"i_long":106.858896,"i_lat":-6.212485,"line":1,"distance":1377,"station_id":"MTR","transit":false,"is_transit":false},{"time":2,"distance":1275,"i_long":106.84912,"station_id":"MRI","i_lat":-6.209883,"station_name":"Manggarai","line":2,"is_transit":false,"transit":false},{"is_transit":false,"line":1,"time":4,"distance":3186,"i_lat":-6.202263,"i_long":106.822649,"station_name":"Sudirman","transit":false,"station_id":"SUD"}]]}