{"data":[[{"i_lat":-6.338021,"station_id":"DAR","i_long":106.491338,"is_transit":false,"line":0,"distance":0,"transit":false,"station_name":"Daru","time":0},{"line":0,"station_name":"Cilejit","time":6,"station_id":"CJT","is_transit":false,"distance":2675,"i_lat":-6.354349,"i_long":106.508482,"transit":false},{"station_id":"PRP","i_lat":-6.3441410000000005,"transit":false,"line":6,"is_transit":false,"distance":7025,"time":9,"i_long":106.568863,"station_name":"Parung Panjang"},{"i_long":106.617853,"time":8,"transit":false,"i_lat":-6.329547,"line":0,"is_transit":false,"station_id":"CC","distance":5968,"station_name":"Cicayur"},{"station_id":"CSK","is_transit":false,"i_lat":-6.32484,"station_name":"Cisauk","transit":false,"i_long":106.640411,"distance":2519,"line":0,"time":4},{"i_long":106.66566,"time":4,"station_id":"SRP","is_transit":false,"transit":false,"distance":1784,"i_lat":-6.319871,"line":6,"station_name":"Serpong"},{"time":4,"transit":false,"i_lat":-6.314823,"is_transit":false,"station_name":"Rawa Buntu","i_long":106.675475,"station_id":"RU","line":6,"distance":2413},{"is_transit":false,"station_name":"Sudimara","i_lat":-6.296963,"i_long":106.712277,"distance":4566,"transit":false,"time":6,"line":6,"station_id":"SDM"},{"i_lat":-6.288927,"distance":1994,"i_long":106.728916,"is_transit":false,"time":4,"line":6,"station_id":"JMU","station_name":"Jurangmangu","transit":false},{"i_long":106.74273,"line":6,"station_name":"Pondokranji","distance":2179,"transit":false,"time":3,"station_id":"PDJ","is_transit":false,"i_lat":-6.276362},{"time":8,"distance":6218,"i_lat":-6.237242,"line":6,"station_id":"KBY","is_transit":false,"i_long":106.780334,"transit":false,"station_name":"Kebayoran"},{"i_long":106.79689,"station_name":"Palmerah","is_transit":false,"line":6,"time":7,"transit":false,"station_id":"PLM","i_lat":-6.207404,"distance":3737},{"is_transit":true,"i_long":106.811091,"station_id":"THB","distance":3191,"station_name":"Tanah Abang","transit":true,"i_lat":-6.185545,"time":6,"line":1},{"station_name":"Karet","i_lat":-6.20132,"line":1,"is_transit":false,"transit":false,"station_id":"KAT","time":5,"distance":2029,"i_long":106.816351},{"i_lat":-6.201433,"is_transit":false,"line":1,"time":1,"distance":471,"station_name":"Sudirman Baru","transit":false,"station_id":"SUDB","i_long":106.819881},{"station_name":"Sudirman","distance":280,"i_lat":-6.202263,"i_long":106.822649,"line":1,"is_transit":false,"time":1,"station_id":"SUD","transit":false},{"i_long":106.84912,"line":0,"distance":3186,"station_name":"Manggarai","time":4,"i_lat":-6.209883,"station_id":"MRI","is_transit":true,"transit":true},{"i_long":106.857948,"is_transit":false,"distance":2610,"line":2,"time":4,"station_name":"Tebet","station_id":"TEB","transit":false,"i_lat":-6.226659},{"line":0,"distance":1230,"time":2,"i_lat":-6.242512,"i_long":106.856607,"transit":false,"station_id":"CW","is_transit":false,"station_name":"Cawang"},{"distance":1546,"station_id":"DRN","transit":false,"i_lat":-6.255332,"is_transit":false,"i_long":106.85449,"station_name":"Duren Kalibata","time":3,"line":0},{"distance":824,"i_long":106.851577,"line":2,"station_name":"Pasar Minggu Baru","is_transit":false,"time":2,"station_id":"PSMB","transit":false,"i_lat":-6.263214},{"line":2,"time":2,"station_name":"Pasar Minggu","distance":2380,"station_id":"PSM","i_lat":-6.2842400000000005,"transit":false,"i_long":106.843999,"is_transit":false},{"i_lat":-6.3080680000000005,"i_long":106.838896,"time":4,"station_name":"Tanjung Barat","station_id":"TNT","distance":2820,"is_transit":false,"line":2,"transit":false},{"i_lat":-6.330363,"station_name":"Lenteng Agung","time":3,"station_id":"LNA","is_transit":false,"line":2,"transit":false,"distance":2671,"i_long":106.832616},{"station_id":"UP","transit":false,"distance":1029,"line":2,"time":2,"i_lat":-6.339291,"i_long":106.834175,"is_transit":false,"station_name":"Univ. Pancasila"},{"is_transit":false,"station_id":"UI","i_long":106.831474,"line":2,"distance":2264,"station_name":"Univ. Indonesia","i_lat":-6.360749,"transit":false,"time":3},{"i_lat":-6.369073,"is_transit":false,"transit":false,"line":2,"station_name":"Pondok Cina","distance":1109,"time":2,"i_long":106.831114,"station_id":"POC"},{"is_transit":false,"station_id":"DPB","time":4,"distance":2727,"transit":false,"i_lat":-6.391065,"line":0,"i_long":106.819451,"station_name":"Depokbaru"},{"time":3,"distance":1584,"i_long":106.816926,"station_id":"DP","line":0,"i_lat":-6.405256,"station_name":"Depok","transit":false,"is_transit":false},{"distance":5084,"time":6,"line":1,"is_transit":true,"station_name":"Citayam","transit":false,"i_lat":-6.448811,"station_id":"CTA","i_long":106.800298},{"time":10,"distance":6740,"line":0,"transit":false,"station_id":"CBN","station_name":"Cibinong","is_transit":false,"i_lat":-6.46424,"i_long":106.851978}],[{"station_name":"Daru","station_id":"DAR","i_long":106.491338,"line":0,"is_transit":false,"i_lat":-6.338021,"time":0,"transit":false,"distance":0},{"time":6,"i_lat":-6.354349,"station_id":"CJT","station_name":"Cilejit","transit":false,"line":0,"distance":2675,"i_long":106.508482,"is_transit":false},{"station_name":"Parung Panjang","station_id":"PRP","line":6,"transit":false,"i_long":106.568863,"is_transit":false,"i_lat":-6.3441410000000005,"distance":7025,"time":9},{"i_lat":-6.329547,"distance":5968,"time":8,"transit":false,"station_id":"CC","i_long":106.617853,"is_transit":false,"line":0,"station_name":"Cicayur"},{"station_id":"CSK","i_lat":-6.32484,"i_long":106.640411,"time":4,"station_name":"Cisauk","line":0,"transit":false,"distance":2519,"is_transit":false},{"transit":false,"station_id":"SRP","station_name":"Serpong","time":4,"i_lat":-6.319871,"line":6,"is_transit":false,"distance":1784,"i_long":106.66566},{"distance":2413,"transit":false,"line":6,"station_name":"Rawa Buntu","i_lat":-6.314823,"is_transit":false,"station_id":"RU","i_long":106.675475,"time":4},{"line":6,"distance":4566,"i_long":106.712277,"station_name":"Sudimara","transit":false,"i_lat":-6.296963,"time":6,"is_transit":false,"station_id":"SDM"},{"station_name":"Jurangmangu","transit":false,"is_transit":false,"i_lat":-6.288927,"i_long":106.728916,"distance":1994,"station_id":"JMU","line":6,"time":4},{"i_long":106.74273,"transit":false,"station_id":"PDJ","i_lat":-6.276362,"is_transit":false,"distance":2179,"line":6,"station_name":"Pondokranji","time":3},{"station_id":"KBY","transit":false,"i_long":106.780334,"i_lat":-6.237242,"is_transit":false,"line":6,"time":8,"distance":6218,"station_name":"Kebayoran"},{"station_id":"PLM","i_lat":-6.207404,"i_long":106.79689,"station_name":"Palmerah","is_transit":false,"distance":3737,"line":6,"transit":false,"time":7},{"i_lat":-6.185545,"distance":3191,"time":6,"station_name":"Tanah Abang","is_transit":true,"line":1,"station_id":"THB","transit":true,"i_long":106.811091},{"i_lat":-6.155215,"line":1,"i_long":106.800832,"transit":true,"station_id":"DU","distance":3632,"is_transit":true,"station_name":"Duri","time":8},{"distance":1230,"i_lat":-6.144674,"transit":false,"line":0,"time":4,"station_name":"Angke","is_transit":false,"station_id":"AK","i_long":106.79867},{"i_lat":-6.132549,"distance":4102,"station_name":"Kampung Bandan","line":0,"station_id":"KPB","is_transit":true,"time":9,"transit":false,"i_long":106.826365},{"station_id":"JAKK","transit":true,"is_transit":true,"line":0,"i_lat":-6.137569,"distance":1364,"time":3,"station_name":"Jakarta Kota","i_long":106.812439},{"time":4,"distance":1264,"transit":false,"i_lat":-6.141205,"i_long":106.820901,"line":7,"station_name":"Jayakarta","station_id":"JAY","is_transit":false},{"line":2,"distance":1080,"i_lat":-6.149769,"station_id":"MGB","transit":false,"is_transit":false,"time":2,"i_long":106.82482,"station_name":"Manggabesar"},{"is_transit":false,"station_id":"SW","station_name":"Sawah Besar","i_lat":-6.160725,"transit":false,"line":2,"distance":906,"i_long":106.827103,"time":2},{"distance":1149,"time":2,"line":2,"i_long":106.828284,"is_transit":false,"station_name":"Juanda","station_id":"JUA","transit":false,"i_lat":-6.166716},{"time":4,"i_lat":-6.186295,"station_name":"Gondangdia","line":2,"distance":2015,"station_id":"GDD","transit":false,"i_long":106.832183,"is_transit":false},{"i_long":106.840169,"transit":false,"time":3,"station_id":"CKI","line":0,"is_transit":false,"i_lat":-6.198556,"station_name":"Cikini","distance":1750},{"transit":true,"i_lat":-6.209883,"i_long":106.84912,"distance":1590,"station_id":"MRI","station_name":"Manggarai","line":0,"time":4,"is_transit":true},{"station_id":"TEB","transit":false,"station_name":"Tebet","i_lat":-6.226659,"distance":2610,"time":4,"line":2,"i_long":106.857948,"is_transit":false},{"distance":1230,"i_lat":-6.242512,"line":0,"station_id":"CW","is_transit":false,"station_name":"Cawang","time":2,"i_long":106.856607,"transit":false},{"i_long":106.85449,"transit":false,"time":3,"station_name":"Duren Kalibata","i_lat":-6.255332,"is_transit":false,"line":0,"distance":1546,"station_id":"DRN"},{"station_id":"PSMB","time":2,"line":2,"i_long":106.851577,"is_transit":false,"i_lat":-6.263214,"distance":824,"station_name":"Pasar Minggu Baru","transit":false},{"station_name":"Pasar Minggu","distance":2380,"station_id":"PSM","transit":false,"i_lat":-6.2842400000000005,"time":2,"line":2,"i_long":106.843999,"is_transit":false},{"is_transit":false,"time":4,"i_lat":-6.3080680000000005,"station_name":"Tanjung Barat","i_long":106.838896,"transit":false,"distance":2820,"station_id":"TNT","line":2},{"transit":false,"i_lat":-6.330363,"station_id":"LNA","distance":2671,"station_name":"Lenteng Agung","i_long":106.832616,"is_transit":false,"time":3,"line":2},{"transit":false,"is_transit":false,"i_lat":-6.339291,"time":2,"distance":1029,"station_name":"Univ. Pancasila","i_long":106.834175,"line":2,"station_id":"UP"},{"station_id":"UI","distance":2264,"is_transit":false,"i_lat":-6.360749,"transit":false,"i_long":106.831474,"line":2,"station_name":"Univ. Indonesia","time":3},{"distance":1109,"i_lat":-6.369073,"station_name":"Pondok Cina","is_transit":false,"station_id":"POC","transit":false,"i_long":106.831114,"line":2,"time":2},{"i_long":106.819451,"line":0,"station_id":"DPB","station_name":"Depokbaru","transit":false,"time":4,"distance":2727,"i_lat":-6.391065,"is_transit":false},{"i_long":106.816926,"is_transit":false,"line":0,"station_id":"DP","i_lat":-6.405256,"distance":1584,"transit":false,"time":3,"station_name":"Depok"},{"distance":5084,"line":1,"transit":false,"i_long":106.800298,"station_id":"CTA","time":6,"station_name":"Citayam","is_transit":true,"i_lat":-6.448811},{"station_id":"CBN","is_transit":false,"time":10,"station_name":"Cibinong","transit":false,"line":0,"distance":6740,"i_lat":-6.46424,"i_long":106.851978}],[{"time":0,"station_name":"Daru","transit":false,"line":0,"distance":0,"station_id":"DAR","is_transit":false,"i_lat":-6.338021,"i_long":106.491338},{"is_transit":false,"transit":false,"station_id":"CJT","time":6,"line":0,"i_long":106.508482,"distance":2675,"station_name":"Cilejit","i_lat":-6.354349},{"distance":7025,"transit":false,"is_transit":false,"line":6,"time":9,"station_name":"Parung Panjang","i_lat":-6.3441410000000005,"i_long":106.568863,"station_id":"PRP"},{"station_id":"CC","i_lat":-6.329547,"time":8,"is_transit":false,"transit":false,"i_long":106.617853,"distance":5968,"line":0,"station_name":"Cicayur"},{"line":0,"distance":2519,"transit":false,"is_transit":false,"station_name":"Cisauk","i_long":106.640411,"station_id":"CSK","i_lat":-6.32484,"time":4},{"time":4,"is_transit":false,"distance":1784,"station_id":"SRP","i_long":106.66566,"transit":false,"station_name":"Serpong","line":6,"i_lat":-6.319871},{"line":6,"is_transit":false,"station_id":"RU","transit":false,"i_lat":-6.314823,"distance":2413,"station_name":"Rawa Buntu","i_long":106.675475,"time":4},{"time":6,"station_id":"SDM","distance":4566,"i_lat":-6.296963,"transit":false,"is_transit":false,"station_name":"Sudimara","i_long":106.712277,"line":6},{"distance":1994,"transit":false,"station_name":"Jurangmangu","is_transit":false,"line":6,"i_long":106.728916,"station_id":"JMU","time":4,"i_lat":-6.288927},{"is_transit":false,"time":3,"i_lat":-6.276362,"station_name":"Pondokranji","i_long":106.74273,"station_id":"PDJ","transit":false,"distance":2179,"line":6},{"distance":6218,"line":6,"is_transit":false,"time":8,"transit":false,"i_lat":-6.237242,"i_long":106.780334,"station_id":"KBY","station_name":"Kebayoran"},{"transit":false,"distance":3737,"station_name":"Palmerah","i_lat":-6.207404,"time":7,"station_id":"PLM","is_transit":false,"i_long":106.79689,"line":6},{"i_lat":-6.185545,"transit":true,"i_long":106.811091,"station_id":"THB","time":6,"station_name":"Tanah Abang","is_transit":true,"distance":3191,"line":1},{"station_name":"Duri","distance":3632,"is_transit":true,"time":8,"station_id":"DU","i_lat":-6.155215,"line":1,"i_long":106.800832,"transit":true},{"i_lat":-6.144674,"is_transit":false,"transit":false,"station_id":"AK","time":4,"distance":1230,"station_name":"Angke","i_long":106.79867,"line":0},{"station_id":"KPB","time":9,"distance":4102,"i_lat":-6.132549,"i_long":106.826365,"line":0,"station_name":"Kampung Bandan","transit":true,"is_transit":true},{"time":3,"station_name":"Rajawali","line":11,"station_id":"RJW","i_long":106.836569,"distance":1444,"transit":false,"i_lat":-6.14505,"is_transit":false},{"i_lat":-6.161728,"time":5,"is_transit":false,"line":11,"distance":1901,"station_id":"KMO","i_long":106.839204,"transit":false,"station_name":"Kemayoran"},{"station_id":"PSE","transit":false,"distance":1436,"i_long":106.84368,"i_lat":-6.174784,"is_transit":false,"station_name":"Pasar Senen","line":11,"time":4},{"distance":1567,"is_transit":false,"time":8,"station_name":"Gang Sentiong","line":11,"station_id":"GST","i_long":106.850107,"i_lat":-6.185975,"transit":false},{"distance":973,"transit":false,"i_long":106.855437,"line":11,"i_lat":-6.193792,"is_transit":false,"time":1,"station_name":"Kramat","station_id":"KMT"},{"i_lat":-6.209188,"time":2,"is_transit":false,"distance":1829,"station_name":"Pondok Jati","transit":false,"station_id":"POK","i_long":106.861737,"line":11},{"station_id":"JNG","time":9,"station_name":"Jatinegara","distance":1236,"line":0,"is_transit":true,"i_lat":-6.215091,"i_long":106.86807400000001,"transit":true},{"time":2,"i_lat":-6.212485,"is_transit":false,"station_id":"MTR","i_long":106.858896,"station_name":"Matraman","transit":false,"distance":1377,"line":1},{"time":2,"distance":1275,"transit":true,"i_lat":-6.209883,"i_long":106.84912,"line":0,"station_name":"Manggarai","station_id":"MRI","is_transit":true},{"station_id":"TEB","is_transit":false,"time":4,"distance":2610,"i_lat":-6.226659,"line":2,"transit":false,"station_name":"Tebet","i_long":106.857948},{"distance":1230,"i_long":106.856607,"transit":false,"time":2,"station_id":"CW","station_name":"Cawang","i_lat":-6.242512,"line":0,"is_transit":false},{"station_name":"Duren Kalibata","is_transit":false,"distance":1546,"i_lat":-6.255332,"station_id":"DRN","transit":false,"line":0,"time":3,"i_long":106.85449},{"line":2,"i_long":106.851577,"transit":false,"time":2,"station_id":"PSMB","is_transit":false,"distance":824,"station_name":"Pasar Minggu Baru","i_lat":-6.263214},{"station_name":"Pasar Minggu","distance":2380,"is_transit":false,"i_lat":-6.2842400000000005,"i_long":106.843999,"time":2,"transit":false,"station_id":"PSM","line":2},{"time":4,"is_transit":false,"station_name":"Tanjung Barat","i_lat":-6.3080680000000005,"i_long":106.838896,"line":2,"distance":2820,"transit":false,"station_id":"TNT"},{"i_lat":-6.330363,"i_long":106.832616,"time":3,"transit":false,"is_transit":false,"distance":2671,"station_name":"Lenteng Agung","line":2,"station_id":"LNA"},{"time":2,"i_lat":-6.339291,"is_transit":false,"station_name":"Univ. Pancasila","transit":false,"line":2,"station_id":"UP","i_long":106.834175,"distance":1029},{"station_id":"UI","line":2,"time":3,"station_name":"Univ. Indonesia","i_lat":-6.360749,"is_transit":false,"distance":2264,"i_long":106.831474,"transit":false},{"is_transit":false,"transit":false,"station_name":"Pondok Cina","i_long":106.831114,"station_id":"POC","distance":1109,"time":2,"i_lat":-6.369073,"line":2},{"station_id":"DPB","line":0,"is_transit":false,"station_name":"Depokbaru","i_long":106.819451,"i_lat":-6.391065,"time":4,"transit":false,"distance":2727},{"time":3,"station_name":"Depok","distance":1584,"is_transit":false,"i_lat":-6.405256,"station_id":"DP","transit":false,"i_long":106.816926,"line":0},{"station_id":"CTA","transit":false,"station_name":"Citayam","i_long":106.800298,"line":1,"time":6,"is_transit":true,"i_lat":-6.448811,"distance":5084},{"time":10,"is_transit":false,"distance":6740,"station_id":"CBN","station_name":"Cibinong","i_lat":-6.46424,"i_long":106.851978,"line":0,"transit":false}]]}