{"data":[[{"i_long":106.491338,"line":0,"station_id":"DAR","time":0,"distance":0,"station_name":"Daru","transit":false,"i_lat":-6.338021,"is_transit":false},{"station_id":"CJT","distance":2675,"is_transit":false,"transit":false,"line":0,"i_lat":-6.354349,"time":6,"i_long":106.508482,"station_name":"Cilejit"},{"station_id":"PRP","i_long":106.568863,"distance":7025,"line":6,"transit":false,"time":9,"i_lat":-6.3441410000000005,"is_transit":false,"station_name":"Parung Panjang"},{"line":0,"is_transit":false,"transit":false,"station_id":"CC","time":8,"distance":5968,"station_name":"Cicayur","i_lat":-6.329547,"i_long":106.617853},{"time":4,"i_long":106.640411,"transit":false,"station_id":"CSK","station_name":"Cisauk","is_transit":false,"distance":2519,"i_lat":-6.32484,"line":0},{"i_long":106.66566,"time":4,"distance":1784,"i_lat":-6.319871,"station_name":"Serpong","is_transit":false,"line":6,"transit":false,"station_id":"SRP"},{"station_name":"Rawa Buntu","time":4,"distance":2413,"transit":false,"i_long":106.675475,"line":6,"station_id":"RU","i_lat":-6.314823,"is_transit":false},{"is_transit":false,"i_lat":-6.296963,"station_id":"SDM","time":6,"station_name":"Sudimara","line":6,"distance":4566,"transit":false,"i_long":106.712277},{"time":4,"line":6,"distance":1994,"transit":false,"station_id":"JMU","is_transit":false,"station_name":"Jurangmangu","i_long":106.728916,"i_lat":-6.288927},{"line":6,"distance":2179,"transit":false,"station_name":"Pondokranji","station_id":"PDJ","is_transit":false,"time":3,"i_lat":-6.276362,"i_long":106.74273},{"distance":6218,"i_long":106.780334,"is_transit":false,"station_name":"Kebayoran","transit":false,"time":8,"station_id":"KBY","i_lat":-6.237242,"line":6},{"line":6,"time":7,"i_lat":-6.207404,"transit":false,"station_id":"PLM","distance":3737,"i_long":106.79689,"is_transit":false,"station_name":"Palmerah"},{"i_lat":-6.185545,"is_transit":true,"i_long":106.811091,"time":6,"transit":true,"distance":3191,"line":1,"station_name":"Tanah Abang","station_id":"THB"},{"i_lat":-6.20132,"station_name":"Karet","station_id":"KAT","transit":false,"i_long":106.816351,"line":1,"time":5,"is_transit":false,"distance":2029},{"time":1,"distance":471,"transit":false,"i_long":106.819881,"station_id":"SUDB","i_lat":-6.201433,"is_transit":false,"line":1,"station_name":"Sudirman Baru"},{"is_transit":false,"station_id":"SUD","line":1,"station_name":"Sudirman","distance":280,"i_lat":-6.202263,"i_long":106.822649,"transit":false,"time":1},{"station_name":"Manggarai","transit":true,"i_lat":-6.209883,"is_transit":true,"station_id":"MRI","distance":3186,"line":0,"i_long":106.84912,"time":4},{"is_transit":false,"time":4,"distance":1590,"i_long":106.840169,"line":0,"station_name":"Cikini","transit":false,"i_lat":-6.198556,"station_id":"CKI"},{"is_transit":false,"station_name":"Gondangdia","time":3,"line":2,"station_id":"GDD","i_long":106.832183,"distance":1750,"i_lat":-6.186295,"transit":false},{"line":2,"time":4,"is_transit":false,"i_long":106.828284,"station_name":"Juanda","transit":false,"station_id":"JUA","distance":2015,"i_lat":-6.166716}],[{"is_transit":false,"i_lat":-6.338021,"station_name":"Daru","i_long":106.491338,"time":0,"transit":false,"line":0,"station_id":"DAR","distance":0},{"distance":2675,"line":0,"time":6,"i_long":106.508482,"transit":false,"i_lat":-6.354349,"is_transit":false,"station_id":"CJT","station_name":"Cilejit"},{"station_id":"PRP","time":9,"transit":false,"distance":7025,"line":6,"station_name":"Parung Panjang","i_lat":-6.3441410000000005,"i_long":106.568863,"is_transit":false},{"i_long":106.617853,"station_name":"Cicayur","i_lat":-6.329547,"is_transit":false,"distance":5968,"station_id":"CC","transit":false,"line":0,"time":8},{"station_name":"Cisauk","is_transit":false,"i_long":106.640411,"line":0,"station_id":"CSK","time":4,"distance":2519,"transit":false,"i_lat":-6.32484},{"station_name":"Serpong","i_long":106.66566,"is_transit":false,"station_id":"SRP","distance":1784,"time":4,"line":6,"i_lat":-6.319871,"transit":false},{"distance":2413,"transit":false,"line":6,"i_long":106.675475,"station_id":"RU","is_transit":false,"station_name":"Rawa Buntu","time":4,"i_lat":-6.314823},{"is_transit":false,"line":6,"station_name":"Sudimara","i_long":106.712277,"transit":false,"time":6,"i_lat":-6.296963,"station_id":"SDM","distance":4566},{"is_transit":false,"distance":1994,"line":6,"station_name":"Jurangmangu","station_id":"JMU","i_lat":-6.288927,"transit":false,"i_long":106.728916,"time":4},{"transit":false,"i_long":106.74273,"line":6,"station_name":"Pondokranji","station_id":"PDJ","is_transit":false,"time":3,"distance":2179,"i_lat":-6.276362},{"line":6,"station_id":"KBY","distance":6218,"time":8,"station_name":"Kebayoran","transit":false,"i_long":106.780334,"is_transit":false,"i_lat":-6.237242},{"line":6,"i_lat":-6.207404,"is_transit":false,"station_name":"Palmerah","time":7,"station_id":"PLM","distance":3737,"i_long":106.79689,"transit":false},{"station_id":"THB","distance":3191,"i_long":106.811091,"i_lat":-6.185545,"station_name":"Tanah Abang","transit":true,"time":6,"line":1,"is_transit":true},{"distance":3632,"line":1,"is_transit":true,"station_id":"DU","station_name":"Duri","i_long":106.800832,"transit":true,"time":8,"i_lat":-6.155215},{"transit":false,"i_lat":-6.144674,"distance":1230,"line":0,"station_id":"AK","is_transit":false,"time":4,"station_name":"Angke","i_long":106.79867},{"transit":false,"line":0,"is_transit":true,"i_lat":-6.132549,"distance":4102,"station_id":"KPB","time":9,"station_name":"Kampung Bandan","i_long":106.826365},{"i_lat":-6.137569,"station_id":"JAKK","transit":true,"station_name":"Jakarta Kota","i_long":106.812439,"time":3,"is_transit":true,"distance":1364,"line":0},{"station_name":"Jayakarta","time":4,"distance":1264,"transit":false,"line":7,"i_long":106.820901,"i_lat":-6.141205,"is_transit":false,"station_id":"JAY"},{"distance":1080,"transit":false,"line":2,"station_name":"Manggabesar","time":2,"station_id":"MGB","i_lat":-6.149769,"is_transit":false,"i_long":106.82482},{"station_id":"SW","i_lat":-6.160725,"distance":906,"station_name":"Sawah Besar","is_transit":false,"transit":false,"time":2,"line":2,"i_long":106.827103},{"distance":1149,"is_transit":false,"line":2,"time":2,"station_name":"Juanda","transit":false,"i_long":106.828284,"station_id":"JUA","i_lat":-6.166716}],[{"station_id":"DAR","line":0,"time":0,"i_long":106.491338,"distance":0,"transit":false,"station_name":"Daru","is_transit":false,"i_lat":-6.338021},{"time":6,"station_id":"CJT","is_transit":false,"station_name":"Cilejit","transit":false,"i_lat":-6.354349,"line":0,"i_long":106.508482,"distance":2675},{"i_long":106.568863,"is_transit":false,"i_lat":-6.3441410000000005,"line":6,"time":9,"station_id":"PRP","distance":7025,"station_name":"Parung Panjang","transit":false},{"time":8,"i_long":106.617853,"distance":5968,"i_lat":-6.329547,"is_transit":false,"station_name":"Cicayur","transit":false,"line":0,"station_id":"CC"},{"distance":2519,"i_lat":-6.32484,"station_name":"Cisauk","is_transit":false,"station_id":"CSK","transit":false,"i_long":106.640411,"line":0,"time":4},{"i_long":106.66566,"line":6,"station_id":"SRP","station_name":"Serpong","transit":false,"time":4,"distance":1784,"i_lat":-6.319871,"is_transit":false},{"i_long":106.675475,"is_transit":false,"line":6,"station_id":"RU","i_lat":-6.314823,"distance":2413,"transit":false,"time":4,"station_name":"Rawa Buntu"},{"distance":4566,"line":6,"transit":false,"i_long":106.712277,"station_id":"SDM","time":6,"station_name":"Sudimara","is_transit":false,"i_lat":-6.296963},{"station_id":"JMU","is_transit":false,"time":4,"station_name":"Jurangmangu","transit":false,"line":6,"distance":1994,"i_lat":-6.288927,"i_long":106.728916},{"time":3,"station_name":"Pondokranji","transit":false,"line":6,"distance":2179,"station_id":"PDJ","is_transit":false,"i_lat":-6.276362,"i_long":106.74273},{"is_transit":false,"transit":false,"station_id":"KBY","time":8,"line":6,"i_long":106.780334,"distance":6218,"station_name":"Kebayoran","i_lat":-6.237242},{"distance":3737,"transit":false,"is_transit":false,"line":6,"time":7,"station_name":"Palmerah","i_lat":-6.207404,"i_long":106.79689,"station_id":"PLM"},{"station_id":"THB","i_lat":-6.185545,"time":6,"is_transit":true,"transit":true,"i_long":106.811091,"distance":3191,"line":1,"station_name":"Tanah Abang"},{"line":1,"distance":3632,"transit":true,"is_transit":true,"station_name":"Duri","i_long":106.800832,"station_id":"DU","i_lat":-6.155215,"time":8},{"time":4,"is_transit":false,"distance":1230,"station_id":"AK","i_long":106.79867,"transit":false,"station_name":"Angke","line":0,"i_lat":-6.144674},{"line":0,"is_transit":true,"station_id":"KPB","transit":true,"i_lat":-6.132549,"distance":4102,"station_name":"Kampung Bandan","i_long":106.826365,"time":9},{"time":3,"station_id":"RJW","distance":1444,"i_lat":-6.14505,"transit":false,"is_transit":false,"station_name":"Rajawali","i_long":106.836569,"line":11},{"station_name":"Kemayoran","time":5,"distance":1901,"is_transit":false,"transit":false,"i_lat":-6.161728,"i_long":106.839204,"line":11,"station_id":"KMO"},{"station_name":"Pasar Senen","i_lat":-6.174784,"is_transit":false,"distance":1436,"station_id":"PSE","line":11,"transit":false,"time":4,"i_long":106.84368},{"station_name":"Gang Sentiong","i_lat":-6.185975,"is_transit":false,"i_long":106.850107,"line":11,"station_id":"GST","time":8,"distance":1567,"transit":false},{"station_id":"KMT","is_transit":false,"time":1,"station_name":"Kramat","i_long":106.855437,"transit":false,"distance":973,"i_lat":-6.193792,"line":11},{"line":11,"i_lat":-6.209188,"time":2,"transit":false,"station_id":"POK","i_long":106.861737,"is_transit":false,"distance":1829,"station_name":"Pondok Jati"},{"i_lat":-6.215091,"transit":true,"is_transit":true,"time":9,"station_name":"Jatinegara","station_id":"JNG","line":0,"distance":1236,"i_long":106.86807400000001},{"line":1,"distance":1377,"station_id":"MTR","i_long":106.858896,"transit":false,"is_transit":false,"time":2,"i_lat":-6.212485,"station_name":"Matraman"},{"station_id":"MRI","time":2,"i_long":106.84912,"i_lat":-6.209883,"station_name":"Manggarai","is_transit":true,"transit":true,"distance":1275,"line":0},{"station_id":"CKI","distance":1590,"station_name":"Cikini","is_transit":false,"i_lat":-6.198556,"line":0,"time":4,"i_long":106.840169,"transit":false},{"station_id":"GDD","i_long":106.832183,"line":2,"is_transit":false,"station_name":"Gondangdia","i_lat":-6.186295,"time":3,"transit":false,"distance":1750},{"i_lat":-6.166716,"line":2,"station_id":"JUA","time":4,"is_transit":false,"station_name":"Juanda","distance":2015,"i_long":106.828284,"transit":false}],[{"i_long":106.491338,"line":0,"station_id":"DAR","station_name":"Daru","i_lat":-6.338021,"time":0,"transit":false,"is_transit":false,"distance":0},{"transit":false,"i_lat":-6.354349,"line":0,"time":6,"station_id":"CJT","is_transit":false,"i_long":106.508482,"distance":2675,"station_name":"Cilejit"},{"time":9,"is_transit":false,"distance":7025,"line":6,"station_id":"PRP","transit":false,"i_long":106.568863,"station_name":"Parung Panjang","i_lat":-6.3441410000000005},{"station_id":"CC","station_name":"Cicayur","is_transit":false,"transit":false,"i_long":106.617853,"line":0,"distance":5968,"i_lat":-6.329547,"time":8},{"distance":2519,"is_transit":false,"station_id":"CSK","station_name":"Cisauk","i_long":106.640411,"line":0,"time":4,"transit":false,"i_lat":-6.32484},{"is_transit":false,"distance":1784,"i_long":106.66566,"transit":false,"line":6,"time":4,"station_name":"Serpong","i_lat":-6.319871,"station_id":"SRP"},{"i_long":106.675475,"line":6,"station_id":"RU","is_transit":false,"i_lat":-6.314823,"distance":2413,"transit":false,"station_name":"Rawa Buntu","time":4},{"transit":false,"i_long":106.712277,"time":6,"distance":4566,"line":6,"station_id":"SDM","i_lat":-6.296963,"station_name":"Sudimara","is_transit":false},{"transit":false,"i_lat":-6.288927,"line":6,"station_name":"Jurangmangu","i_long":106.728916,"distance":1994,"is_transit":false,"station_id":"JMU","time":4},{"is_transit":false,"time":3,"transit":false,"i_long":106.74273,"distance":2179,"station_name":"Pondokranji","i_lat":-6.276362,"station_id":"PDJ","line":6},{"line":6,"distance":6218,"station_name":"Kebayoran","i_lat":-6.237242,"is_transit":false,"station_id":"KBY","time":8,"transit":false,"i_long":106.780334},{"distance":3737,"station_name":"Palmerah","i_lat":-6.207404,"time":7,"transit":false,"i_long":106.79689,"line":6,"station_id":"PLM","is_transit":false},{"is_transit":true,"station_id":"THB","line":1,"time":6,"transit":true,"distance":3191,"station_name":"Tanah Abang","i_long":106.811091,"i_lat":-6.185545},{"is_transit":false,"station_id":"KAT","distance":2029,"station_name":"Karet","transit":false,"i_lat":-6.20132,"i_long":106.816351,"line":1,"time":5},{"station_name":"Sudirman Baru","i_lat":-6.201433,"i_long":106.819881,"is_transit":false,"line":1,"transit":false,"station_id":"SUDB","time":1,"distance":471},{"time":1,"transit":false,"station_name":"Sudirman","station_id":"SUD","distance":280,"i_lat":-6.202263,"i_long":106.822649,"is_transit":false,"line":1},{"distance":3186,"i_long":106.84912,"station_id":"MRI","i_lat":-6.209883,"station_name":"Manggarai","line":0,"is_transit":true,"transit":false,"time":4},{"distance":1275,"time":2,"line":1,"station_name":"Matraman","station_id":"MTR","is_transit":false,"i_long":106.858896,"transit":false,"i_lat":-6.212485},{"is_transit":true,"station_id":"JNG","distance":1377,"time":8,"i_long":106.86807400000001,"line":0,"station_name":"Jatinegara","transit":true,"i_lat":-6.215091},{"i_lat":-6.209188,"i_long":106.861737,"distance":1236,"time":2,"line":11,"is_transit":false,"transit":false,"station_name":"Pondok Jati","station_id":"POK"},{"is_transit":false,"i_long":106.855437,"i_lat":-6.193792,"time":2,"transit":false,"station_name":"Kramat","distance":1829,"line":11,"station_id":"KMT"},{"i_long":106.850107,"time":1,"station_id":"GST","distance":973,"line":11,"is_transit":false,"station_name":"Gang Sentiong","i_lat":-6.185975,"transit":false},{"station_id":"PSE","is_transit":false,"station_name":"Pasar Senen","distance":1567,"transit":false,"time":8,"line":11,"i_lat":-6.174784,"i_long":106.84368},{"line":11,"station_name":"Kemayoran","is_transit":false,"distance":1436,"transit":false,"station_id":"KMO","time":4,"i_long":106.839204,"i_lat":-6.161728},{"station_id":"RJW","distance":1901,"i_long":106.836569,"is_transit":false,"time":5,"i_lat":-6.14505,"station_name":"Rajawali","line":11,"transit":false},{"i_lat":-6.132549,"line":0,"station_id":"KPB","distance":1444,"station_name":"Kampung Bandan","is_transit":true,"transit":true,"i_long":106.826365,"time":3},{"station_id":"JAKK","i_long":106.812439,"time":3,"line":0,"transit":true,"distance":1364,"is_transit":true,"i_lat":-6.137569,"station_name":"Jakarta Kota"},{"time":4,"station_id":"JAY","station_name":"Jayakarta","distance":1264,"transit":false,"i_long":106.820901,"i_lat":-6.141205,"is_transit":false,"line":7},{"station_name":"Manggabesar","transit":false,"line":2,"i_long":106.82482,"station_id":"MGB","i_lat":-6.149769,"is_transit":false,"time":2,"distance":1080},{"station_name":"Sawah Besar","distance":906,"i_lat":-6.160725,"line":2,"time":2,"transit":false,"station_id":"SW","i_long":106.827103,"is_transit":false},{"transit":false,"station_name":"Juanda","i_long":106.828284,"time":2,"i_lat":-6.166716,"line":2,"station_id":"JUA","is_transit":false,"distance":1149}]]}