{"data":[[{"transit":false,"time":0,"i_lat":-6.338021,"station_id":"DAR","distance":0,"station_name":"Daru","i_long":106.491338,"line":0,"is_transit":false},{"i_long":106.508482,"station_id":"CJT","station_name":"Cilejit","line":0,"time":6,"distance":2675,"i_lat":-6.354349,"is_transit":false,"transit":false},{"transit":false,"station_name":"Parung Panjang","i_long":106.568863,"station_id":"PRP","time":9,"distance":7025,"i_lat":-6.3441410000000005,"is_transit":false,"line":6},{"distance":5968,"is_transit":false,"transit":false,"i_long":106.617853,"station_id":"CC","line":0,"i_lat":-6.329547,"time":8,"station_name":"Cicayur"},{"is_transit":false,"transit":false,"line":0,"station_id":"CSK","i_lat":-6.32484,"station_name":"Cisauk","i_long":106.640411,"distance":2519,"time":4},{"i_long":106.66566,"station_name":"Serpong","line":6,"distance":1784,"transit":false,"station_id":"SRP","is_transit":false,"i_lat":-6.319871,"time":4},{"line":6,"station_id":"RU","station_name":"Rawa Buntu","transit":false,"is_transit":false,"distance":2413,"i_long":106.675475,"i_lat":-6.314823,"time":4},{"transit":false,"line":6,"is_transit":false,"i_long":106.712277,"station_id":"SDM","station_name":"Sudimara","distance":4566,"i_lat":-6.296963,"time":6},{"line":6,"station_id":"JMU","time":4,"station_name":"Jurangmangu","transit":false,"i_lat":-6.288927,"i_long":106.728916,"is_transit":false,"distance":1994},{"is_transit":false,"i_long":106.74273,"distance":2179,"station_id":"PDJ","i_lat":-6.276362,"line":6,"time":3,"transit":false,"station_name":"Pondokranji"},{"time":8,"i_long":106.780334,"distance":6218,"line":6,"station_name":"Kebayoran","transit":false,"is_transit":false,"station_id":"KBY","i_lat":-6.237242},{"station_name":"Palmerah","station_id":"PLM","line":6,"time":7,"distance":3737,"i_long":106.79689,"is_transit":false,"transit":false,"i_lat":-6.207404},{"time":6,"is_transit":true,"line":1,"distance":3191,"station_id":"THB","transit":true,"i_long":106.811091,"station_name":"Tanah Abang","i_lat":-6.185545},{"i_long":106.816351,"distance":2029,"is_transit":false,"transit":false,"station_name":"Karet","station_id":"KAT","i_lat":-6.20132,"time":5,"line":1},{"transit":false,"time":1,"i_long":106.819881,"is_transit":false,"i_lat":-6.201433,"line":1,"station_id":"SUDB","station_name":"Sudirman Baru","distance":471},{"station_name":"Sudirman","is_transit":false,"i_lat":-6.202263,"distance":280,"station_id":"SUD","transit":false,"i_long":106.822649,"time":1,"line":1},{"station_id":"MRI","is_transit":true,"distance":3186,"line":0,"time":4,"i_long":106.84912,"station_name":"Manggarai","transit":false,"i_lat":-6.209883},{"transit":false,"i_long":106.858896,"time":2,"i_lat":-6.212485,"station_id":"MTR","station_name":"Matraman","is_transit":false,"distance":1275,"line":1},{"distance":1377,"transit":false,"time":8,"line":0,"i_lat":-6.215091,"i_long":106.86807400000001,"station_id":"JNG","station_name":"Jatinegara","is_transit":true},{"i_long":106.899548,"transit":false,"station_name":"Klender","i_lat":-6.2135,"station_id":"KLD","line":1,"time":3,"distance":3395,"is_transit":false},{"time":2,"transit":false,"station_id":"BUA","i_lat":-6.215568,"station_name":"Buaran","line":0,"is_transit":false,"i_long":106.922662,"distance":3100},{"line":1,"i_lat":-6.217455,"i_long":106.939679,"time":1,"station_id":"KLDB","station_name":"Klenderbaru","is_transit":false,"transit":false,"distance":1305}],[{"transit":false,"distance":0,"station_id":"DAR","is_transit":false,"time":0,"i_lat":-6.338021,"line":0,"i_long":106.491338,"station_name":"Daru"},{"station_name":"Cilejit","is_transit":false,"distance":2675,"time":6,"station_id":"CJT","transit":false,"i_lat":-6.354349,"i_long":106.508482,"line":0},{"distance":7025,"i_long":106.568863,"station_id":"PRP","station_name":"Parung Panjang","transit":false,"time":9,"is_transit":false,"line":6,"i_lat":-6.3441410000000005},{"station_id":"CC","time":8,"line":0,"station_name":"Cicayur","distance":5968,"i_lat":-6.329547,"transit":false,"i_long":106.617853,"is_transit":false},{"i_long":106.640411,"station_name":"Cisauk","transit":false,"station_id":"CSK","i_lat":-6.32484,"distance":2519,"is_transit":false,"line":0,"time":4},{"station_name":"Serpong","line":6,"i_long":106.66566,"i_lat":-6.319871,"station_id":"SRP","is_transit":false,"transit":false,"distance":1784,"time":4},{"time":4,"distance":2413,"transit":false,"i_long":106.675475,"line":6,"i_lat":-6.314823,"station_name":"Rawa Buntu","station_id":"RU","is_transit":false},{"time":6,"i_long":106.712277,"line":6,"is_transit":false,"i_lat":-6.296963,"station_id":"SDM","station_name":"Sudimara","distance":4566,"transit":false},{"i_lat":-6.288927,"station_name":"Jurangmangu","i_long":106.728916,"is_transit":false,"station_id":"JMU","line":6,"time":4,"distance":1994,"transit":false},{"i_long":106.74273,"station_id":"PDJ","transit":false,"is_transit":false,"station_name":"Pondokranji","time":3,"distance":2179,"line":6,"i_lat":-6.276362},{"station_name":"Kebayoran","station_id":"KBY","transit":false,"i_long":106.780334,"i_lat":-6.237242,"distance":6218,"is_transit":false,"line":6,"time":8},{"i_lat":-6.207404,"distance":3737,"is_transit":false,"transit":false,"station_id":"PLM","station_name":"Palmerah","time":7,"i_long":106.79689,"line":6},{"station_id":"THB","distance":3191,"i_lat":-6.185545,"i_long":106.811091,"transit":true,"is_transit":true,"line":1,"station_name":"Tanah Abang","time":6},{"line":1,"distance":3632,"station_name":"Duri","i_lat":-6.155215,"time":8,"i_long":106.800832,"is_transit":true,"station_id":"DU","transit":true},{"is_transit":false,"distance":1230,"transit":false,"i_lat":-6.144674,"station_id":"AK","time":4,"i_long":106.79867,"line":0,"station_name":"Angke"},{"distance":4102,"i_long":106.826365,"station_name":"Kampung Bandan","is_transit":true,"station_id":"KPB","i_lat":-6.132549,"transit":true,"line":0,"time":9},{"station_id":"RJW","time":3,"i_long":106.836569,"distance":1444,"i_lat":-6.14505,"is_transit":false,"transit":false,"line":11,"station_name":"Rajawali"},{"i_lat":-6.161728,"transit":false,"i_long":106.839204,"time":5,"station_id":"KMO","is_transit":false,"distance":1901,"line":11,"station_name":"Kemayoran"},{"distance":1436,"station_name":"Pasar Senen","is_transit":false,"transit":false,"i_lat":-6.174784,"i_long":106.84368,"line":11,"station_id":"PSE","time":4},{"station_name":"Gang Sentiong","is_transit":false,"time":8,"distance":1567,"i_lat":-6.185975,"i_long":106.850107,"transit":false,"line":11,"station_id":"GST"},{"i_lat":-6.193792,"i_long":106.855437,"distance":973,"station_id":"KMT","station_name":"Kramat","time":1,"line":11,"transit":false,"is_transit":false},{"station_id":"POK","transit":false,"distance":1829,"time":2,"line":11,"station_name":"Pondok Jati","is_transit":false,"i_lat":-6.209188,"i_long":106.861737},{"station_id":"JNG","transit":true,"distance":1236,"time":9,"i_long":106.86807400000001,"is_transit":true,"line":0,"station_name":"Jatinegara","i_lat":-6.215091},{"is_transit":false,"distance":3395,"transit":false,"i_long":106.899548,"time":3,"station_id":"KLD","station_name":"Klender","line":1,"i_lat":-6.2135},{"distance":3100,"line":0,"station_name":"Buaran","i_long":106.922662,"i_lat":-6.215568,"time":2,"is_transit":false,"transit":false,"station_id":"BUA"},{"station_name":"Klenderbaru","transit":false,"i_long":106.939679,"distance":1305,"is_transit":false,"station_id":"KLDB","time":1,"i_lat":-6.217455,"line":1}],[{"station_id":"DAR","i_long":106.491338,"station_name":"Daru","time":0,"i_lat":-6.338021,"is_transit":false,"transit":false,"line":0,"distance":0},{"i_lat":-6.354349,"line":0,"is_transit":false,"i_long":106.508482,"station_id":"CJT","distance":2675,"time":6,"station_name":"Cilejit","transit":false},{"i_lat":-6.3441410000000005,"transit":false,"i_long":106.568863,"station_name":"Parung Panjang","time":9,"line":6,"station_id":"PRP","is_transit":false,"distance":7025},{"distance":5968,"transit":false,"is_transit":false,"line":0,"i_lat":-6.329547,"time":8,"i_long":106.617853,"station_id":"CC","station_name":"Cicayur"},{"station_id":"CSK","i_lat":-6.32484,"transit":false,"distance":2519,"station_name":"Cisauk","is_transit":false,"line":0,"time":4,"i_long":106.640411},{"transit":false,"i_lat":-6.319871,"is_transit":false,"line":6,"i_long":106.66566,"station_id":"SRP","time":4,"distance":1784,"station_name":"Serpong"},{"transit":false,"i_long":106.675475,"station_id":"RU","i_lat":-6.314823,"station_name":"Rawa Buntu","distance":2413,"is_transit":false,"time":4,"line":6},{"distance":4566,"i_long":106.712277,"is_transit":false,"line":6,"time":6,"i_lat":-6.296963,"station_id":"SDM","transit":false,"station_name":"Sudimara"},{"distance":1994,"transit":false,"i_long":106.728916,"i_lat":-6.288927,"station_name":"Jurangmangu","is_transit":false,"station_id":"JMU","line":6,"time":4},{"distance":2179,"i_lat":-6.276362,"station_name":"Pondokranji","transit":false,"line":6,"station_id":"PDJ","i_long":106.74273,"is_transit":false,"time":3},{"station_name":"Kebayoran","time":8,"station_id":"KBY","distance":6218,"transit":false,"i_lat":-6.237242,"i_long":106.780334,"line":6,"is_transit":false},{"distance":3737,"transit":false,"is_transit":false,"i_lat":-6.207404,"station_name":"Palmerah","station_id":"PLM","time":7,"line":6,"i_long":106.79689},{"distance":3191,"i_long":106.811091,"station_name":"Tanah Abang","station_id":"THB","i_lat":-6.185545,"is_transit":true,"transit":true,"line":1,"time":6},{"line":1,"is_transit":true,"distance":3632,"station_name":"Duri","i_lat":-6.155215,"time":8,"station_id":"DU","transit":true,"i_long":106.800832},{"distance":1230,"i_lat":-6.144674,"i_long":106.79867,"station_id":"AK","time":4,"is_transit":false,"station_name":"Angke","transit":false,"line":0},{"i_lat":-6.132549,"is_transit":true,"station_id":"KPB","station_name":"Kampung Bandan","line":0,"time":9,"transit":false,"distance":4102,"i_long":106.826365},{"distance":1364,"is_transit":true,"station_id":"JAKK","station_name":"Jakarta Kota","transit":true,"i_lat":-6.137569,"i_long":106.812439,"line":0,"time":3},{"time":4,"station_name":"Jayakarta","station_id":"JAY","distance":1264,"i_lat":-6.141205,"i_long":106.820901,"transit":false,"line":7,"is_transit":false},{"time":2,"line":2,"i_lat":-6.149769,"distance":1080,"station_name":"Manggabesar","i_long":106.82482,"transit":false,"station_id":"MGB","is_transit":false},{"transit":false,"line":2,"is_transit":false,"time":2,"i_lat":-6.160725,"i_long":106.827103,"station_id":"SW","distance":906,"station_name":"Sawah Besar"},{"station_id":"JUA","line":2,"i_lat":-6.166716,"i_long":106.828284,"distance":1149,"transit":false,"is_transit":false,"time":2,"station_name":"Juanda"},{"i_long":106.832183,"line":2,"is_transit":false,"station_name":"Gondangdia","time":4,"station_id":"GDD","distance":2015,"transit":false,"i_lat":-6.186295},{"time":3,"distance":1750,"station_name":"Cikini","i_long":106.840169,"transit":false,"line":0,"station_id":"CKI","is_transit":false,"i_lat":-6.198556},{"i_lat":-6.209883,"line":0,"station_id":"MRI","time":4,"station_name":"Manggarai","distance":1590,"transit":true,"i_long":106.84912,"is_transit":true},{"is_transit":false,"line":1,"distance":1275,"time":2,"i_lat":-6.212485,"station_name":"Matraman","transit":false,"station_id":"MTR","i_long":106.858896},{"transit":false,"time":8,"is_transit":true,"i_lat":-6.215091,"station_name":"Jatinegara","station_id":"JNG","distance":1377,"line":0,"i_long":106.86807400000001},{"line":1,"is_transit":false,"station_name":"Klender","i_long":106.899548,"station_id":"KLD","distance":3395,"transit":false,"i_lat":-6.2135,"time":3},{"i_lat":-6.215568,"is_transit":false,"station_id":"BUA","station_name":"Buaran","distance":3100,"i_long":106.922662,"time":2,"transit":false,"line":0},{"is_transit":false,"station_name":"Klenderbaru","station_id":"KLDB","distance":1305,"i_lat":-6.217455,"transit":false,"i_long":106.939679,"line":1,"time":1}],[{"station_name":"Daru","time":0,"is_transit":false,"i_lat":-6.338021,"transit":false,"i_long":106.491338,"station_id":"DAR","line":0,"distance":0},{"is_transit":false,"i_lat":-6.354349,"time":6,"transit":false,"station_id":"CJT","distance":2675,"i_long":106.508482,"line":0,"station_name":"Cilejit"},{"distance":7025,"i_lat":-6.3441410000000005,"line":6,"station_id":"PRP","station_name":"Parung Panjang","time":9,"i_long":106.568863,"is_transit":false,"transit":false},{"time":8,"station_id":"CC","transit":false,"i_long":106.617853,"i_lat":-6.329547,"distance":5968,"station_name":"Cicayur","is_transit":false,"line":0},{"station_name":"Cisauk","transit":false,"line":0,"time":4,"is_transit":false,"distance":2519,"i_lat":-6.32484,"i_long":106.640411,"station_id":"CSK"},{"time":4,"station_name":"Serpong","transit":false,"i_lat":-6.319871,"line":6,"distance":1784,"is_transit":false,"station_id":"SRP","i_long":106.66566},{"line":6,"is_transit":false,"station_id":"RU","transit":false,"time":4,"station_name":"Rawa Buntu","i_long":106.675475,"i_lat":-6.314823,"distance":2413},{"i_lat":-6.296963,"station_name":"Sudimara","is_transit":false,"transit":false,"time":6,"i_long":106.712277,"line":6,"distance":4566,"station_id":"SDM"},{"is_transit":false,"distance":1994,"transit":false,"i_long":106.728916,"station_name":"Jurangmangu","i_lat":-6.288927,"station_id":"JMU","time":4,"line":6},{"i_long":106.74273,"station_id":"PDJ","station_name":"Pondokranji","time":3,"transit":false,"is_transit":false,"distance":2179,"i_lat":-6.276362,"line":6},{"i_long":106.780334,"distance":6218,"station_id":"KBY","is_transit":false,"line":6,"station_name":"Kebayoran","transit":false,"time":8,"i_lat":-6.237242},{"distance":3737,"line":6,"i_long":106.79689,"transit":false,"station_id":"PLM","i_lat":-6.207404,"is_transit":false,"station_name":"Palmerah","time":7},{"station_name":"Tanah Abang","i_long":106.811091,"station_id":"THB","distance":3191,"transit":true,"i_lat":-6.185545,"is_transit":true,"time":6,"line":1},{"i_long":106.816351,"station_id":"KAT","station_name":"Karet","line":1,"i_lat":-6.20132,"time":5,"distance":2029,"transit":false,"is_transit":false},{"i_lat":-6.201433,"line":1,"station_id":"SUDB","station_name":"Sudirman Baru","i_long":106.819881,"is_transit":false,"time":1,"distance":471,"transit":false},{"distance":280,"i_lat":-6.202263,"line":1,"transit":false,"time":1,"station_id":"SUD","station_name":"Sudirman","is_transit":false,"i_long":106.822649},{"i_lat":-6.209883,"i_long":106.84912,"station_name":"Manggarai","distance":3186,"station_id":"MRI","transit":true,"line":0,"is_transit":true,"time":4},{"line":0,"station_name":"Cikini","is_transit":false,"time":4,"i_lat":-6.198556,"i_long":106.840169,"station_id":"CKI","distance":1590,"transit":false},{"is_transit":false,"station_name":"Gondangdia","transit":false,"time":3,"i_long":106.832183,"station_id":"GDD","i_lat":-6.186295,"distance":1750,"line":2},{"line":2,"station_id":"JUA","station_name":"Juanda","time":4,"distance":2015,"transit":false,"i_lat":-6.166716,"is_transit":false,"i_long":106.828284},{"station_name":"Sawah Besar","time":2,"i_lat":-6.160725,"transit":false,"line":2,"distance":1149,"is_transit":false,"station_id":"SW","i_long":106.827103},{"distance":906,"station_id":"MGB","line":2,"transit":false,"time":2,"i_lat":-6.149769,"is_transit":false,"i_long":106.82482,"station_name":"Manggabesar"},{"time":2,"distance":1080,"is_transit":false,"i_lat":-6.141205,"station_name":"Jayakarta","station_id":"JAY","i_long":106.820901,"transit":false,"line":7},{"station_id":"JAKK","station_name":"Jakarta Kota","time":4,"i_long":106.812439,"is_transit":true,"line":0,"distance":1264,"transit":true,"i_lat":-6.137569},{"distance":1364,"i_lat":-6.132549,"is_transit":true,"station_id":"KPB","transit":true,"i_long":106.826365,"line":0,"station_name":"Kampung Bandan","time":3},{"time":3,"distance":1444,"i_lat":-6.14505,"transit":false,"i_long":106.836569,"station_name":"Rajawali","is_transit":false,"station_id":"RJW","line":11},{"station_name":"Kemayoran","i_lat":-6.161728,"station_id":"KMO","i_long":106.839204,"is_transit":false,"distance":1901,"transit":false,"line":11,"time":5},{"i_long":106.84368,"distance":1436,"line":11,"station_id":"PSE","time":4,"station_name":"Pasar Senen","transit":false,"is_transit":false,"i_lat":-6.174784},{"line":11,"distance":1567,"i_long":106.850107,"time":8,"is_transit":false,"station_id":"GST","i_lat":-6.185975,"transit":false,"station_name":"Gang Sentiong"},{"line":11,"station_name":"Kramat","station_id":"KMT","time":1,"distance":973,"i_lat":-6.193792,"is_transit":false,"transit":false,"i_long":106.855437},{"station_name":"Pondok Jati","is_transit":false,"transit":false,"station_id":"POK","distance":1829,"time":2,"i_lat":-6.209188,"i_long":106.861737,"line":11},{"is_transit":true,"station_id":"JNG","i_lat":-6.215091,"i_long":106.86807400000001,"transit":true,"time":9,"distance":1236,"line":0,"station_name":"Jatinegara"},{"station_id":"KLD","station_name":"Klender","time":3,"distance":3395,"transit":false,"i_long":106.899548,"line":1,"i_lat":-6.2135,"is_transit":false},{"transit":false,"distance":3100,"station_id":"BUA","i_long":106.922662,"is_transit":false,"i_lat":-6.215568,"line":0,"station_name":"Buaran","time":2},{"station_id":"KLDB","is_transit":false,"time":1,"station_name":"Klenderbaru","distance":1305,"i_long":106.939679,"transit":false,"i_lat":-6.217455,"line":1}]]}