{"data":[[{"transit":false,"station_name":"Daru","i_lat":-6.338021,"is_transit":false,"time":0,"station_id":"DAR","distance":0,"i_long":106.491338,"line":0},{"is_transit":false,"distance":2675,"line":3,"time":6,"station_name":"Cilejit","i_lat":-6.354349,"transit":false,"station_id":"CJT","i_long":106.508482},{"station_name":"Parung Panjang","i_long":106.568863,"station_id":"PRP","transit":false,"is_transit":false,"time":9,"i_lat":-6.3441410000000005,"distance":7025,"line":6},{"distance":5968,"i_lat":-6.329547,"line":3,"time":8,"station_name":"Cicayur","station_id":"CC","i_long":106.617853,"is_transit":false,"transit":false},{"transit":false,"time":4,"station_id":"CSK","is_transit":false,"i_lat":-6.32484,"i_long":106.640411,"station_name":"Cisauk","line":3,"distance":2519},{"station_name":"Serpong","i_long":106.66566,"line":6,"transit":false,"time":4,"distance":1784,"station_id":"SRP","i_lat":-6.319871,"is_transit":false},{"station_id":"RU","line":6,"distance":2413,"transit":false,"is_transit":false,"i_long":106.675475,"time":4,"station_name":"Rawa Buntu","i_lat":-6.314823},{"distance":4566,"i_long":106.712277,"station_id":"SDM","station_name":"Sudimara","line":6,"is_transit":false,"transit":false,"i_lat":-6.296963,"time":6},{"is_transit":false,"time":4,"i_long":106.728916,"transit":false,"distance":1994,"station_name":"Jurangmangu","i_lat":-6.288927,"station_id":"JMU","line":6},{"is_transit":false,"transit":false,"station_name":"Pondokranji","station_id":"PDJ","time":3,"i_long":106.74273,"i_lat":-6.276362,"distance":2179,"line":6},{"station_id":"KBY","time":8,"transit":false,"is_transit":false,"i_long":106.780334,"station_name":"Kebayoran","line":6,"distance":6218,"i_lat":-6.237242},{"line":6,"transit":false,"time":7,"i_lat":-6.207404,"station_name":"Palmerah","distance":3737,"station_id":"PLM","i_long":106.79689,"is_transit":false},{"time":6,"i_long":106.811091,"transit":true,"is_transit":true,"station_name":"Tanah Abang","distance":3191,"line":1,"station_id":"THB","i_lat":-6.185545},{"time":8,"line":1,"distance":3632,"i_long":106.800832,"station_name":"Duri","i_lat":-6.155215,"is_transit":true,"station_id":"DU","transit":true},{"time":3,"station_name":"Grogol","station_id":"GGL","distance":1700,"line":5,"transit":false,"i_lat":-6.162021,"is_transit":false,"i_long":106.788277},{"station_id":"PSG","transit":false,"i_lat":-6.161433,"station_name":"Pesing","is_transit":false,"i_long":106.771379,"line":5,"distance":2036,"time":2},{"line":5,"distance":1614,"time":2,"i_lat":-6.1587309999999995,"is_transit":false,"transit":false,"station_name":"Taman Kota","station_id":"TKO","i_long":106.756522},{"time":2,"station_id":"BOI","i_long":106.737035,"line":5,"is_transit":false,"i_lat":-6.159876,"distance":2334,"station_name":"Bojongindah","transit":false},{"line":5,"i_long":106.723064,"distance":1152,"station_name":"Rawa Buaya","transit":false,"time":4,"station_id":"RW","i_lat":-6.162758,"is_transit":false}],[{"is_transit":false,"station_name":"Daru","i_lat":-6.338021,"distance":0,"time":0,"station_id":"DAR","transit":false,"i_long":106.491338,"line":0},{"station_id":"CJT","is_transit":false,"line":3,"transit":false,"i_lat":-6.354349,"distance":2675,"station_name":"Cilejit","i_long":106.508482,"time":6},{"time":9,"station_name":"Parung Panjang","transit":false,"i_long":106.568863,"line":6,"station_id":"PRP","is_transit":false,"distance":7025,"i_lat":-6.3441410000000005},{"time":8,"station_id":"CC","distance":5968,"i_long":106.617853,"is_transit":false,"i_lat":-6.329547,"transit":false,"station_name":"Cicayur","line":3},{"i_long":106.640411,"transit":false,"line":3,"is_transit":false,"station_name":"Cisauk","distance":2519,"i_lat":-6.32484,"station_id":"CSK","time":4},{"i_lat":-6.319871,"transit":false,"distance":1784,"station_name":"Serpong","station_id":"SRP","time":4,"i_long":106.66566,"line":6,"is_transit":false},{"station_id":"RU","transit":false,"is_transit":false,"distance":2413,"station_name":"Rawa Buntu","i_long":106.675475,"time":4,"i_lat":-6.314823,"line":6},{"station_name":"Sudimara","i_lat":-6.296963,"transit":false,"i_long":106.712277,"line":6,"is_transit":false,"station_id":"SDM","distance":4566,"time":6},{"time":4,"i_long":106.728916,"line":6,"is_transit":false,"transit":false,"i_lat":-6.288927,"station_name":"Jurangmangu","station_id":"JMU","distance":1994},{"is_transit":false,"distance":2179,"station_id":"PDJ","time":3,"i_long":106.74273,"station_name":"Pondokranji","line":6,"transit":false,"i_lat":-6.276362},{"distance":6218,"time":8,"station_name":"Kebayoran","station_id":"KBY","line":6,"transit":false,"i_lat":-6.237242,"i_long":106.780334,"is_transit":false},{"i_lat":-6.207404,"line":6,"distance":3737,"i_long":106.79689,"transit":false,"time":7,"station_id":"PLM","is_transit":false,"station_name":"Palmerah"},{"is_transit":true,"station_name":"Tanah Abang","i_long":106.811091,"distance":3191,"transit":true,"station_id":"THB","time":6,"line":1,"i_lat":-6.185545},{"distance":2029,"i_lat":-6.20132,"line":1,"station_id":"KAT","is_transit":false,"station_name":"Karet","time":5,"i_long":106.816351,"transit":false},{"transit":false,"line":1,"i_long":106.819881,"station_id":"SUDB","station_name":"Sudirman Baru","i_lat":-6.201433,"distance":471,"is_transit":false,"time":1},{"station_id":"SUD","i_long":106.822649,"transit":false,"i_lat":-6.202263,"line":1,"distance":280,"station_name":"Sudirman","time":1,"is_transit":false},{"is_transit":true,"transit":true,"i_lat":-6.209883,"i_long":106.84912,"time":4,"station_name":"Manggarai","distance":3186,"station_id":"MRI","line":2},{"i_lat":-6.198556,"station_id":"CKI","line":2,"transit":false,"distance":1590,"i_long":106.840169,"is_transit":false,"station_name":"Cikini","time":4},{"time":3,"is_transit":false,"i_long":106.832183,"line":2,"distance":1750,"i_lat":-6.186295,"transit":false,"station_name":"Gondangdia","station_id":"GDD"},{"station_id":"JUA","station_name":"Juanda","is_transit":false,"line":2,"i_long":106.828284,"i_lat":-6.166716,"transit":false,"distance":2015,"time":4},{"station_name":"Sawah Besar","line":2,"transit":false,"time":2,"station_id":"SW","i_long":106.827103,"distance":1149,"is_transit":false,"i_lat":-6.160725},{"station_id":"MGB","i_lat":-6.149769,"transit":false,"station_name":"Manggabesar","is_transit":false,"time":2,"i_long":106.82482,"line":2,"distance":906},{"station_name":"Jayakarta","distance":1080,"transit":false,"time":2,"line":2,"i_lat":-6.141205,"station_id":"JAY","i_long":106.820901,"is_transit":false},{"distance":1264,"time":4,"line":2,"station_name":"Jakarta Kota","is_transit":true,"transit":true,"i_lat":-6.137569,"i_long":106.812439,"station_id":"JAKK"},{"line":4,"i_long":106.826365,"station_name":"Kampung Bandan","distance":1364,"station_id":"KPB","transit":true,"is_transit":true,"time":3,"i_lat":-6.132549},{"is_transit":false,"time":9,"transit":false,"distance":4102,"station_id":"AK","line":1,"station_name":"Angke","i_lat":-6.144674,"i_long":106.79867},{"time":4,"transit":true,"station_name":"Duri","i_lat":-6.155215,"distance":1230,"i_long":106.800832,"line":1,"is_transit":true,"station_id":"DU"},{"i_lat":-6.162021,"line":5,"i_long":106.788277,"transit":false,"station_id":"GGL","station_name":"Grogol","distance":1700,"time":3,"is_transit":false},{"i_lat":-6.161433,"station_name":"Pesing","transit":false,"is_transit":false,"distance":2036,"station_id":"PSG","time":2,"i_long":106.771379,"line":5},{"station_id":"TKO","distance":1614,"is_transit":false,"time":2,"i_lat":-6.1587309999999995,"line":5,"i_long":106.756522,"transit":false,"station_name":"Taman Kota"},{"transit":false,"station_name":"Bojongindah","i_long":106.737035,"line":5,"is_transit":false,"station_id":"BOI","distance":2334,"time":2,"i_lat":-6.159876},{"station_name":"Rawa Buaya","distance":1152,"time":4,"i_long":106.723064,"transit":false,"is_transit":false,"station_id":"RW","line":5,"i_lat":-6.162758}],[{"i_long":106.491338,"transit":false,"distance":0,"time":0,"line":0,"i_lat":-6.338021,"station_id":"DAR","station_name":"Daru","is_transit":false},{"i_long":106.508482,"station_name":"Cilejit","is_transit":false,"transit":false,"distance":2675,"i_lat":-6.354349,"line":3,"station_id":"CJT","time":6},{"time":9,"i_long":106.568863,"station_name":"Parung Panjang","is_transit":false,"transit":false,"station_id":"PRP","distance":7025,"line":6,"i_lat":-6.3441410000000005},{"distance":5968,"i_lat":-6.329547,"line":3,"transit":false,"time":8,"i_long":106.617853,"station_id":"CC","is_transit":false,"station_name":"Cicayur"},{"time":4,"station_name":"Cisauk","i_long":106.640411,"line":3,"i_lat":-6.32484,"station_id":"CSK","distance":2519,"transit":false,"is_transit":false},{"distance":1784,"i_long":106.66566,"time":4,"station_id":"SRP","line":6,"transit":false,"is_transit":false,"station_name":"Serpong","i_lat":-6.319871},{"time":4,"i_lat":-6.314823,"is_transit":false,"station_name":"Rawa Buntu","i_long":106.675475,"transit":false,"line":6,"distance":2413,"station_id":"RU"},{"i_long":106.712277,"distance":4566,"is_transit":false,"station_name":"Sudimara","time":6,"transit":false,"station_id":"SDM","i_lat":-6.296963,"line":6},{"i_lat":-6.288927,"time":4,"station_id":"JMU","station_name":"Jurangmangu","transit":false,"is_transit":false,"i_long":106.728916,"line":6,"distance":1994},{"line":6,"i_lat":-6.276362,"station_id":"PDJ","i_long":106.74273,"station_name":"Pondokranji","transit":false,"is_transit":false,"distance":2179,"time":3},{"i_long":106.780334,"station_id":"KBY","distance":6218,"is_transit":false,"station_name":"Kebayoran","time":8,"i_lat":-6.237242,"transit":false,"line":6},{"station_id":"PLM","station_name":"Palmerah","time":7,"is_transit":false,"i_lat":-6.207404,"i_long":106.79689,"distance":3737,"line":6,"transit":false},{"line":1,"distance":3191,"transit":true,"station_id":"THB","station_name":"Tanah Abang","is_transit":true,"time":6,"i_lat":-6.185545,"i_long":106.811091},{"i_long":106.816351,"is_transit":false,"time":5,"i_lat":-6.20132,"transit":false,"line":1,"distance":2029,"station_name":"Karet","station_id":"KAT"},{"station_name":"Sudirman Baru","station_id":"SUDB","i_long":106.819881,"line":1,"is_transit":false,"i_lat":-6.201433,"transit":false,"time":1,"distance":471},{"is_transit":false,"i_long":106.822649,"station_id":"SUD","line":1,"distance":280,"transit":false,"i_lat":-6.202263,"time":1,"station_name":"Sudirman"},{"i_long":106.84912,"distance":3186,"line":2,"i_lat":-6.209883,"time":4,"is_transit":false,"station_id":"MRI","transit":false,"station_name":"Manggarai"},{"i_lat":-6.212485,"distance":1275,"station_name":"Matraman","station_id":"MTR","i_long":106.858896,"transit":false,"is_transit":false,"time":2,"line":1},{"distance":1377,"station_id":"JNG","station_name":"Jatinegara","i_long":106.86807400000001,"i_lat":-6.215091,"transit":true,"time":8,"is_transit":true,"line":1},{"line":11,"distance":1236,"time":2,"station_id":"POK","i_long":106.861737,"transit":false,"is_transit":false,"station_name":"Pondok Jati","i_lat":-6.209188},{"station_id":"KMT","line":11,"i_lat":-6.193792,"transit":false,"station_name":"Kramat","distance":1829,"is_transit":false,"time":2,"i_long":106.855437},{"i_long":106.850107,"distance":973,"station_name":"Gang Sentiong","is_transit":false,"station_id":"GST","i_lat":-6.185975,"line":11,"transit":false,"time":1},{"time":8,"transit":false,"station_name":"Pasar Senen","station_id":"PSE","i_long":106.84368,"is_transit":false,"i_lat":-6.174784,"distance":1567,"line":11},{"i_lat":-6.161728,"time":4,"station_name":"Kemayoran","is_transit":false,"station_id":"KMO","distance":1436,"line":11,"transit":false,"i_long":106.839204},{"distance":1901,"is_transit":false,"transit":false,"line":11,"station_name":"Rajawali","time":5,"station_id":"RJW","i_lat":-6.14505,"i_long":106.836569},{"i_long":106.826365,"station_name":"Kampung Bandan","time":3,"station_id":"KPB","line":4,"distance":1444,"i_lat":-6.132549,"transit":true,"is_transit":true},{"transit":false,"station_name":"Angke","station_id":"AK","is_transit":false,"i_lat":-6.144674,"line":1,"distance":4102,"i_long":106.79867,"time":9},{"station_name":"Duri","transit":true,"time":4,"i_long":106.800832,"line":1,"is_transit":true,"station_id":"DU","i_lat":-6.155215,"distance":1230},{"i_lat":-6.162021,"time":3,"station_id":"GGL","is_transit":false,"i_long":106.788277,"distance":1700,"line":5,"station_name":"Grogol","transit":false},{"i_long":106.771379,"transit":false,"station_id":"PSG","is_transit":false,"distance":2036,"line":5,"station_name":"Pesing","time":2,"i_lat":-6.161433},{"i_long":106.756522,"i_lat":-6.1587309999999995,"transit":false,"station_name":"Taman Kota","line":5,"station_id":"TKO","time":2,"distance":1614,"is_transit":false},{"station_id":"BOI","time":2,"i_lat":-6.159876,"transit":false,"line":5,"distance":2334,"station_name":"Bojongindah","is_transit":false,"i_long":106.737035},{"line":5,"is_transit":false,"station_name":"Rawa Buaya","i_lat":-6.162758,"time":4,"distance":1152,"station_id":"RW","i_long":106.723064,"transit":false}]]}