{"data":[[{"transit":false,"station_name":"Daru","time":0,"distance":0,"i_long":106.491338,"line":0,"i_lat":-6.338021,"station_id":"DAR","is_transit":false},{"distance":3902,"line":6,"station_name":"Tenjo","time":5,"station_id":"TEJ","i_lat":-6.327251,"i_long":106.460812,"transit":false,"is_transit":false},{"transit":false,"station_name":"Tigaraksa","time":5,"station_id":"TGS","distance":2974,"i_lat":-6.328533,"is_transit":false,"line":6,"i_long":106.425991},{"station_name":"Cikoya","is_transit":false,"distance":2651,"station_id":"CKY","transit":false,"i_long":106.411216,"line":0,"i_lat":-6.33561,"time":3},{"i_long":106.394373,"station_id":"MJ","i_lat":-6.332307,"is_transit":false,"station_name":"Maja","distance":1853,"time":4,"line":6,"transit":false},{"time":10,"is_transit":false,"station_id":"CTR","distance":7293,"i_lat":-6.334892,"i_long":106.332092,"line":0,"station_name":"Citeras","transit":false},{"station_name":"Rangkasbitung","i_long":106.250396,"line":0,"transit":false,"station_id":"RK","i_lat":-6.352675,"is_transit":true,"distance":9847,"time":13}]]}