{"data":[[{"station_name":"Daru","distance":0,"i_lat":-6.338021,"is_transit":false,"time":0,"transit":false,"i_long":106.491338,"station_id":"DAR","line":0},{"line":3,"is_transit":false,"station_id":"CJT","i_long":106.508482,"transit":false,"distance":2675,"station_name":"Cilejit","time":6,"i_lat":-6.354349},{"transit":false,"time":9,"i_long":106.568863,"station_id":"PRP","line":6,"station_name":"Parung Panjang","distance":7025,"is_transit":false,"i_lat":-6.3441410000000005},{"time":8,"transit":false,"i_lat":-6.329547,"distance":5968,"station_name":"Cicayur","station_id":"CC","is_transit":false,"i_long":106.617853,"line":3},{"distance":2519,"i_long":106.640411,"station_name":"Cisauk","line":3,"transit":false,"time":4,"station_id":"CSK","is_transit":false,"i_lat":-6.32484},{"station_id":"SRP","distance":1784,"i_long":106.66566,"is_transit":false,"station_name":"Serpong","line":6,"transit":false,"time":4,"i_lat":-6.319871},{"distance":2413,"i_long":106.675475,"line":6,"station_id":"RU","i_lat":-6.314823,"station_name":"Rawa Buntu","transit":false,"time":4,"is_transit":false},{"is_transit":false,"station_id":"SDM","line":6,"time":6,"distance":4566,"i_lat":-6.296963,"station_name":"Sudimara","i_long":106.712277,"transit":false},{"station_name":"Jurangmangu","i_long":106.728916,"line":6,"station_id":"JMU","distance":1994,"time":4,"transit":false,"is_transit":false,"i_lat":-6.288927},{"time":3,"station_id":"PDJ","i_lat":-6.276362,"station_name":"Pondokranji","distance":2179,"transit":false,"i_long":106.74273,"line":6,"is_transit":false},{"station_name":"Kebayoran","line":6,"station_id":"KBY","i_long":106.780334,"is_transit":false,"time":8,"distance":6218,"transit":false,"i_lat":-6.237242},{"station_name":"Palmerah","line":6,"time":7,"distance":3737,"station_id":"PLM","i_lat":-6.207404,"transit":false,"i_long":106.79689,"is_transit":false},{"distance":3191,"time":6,"transit":true,"station_id":"THB","line":1,"is_transit":true,"i_lat":-6.185545,"i_long":106.811091,"station_name":"Tanah Abang"},{"i_long":106.816351,"distance":2029,"is_transit":false,"transit":false,"time":5,"station_id":"KAT","station_name":"Karet","line":1,"i_lat":-6.20132},{"distance":471,"i_lat":-6.201433,"is_transit":false,"time":1,"station_id":"SUDB","station_name":"Sudirman Baru","i_long":106.819881,"transit":false,"line":1},{"distance":280,"transit":false,"is_transit":false,"line":1,"station_id":"SUD","i_lat":-6.202263,"station_name":"Sudirman","time":1,"i_long":106.822649},{"time":4,"station_name":"Manggarai","station_id":"MRI","is_transit":false,"line":2,"distance":3186,"transit":false,"i_long":106.84912,"i_lat":-6.209883},{"station_name":"Matraman","is_transit":false,"i_lat":-6.212485,"i_long":106.858896,"station_id":"MTR","line":1,"transit":false,"time":2,"distance":1275},{"line":1,"is_transit":false,"transit":false,"time":8,"station_name":"Jatinegara","distance":1377,"i_long":106.86807400000001,"i_lat":-6.215091,"station_id":"JNG"},{"i_long":106.899548,"line":1,"i_lat":-6.2135,"distance":3395,"is_transit":false,"station_name":"Klender","transit":false,"time":3,"station_id":"KLD"},{"station_id":"BUA","i_long":106.922662,"station_name":"Buaran","i_lat":-6.215568,"distance":3100,"time":2,"transit":false,"line":1,"is_transit":false},{"station_name":"Klenderbaru","transit":false,"distance":1305,"station_id":"KLDB","i_long":106.939679,"is_transit":false,"line":1,"i_lat":-6.217455,"time":1},{"station_name":"Cakung","is_transit":false,"transit":false,"i_lat":-6.219053,"time":8,"station_id":"CUK","line":1,"i_long":106.951283,"distance":1385},{"line":1,"distance":3097,"station_name":"Kranji","transit":false,"i_long":106.977657,"i_lat":-6.224515,"is_transit":false,"time":3,"station_id":"KRI"},{"is_transit":false,"station_id":"BKS","i_long":106.997013,"line":1,"time":4,"station_name":"Bekasi","distance":2520,"i_lat":-6.236616,"transit":false},{"line":1,"distance":2368,"i_long":107.016735,"station_id":"BKST","i_lat":-6.248029,"is_transit":false,"time":2,"station_name":"Bekasi Timur","transit":false},{"station_name":"Tambun","is_transit":false,"distance":4460,"i_long":107.055722,"transit":false,"line":1,"time":7,"station_id":"TB","i_lat":-6.258864}],[{"time":0,"station_id":"DAR","station_name":"Daru","transit":false,"distance":0,"i_long":106.491338,"line":0,"is_transit":false,"i_lat":-6.338021},{"time":6,"line":3,"station_name":"Cilejit","transit":false,"distance":2675,"is_transit":false,"station_id":"CJT","i_long":106.508482,"i_lat":-6.354349},{"distance":7025,"transit":false,"station_id":"PRP","time":9,"line":6,"i_long":106.568863,"is_transit":false,"station_name":"Parung Panjang","i_lat":-6.3441410000000005},{"i_lat":-6.329547,"station_id":"CC","i_long":106.617853,"transit":false,"line":3,"distance":5968,"time":8,"station_name":"Cicayur","is_transit":false},{"transit":false,"distance":2519,"time":4,"i_lat":-6.32484,"station_id":"CSK","i_long":106.640411,"line":3,"station_name":"Cisauk","is_transit":false},{"is_transit":false,"distance":1784,"i_long":106.66566,"i_lat":-6.319871,"station_name":"Serpong","station_id":"SRP","time":4,"line":6,"transit":false},{"station_id":"RU","i_long":106.675475,"station_name":"Rawa Buntu","time":4,"is_transit":false,"transit":false,"distance":2413,"line":6,"i_lat":-6.314823},{"i_long":106.712277,"is_transit":false,"transit":false,"station_id":"SDM","i_lat":-6.296963,"station_name":"Sudimara","line":6,"distance":4566,"time":6},{"i_lat":-6.288927,"station_id":"JMU","is_transit":false,"i_long":106.728916,"line":6,"station_name":"Jurangmangu","transit":false,"time":4,"distance":1994},{"transit":false,"time":3,"station_id":"PDJ","station_name":"Pondokranji","distance":2179,"is_transit":false,"i_lat":-6.276362,"i_long":106.74273,"line":6},{"is_transit":false,"i_long":106.780334,"transit":false,"i_lat":-6.237242,"time":8,"distance":6218,"line":6,"station_id":"KBY","station_name":"Kebayoran"},{"distance":3737,"time":7,"transit":false,"i_long":106.79689,"line":6,"i_lat":-6.207404,"station_name":"Palmerah","is_transit":false,"station_id":"PLM"},{"i_long":106.811091,"time":6,"is_transit":true,"i_lat":-6.185545,"transit":true,"station_id":"THB","distance":3191,"line":1,"station_name":"Tanah Abang"},{"is_transit":false,"distance":3632,"time":8,"station_id":"DU","i_lat":-6.155215,"line":1,"transit":false,"i_long":106.800832,"station_name":"Duri"},{"is_transit":false,"station_id":"AK","station_name":"Angke","i_lat":-6.144674,"line":1,"distance":1230,"transit":false,"i_long":106.79867,"time":4},{"time":9,"i_long":106.826365,"i_lat":-6.132549,"station_name":"Kampung Bandan","line":4,"transit":true,"station_id":"KPB","distance":4102,"is_transit":true},{"time":3,"station_name":"Rajawali","is_transit":false,"station_id":"RJW","transit":false,"i_lat":-6.14505,"line":11,"distance":1444,"i_long":106.836569},{"time":5,"station_name":"Kemayoran","line":11,"station_id":"KMO","i_lat":-6.161728,"distance":1901,"transit":false,"i_long":106.839204,"is_transit":false},{"time":4,"is_transit":false,"transit":false,"line":11,"station_id":"PSE","i_long":106.84368,"i_lat":-6.174784,"station_name":"Pasar Senen","distance":1436},{"line":11,"transit":false,"i_long":106.850107,"i_lat":-6.185975,"station_id":"GST","station_name":"Gang Sentiong","is_transit":false,"distance":1567,"time":8},{"time":1,"station_name":"Kramat","distance":973,"line":11,"is_transit":false,"i_lat":-6.193792,"transit":false,"i_long":106.855437,"station_id":"KMT"},{"i_lat":-6.209188,"time":2,"distance":1829,"i_long":106.861737,"line":11,"station_name":"Pondok Jati","is_transit":false,"transit":false,"station_id":"POK"},{"distance":1236,"is_transit":true,"time":9,"i_lat":-6.215091,"line":1,"station_id":"JNG","transit":true,"i_long":106.86807400000001,"station_name":"Jatinegara"},{"time":3,"station_id":"KLD","station_name":"Klender","is_transit":false,"distance":3395,"transit":false,"i_long":106.899548,"i_lat":-6.2135,"line":1},{"station_name":"Buaran","is_transit":false,"distance":3100,"transit":false,"station_id":"BUA","time":2,"i_long":106.922662,"i_lat":-6.215568,"line":1},{"station_id":"KLDB","time":1,"line":1,"i_long":106.939679,"is_transit":false,"distance":1305,"station_name":"Klenderbaru","i_lat":-6.217455,"transit":false},{"i_long":106.951283,"i_lat":-6.219053,"time":8,"is_transit":false,"transit":false,"station_name":"Cakung","station_id":"CUK","line":1,"distance":1385},{"is_transit":false,"time":3,"line":1,"i_long":106.977657,"distance":3097,"station_id":"KRI","i_lat":-6.224515,"transit":false,"station_name":"Kranji"},{"transit":false,"station_id":"BKS","i_lat":-6.236616,"time":4,"distance":2520,"i_long":106.997013,"station_name":"Bekasi","line":1,"is_transit":false},{"time":2,"station_id":"BKST","transit":false,"i_lat":-6.248029,"station_name":"Bekasi Timur","line":1,"distance":2368,"i_long":107.016735,"is_transit":false},{"i_lat":-6.258864,"time":7,"transit":false,"distance":4460,"i_long":107.055722,"station_id":"TB","is_transit":false,"station_name":"Tambun","line":1}],[{"station_name":"Daru","distance":0,"station_id":"DAR","line":0,"transit":false,"is_transit":false,"i_lat":-6.338021,"i_long":106.491338,"time":0},{"line":3,"time":6,"station_name":"Cilejit","station_id":"CJT","i_long":106.508482,"transit":false,"is_transit":false,"distance":2675,"i_lat":-6.354349},{"time":9,"station_name":"Parung Panjang","distance":7025,"i_lat":-6.3441410000000005,"i_long":106.568863,"transit":false,"is_transit":false,"station_id":"PRP","line":6},{"station_id":"CC","line":3,"station_name":"Cicayur","i_lat":-6.329547,"i_long":106.617853,"transit":false,"time":8,"distance":5968,"is_transit":false},{"is_transit":false,"transit":false,"station_id":"CSK","i_long":106.640411,"time":4,"station_name":"Cisauk","distance":2519,"i_lat":-6.32484,"line":3},{"station_name":"Serpong","time":4,"is_transit":false,"i_lat":-6.319871,"i_long":106.66566,"line":6,"distance":1784,"transit":false,"station_id":"SRP"},{"i_lat":-6.314823,"line":6,"is_transit":false,"time":4,"transit":false,"station_name":"Rawa Buntu","distance":2413,"i_long":106.675475,"station_id":"RU"},{"line":6,"time":6,"i_lat":-6.296963,"is_transit":false,"station_name":"Sudimara","station_id":"SDM","distance":4566,"i_long":106.712277,"transit":false},{"time":4,"station_name":"Jurangmangu","i_lat":-6.288927,"i_long":106.728916,"is_transit":false,"transit":false,"distance":1994,"line":6,"station_id":"JMU"},{"i_long":106.74273,"i_lat":-6.276362,"time":3,"station_id":"PDJ","is_transit":false,"distance":2179,"station_name":"Pondokranji","transit":false,"line":6},{"transit":false,"i_long":106.780334,"station_id":"KBY","is_transit":false,"i_lat":-6.237242,"station_name":"Kebayoran","distance":6218,"time":8,"line":6},{"transit":false,"is_transit":false,"station_name":"Palmerah","time":7,"distance":3737,"i_lat":-6.207404,"i_long":106.79689,"station_id":"PLM","line":6},{"station_name":"Tanah Abang","i_lat":-6.185545,"distance":3191,"station_id":"THB","is_transit":true,"line":1,"time":6,"transit":true,"i_long":106.811091},{"i_long":106.800832,"is_transit":false,"line":1,"station_id":"DU","i_lat":-6.155215,"time":8,"station_name":"Duri","transit":false,"distance":3632},{"station_id":"AK","is_transit":false,"station_name":"Angke","time":4,"i_lat":-6.144674,"i_long":106.79867,"transit":false,"distance":1230,"line":1},{"station_name":"Kampung Bandan","time":9,"is_transit":true,"i_lat":-6.132549,"i_long":106.826365,"transit":true,"distance":4102,"station_id":"KPB","line":4},{"i_long":106.812439,"station_id":"JAKK","transit":true,"distance":1364,"station_name":"Jakarta Kota","time":3,"is_transit":true,"line":2,"i_lat":-6.137569},{"i_long":106.820901,"station_id":"JAY","line":2,"time":4,"i_lat":-6.141205,"is_transit":false,"distance":1264,"transit":false,"station_name":"Jayakarta"},{"station_name":"Manggabesar","station_id":"MGB","i_long":106.82482,"transit":false,"i_lat":-6.149769,"is_transit":false,"line":2,"time":2,"distance":1080},{"station_name":"Sawah Besar","transit":false,"station_id":"SW","time":2,"is_transit":false,"i_long":106.827103,"line":2,"distance":906,"i_lat":-6.160725},{"time":2,"distance":1149,"station_name":"Juanda","i_lat":-6.166716,"transit":false,"i_long":106.828284,"line":2,"is_transit":false,"station_id":"JUA"},{"station_name":"Gondangdia","transit":false,"is_transit":false,"time":4,"station_id":"GDD","i_lat":-6.186295,"line":2,"distance":2015,"i_long":106.832183},{"line":2,"transit":false,"distance":1750,"time":3,"is_transit":false,"station_name":"Cikini","station_id":"CKI","i_lat":-6.198556,"i_long":106.840169},{"station_id":"MRI","line":2,"station_name":"Manggarai","i_long":106.84912,"time":4,"transit":true,"i_lat":-6.209883,"distance":1590,"is_transit":true},{"station_id":"MTR","i_lat":-6.212485,"is_transit":false,"time":2,"distance":1275,"line":1,"station_name":"Matraman","transit":false,"i_long":106.858896},{"i_lat":-6.215091,"i_long":106.86807400000001,"line":1,"transit":false,"is_transit":false,"station_id":"JNG","time":8,"station_name":"Jatinegara","distance":1377},{"distance":3395,"station_name":"Klender","is_transit":false,"i_lat":-6.2135,"station_id":"KLD","line":1,"i_long":106.899548,"transit":false,"time":3},{"i_long":106.922662,"line":1,"transit":false,"is_transit":false,"distance":3100,"station_id":"BUA","time":2,"station_name":"Buaran","i_lat":-6.215568},{"line":1,"distance":1305,"station_id":"KLDB","i_long":106.939679,"time":1,"station_name":"Klenderbaru","transit":false,"i_lat":-6.217455,"is_transit":false},{"is_transit":false,"station_id":"CUK","station_name":"Cakung","i_lat":-6.219053,"time":8,"line":1,"i_long":106.951283,"distance":1385,"transit":false},{"station_name":"Kranji","station_id":"KRI","i_lat":-6.224515,"line":1,"transit":false,"i_long":106.977657,"distance":3097,"time":3,"is_transit":false},{"i_lat":-6.236616,"i_long":106.997013,"transit":false,"distance":2520,"is_transit":false,"station_name":"Bekasi","line":1,"station_id":"BKS","time":4},{"station_name":"Bekasi Timur","time":2,"i_long":107.016735,"is_transit":false,"transit":false,"station_id":"BKST","line":1,"i_lat":-6.248029,"distance":2368},{"i_long":107.055722,"transit":false,"i_lat":-6.258864,"line":1,"is_transit":false,"distance":4460,"time":7,"station_id":"TB","station_name":"Tambun"}],[{"i_long":106.491338,"line":0,"time":0,"is_transit":false,"transit":false,"station_id":"DAR","distance":0,"i_lat":-6.338021,"station_name":"Daru"},{"i_lat":-6.354349,"station_id":"CJT","i_long":106.508482,"distance":2675,"is_transit":false,"time":6,"station_name":"Cilejit","transit":false,"line":3},{"station_id":"PRP","time":9,"transit":false,"i_long":106.568863,"station_name":"Parung Panjang","is_transit":false,"i_lat":-6.3441410000000005,"line":6,"distance":7025},{"i_long":106.617853,"station_id":"CC","station_name":"Cicayur","i_lat":-6.329547,"time":8,"distance":5968,"transit":false,"line":3,"is_transit":false},{"line":3,"i_lat":-6.32484,"transit":false,"distance":2519,"station_id":"CSK","is_transit":false,"i_long":106.640411,"station_name":"Cisauk","time":4},{"i_lat":-6.319871,"i_long":106.66566,"line":6,"time":4,"distance":1784,"station_id":"SRP","station_name":"Serpong","transit":false,"is_transit":false},{"time":4,"station_name":"Rawa Buntu","station_id":"RU","transit":false,"distance":2413,"i_long":106.675475,"is_transit":false,"line":6,"i_lat":-6.314823},{"station_name":"Sudimara","distance":4566,"is_transit":false,"station_id":"SDM","i_lat":-6.296963,"time":6,"i_long":106.712277,"line":6,"transit":false},{"is_transit":false,"transit":false,"distance":1994,"station_id":"JMU","i_long":106.728916,"time":4,"station_name":"Jurangmangu","i_lat":-6.288927,"line":6},{"transit":false,"distance":2179,"is_transit":false,"station_id":"PDJ","line":6,"i_lat":-6.276362,"i_long":106.74273,"station_name":"Pondokranji","time":3},{"station_name":"Kebayoran","distance":6218,"transit":false,"i_long":106.780334,"line":6,"is_transit":false,"i_lat":-6.237242,"time":8,"station_id":"KBY"},{"i_lat":-6.207404,"i_long":106.79689,"line":6,"station_name":"Palmerah","time":7,"is_transit":false,"station_id":"PLM","distance":3737,"transit":false},{"transit":true,"i_lat":-6.185545,"distance":3191,"i_long":106.811091,"line":1,"is_transit":true,"station_id":"THB","time":6,"station_name":"Tanah Abang"},{"station_name":"Karet","transit":false,"line":1,"station_id":"KAT","distance":2029,"time":5,"is_transit":false,"i_long":106.816351,"i_lat":-6.20132},{"time":1,"station_name":"Sudirman Baru","station_id":"SUDB","i_lat":-6.201433,"line":1,"transit":false,"i_long":106.819881,"is_transit":false,"distance":471},{"transit":false,"is_transit":false,"i_lat":-6.202263,"i_long":106.822649,"station_id":"SUD","time":1,"station_name":"Sudirman","distance":280,"line":1},{"is_transit":true,"distance":3186,"station_id":"MRI","transit":true,"line":2,"station_name":"Manggarai","time":4,"i_lat":-6.209883,"i_long":106.84912},{"i_long":106.840169,"station_name":"Cikini","i_lat":-6.198556,"line":2,"station_id":"CKI","time":4,"is_transit":false,"distance":1590,"transit":false},{"i_long":106.832183,"time":3,"station_id":"GDD","transit":false,"is_transit":false,"distance":1750,"line":2,"station_name":"Gondangdia","i_lat":-6.186295},{"i_lat":-6.166716,"line":2,"station_name":"Juanda","is_transit":false,"i_long":106.828284,"distance":2015,"time":4,"transit":false,"station_id":"JUA"},{"i_long":106.827103,"line":2,"distance":1149,"i_lat":-6.160725,"is_transit":false,"transit":false,"station_id":"SW","time":2,"station_name":"Sawah Besar"},{"is_transit":false,"station_id":"MGB","i_lat":-6.149769,"transit":false,"i_long":106.82482,"line":2,"distance":906,"time":2,"station_name":"Manggabesar"},{"is_transit":false,"station_id":"JAY","i_long":106.820901,"line":2,"distance":1080,"time":2,"station_name":"Jayakarta","i_lat":-6.141205,"transit":false},{"i_lat":-6.137569,"line":2,"distance":1264,"transit":true,"time":4,"station_name":"Jakarta Kota","is_transit":true,"station_id":"JAKK","i_long":106.812439},{"line":4,"i_lat":-6.132549,"station_name":"Kampung Bandan","distance":1364,"is_transit":true,"transit":true,"time":3,"station_id":"KPB","i_long":106.826365},{"station_name":"Rajawali","is_transit":false,"i_lat":-6.14505,"i_long":106.836569,"distance":1444,"line":11,"transit":false,"time":3,"station_id":"RJW"},{"station_name":"Kemayoran","transit":false,"i_long":106.839204,"line":11,"time":5,"distance":1901,"station_id":"KMO","i_lat":-6.161728,"is_transit":false},{"time":4,"station_id":"PSE","i_long":106.84368,"distance":1436,"i_lat":-6.174784,"station_name":"Pasar Senen","is_transit":false,"transit":false,"line":11},{"distance":1567,"i_lat":-6.185975,"is_transit":false,"i_long":106.850107,"station_name":"Gang Sentiong","time":8,"transit":false,"station_id":"GST","line":11},{"i_lat":-6.193792,"station_name":"Kramat","i_long":106.855437,"is_transit":false,"line":11,"transit":false,"distance":973,"time":1,"station_id":"KMT"},{"time":2,"station_name":"Pondok Jati","line":11,"distance":1829,"transit":false,"station_id":"POK","i_lat":-6.209188,"i_long":106.861737,"is_transit":false},{"time":9,"station_name":"Jatinegara","is_transit":true,"station_id":"JNG","i_lat":-6.215091,"i_long":106.86807400000001,"transit":true,"line":1,"distance":1236},{"i_lat":-6.2135,"distance":3395,"line":1,"station_id":"KLD","i_long":106.899548,"time":3,"station_name":"Klender","transit":false,"is_transit":false},{"station_name":"Buaran","is_transit":false,"transit":false,"time":2,"distance":3100,"i_lat":-6.215568,"line":1,"i_long":106.922662,"station_id":"BUA"},{"line":1,"i_lat":-6.217455,"time":1,"distance":1305,"station_name":"Klenderbaru","i_long":106.939679,"station_id":"KLDB","transit":false,"is_transit":false},{"station_name":"Cakung","distance":1385,"i_long":106.951283,"time":8,"transit":false,"i_lat":-6.219053,"line":1,"station_id":"CUK","is_transit":false},{"i_long":106.977657,"distance":3097,"station_id":"KRI","line":1,"time":3,"station_name":"Kranji","transit":false,"is_transit":false,"i_lat":-6.224515},{"line":1,"is_transit":false,"time":4,"transit":false,"distance":2520,"station_id":"BKS","station_name":"Bekasi","i_lat":-6.236616,"i_long":106.997013},{"time":2,"is_transit":false,"line":1,"i_lat":-6.248029,"transit":false,"i_long":107.016735,"station_id":"BKST","distance":2368,"station_name":"Bekasi Timur"},{"i_long":107.055722,"station_name":"Tambun","i_lat":-6.258864,"distance":4460,"time":7,"line":1,"station_id":"TB","is_transit":false,"transit":false}]]}