{"data":[[{"station_name":"Daru","transit":false,"i_long":106.491338,"is_transit":false,"distance":0,"station_id":"DAR","time":0,"i_lat":-6.338021,"line":0},{"station_name":"Cilejit","transit":false,"station_id":"CJT","i_lat":-6.354349,"is_transit":false,"time":6,"i_long":106.508482,"line":3,"distance":2675},{"is_transit":false,"i_lat":-6.3441410000000005,"station_name":"Parung Panjang","distance":7025,"time":9,"station_id":"PRP","i_long":106.568863,"transit":false,"line":6},{"station_name":"Cicayur","i_long":106.617853,"line":3,"time":8,"distance":5968,"station_id":"CC","is_transit":false,"transit":false,"i_lat":-6.329547},{"i_long":106.640411,"line":3,"distance":2519,"time":4,"is_transit":false,"station_id":"CSK","transit":false,"i_lat":-6.32484,"station_name":"Cisauk"},{"i_lat":-6.319871,"line":6,"station_name":"Serpong","i_long":106.66566,"station_id":"SRP","transit":false,"distance":1784,"time":4,"is_transit":false},{"is_transit":false,"i_long":106.675475,"time":4,"station_name":"Rawa Buntu","transit":false,"i_lat":-6.314823,"distance":2413,"line":6,"station_id":"RU"},{"is_transit":false,"line":6,"i_lat":-6.296963,"distance":4566,"i_long":106.712277,"time":6,"station_id":"SDM","station_name":"Sudimara","transit":false},{"transit":false,"line":6,"is_transit":false,"station_id":"JMU","time":4,"i_long":106.728916,"i_lat":-6.288927,"station_name":"Jurangmangu","distance":1994},{"distance":2179,"time":3,"station_name":"Pondokranji","is_transit":false,"transit":false,"line":6,"station_id":"PDJ","i_lat":-6.276362,"i_long":106.74273},{"distance":6218,"is_transit":false,"line":6,"station_name":"Kebayoran","i_long":106.780334,"time":8,"station_id":"KBY","i_lat":-6.237242,"transit":false},{"time":7,"station_name":"Palmerah","station_id":"PLM","distance":3737,"i_long":106.79689,"line":6,"transit":false,"is_transit":false,"i_lat":-6.207404},{"transit":true,"is_transit":true,"i_lat":-6.185545,"distance":3191,"station_id":"THB","station_name":"Tanah Abang","line":1,"time":6,"i_long":106.811091},{"is_transit":false,"transit":false,"line":1,"station_name":"Karet","i_lat":-6.20132,"i_long":106.816351,"time":5,"distance":2029,"station_id":"KAT"},{"station_name":"Sudirman Baru","i_long":106.819881,"station_id":"SUDB","time":1,"transit":false,"line":1,"is_transit":false,"distance":471,"i_lat":-6.201433},{"distance":280,"is_transit":false,"station_name":"Sudirman","line":1,"time":1,"transit":false,"i_long":106.822649,"i_lat":-6.202263,"station_id":"SUD"},{"line":2,"distance":3186,"i_lat":-6.209883,"is_transit":false,"station_id":"MRI","station_name":"Manggarai","time":4,"transit":false,"i_long":106.84912},{"line":1,"station_id":"MTR","i_long":106.858896,"transit":false,"is_transit":false,"distance":1275,"i_lat":-6.212485,"station_name":"Matraman","time":2},{"time":8,"station_id":"JNG","transit":false,"line":1,"i_long":106.86807400000001,"station_name":"Jatinegara","is_transit":false,"i_lat":-6.215091,"distance":1377},{"line":1,"i_long":106.899548,"station_id":"KLD","is_transit":false,"distance":3395,"time":3,"transit":false,"i_lat":-6.2135,"station_name":"Klender"},{"i_lat":-6.215568,"i_long":106.922662,"distance":3100,"time":2,"line":1,"station_id":"BUA","is_transit":false,"transit":false,"station_name":"Buaran"}],[{"distance":0,"line":0,"station_name":"Daru","is_transit":false,"i_long":106.491338,"transit":false,"station_id":"DAR","i_lat":-6.338021,"time":0},{"time":6,"station_name":"Cilejit","transit":false,"is_transit":false,"station_id":"CJT","distance":2675,"i_long":106.508482,"i_lat":-6.354349,"line":3},{"station_name":"Parung Panjang","line":6,"transit":false,"i_long":106.568863,"i_lat":-6.3441410000000005,"time":9,"distance":7025,"is_transit":false,"station_id":"PRP"},{"distance":5968,"i_lat":-6.329547,"station_id":"CC","time":8,"station_name":"Cicayur","transit":false,"i_long":106.617853,"line":3,"is_transit":false},{"distance":2519,"is_transit":false,"station_id":"CSK","i_long":106.640411,"time":4,"transit":false,"line":3,"i_lat":-6.32484,"station_name":"Cisauk"},{"station_name":"Serpong","distance":1784,"time":4,"station_id":"SRP","line":6,"is_transit":false,"transit":false,"i_long":106.66566,"i_lat":-6.319871},{"station_id":"RU","time":4,"is_transit":false,"station_name":"Rawa Buntu","i_long":106.675475,"distance":2413,"transit":false,"i_lat":-6.314823,"line":6},{"transit":false,"station_id":"SDM","station_name":"Sudimara","line":6,"i_lat":-6.296963,"i_long":106.712277,"distance":4566,"time":6,"is_transit":false},{"line":6,"transit":false,"i_long":106.728916,"distance":1994,"is_transit":false,"time":4,"station_name":"Jurangmangu","i_lat":-6.288927,"station_id":"JMU"},{"i_long":106.74273,"is_transit":false,"station_name":"Pondokranji","time":3,"i_lat":-6.276362,"line":6,"station_id":"PDJ","transit":false,"distance":2179},{"transit":false,"station_id":"KBY","is_transit":false,"station_name":"Kebayoran","i_long":106.780334,"distance":6218,"i_lat":-6.237242,"time":8,"line":6},{"time":7,"line":6,"transit":false,"i_lat":-6.207404,"distance":3737,"is_transit":false,"station_name":"Palmerah","i_long":106.79689,"station_id":"PLM"},{"time":6,"station_name":"Tanah Abang","i_lat":-6.185545,"i_long":106.811091,"is_transit":true,"station_id":"THB","transit":true,"line":1,"distance":3191},{"station_name":"Duri","i_long":106.800832,"distance":3632,"is_transit":false,"time":8,"station_id":"DU","i_lat":-6.155215,"line":1,"transit":false},{"station_name":"Angke","i_long":106.79867,"distance":1230,"line":1,"time":4,"i_lat":-6.144674,"station_id":"AK","is_transit":false,"transit":false},{"distance":4102,"line":4,"time":9,"is_transit":true,"transit":true,"station_name":"Kampung Bandan","i_lat":-6.132549,"i_long":106.826365,"station_id":"KPB"},{"is_transit":false,"station_id":"RJW","i_lat":-6.14505,"line":11,"time":3,"distance":1444,"station_name":"Rajawali","transit":false,"i_long":106.836569},{"i_long":106.839204,"station_id":"KMO","time":5,"line":11,"is_transit":false,"distance":1901,"transit":false,"i_lat":-6.161728,"station_name":"Kemayoran"},{"is_transit":false,"line":11,"station_name":"Pasar Senen","time":4,"i_long":106.84368,"i_lat":-6.174784,"distance":1436,"station_id":"PSE","transit":false},{"time":8,"station_name":"Gang Sentiong","station_id":"GST","line":11,"i_lat":-6.185975,"distance":1567,"is_transit":false,"i_long":106.850107,"transit":false},{"station_id":"KMT","i_long":106.855437,"line":11,"distance":973,"station_name":"Kramat","time":1,"is_transit":false,"i_lat":-6.193792,"transit":false},{"is_transit":false,"line":11,"station_id":"POK","station_name":"Pondok Jati","transit":false,"i_long":106.861737,"distance":1829,"time":2,"i_lat":-6.209188},{"station_id":"JNG","transit":true,"distance":1236,"station_name":"Jatinegara","i_lat":-6.215091,"time":9,"i_long":106.86807400000001,"line":1,"is_transit":true},{"transit":false,"time":3,"line":1,"i_lat":-6.2135,"i_long":106.899548,"is_transit":false,"station_id":"KLD","distance":3395,"station_name":"Klender"},{"station_id":"BUA","i_lat":-6.215568,"distance":3100,"i_long":106.922662,"time":2,"station_name":"Buaran","is_transit":false,"line":1,"transit":false}],[{"transit":false,"station_name":"Daru","i_long":106.491338,"line":0,"station_id":"DAR","i_lat":-6.338021,"time":0,"distance":0,"is_transit":false},{"station_name":"Cilejit","station_id":"CJT","transit":false,"time":6,"is_transit":false,"i_lat":-6.354349,"distance":2675,"line":3,"i_long":106.508482},{"is_transit":false,"station_id":"PRP","station_name":"Parung Panjang","transit":false,"i_long":106.568863,"distance":7025,"time":9,"line":6,"i_lat":-6.3441410000000005},{"transit":false,"station_id":"CC","i_lat":-6.329547,"i_long":106.617853,"is_transit":false,"time":8,"distance":5968,"station_name":"Cicayur","line":3},{"station_id":"CSK","time":4,"transit":false,"line":3,"i_long":106.640411,"distance":2519,"i_lat":-6.32484,"is_transit":false,"station_name":"Cisauk"},{"line":6,"time":4,"is_transit":false,"station_name":"Serpong","i_lat":-6.319871,"station_id":"SRP","i_long":106.66566,"distance":1784,"transit":false},{"station_id":"RU","station_name":"Rawa Buntu","distance":2413,"i_long":106.675475,"transit":false,"is_transit":false,"i_lat":-6.314823,"line":6,"time":4},{"station_id":"SDM","time":6,"station_name":"Sudimara","i_lat":-6.296963,"transit":false,"distance":4566,"is_transit":false,"i_long":106.712277,"line":6},{"transit":false,"is_transit":false,"i_long":106.728916,"distance":1994,"station_id":"JMU","time":4,"station_name":"Jurangmangu","i_lat":-6.288927,"line":6},{"time":3,"transit":false,"is_transit":false,"i_lat":-6.276362,"line":6,"i_long":106.74273,"station_name":"Pondokranji","distance":2179,"station_id":"PDJ"},{"distance":6218,"station_id":"KBY","transit":false,"station_name":"Kebayoran","i_long":106.780334,"line":6,"is_transit":false,"i_lat":-6.237242,"time":8},{"station_id":"PLM","time":7,"i_long":106.79689,"i_lat":-6.207404,"line":6,"transit":false,"is_transit":false,"station_name":"Palmerah","distance":3737},{"station_name":"Tanah Abang","line":1,"i_lat":-6.185545,"i_long":106.811091,"is_transit":true,"station_id":"THB","distance":3191,"transit":true,"time":6},{"i_long":106.800832,"line":1,"station_name":"Duri","distance":3632,"is_transit":false,"station_id":"DU","transit":false,"time":8,"i_lat":-6.155215},{"transit":false,"distance":1230,"i_lat":-6.144674,"time":4,"line":1,"i_long":106.79867,"is_transit":false,"station_id":"AK","station_name":"Angke"},{"i_long":106.826365,"is_transit":true,"transit":true,"station_id":"KPB","time":9,"distance":4102,"station_name":"Kampung Bandan","line":4,"i_lat":-6.132549},{"is_transit":true,"station_name":"Jakarta Kota","transit":true,"time":3,"i_lat":-6.137569,"line":2,"distance":1364,"i_long":106.812439,"station_id":"JAKK"},{"i_long":106.820901,"time":4,"is_transit":false,"i_lat":-6.141205,"transit":false,"station_id":"JAY","station_name":"Jayakarta","line":2,"distance":1264},{"time":2,"distance":1080,"is_transit":false,"station_name":"Manggabesar","line":2,"transit":false,"i_lat":-6.149769,"i_long":106.82482,"station_id":"MGB"},{"distance":906,"transit":false,"i_lat":-6.160725,"station_id":"SW","line":2,"station_name":"Sawah Besar","time":2,"is_transit":false,"i_long":106.827103},{"i_lat":-6.166716,"station_name":"Juanda","i_long":106.828284,"station_id":"JUA","distance":1149,"transit":false,"time":2,"is_transit":false,"line":2},{"line":2,"is_transit":false,"time":4,"i_long":106.832183,"station_id":"GDD","i_lat":-6.186295,"transit":false,"distance":2015,"station_name":"Gondangdia"},{"time":3,"distance":1750,"station_name":"Cikini","i_long":106.840169,"station_id":"CKI","is_transit":false,"transit":false,"line":2,"i_lat":-6.198556},{"line":2,"distance":1590,"i_long":106.84912,"transit":true,"station_name":"Manggarai","is_transit":true,"station_id":"MRI","i_lat":-6.209883,"time":4},{"i_long":106.858896,"station_id":"MTR","line":1,"distance":1275,"time":2,"transit":false,"is_transit":false,"i_lat":-6.212485,"station_name":"Matraman"},{"station_name":"Jatinegara","station_id":"JNG","distance":1377,"line":1,"transit":false,"i_lat":-6.215091,"time":8,"i_long":106.86807400000001,"is_transit":false},{"time":3,"distance":3395,"i_lat":-6.2135,"station_name":"Klender","is_transit":false,"station_id":"KLD","transit":false,"line":1,"i_long":106.899548},{"distance":3100,"line":1,"station_name":"Buaran","i_lat":-6.215568,"is_transit":false,"station_id":"BUA","transit":false,"i_long":106.922662,"time":2}],[{"is_transit":false,"time":0,"station_id":"DAR","transit":false,"station_name":"Daru","i_lat":-6.338021,"i_long":106.491338,"distance":0,"line":0},{"i_lat":-6.354349,"time":6,"transit":false,"distance":2675,"station_name":"Cilejit","line":3,"i_long":106.508482,"is_transit":false,"station_id":"CJT"},{"is_transit":false,"station_name":"Parung Panjang","line":6,"station_id":"PRP","time":9,"distance":7025,"i_long":106.568863,"i_lat":-6.3441410000000005,"transit":false},{"line":3,"i_long":106.617853,"distance":5968,"i_lat":-6.329547,"station_name":"Cicayur","time":8,"is_transit":false,"station_id":"CC","transit":false},{"i_long":106.640411,"i_lat":-6.32484,"time":4,"distance":2519,"station_id":"CSK","transit":false,"is_transit":false,"station_name":"Cisauk","line":3},{"i_lat":-6.319871,"line":6,"is_transit":false,"i_long":106.66566,"transit":false,"station_name":"Serpong","time":4,"station_id":"SRP","distance":1784},{"time":4,"i_long":106.675475,"is_transit":false,"station_name":"Rawa Buntu","station_id":"RU","distance":2413,"transit":false,"line":6,"i_lat":-6.314823},{"station_id":"SDM","is_transit":false,"time":6,"station_name":"Sudimara","transit":false,"line":6,"i_long":106.712277,"distance":4566,"i_lat":-6.296963},{"distance":1994,"is_transit":false,"station_id":"JMU","time":4,"transit":false,"i_lat":-6.288927,"i_long":106.728916,"line":6,"station_name":"Jurangmangu"},{"transit":false,"time":3,"i_lat":-6.276362,"i_long":106.74273,"station_name":"Pondokranji","station_id":"PDJ","line":6,"distance":2179,"is_transit":false},{"station_name":"Kebayoran","time":8,"line":6,"i_long":106.780334,"distance":6218,"is_transit":false,"station_id":"KBY","transit":false,"i_lat":-6.237242},{"station_name":"Palmerah","transit":false,"line":6,"is_transit":false,"i_lat":-6.207404,"i_long":106.79689,"time":7,"station_id":"PLM","distance":3737},{"distance":3191,"i_lat":-6.185545,"line":1,"is_transit":true,"i_long":106.811091,"station_id":"THB","station_name":"Tanah Abang","transit":true,"time":6},{"i_lat":-6.20132,"time":5,"station_id":"KAT","i_long":106.816351,"line":1,"station_name":"Karet","distance":2029,"transit":false,"is_transit":false},{"time":1,"i_lat":-6.201433,"station_name":"Sudirman Baru","line":1,"i_long":106.819881,"distance":471,"transit":false,"is_transit":false,"station_id":"SUDB"},{"is_transit":false,"i_lat":-6.202263,"i_long":106.822649,"distance":280,"station_id":"SUD","station_name":"Sudirman","line":1,"transit":false,"time":1},{"i_long":106.84912,"station_id":"MRI","transit":true,"is_transit":true,"station_name":"Manggarai","i_lat":-6.209883,"line":2,"time":4,"distance":3186},{"station_id":"CKI","line":2,"time":4,"i_lat":-6.198556,"distance":1590,"station_name":"Cikini","is_transit":false,"i_long":106.840169,"transit":false},{"transit":false,"i_lat":-6.186295,"is_transit":false,"time":3,"line":2,"distance":1750,"station_name":"Gondangdia","i_long":106.832183,"station_id":"GDD"},{"is_transit":false,"transit":false,"time":4,"distance":2015,"i_lat":-6.166716,"station_id":"JUA","station_name":"Juanda","i_long":106.828284,"line":2},{"time":2,"station_id":"SW","i_long":106.827103,"line":2,"i_lat":-6.160725,"is_transit":false,"distance":1149,"transit":false,"station_name":"Sawah Besar"},{"time":2,"distance":906,"transit":false,"i_lat":-6.149769,"i_long":106.82482,"is_transit":false,"station_name":"Manggabesar","station_id":"MGB","line":2},{"i_lat":-6.141205,"station_id":"JAY","is_transit":false,"time":2,"distance":1080,"station_name":"Jayakarta","i_long":106.820901,"transit":false,"line":2},{"line":2,"time":4,"transit":true,"station_id":"JAKK","distance":1264,"i_lat":-6.137569,"is_transit":true,"i_long":106.812439,"station_name":"Jakarta Kota"},{"line":4,"transit":true,"is_transit":true,"time":3,"station_name":"Kampung Bandan","station_id":"KPB","i_lat":-6.132549,"i_long":106.826365,"distance":1364},{"distance":1444,"time":3,"i_lat":-6.14505,"i_long":106.836569,"line":11,"station_id":"RJW","is_transit":false,"transit":false,"station_name":"Rajawali"},{"station_id":"KMO","is_transit":false,"transit":false,"i_lat":-6.161728,"distance":1901,"time":5,"station_name":"Kemayoran","i_long":106.839204,"line":11},{"i_lat":-6.174784,"i_long":106.84368,"line":11,"station_id":"PSE","station_name":"Pasar Senen","time":4,"distance":1436,"is_transit":false,"transit":false},{"is_transit":false,"station_name":"Gang Sentiong","time":8,"transit":false,"station_id":"GST","i_long":106.850107,"distance":1567,"i_lat":-6.185975,"line":11},{"is_transit":false,"station_id":"KMT","i_long":106.855437,"distance":973,"line":11,"time":1,"transit":false,"i_lat":-6.193792,"station_name":"Kramat"},{"time":2,"station_id":"POK","i_long":106.861737,"station_name":"Pondok Jati","i_lat":-6.209188,"distance":1829,"line":11,"transit":false,"is_transit":false},{"time":9,"station_id":"JNG","distance":1236,"transit":true,"station_name":"Jatinegara","i_lat":-6.215091,"line":1,"is_transit":true,"i_long":106.86807400000001},{"time":3,"station_id":"KLD","station_name":"Klender","i_long":106.899548,"distance":3395,"i_lat":-6.2135,"transit":false,"is_transit":false,"line":1},{"station_id":"BUA","station_name":"Buaran","i_long":106.922662,"line":1,"time":2,"distance":3100,"transit":false,"i_lat":-6.215568,"is_transit":false}]]}