{"data":[[{"station_name":"Daru","transit":false,"station_id":"DAR","is_transit":false,"time":0,"i_long":106.491338,"distance":0,"i_lat":-6.338021,"line":0},{"i_long":106.508482,"line":0,"station_id":"CJT","is_transit":false,"time":6,"distance":2675,"i_lat":-6.354349,"station_name":"Cilejit","transit":false},{"is_transit":false,"time":9,"i_long":106.568863,"station_name":"Parung Panjang","transit":false,"station_id":"PRP","distance":7025,"line":6,"i_lat":-6.3441410000000005},{"transit":false,"station_id":"CC","i_lat":-6.329547,"line":0,"distance":5968,"time":8,"station_name":"Cicayur","is_transit":false,"i_long":106.617853},{"station_name":"Cisauk","distance":2519,"time":4,"i_lat":-6.32484,"station_id":"CSK","is_transit":false,"i_long":106.640411,"line":0,"transit":false},{"transit":false,"station_name":"Serpong","station_id":"SRP","i_long":106.66566,"i_lat":-6.319871,"is_transit":false,"time":4,"distance":1784,"line":6},{"station_id":"RU","transit":false,"distance":2413,"line":6,"i_long":106.675475,"is_transit":false,"i_lat":-6.314823,"station_name":"Rawa Buntu","time":4},{"i_lat":-6.296963,"station_name":"Sudimara","line":6,"transit":false,"time":6,"i_long":106.712277,"is_transit":false,"distance":4566,"station_id":"SDM"},{"station_name":"Jurangmangu","i_long":106.728916,"line":6,"distance":1994,"i_lat":-6.288927,"time":4,"is_transit":false,"station_id":"JMU","transit":false},{"i_lat":-6.276362,"distance":2179,"station_id":"PDJ","time":3,"is_transit":false,"i_long":106.74273,"line":6,"station_name":"Pondokranji","transit":false},{"station_id":"KBY","time":8,"station_name":"Kebayoran","is_transit":false,"transit":false,"i_long":106.780334,"line":6,"i_lat":-6.237242,"distance":6218},{"station_name":"Palmerah","i_long":106.79689,"station_id":"PLM","is_transit":false,"time":7,"distance":3737,"i_lat":-6.207404,"line":6,"transit":false},{"station_id":"THB","transit":true,"i_long":106.811091,"line":1,"is_transit":true,"i_lat":-6.185545,"distance":3191,"time":6,"station_name":"Tanah Abang"},{"transit":true,"is_transit":true,"i_lat":-6.155215,"line":1,"time":8,"distance":3632,"station_id":"DU","station_name":"Duri","i_long":106.800832},{"line":5,"i_lat":-6.162021,"is_transit":false,"station_id":"GGL","transit":false,"time":3,"i_long":106.788277,"distance":1700,"station_name":"Grogol"},{"transit":false,"i_lat":-6.161433,"distance":2036,"time":2,"i_long":106.771379,"station_id":"PSG","line":5,"is_transit":false,"station_name":"Pesing"},{"time":2,"transit":false,"is_transit":false,"i_lat":-6.1587309999999995,"line":5,"i_long":106.756522,"distance":1614,"station_id":"TKO","station_name":"Taman Kota"},{"i_lat":-6.159876,"line":0,"transit":false,"station_id":"BOI","station_name":"Bojongindah","time":2,"i_long":106.737035,"distance":2334,"is_transit":false},{"i_lat":-6.162758,"i_long":106.723064,"station_name":"Rawa Buaya","distance":1152,"station_id":"RW","transit":false,"time":4,"is_transit":false,"line":5},{"i_long":106.701612,"i_lat":-6.166068,"time":3,"distance":2504,"transit":false,"is_transit":false,"line":5,"station_id":"KDS","station_name":"Kalideres"},{"distance":2548,"station_name":"Poris","transit":false,"time":3,"line":5,"station_id":"PI","i_long":106.679458,"is_transit":false,"i_lat":-6.169933},{"distance":1834,"transit":false,"i_lat":-6.171811,"station_id":"BPR","line":0,"station_name":"Batuceper","is_transit":false,"time":3,"i_long":106.665036},{"time":3,"station_name":"Tanah Tinggi","station_id":"TTI","distance":2028,"i_long":106.64657,"line":5,"transit":false,"i_lat":-6.17331,"is_transit":false},{"i_lat":-6.176583,"distance":1547,"station_id":"TNG","is_transit":false,"station_name":"Tangerang","time":3,"transit":false,"i_long":106.632761,"line":5}],[{"i_long":106.491338,"station_id":"DAR","is_transit":false,"i_lat":-6.338021,"transit":false,"time":0,"distance":0,"station_name":"Daru","line":0},{"i_lat":-6.354349,"line":0,"station_name":"Cilejit","i_long":106.508482,"distance":2675,"is_transit":false,"time":6,"station_id":"CJT","transit":false},{"is_transit":false,"i_lat":-6.3441410000000005,"distance":7025,"transit":false,"station_id":"PRP","time":9,"line":6,"station_name":"Parung Panjang","i_long":106.568863},{"transit":false,"is_transit":false,"station_id":"CC","i_long":106.617853,"station_name":"Cicayur","line":0,"time":8,"i_lat":-6.329547,"distance":5968},{"station_name":"Cisauk","line":0,"is_transit":false,"i_long":106.640411,"distance":2519,"station_id":"CSK","transit":false,"time":4,"i_lat":-6.32484},{"distance":1784,"i_lat":-6.319871,"i_long":106.66566,"station_name":"Serpong","line":6,"transit":false,"is_transit":false,"time":4,"station_id":"SRP"},{"station_id":"RU","time":4,"i_long":106.675475,"is_transit":false,"distance":2413,"transit":false,"station_name":"Rawa Buntu","i_lat":-6.314823,"line":6},{"time":6,"line":6,"i_lat":-6.296963,"distance":4566,"transit":false,"station_name":"Sudimara","is_transit":false,"i_long":106.712277,"station_id":"SDM"},{"is_transit":false,"transit":false,"station_name":"Jurangmangu","i_lat":-6.288927,"station_id":"JMU","i_long":106.728916,"time":4,"line":6,"distance":1994},{"station_id":"PDJ","station_name":"Pondokranji","is_transit":false,"time":3,"line":6,"transit":false,"distance":2179,"i_long":106.74273,"i_lat":-6.276362},{"transit":false,"station_name":"Kebayoran","time":8,"distance":6218,"i_lat":-6.237242,"i_long":106.780334,"station_id":"KBY","line":6,"is_transit":false},{"is_transit":false,"line":6,"distance":3737,"i_long":106.79689,"transit":false,"time":7,"station_name":"Palmerah","station_id":"PLM","i_lat":-6.207404},{"is_transit":true,"distance":3191,"i_long":106.811091,"line":1,"time":6,"station_name":"Tanah Abang","transit":true,"i_lat":-6.185545,"station_id":"THB"},{"i_lat":-6.20132,"station_id":"KAT","is_transit":false,"i_long":106.816351,"line":1,"station_name":"Karet","time":5,"distance":2029,"transit":false},{"station_name":"Sudirman Baru","i_long":106.819881,"time":1,"station_id":"SUDB","distance":471,"line":1,"i_lat":-6.201433,"is_transit":false,"transit":false},{"i_lat":-6.202263,"transit":false,"station_name":"Sudirman","is_transit":false,"time":1,"distance":280,"i_long":106.822649,"station_id":"SUD","line":1},{"station_name":"Manggarai","station_id":"MRI","is_transit":true,"distance":3186,"time":4,"i_lat":-6.209883,"line":0,"transit":true,"i_long":106.84912},{"station_name":"Cikini","time":4,"transit":false,"is_transit":false,"station_id":"CKI","i_lat":-6.198556,"line":0,"distance":1590,"i_long":106.840169},{"i_long":106.832183,"is_transit":false,"time":3,"i_lat":-6.186295,"distance":1750,"station_name":"Gondangdia","transit":false,"line":2,"station_id":"GDD"},{"station_name":"Juanda","transit":false,"i_long":106.828284,"distance":2015,"i_lat":-6.166716,"station_id":"JUA","time":4,"line":2,"is_transit":false},{"line":2,"station_name":"Sawah Besar","is_transit":false,"station_id":"SW","transit":false,"i_lat":-6.160725,"i_long":106.827103,"distance":1149,"time":2},{"line":2,"station_name":"Manggabesar","is_transit":false,"station_id":"MGB","i_long":106.82482,"time":2,"distance":906,"i_lat":-6.149769,"transit":false},{"station_id":"JAY","transit":false,"line":7,"station_name":"Jayakarta","i_lat":-6.141205,"time":2,"distance":1080,"is_transit":false,"i_long":106.820901},{"line":0,"i_long":106.812439,"time":4,"distance":1264,"transit":true,"station_id":"JAKK","station_name":"Jakarta Kota","is_transit":true,"i_lat":-6.137569},{"is_transit":true,"transit":false,"station_name":"Kampung Bandan","distance":1364,"i_lat":-6.132549,"i_long":106.826365,"time":3,"station_id":"KPB","line":0},{"transit":false,"i_long":106.79867,"distance":4102,"line":0,"station_name":"Angke","i_lat":-6.144674,"is_transit":false,"time":9,"station_id":"AK"},{"transit":true,"distance":1230,"station_name":"Duri","i_long":106.800832,"station_id":"DU","line":1,"time":4,"i_lat":-6.155215,"is_transit":true},{"line":5,"station_name":"Grogol","time":3,"station_id":"GGL","transit":false,"is_transit":false,"distance":1700,"i_lat":-6.162021,"i_long":106.788277},{"station_id":"PSG","distance":2036,"station_name":"Pesing","is_transit":false,"time":2,"transit":false,"i_lat":-6.161433,"i_long":106.771379,"line":5},{"time":2,"i_lat":-6.1587309999999995,"distance":1614,"line":5,"transit":false,"station_name":"Taman Kota","is_transit":false,"i_long":106.756522,"station_id":"TKO"},{"transit":false,"line":0,"is_transit":false,"station_id":"BOI","station_name":"Bojongindah","time":2,"distance":2334,"i_lat":-6.159876,"i_long":106.737035},{"station_id":"RW","i_lat":-6.162758,"time":4,"transit":false,"station_name":"Rawa Buaya","line":5,"is_transit":false,"distance":1152,"i_long":106.723064},{"line":5,"station_name":"Kalideres","time":3,"distance":2504,"is_transit":false,"i_lat":-6.166068,"i_long":106.701612,"station_id":"KDS","transit":false},{"station_name":"Poris","line":5,"distance":2548,"transit":false,"time":3,"station_id":"PI","is_transit":false,"i_lat":-6.169933,"i_long":106.679458},{"station_name":"Batuceper","transit":false,"i_lat":-6.171811,"time":3,"i_long":106.665036,"station_id":"BPR","is_transit":false,"line":0,"distance":1834},{"station_name":"Tanah Tinggi","transit":false,"station_id":"TTI","time":3,"line":5,"is_transit":false,"distance":2028,"i_long":106.64657,"i_lat":-6.17331},{"line":5,"time":3,"distance":1547,"transit":false,"i_lat":-6.176583,"i_long":106.632761,"is_transit":false,"station_id":"TNG","station_name":"Tangerang"}],[{"line":0,"i_long":106.491338,"is_transit":false,"distance":0,"station_name":"Daru","i_lat":-6.338021,"station_id":"DAR","time":0,"transit":false},{"transit":false,"i_long":106.508482,"station_name":"Cilejit","line":0,"i_lat":-6.354349,"time":6,"is_transit":false,"station_id":"CJT","distance":2675},{"station_id":"PRP","i_long":106.568863,"transit":false,"time":9,"i_lat":-6.3441410000000005,"station_name":"Parung Panjang","is_transit":false,"distance":7025,"line":6},{"i_long":106.617853,"distance":5968,"transit":false,"is_transit":false,"station_name":"Cicayur","time":8,"station_id":"CC","i_lat":-6.329547,"line":0},{"i_lat":-6.32484,"i_long":106.640411,"line":0,"is_transit":false,"transit":false,"time":4,"distance":2519,"station_id":"CSK","station_name":"Cisauk"},{"is_transit":false,"line":6,"station_id":"SRP","i_lat":-6.319871,"transit":false,"distance":1784,"i_long":106.66566,"time":4,"station_name":"Serpong"},{"station_name":"Rawa Buntu","i_long":106.675475,"transit":false,"i_lat":-6.314823,"distance":2413,"time":4,"line":6,"is_transit":false,"station_id":"RU"},{"station_id":"SDM","station_name":"Sudimara","is_transit":false,"time":6,"i_long":106.712277,"transit":false,"distance":4566,"line":6,"i_lat":-6.296963},{"station_id":"JMU","is_transit":false,"i_long":106.728916,"distance":1994,"transit":false,"i_lat":-6.288927,"station_name":"Jurangmangu","line":6,"time":4},{"time":3,"i_lat":-6.276362,"station_name":"Pondokranji","is_transit":false,"transit":false,"i_long":106.74273,"station_id":"PDJ","distance":2179,"line":6},{"station_name":"Kebayoran","is_transit":false,"time":8,"line":6,"station_id":"KBY","i_lat":-6.237242,"transit":false,"distance":6218,"i_long":106.780334},{"station_id":"PLM","station_name":"Palmerah","transit":false,"distance":3737,"i_lat":-6.207404,"time":7,"is_transit":false,"i_long":106.79689,"line":6},{"i_lat":-6.185545,"is_transit":true,"line":1,"transit":true,"station_id":"THB","distance":3191,"station_name":"Tanah Abang","time":6,"i_long":106.811091},{"line":1,"i_lat":-6.20132,"is_transit":false,"time":5,"distance":2029,"station_id":"KAT","i_long":106.816351,"station_name":"Karet","transit":false},{"station_id":"SUDB","is_transit":false,"time":1,"transit":false,"distance":471,"i_lat":-6.201433,"station_name":"Sudirman Baru","i_long":106.819881,"line":1},{"is_transit":false,"time":1,"distance":280,"transit":false,"i_lat":-6.202263,"line":1,"station_name":"Sudirman","i_long":106.822649,"station_id":"SUD"},{"i_long":106.84912,"station_name":"Manggarai","distance":3186,"station_id":"MRI","i_lat":-6.209883,"line":0,"is_transit":true,"transit":false,"time":4},{"station_id":"MTR","is_transit":false,"station_name":"Matraman","distance":1275,"i_lat":-6.212485,"time":2,"line":1,"transit":false,"i_long":106.858896},{"is_transit":true,"transit":true,"i_lat":-6.215091,"distance":1377,"station_id":"JNG","station_name":"Jatinegara","line":0,"time":8,"i_long":106.86807400000001},{"distance":1236,"is_transit":false,"transit":false,"i_lat":-6.209188,"station_id":"POK","station_name":"Pondok Jati","line":11,"time":2,"i_long":106.861737},{"is_transit":false,"line":11,"station_id":"KMT","time":2,"transit":false,"distance":1829,"station_name":"Kramat","i_long":106.855437,"i_lat":-6.193792},{"station_name":"Gang Sentiong","time":1,"distance":973,"i_long":106.850107,"i_lat":-6.185975,"station_id":"GST","is_transit":false,"line":11,"transit":false},{"transit":false,"station_id":"PSE","i_long":106.84368,"line":11,"station_name":"Pasar Senen","is_transit":false,"i_lat":-6.174784,"time":8,"distance":1567},{"is_transit":false,"i_lat":-6.161728,"transit":false,"station_id":"KMO","distance":1436,"time":4,"station_name":"Kemayoran","line":11,"i_long":106.839204},{"time":5,"station_id":"RJW","station_name":"Rajawali","distance":1901,"is_transit":false,"i_long":106.836569,"transit":false,"i_lat":-6.14505,"line":11},{"distance":1444,"i_long":106.826365,"transit":true,"line":0,"i_lat":-6.132549,"station_name":"Kampung Bandan","time":3,"station_id":"KPB","is_transit":true},{"station_id":"AK","time":9,"distance":4102,"i_long":106.79867,"transit":false,"i_lat":-6.144674,"is_transit":false,"line":0,"station_name":"Angke"},{"time":4,"is_transit":true,"station_name":"Duri","transit":true,"line":1,"station_id":"DU","distance":1230,"i_lat":-6.155215,"i_long":106.800832},{"station_id":"GGL","transit":false,"station_name":"Grogol","i_lat":-6.162021,"is_transit":false,"time":3,"i_long":106.788277,"distance":1700,"line":5},{"time":2,"i_lat":-6.161433,"distance":2036,"station_name":"Pesing","line":5,"transit":false,"station_id":"PSG","is_transit":false,"i_long":106.771379},{"station_id":"TKO","i_lat":-6.1587309999999995,"is_transit":false,"distance":1614,"time":2,"line":5,"i_long":106.756522,"station_name":"Taman Kota","transit":false},{"distance":2334,"station_name":"Bojongindah","i_lat":-6.159876,"is_transit":false,"time":2,"transit":false,"i_long":106.737035,"line":0,"station_id":"BOI"},{"is_transit":false,"transit":false,"station_id":"RW","distance":1152,"time":4,"i_lat":-6.162758,"i_long":106.723064,"line":5,"station_name":"Rawa Buaya"},{"distance":2504,"i_lat":-6.166068,"station_name":"Kalideres","line":5,"station_id":"KDS","is_transit":false,"transit":false,"i_long":106.701612,"time":3},{"station_name":"Poris","time":3,"transit":false,"i_long":106.679458,"distance":2548,"i_lat":-6.169933,"station_id":"PI","is_transit":false,"line":5},{"i_lat":-6.171811,"i_long":106.665036,"is_transit":false,"time":3,"transit":false,"distance":1834,"station_id":"BPR","station_name":"Batuceper","line":0},{"station_id":"TTI","distance":2028,"i_lat":-6.17331,"i_long":106.64657,"transit":false,"line":5,"time":3,"station_name":"Tanah Tinggi","is_transit":false},{"station_name":"Tangerang","time":3,"distance":1547,"i_long":106.632761,"i_lat":-6.176583,"is_transit":false,"transit":false,"station_id":"TNG","line":5}]]}