{"data":[[{"i_long":106.491338,"transit":false,"i_lat":-6.338021,"line":0,"distance":0,"is_transit":false,"time":0,"station_id":"DAR","station_name":"Daru"},{"distance":2675,"time":6,"line":3,"station_id":"CJT","transit":false,"is_transit":false,"station_name":"Cilejit","i_long":106.508482,"i_lat":-6.354349},{"time":9,"is_transit":false,"i_long":106.568863,"distance":7025,"station_name":"Parung Panjang","line":6,"i_lat":-6.3441410000000005,"station_id":"PRP","transit":false},{"i_lat":-6.329547,"is_transit":false,"station_name":"Cicayur","transit":false,"distance":5968,"line":3,"i_long":106.617853,"time":8,"station_id":"CC"},{"transit":false,"i_long":106.640411,"distance":2519,"time":4,"i_lat":-6.32484,"is_transit":false,"station_id":"CSK","station_name":"Cisauk","line":3},{"station_name":"Serpong","transit":false,"i_long":106.66566,"distance":1784,"line":6,"is_transit":false,"station_id":"SRP","time":4,"i_lat":-6.319871},{"time":4,"is_transit":false,"station_name":"Rawa Buntu","transit":false,"i_long":106.675475,"station_id":"RU","distance":2413,"i_lat":-6.314823,"line":6},{"transit":false,"is_transit":false,"i_long":106.712277,"station_name":"Sudimara","station_id":"SDM","distance":4566,"time":6,"line":6,"i_lat":-6.296963},{"transit":false,"time":4,"distance":1994,"station_name":"Jurangmangu","is_transit":false,"station_id":"JMU","i_long":106.728916,"line":6,"i_lat":-6.288927},{"i_long":106.74273,"transit":false,"distance":2179,"station_id":"PDJ","time":3,"station_name":"Pondokranji","is_transit":false,"i_lat":-6.276362,"line":6},{"station_id":"KBY","distance":6218,"time":8,"station_name":"Kebayoran","transit":false,"i_lat":-6.237242,"is_transit":false,"i_long":106.780334,"line":6},{"i_lat":-6.207404,"i_long":106.79689,"distance":3737,"line":6,"station_id":"PLM","station_name":"Palmerah","is_transit":false,"transit":false,"time":7},{"station_id":"THB","is_transit":true,"station_name":"Tanah Abang","time":6,"i_lat":-6.185545,"line":1,"distance":3191,"i_long":106.811091,"transit":true},{"i_long":106.800832,"line":1,"i_lat":-6.155215,"is_transit":false,"time":8,"station_name":"Duri","distance":3632,"station_id":"DU","transit":false},{"station_id":"AK","transit":false,"station_name":"Angke","i_long":106.79867,"distance":1230,"i_lat":-6.144674,"is_transit":false,"time":4,"line":1},{"station_name":"Kampung Bandan","i_lat":-6.132549,"line":4,"distance":4102,"station_id":"KPB","time":9,"i_long":106.826365,"is_transit":true,"transit":true},{"line":11,"station_name":"Rajawali","transit":false,"time":3,"i_long":106.836569,"station_id":"RJW","is_transit":false,"distance":1444,"i_lat":-6.14505},{"i_long":106.839204,"line":11,"time":5,"transit":false,"i_lat":-6.161728,"station_name":"Kemayoran","distance":1901,"station_id":"KMO","is_transit":false},{"time":4,"is_transit":false,"i_long":106.84368,"transit":false,"station_id":"PSE","i_lat":-6.174784,"station_name":"Pasar Senen","distance":1436,"line":11},{"line":11,"station_id":"GST","i_lat":-6.185975,"distance":1567,"time":8,"transit":false,"is_transit":false,"station_name":"Gang Sentiong","i_long":106.850107},{"is_transit":false,"time":1,"i_lat":-6.193792,"station_name":"Kramat","distance":973,"line":11,"i_long":106.855437,"transit":false,"station_id":"KMT"}],[{"distance":0,"time":0,"station_name":"Daru","station_id":"DAR","i_lat":-6.338021,"transit":false,"is_transit":false,"i_long":106.491338,"line":0},{"line":3,"station_name":"Cilejit","i_lat":-6.354349,"is_transit":false,"i_long":106.508482,"distance":2675,"station_id":"CJT","time":6,"transit":false},{"station_id":"PRP","station_name":"Parung Panjang","i_long":106.568863,"i_lat":-6.3441410000000005,"is_transit":false,"transit":false,"time":9,"line":6,"distance":7025},{"line":3,"station_name":"Cicayur","station_id":"CC","time":8,"is_transit":false,"transit":false,"i_lat":-6.329547,"i_long":106.617853,"distance":5968},{"i_lat":-6.32484,"distance":2519,"line":3,"station_name":"Cisauk","station_id":"CSK","is_transit":false,"i_long":106.640411,"transit":false,"time":4},{"line":6,"station_name":"Serpong","is_transit":false,"i_long":106.66566,"transit":false,"station_id":"SRP","time":4,"distance":1784,"i_lat":-6.319871},{"line":6,"is_transit":false,"station_name":"Rawa Buntu","i_long":106.675475,"station_id":"RU","distance":2413,"transit":false,"i_lat":-6.314823,"time":4},{"station_id":"SDM","is_transit":false,"transit":false,"station_name":"Sudimara","time":6,"distance":4566,"i_long":106.712277,"i_lat":-6.296963,"line":6},{"i_lat":-6.288927,"station_name":"Jurangmangu","transit":false,"line":6,"station_id":"JMU","i_long":106.728916,"distance":1994,"time":4,"is_transit":false},{"distance":2179,"i_long":106.74273,"i_lat":-6.276362,"station_id":"PDJ","station_name":"Pondokranji","is_transit":false,"transit":false,"line":6,"time":3},{"i_long":106.780334,"line":6,"time":8,"distance":6218,"i_lat":-6.237242,"transit":false,"station_name":"Kebayoran","station_id":"KBY","is_transit":false},{"i_long":106.79689,"transit":false,"station_name":"Palmerah","distance":3737,"time":7,"line":6,"station_id":"PLM","is_transit":false,"i_lat":-6.207404},{"i_lat":-6.185545,"time":6,"is_transit":true,"i_long":106.811091,"line":1,"station_id":"THB","distance":3191,"station_name":"Tanah Abang","transit":true},{"time":5,"line":1,"station_name":"Karet","is_transit":false,"i_long":106.816351,"distance":2029,"transit":false,"station_id":"KAT","i_lat":-6.20132},{"time":1,"i_lat":-6.201433,"station_id":"SUDB","line":1,"transit":false,"distance":471,"station_name":"Sudirman Baru","i_long":106.819881,"is_transit":false},{"is_transit":false,"station_name":"Sudirman","transit":false,"i_long":106.822649,"time":1,"i_lat":-6.202263,"distance":280,"line":1,"station_id":"SUD"},{"station_id":"MRI","line":2,"distance":3186,"station_name":"Manggarai","time":4,"i_long":106.84912,"i_lat":-6.209883,"transit":false,"is_transit":false},{"transit":false,"time":2,"station_name":"Matraman","distance":1275,"line":1,"station_id":"MTR","i_lat":-6.212485,"i_long":106.858896,"is_transit":false},{"time":8,"i_lat":-6.215091,"line":1,"distance":1377,"transit":true,"station_name":"Jatinegara","station_id":"JNG","is_transit":true,"i_long":106.86807400000001},{"i_long":106.861737,"line":11,"distance":1236,"station_name":"Pondok Jati","station_id":"POK","time":2,"i_lat":-6.209188,"transit":false,"is_transit":false},{"i_lat":-6.193792,"transit":false,"is_transit":false,"station_id":"KMT","i_long":106.855437,"time":2,"distance":1829,"line":11,"station_name":"Kramat"}],[{"line":0,"station_id":"DAR","distance":0,"is_transit":false,"time":0,"i_lat":-6.338021,"station_name":"Daru","transit":false,"i_long":106.491338},{"line":3,"station_id":"CJT","time":6,"is_transit":false,"transit":false,"station_name":"Cilejit","i_lat":-6.354349,"distance":2675,"i_long":106.508482},{"station_id":"PRP","i_lat":-6.3441410000000005,"station_name":"Parung Panjang","line":6,"distance":7025,"i_long":106.568863,"transit":false,"is_transit":false,"time":9},{"distance":5968,"time":8,"transit":false,"is_transit":false,"station_id":"CC","i_long":106.617853,"station_name":"Cicayur","line":3,"i_lat":-6.329547},{"transit":false,"is_transit":false,"line":3,"distance":2519,"station_name":"Cisauk","station_id":"CSK","i_lat":-6.32484,"i_long":106.640411,"time":4},{"i_long":106.66566,"line":6,"distance":1784,"i_lat":-6.319871,"transit":false,"station_name":"Serpong","is_transit":false,"time":4,"station_id":"SRP"},{"station_name":"Rawa Buntu","time":4,"distance":2413,"is_transit":false,"transit":false,"i_long":106.675475,"station_id":"RU","i_lat":-6.314823,"line":6},{"transit":false,"time":6,"i_long":106.712277,"station_name":"Sudimara","station_id":"SDM","distance":4566,"is_transit":false,"i_lat":-6.296963,"line":6},{"transit":false,"i_lat":-6.288927,"line":6,"distance":1994,"is_transit":false,"station_name":"Jurangmangu","i_long":106.728916,"station_id":"JMU","time":4},{"transit":false,"is_transit":false,"line":6,"i_long":106.74273,"time":3,"station_name":"Pondokranji","distance":2179,"station_id":"PDJ","i_lat":-6.276362},{"distance":6218,"transit":false,"station_name":"Kebayoran","station_id":"KBY","is_transit":false,"time":8,"i_lat":-6.237242,"i_long":106.780334,"line":6},{"distance":3737,"station_id":"PLM","is_transit":false,"i_long":106.79689,"transit":false,"i_lat":-6.207404,"time":7,"line":6,"station_name":"Palmerah"},{"i_long":106.811091,"distance":3191,"i_lat":-6.185545,"transit":true,"station_id":"THB","time":6,"station_name":"Tanah Abang","is_transit":true,"line":1},{"station_id":"DU","is_transit":false,"station_name":"Duri","i_long":106.800832,"distance":3632,"transit":false,"i_lat":-6.155215,"line":1,"time":8},{"i_lat":-6.144674,"transit":false,"station_name":"Angke","line":1,"station_id":"AK","is_transit":false,"i_long":106.79867,"time":4,"distance":1230},{"transit":true,"station_name":"Kampung Bandan","is_transit":true,"i_lat":-6.132549,"i_long":106.826365,"station_id":"KPB","line":4,"distance":4102,"time":9},{"is_transit":true,"station_name":"Jakarta Kota","transit":true,"i_lat":-6.137569,"i_long":106.812439,"station_id":"JAKK","line":2,"distance":1364,"time":3},{"is_transit":false,"time":4,"station_id":"JAY","transit":false,"i_long":106.820901,"distance":1264,"line":2,"i_lat":-6.141205,"station_name":"Jayakarta"},{"i_lat":-6.149769,"transit":false,"i_long":106.82482,"station_id":"MGB","line":2,"time":2,"is_transit":false,"distance":1080,"station_name":"Manggabesar"},{"station_name":"Sawah Besar","time":2,"i_lat":-6.160725,"is_transit":false,"station_id":"SW","i_long":106.827103,"distance":906,"line":2,"transit":false},{"station_name":"Juanda","is_transit":false,"time":2,"line":2,"distance":1149,"i_lat":-6.166716,"station_id":"JUA","transit":false,"i_long":106.828284},{"station_name":"Gondangdia","is_transit":false,"distance":2015,"transit":false,"i_lat":-6.186295,"station_id":"GDD","i_long":106.832183,"time":4,"line":2},{"transit":false,"station_name":"Cikini","station_id":"CKI","i_lat":-6.198556,"line":2,"is_transit":false,"i_long":106.840169,"distance":1750,"time":3},{"i_long":106.84912,"i_lat":-6.209883,"is_transit":true,"transit":true,"station_id":"MRI","station_name":"Manggarai","line":2,"distance":1590,"time":4},{"i_lat":-6.212485,"station_name":"Matraman","is_transit":false,"line":1,"station_id":"MTR","transit":false,"time":2,"i_long":106.858896,"distance":1275},{"transit":true,"is_transit":true,"time":8,"line":1,"distance":1377,"i_long":106.86807400000001,"station_name":"Jatinegara","station_id":"JNG","i_lat":-6.215091},{"i_long":106.861737,"line":11,"time":2,"station_name":"Pondok Jati","station_id":"POK","is_transit":false,"distance":1236,"i_lat":-6.209188,"transit":false},{"is_transit":false,"station_name":"Kramat","station_id":"KMT","distance":1829,"transit":false,"i_long":106.855437,"time":2,"i_lat":-6.193792,"line":11}],[{"i_long":106.491338,"i_lat":-6.338021,"distance":0,"station_name":"Daru","station_id":"DAR","line":0,"is_transit":false,"transit":false,"time":0},{"station_name":"Cilejit","i_long":106.508482,"time":6,"i_lat":-6.354349,"is_transit":false,"line":3,"transit":false,"station_id":"CJT","distance":2675},{"station_name":"Parung Panjang","time":9,"i_long":106.568863,"is_transit":false,"transit":false,"i_lat":-6.3441410000000005,"line":6,"station_id":"PRP","distance":7025},{"station_name":"Cicayur","time":8,"line":3,"is_transit":false,"i_long":106.617853,"distance":5968,"station_id":"CC","i_lat":-6.329547,"transit":false},{"i_lat":-6.32484,"i_long":106.640411,"is_transit":false,"station_id":"CSK","line":3,"distance":2519,"transit":false,"time":4,"station_name":"Cisauk"},{"station_name":"Serpong","is_transit":false,"transit":false,"line":6,"distance":1784,"station_id":"SRP","i_lat":-6.319871,"time":4,"i_long":106.66566},{"station_id":"RU","i_lat":-6.314823,"i_long":106.675475,"is_transit":false,"distance":2413,"time":4,"transit":false,"station_name":"Rawa Buntu","line":6},{"distance":4566,"i_long":106.712277,"i_lat":-6.296963,"line":6,"transit":false,"is_transit":false,"station_name":"Sudimara","station_id":"SDM","time":6},{"station_id":"JMU","i_lat":-6.288927,"transit":false,"distance":1994,"i_long":106.728916,"line":6,"is_transit":false,"time":4,"station_name":"Jurangmangu"},{"station_id":"PDJ","is_transit":false,"station_name":"Pondokranji","time":3,"line":6,"distance":2179,"i_long":106.74273,"i_lat":-6.276362,"transit":false},{"transit":false,"i_lat":-6.237242,"i_long":106.780334,"station_id":"KBY","station_name":"Kebayoran","line":6,"is_transit":false,"time":8,"distance":6218},{"i_lat":-6.207404,"station_name":"Palmerah","line":6,"i_long":106.79689,"is_transit":false,"station_id":"PLM","time":7,"distance":3737,"transit":false},{"distance":3191,"line":1,"i_lat":-6.185545,"station_name":"Tanah Abang","is_transit":true,"station_id":"THB","i_long":106.811091,"time":6,"transit":true},{"transit":false,"i_lat":-6.20132,"i_long":106.816351,"station_id":"KAT","is_transit":false,"station_name":"Karet","line":1,"time":5,"distance":2029},{"line":1,"transit":false,"i_long":106.819881,"is_transit":false,"station_id":"SUDB","distance":471,"i_lat":-6.201433,"station_name":"Sudirman Baru","time":1},{"station_name":"Sudirman","distance":280,"station_id":"SUD","transit":false,"time":1,"is_transit":false,"i_lat":-6.202263,"i_long":106.822649,"line":1},{"station_name":"Manggarai","time":4,"transit":true,"is_transit":true,"i_lat":-6.209883,"line":2,"station_id":"MRI","distance":3186,"i_long":106.84912},{"station_id":"CKI","i_lat":-6.198556,"i_long":106.840169,"station_name":"Cikini","is_transit":false,"transit":false,"line":2,"time":4,"distance":1590},{"line":2,"i_long":106.832183,"station_name":"Gondangdia","distance":1750,"is_transit":false,"time":3,"transit":false,"i_lat":-6.186295,"station_id":"GDD"},{"i_long":106.828284,"time":4,"transit":false,"is_transit":false,"station_name":"Juanda","i_lat":-6.166716,"distance":2015,"line":2,"station_id":"JUA"},{"is_transit":false,"transit":false,"time":2,"i_lat":-6.160725,"station_id":"SW","distance":1149,"line":2,"i_long":106.827103,"station_name":"Sawah Besar"},{"line":2,"station_name":"Manggabesar","time":2,"station_id":"MGB","distance":906,"is_transit":false,"i_lat":-6.149769,"i_long":106.82482,"transit":false},{"line":2,"time":2,"station_name":"Jayakarta","station_id":"JAY","distance":1080,"i_lat":-6.141205,"i_long":106.820901,"is_transit":false,"transit":false},{"is_transit":true,"i_lat":-6.137569,"distance":1264,"station_name":"Jakarta Kota","transit":true,"i_long":106.812439,"line":2,"station_id":"JAKK","time":4},{"is_transit":true,"i_long":106.826365,"station_id":"KPB","distance":1364,"transit":true,"time":3,"station_name":"Kampung Bandan","i_lat":-6.132549,"line":4},{"time":3,"i_lat":-6.14505,"distance":1444,"transit":false,"line":11,"is_transit":false,"i_long":106.836569,"station_id":"RJW","station_name":"Rajawali"},{"distance":1901,"i_long":106.839204,"i_lat":-6.161728,"is_transit":false,"transit":false,"station_id":"KMO","station_name":"Kemayoran","time":5,"line":11},{"station_name":"Pasar Senen","station_id":"PSE","distance":1436,"transit":false,"is_transit":false,"i_long":106.84368,"time":4,"i_lat":-6.174784,"line":11},{"i_long":106.850107,"station_id":"GST","distance":1567,"line":11,"transit":false,"station_name":"Gang Sentiong","is_transit":false,"time":8,"i_lat":-6.185975},{"i_long":106.855437,"line":11,"station_id":"KMT","time":1,"distance":973,"transit":false,"is_transit":false,"i_lat":-6.193792,"station_name":"Kramat"}]]}