{"data":[[{"time":0,"line":0,"transit":false,"i_lat":-6.338021,"distance":0,"is_transit":false,"station_name":"Daru","i_long":106.491338,"station_id":"DAR"},{"time":6,"station_name":"Cilejit","i_lat":-6.354349,"i_long":106.508482,"is_transit":false,"station_id":"CJT","transit":false,"line":3,"distance":2675},{"transit":false,"i_long":106.568863,"distance":7025,"is_transit":false,"time":9,"station_id":"PRP","i_lat":-6.3441410000000005,"line":6,"station_name":"Parung Panjang"},{"station_name":"Cicayur","i_long":106.617853,"distance":5968,"line":3,"time":8,"i_lat":-6.329547,"station_id":"CC","is_transit":false,"transit":false},{"distance":2519,"line":3,"time":4,"is_transit":false,"transit":false,"station_name":"Cisauk","i_lat":-6.32484,"i_long":106.640411,"station_id":"CSK"},{"station_id":"SRP","is_transit":false,"i_lat":-6.319871,"line":6,"time":4,"distance":1784,"station_name":"Serpong","transit":false,"i_long":106.66566},{"distance":2413,"i_long":106.675475,"station_name":"Rawa Buntu","station_id":"RU","is_transit":false,"line":6,"transit":false,"i_lat":-6.314823,"time":4},{"station_id":"SDM","i_lat":-6.296963,"is_transit":false,"line":6,"distance":4566,"transit":false,"station_name":"Sudimara","i_long":106.712277,"time":6},{"i_lat":-6.288927,"line":6,"time":4,"i_long":106.728916,"distance":1994,"station_name":"Jurangmangu","station_id":"JMU","is_transit":false,"transit":false},{"is_transit":false,"line":6,"time":3,"i_long":106.74273,"distance":2179,"transit":false,"station_name":"Pondokranji","i_lat":-6.276362,"station_id":"PDJ"},{"station_name":"Kebayoran","distance":6218,"is_transit":false,"line":6,"time":8,"station_id":"KBY","transit":false,"i_lat":-6.237242,"i_long":106.780334},{"transit":false,"i_long":106.79689,"is_transit":false,"station_name":"Palmerah","station_id":"PLM","distance":3737,"line":6,"time":7,"i_lat":-6.207404},{"transit":true,"time":6,"is_transit":true,"line":1,"i_long":106.811091,"i_lat":-6.185545,"distance":3191,"station_id":"THB","station_name":"Tanah Abang"},{"station_id":"DU","line":1,"is_transit":false,"station_name":"Duri","time":8,"i_lat":-6.155215,"i_long":106.800832,"transit":false,"distance":3632},{"line":1,"distance":1230,"i_lat":-6.144674,"time":4,"station_id":"AK","station_name":"Angke","transit":false,"is_transit":false,"i_long":106.79867},{"i_long":106.826365,"is_transit":true,"i_lat":-6.132549,"station_id":"KPB","transit":true,"line":4,"distance":4102,"time":9,"station_name":"Kampung Bandan"},{"i_lat":-6.137569,"line":2,"distance":1364,"time":3,"station_id":"JAKK","i_long":106.812439,"station_name":"Jakarta Kota","transit":false,"is_transit":false}],[{"time":0,"station_id":"DAR","station_name":"Daru","distance":0,"i_lat":-6.338021,"is_transit":false,"line":0,"transit":false,"i_long":106.491338},{"station_id":"CJT","time":6,"is_transit":false,"line":3,"distance":2675,"i_lat":-6.354349,"station_name":"Cilejit","transit":false,"i_long":106.508482},{"distance":7025,"transit":false,"station_name":"Parung Panjang","time":9,"i_lat":-6.3441410000000005,"station_id":"PRP","line":6,"i_long":106.568863,"is_transit":false},{"station_id":"CC","line":3,"i_lat":-6.329547,"time":8,"distance":5968,"transit":false,"i_long":106.617853,"is_transit":false,"station_name":"Cicayur"},{"i_long":106.640411,"station_name":"Cisauk","line":3,"i_lat":-6.32484,"time":4,"is_transit":false,"station_id":"CSK","transit":false,"distance":2519},{"time":4,"transit":false,"station_name":"Serpong","i_long":106.66566,"station_id":"SRP","i_lat":-6.319871,"line":6,"is_transit":false,"distance":1784},{"i_lat":-6.314823,"transit":false,"station_id":"RU","distance":2413,"i_long":106.675475,"line":6,"time":4,"station_name":"Rawa Buntu","is_transit":false},{"is_transit":false,"time":6,"transit":false,"i_long":106.712277,"distance":4566,"line":6,"station_name":"Sudimara","station_id":"SDM","i_lat":-6.296963},{"time":4,"i_long":106.728916,"line":6,"transit":false,"station_id":"JMU","station_name":"Jurangmangu","i_lat":-6.288927,"distance":1994,"is_transit":false},{"distance":2179,"station_id":"PDJ","station_name":"Pondokranji","time":3,"i_lat":-6.276362,"i_long":106.74273,"line":6,"transit":false,"is_transit":false},{"i_long":106.780334,"is_transit":false,"time":8,"station_name":"Kebayoran","i_lat":-6.237242,"line":6,"transit":false,"distance":6218,"station_id":"KBY"},{"station_id":"PLM","line":6,"time":7,"transit":false,"distance":3737,"i_long":106.79689,"i_lat":-6.207404,"is_transit":false,"station_name":"Palmerah"},{"transit":true,"station_name":"Tanah Abang","time":6,"distance":3191,"station_id":"THB","is_transit":true,"i_lat":-6.185545,"i_long":106.811091,"line":1},{"time":5,"is_transit":false,"distance":2029,"station_id":"KAT","i_lat":-6.20132,"i_long":106.816351,"station_name":"Karet","transit":false,"line":1},{"distance":471,"i_long":106.819881,"station_name":"Sudirman Baru","is_transit":false,"time":1,"station_id":"SUDB","i_lat":-6.201433,"line":1,"transit":false},{"distance":280,"station_name":"Sudirman","transit":false,"i_lat":-6.202263,"i_long":106.822649,"is_transit":false,"line":1,"station_id":"SUD","time":1},{"station_name":"Manggarai","station_id":"MRI","transit":true,"distance":3186,"is_transit":true,"i_lat":-6.209883,"line":2,"i_long":106.84912,"time":4},{"distance":1590,"station_id":"CKI","i_long":106.840169,"line":2,"time":4,"station_name":"Cikini","is_transit":false,"transit":false,"i_lat":-6.198556},{"time":3,"is_transit":false,"station_name":"Gondangdia","i_lat":-6.186295,"distance":1750,"i_long":106.832183,"station_id":"GDD","line":2,"transit":false},{"line":2,"i_long":106.828284,"is_transit":false,"station_name":"Juanda","time":4,"distance":2015,"station_id":"JUA","transit":false,"i_lat":-6.166716},{"station_id":"SW","i_long":106.827103,"time":2,"station_name":"Sawah Besar","transit":false,"line":2,"is_transit":false,"distance":1149,"i_lat":-6.160725},{"i_lat":-6.149769,"is_transit":false,"transit":false,"station_id":"MGB","distance":906,"time":2,"station_name":"Manggabesar","i_long":106.82482,"line":2},{"station_id":"JAY","i_long":106.820901,"distance":1080,"i_lat":-6.141205,"station_name":"Jayakarta","line":2,"is_transit":false,"time":2,"transit":false},{"line":2,"time":4,"is_transit":false,"distance":1264,"station_id":"JAKK","station_name":"Jakarta Kota","transit":false,"i_lat":-6.137569,"i_long":106.812439}],[{"i_long":106.491338,"line":0,"i_lat":-6.338021,"is_transit":false,"transit":false,"time":0,"station_id":"DAR","distance":0,"station_name":"Daru"},{"i_long":106.508482,"is_transit":false,"time":6,"distance":2675,"line":3,"i_lat":-6.354349,"station_id":"CJT","station_name":"Cilejit","transit":false},{"station_name":"Parung Panjang","distance":7025,"is_transit":false,"i_lat":-6.3441410000000005,"time":9,"transit":false,"i_long":106.568863,"line":6,"station_id":"PRP"},{"station_id":"CC","is_transit":false,"line":3,"station_name":"Cicayur","distance":5968,"i_long":106.617853,"transit":false,"time":8,"i_lat":-6.329547},{"station_id":"CSK","i_lat":-6.32484,"is_transit":false,"i_long":106.640411,"transit":false,"station_name":"Cisauk","distance":2519,"time":4,"line":3},{"distance":1784,"transit":false,"i_lat":-6.319871,"is_transit":false,"i_long":106.66566,"line":6,"station_name":"Serpong","time":4,"station_id":"SRP"},{"station_id":"RU","line":6,"time":4,"distance":2413,"station_name":"Rawa Buntu","i_lat":-6.314823,"i_long":106.675475,"is_transit":false,"transit":false},{"i_long":106.712277,"station_id":"SDM","is_transit":false,"station_name":"Sudimara","distance":4566,"line":6,"i_lat":-6.296963,"time":6,"transit":false},{"station_id":"JMU","transit":false,"i_long":106.728916,"line":6,"time":4,"is_transit":false,"i_lat":-6.288927,"distance":1994,"station_name":"Jurangmangu"},{"i_lat":-6.276362,"i_long":106.74273,"line":6,"is_transit":false,"transit":false,"station_name":"Pondokranji","time":3,"station_id":"PDJ","distance":2179},{"is_transit":false,"time":8,"line":6,"station_id":"KBY","distance":6218,"i_lat":-6.237242,"station_name":"Kebayoran","transit":false,"i_long":106.780334},{"is_transit":false,"station_name":"Palmerah","line":6,"transit":false,"i_long":106.79689,"distance":3737,"time":7,"i_lat":-6.207404,"station_id":"PLM"},{"line":1,"distance":3191,"station_name":"Tanah Abang","station_id":"THB","transit":true,"time":6,"i_lat":-6.185545,"i_long":106.811091,"is_transit":true},{"line":1,"time":5,"transit":false,"station_id":"KAT","distance":2029,"i_long":106.816351,"is_transit":false,"station_name":"Karet","i_lat":-6.20132},{"distance":471,"transit":false,"station_id":"SUDB","station_name":"Sudirman Baru","time":1,"is_transit":false,"i_lat":-6.201433,"i_long":106.819881,"line":1},{"is_transit":false,"transit":false,"distance":280,"line":1,"time":1,"station_name":"Sudirman","station_id":"SUD","i_lat":-6.202263,"i_long":106.822649},{"is_transit":false,"station_id":"MRI","i_long":106.84912,"i_lat":-6.209883,"transit":false,"time":4,"station_name":"Manggarai","line":2,"distance":3186},{"i_long":106.858896,"distance":1275,"time":2,"station_id":"MTR","transit":false,"i_lat":-6.212485,"is_transit":false,"station_name":"Matraman","line":1},{"i_lat":-6.215091,"line":1,"distance":1377,"station_name":"Jatinegara","time":8,"i_long":106.86807400000001,"is_transit":true,"station_id":"JNG","transit":true},{"time":2,"station_name":"Pondok Jati","i_lat":-6.209188,"distance":1236,"line":11,"transit":false,"station_id":"POK","is_transit":false,"i_long":106.861737},{"station_id":"KMT","is_transit":false,"distance":1829,"line":11,"i_lat":-6.193792,"station_name":"Kramat","transit":false,"time":2,"i_long":106.855437},{"distance":973,"station_name":"Gang Sentiong","transit":false,"station_id":"GST","line":11,"i_lat":-6.185975,"time":1,"i_long":106.850107,"is_transit":false},{"station_name":"Pasar Senen","station_id":"PSE","transit":false,"time":8,"i_lat":-6.174784,"i_long":106.84368,"is_transit":false,"distance":1567,"line":11},{"transit":false,"i_long":106.839204,"distance":1436,"station_name":"Kemayoran","station_id":"KMO","is_transit":false,"time":4,"i_lat":-6.161728,"line":11},{"time":5,"distance":1901,"station_id":"RJW","station_name":"Rajawali","i_long":106.836569,"i_lat":-6.14505,"is_transit":false,"line":11,"transit":false},{"line":4,"transit":true,"distance":1444,"i_lat":-6.132549,"i_long":106.826365,"is_transit":true,"time":3,"station_id":"KPB","station_name":"Kampung Bandan"},{"line":2,"distance":1364,"i_long":106.812439,"i_lat":-6.137569,"station_name":"Jakarta Kota","station_id":"JAKK","transit":false,"is_transit":false,"time":3}],[{"distance":0,"time":0,"i_long":106.491338,"transit":false,"is_transit":false,"station_name":"Daru","station_id":"DAR","i_lat":-6.338021,"line":0},{"distance":2675,"transit":false,"station_name":"Cilejit","time":6,"i_lat":-6.354349,"station_id":"CJT","i_long":106.508482,"is_transit":false,"line":3},{"is_transit":false,"distance":7025,"i_long":106.568863,"line":6,"transit":false,"station_id":"PRP","i_lat":-6.3441410000000005,"time":9,"station_name":"Parung Panjang"},{"transit":false,"time":8,"distance":5968,"is_transit":false,"station_name":"Cicayur","line":3,"i_long":106.617853,"i_lat":-6.329547,"station_id":"CC"},{"is_transit":false,"time":4,"station_id":"CSK","i_long":106.640411,"station_name":"Cisauk","distance":2519,"line":3,"i_lat":-6.32484,"transit":false},{"station_name":"Serpong","line":6,"time":4,"station_id":"SRP","transit":false,"is_transit":false,"i_long":106.66566,"distance":1784,"i_lat":-6.319871},{"i_lat":-6.314823,"line":6,"time":4,"i_long":106.675475,"distance":2413,"station_id":"RU","is_transit":false,"transit":false,"station_name":"Rawa Buntu"},{"is_transit":false,"time":6,"transit":false,"line":6,"distance":4566,"station_name":"Sudimara","i_long":106.712277,"station_id":"SDM","i_lat":-6.296963},{"line":6,"transit":false,"time":4,"station_name":"Jurangmangu","station_id":"JMU","is_transit":false,"distance":1994,"i_long":106.728916,"i_lat":-6.288927},{"station_id":"PDJ","transit":false,"is_transit":false,"time":3,"line":6,"station_name":"Pondokranji","i_long":106.74273,"i_lat":-6.276362,"distance":2179},{"station_name":"Kebayoran","is_transit":false,"station_id":"KBY","transit":false,"i_long":106.780334,"line":6,"distance":6218,"i_lat":-6.237242,"time":8},{"time":7,"distance":3737,"station_id":"PLM","transit":false,"is_transit":false,"i_long":106.79689,"i_lat":-6.207404,"station_name":"Palmerah","line":6},{"station_id":"THB","i_long":106.811091,"time":6,"line":1,"i_lat":-6.185545,"station_name":"Tanah Abang","transit":true,"is_transit":true,"distance":3191},{"station_name":"Duri","line":1,"is_transit":false,"station_id":"DU","distance":3632,"i_lat":-6.155215,"transit":false,"i_long":106.800832,"time":8},{"station_id":"AK","time":4,"distance":1230,"is_transit":false,"i_lat":-6.144674,"line":1,"station_name":"Angke","transit":false,"i_long":106.79867},{"is_transit":true,"time":9,"distance":4102,"i_long":106.826365,"station_name":"Kampung Bandan","i_lat":-6.132549,"line":4,"transit":true,"station_id":"KPB"},{"i_lat":-6.14505,"time":3,"i_long":106.836569,"station_id":"RJW","line":11,"station_name":"Rajawali","is_transit":false,"distance":1444,"transit":false},{"i_long":106.839204,"is_transit":false,"transit":false,"station_id":"KMO","station_name":"Kemayoran","distance":1901,"i_lat":-6.161728,"line":11,"time":5},{"transit":false,"is_transit":false,"station_name":"Pasar Senen","station_id":"PSE","i_lat":-6.174784,"line":11,"distance":1436,"time":4,"i_long":106.84368},{"i_lat":-6.185975,"is_transit":false,"time":8,"station_name":"Gang Sentiong","i_long":106.850107,"transit":false,"line":11,"station_id":"GST","distance":1567},{"station_name":"Kramat","i_long":106.855437,"station_id":"KMT","is_transit":false,"i_lat":-6.193792,"transit":false,"line":11,"time":1,"distance":973},{"is_transit":false,"station_id":"POK","time":2,"distance":1829,"i_lat":-6.209188,"transit":false,"line":11,"i_long":106.861737,"station_name":"Pondok Jati"},{"time":9,"is_transit":true,"distance":1236,"i_lat":-6.215091,"line":1,"station_id":"JNG","i_long":106.86807400000001,"transit":true,"station_name":"Jatinegara"},{"i_long":106.858896,"station_name":"Matraman","transit":false,"distance":1377,"i_lat":-6.212485,"station_id":"MTR","time":2,"is_transit":false,"line":1},{"i_lat":-6.209883,"is_transit":true,"station_name":"Manggarai","station_id":"MRI","time":2,"transit":true,"line":2,"i_long":106.84912,"distance":1275},{"station_id":"CKI","transit":false,"line":2,"station_name":"Cikini","time":4,"i_long":106.840169,"distance":1590,"i_lat":-6.198556,"is_transit":false},{"transit":false,"i_lat":-6.186295,"distance":1750,"station_id":"GDD","i_long":106.832183,"is_transit":false,"station_name":"Gondangdia","time":3,"line":2},{"is_transit":false,"station_id":"JUA","distance":2015,"transit":false,"i_lat":-6.166716,"station_name":"Juanda","i_long":106.828284,"line":2,"time":4},{"time":2,"is_transit":false,"station_id":"SW","station_name":"Sawah Besar","distance":1149,"i_long":106.827103,"transit":false,"line":2,"i_lat":-6.160725},{"station_name":"Manggabesar","i_long":106.82482,"transit":false,"time":2,"is_transit":false,"station_id":"MGB","i_lat":-6.149769,"distance":906,"line":2},{"transit":false,"distance":1080,"line":2,"i_lat":-6.141205,"station_id":"JAY","i_long":106.820901,"station_name":"Jayakarta","is_transit":false,"time":2},{"transit":false,"i_long":106.812439,"time":4,"station_name":"Jakarta Kota","i_lat":-6.137569,"is_transit":false,"station_id":"JAKK","line":2,"distance":1264}]]}