{"data":[[{"is_transit":false,"time":0,"i_lat":-6.338021,"transit":false,"line":0,"station_name":"Daru","distance":0,"station_id":"DAR","i_long":106.491338},{"distance":2675,"i_lat":-6.354349,"i_long":106.508482,"station_name":"Cilejit","is_transit":false,"time":6,"station_id":"CJT","transit":false,"line":3},{"is_transit":false,"distance":7025,"station_id":"PRP","i_long":106.568863,"station_name":"Parung Panjang","i_lat":-6.3441410000000005,"time":9,"transit":false,"line":6},{"is_transit":false,"transit":false,"station_name":"Cicayur","time":8,"i_long":106.617853,"line":3,"i_lat":-6.329547,"station_id":"CC","distance":5968},{"line":3,"is_transit":false,"station_id":"CSK","i_long":106.640411,"i_lat":-6.32484,"distance":2519,"transit":false,"time":4,"station_name":"Cisauk"},{"distance":1784,"is_transit":false,"station_id":"SRP","line":6,"time":4,"station_name":"Serpong","i_lat":-6.319871,"i_long":106.66566,"transit":false},{"is_transit":false,"station_name":"Rawa Buntu","distance":2413,"i_long":106.675475,"i_lat":-6.314823,"transit":false,"time":4,"station_id":"RU","line":6},{"is_transit":false,"station_id":"SDM","station_name":"Sudimara","time":6,"transit":false,"i_lat":-6.296963,"i_long":106.712277,"line":6,"distance":4566},{"is_transit":false,"transit":false,"i_lat":-6.288927,"station_name":"Jurangmangu","i_long":106.728916,"line":6,"station_id":"JMU","distance":1994,"time":4},{"line":6,"time":3,"station_id":"PDJ","is_transit":false,"station_name":"Pondokranji","transit":false,"i_lat":-6.276362,"i_long":106.74273,"distance":2179},{"i_lat":-6.237242,"station_name":"Kebayoran","distance":6218,"transit":false,"i_long":106.780334,"line":6,"time":8,"station_id":"KBY","is_transit":false},{"station_name":"Palmerah","transit":false,"time":7,"i_long":106.79689,"line":6,"is_transit":false,"station_id":"PLM","i_lat":-6.207404,"distance":3737},{"i_lat":-6.185545,"i_long":106.811091,"station_id":"THB","transit":true,"station_name":"Tanah Abang","is_transit":true,"distance":3191,"line":1,"time":6},{"station_name":"Karet","line":1,"is_transit":false,"distance":2029,"transit":false,"i_long":106.816351,"time":5,"station_id":"KAT","i_lat":-6.20132},{"station_name":"Sudirman Baru","line":1,"transit":false,"distance":471,"time":1,"i_lat":-6.201433,"station_id":"SUDB","is_transit":false,"i_long":106.819881},{"time":1,"i_lat":-6.202263,"station_id":"SUD","is_transit":false,"transit":false,"station_name":"Sudirman","i_long":106.822649,"distance":280,"line":1},{"station_name":"Manggarai","time":4,"i_long":106.84912,"i_lat":-6.209883,"distance":3186,"is_transit":true,"line":2,"transit":true,"station_id":"MRI"},{"i_lat":-6.198556,"is_transit":false,"transit":false,"i_long":106.840169,"line":2,"station_name":"Cikini","distance":1590,"time":4,"station_id":"CKI"},{"i_long":106.832183,"is_transit":false,"distance":1750,"transit":false,"i_lat":-6.186295,"line":2,"station_name":"Gondangdia","time":3,"station_id":"GDD"},{"i_long":106.828284,"station_name":"Juanda","is_transit":false,"distance":2015,"line":2,"transit":false,"time":4,"i_lat":-6.166716,"station_id":"JUA"}],[{"i_lat":-6.338021,"distance":0,"station_name":"Daru","i_long":106.491338,"time":0,"line":0,"is_transit":false,"transit":false,"station_id":"DAR"},{"line":3,"is_transit":false,"distance":2675,"i_lat":-6.354349,"transit":false,"i_long":106.508482,"time":6,"station_name":"Cilejit","station_id":"CJT"},{"station_id":"PRP","is_transit":false,"time":9,"distance":7025,"line":6,"i_lat":-6.3441410000000005,"station_name":"Parung Panjang","transit":false,"i_long":106.568863},{"is_transit":false,"station_name":"Cicayur","distance":5968,"i_lat":-6.329547,"transit":false,"line":3,"station_id":"CC","time":8,"i_long":106.617853},{"transit":false,"station_name":"Cisauk","is_transit":false,"i_lat":-6.32484,"distance":2519,"station_id":"CSK","time":4,"line":3,"i_long":106.640411},{"is_transit":false,"distance":1784,"station_id":"SRP","station_name":"Serpong","time":4,"transit":false,"i_lat":-6.319871,"i_long":106.66566,"line":6},{"line":6,"distance":2413,"transit":false,"i_lat":-6.314823,"time":4,"i_long":106.675475,"station_id":"RU","is_transit":false,"station_name":"Rawa Buntu"},{"i_long":106.712277,"i_lat":-6.296963,"line":6,"station_name":"Sudimara","time":6,"transit":false,"station_id":"SDM","is_transit":false,"distance":4566},{"is_transit":false,"transit":false,"i_lat":-6.288927,"station_id":"JMU","i_long":106.728916,"line":6,"station_name":"Jurangmangu","time":4,"distance":1994},{"i_long":106.74273,"station_name":"Pondokranji","transit":false,"station_id":"PDJ","time":3,"distance":2179,"is_transit":false,"i_lat":-6.276362,"line":6},{"line":6,"is_transit":false,"i_long":106.780334,"station_name":"Kebayoran","i_lat":-6.237242,"station_id":"KBY","time":8,"distance":6218,"transit":false},{"is_transit":false,"transit":false,"i_long":106.79689,"station_id":"PLM","distance":3737,"line":6,"time":7,"station_name":"Palmerah","i_lat":-6.207404},{"is_transit":true,"transit":true,"i_lat":-6.185545,"i_long":106.811091,"line":1,"station_id":"THB","distance":3191,"time":6,"station_name":"Tanah Abang"},{"station_name":"Duri","station_id":"DU","distance":3632,"line":1,"time":8,"is_transit":false,"i_lat":-6.155215,"transit":false,"i_long":106.800832},{"station_id":"AK","time":4,"distance":1230,"i_long":106.79867,"line":1,"is_transit":false,"i_lat":-6.144674,"transit":false,"station_name":"Angke"},{"transit":true,"is_transit":true,"station_name":"Kampung Bandan","station_id":"KPB","i_lat":-6.132549,"distance":4102,"time":9,"i_long":106.826365,"line":4},{"i_lat":-6.137569,"distance":1364,"line":2,"station_id":"JAKK","i_long":106.812439,"time":3,"is_transit":true,"station_name":"Jakarta Kota","transit":true},{"time":4,"i_long":106.820901,"station_name":"Jayakarta","station_id":"JAY","is_transit":false,"distance":1264,"transit":false,"i_lat":-6.141205,"line":2},{"is_transit":false,"time":2,"distance":1080,"station_name":"Manggabesar","i_lat":-6.149769,"line":2,"station_id":"MGB","transit":false,"i_long":106.82482},{"i_lat":-6.160725,"i_long":106.827103,"is_transit":false,"line":2,"time":2,"station_id":"SW","distance":906,"transit":false,"station_name":"Sawah Besar"},{"distance":1149,"i_lat":-6.166716,"is_transit":false,"transit":false,"station_name":"Juanda","station_id":"JUA","time":2,"i_long":106.828284,"line":2}],[{"station_id":"DAR","station_name":"Daru","line":0,"distance":0,"is_transit":false,"time":0,"transit":false,"i_long":106.491338,"i_lat":-6.338021},{"transit":false,"time":6,"station_id":"CJT","station_name":"Cilejit","i_lat":-6.354349,"line":3,"distance":2675,"is_transit":false,"i_long":106.508482},{"station_name":"Parung Panjang","station_id":"PRP","time":9,"distance":7025,"transit":false,"i_lat":-6.3441410000000005,"is_transit":false,"i_long":106.568863,"line":6},{"is_transit":false,"line":3,"station_name":"Cicayur","station_id":"CC","time":8,"transit":false,"i_long":106.617853,"i_lat":-6.329547,"distance":5968},{"station_name":"Cisauk","is_transit":false,"time":4,"transit":false,"distance":2519,"station_id":"CSK","i_long":106.640411,"i_lat":-6.32484,"line":3},{"transit":false,"station_name":"Serpong","time":4,"i_long":106.66566,"station_id":"SRP","i_lat":-6.319871,"is_transit":false,"distance":1784,"line":6},{"line":6,"station_name":"Rawa Buntu","distance":2413,"time":4,"is_transit":false,"i_lat":-6.314823,"i_long":106.675475,"transit":false,"station_id":"RU"},{"transit":false,"i_lat":-6.296963,"is_transit":false,"station_name":"Sudimara","i_long":106.712277,"time":6,"distance":4566,"line":6,"station_id":"SDM"},{"i_long":106.728916,"station_name":"Jurangmangu","is_transit":false,"time":4,"distance":1994,"line":6,"transit":false,"i_lat":-6.288927,"station_id":"JMU"},{"station_name":"Pondokranji","distance":2179,"i_lat":-6.276362,"is_transit":false,"time":3,"transit":false,"i_long":106.74273,"station_id":"PDJ","line":6},{"line":6,"is_transit":false,"station_id":"KBY","i_long":106.780334,"transit":false,"distance":6218,"station_name":"Kebayoran","time":8,"i_lat":-6.237242},{"transit":false,"time":7,"i_long":106.79689,"station_id":"PLM","line":6,"station_name":"Palmerah","distance":3737,"is_transit":false,"i_lat":-6.207404},{"time":6,"transit":true,"i_lat":-6.185545,"distance":3191,"station_name":"Tanah Abang","station_id":"THB","is_transit":true,"i_long":106.811091,"line":1},{"distance":3632,"i_long":106.800832,"station_name":"Duri","line":1,"transit":false,"time":8,"station_id":"DU","is_transit":false,"i_lat":-6.155215},{"station_id":"AK","distance":1230,"i_long":106.79867,"is_transit":false,"station_name":"Angke","line":1,"transit":false,"time":4,"i_lat":-6.144674},{"distance":4102,"i_long":106.826365,"line":4,"station_id":"KPB","i_lat":-6.132549,"station_name":"Kampung Bandan","transit":true,"is_transit":true,"time":9},{"is_transit":false,"station_id":"RJW","line":11,"time":3,"distance":1444,"i_lat":-6.14505,"station_name":"Rajawali","i_long":106.836569,"transit":false},{"is_transit":false,"i_long":106.839204,"station_name":"Kemayoran","line":11,"time":5,"station_id":"KMO","i_lat":-6.161728,"transit":false,"distance":1901},{"i_long":106.84368,"distance":1436,"transit":false,"i_lat":-6.174784,"time":4,"line":11,"station_id":"PSE","station_name":"Pasar Senen","is_transit":false},{"station_id":"GST","time":8,"i_lat":-6.185975,"station_name":"Gang Sentiong","line":11,"is_transit":false,"transit":false,"distance":1567,"i_long":106.850107},{"station_id":"KMT","distance":973,"i_lat":-6.193792,"time":1,"station_name":"Kramat","is_transit":false,"transit":false,"i_long":106.855437,"line":11},{"i_lat":-6.209188,"station_id":"POK","time":2,"i_long":106.861737,"line":11,"is_transit":false,"distance":1829,"transit":false,"station_name":"Pondok Jati"},{"transit":true,"line":1,"distance":1236,"station_id":"JNG","i_long":106.86807400000001,"is_transit":true,"time":9,"station_name":"Jatinegara","i_lat":-6.215091},{"transit":false,"i_long":106.858896,"i_lat":-6.212485,"line":1,"station_id":"MTR","is_transit":false,"distance":1377,"station_name":"Matraman","time":2},{"transit":true,"i_lat":-6.209883,"station_id":"MRI","is_transit":true,"station_name":"Manggarai","i_long":106.84912,"distance":1275,"time":2,"line":2},{"station_id":"CKI","transit":false,"station_name":"Cikini","i_lat":-6.198556,"is_transit":false,"i_long":106.840169,"distance":1590,"time":4,"line":2},{"time":3,"is_transit":false,"transit":false,"i_long":106.832183,"line":2,"station_id":"GDD","distance":1750,"i_lat":-6.186295,"station_name":"Gondangdia"},{"distance":2015,"transit":false,"time":4,"i_lat":-6.166716,"station_id":"JUA","station_name":"Juanda","line":2,"is_transit":false,"i_long":106.828284}],[{"i_lat":-6.338021,"distance":0,"transit":false,"is_transit":false,"station_id":"DAR","station_name":"Daru","i_long":106.491338,"line":0,"time":0},{"station_id":"CJT","station_name":"Cilejit","i_long":106.508482,"line":3,"time":6,"distance":2675,"transit":false,"i_lat":-6.354349,"is_transit":false},{"station_id":"PRP","i_long":106.568863,"line":6,"is_transit":false,"time":9,"distance":7025,"i_lat":-6.3441410000000005,"station_name":"Parung Panjang","transit":false},{"time":8,"station_id":"CC","i_lat":-6.329547,"i_long":106.617853,"line":3,"is_transit":false,"station_name":"Cicayur","distance":5968,"transit":false},{"distance":2519,"line":3,"time":4,"i_lat":-6.32484,"is_transit":false,"i_long":106.640411,"transit":false,"station_name":"Cisauk","station_id":"CSK"},{"is_transit":false,"station_name":"Serpong","i_lat":-6.319871,"i_long":106.66566,"line":6,"station_id":"SRP","time":4,"transit":false,"distance":1784},{"distance":2413,"transit":false,"line":6,"station_id":"RU","is_transit":false,"station_name":"Rawa Buntu","time":4,"i_long":106.675475,"i_lat":-6.314823},{"station_id":"SDM","i_long":106.712277,"distance":4566,"is_transit":false,"station_name":"Sudimara","time":6,"i_lat":-6.296963,"line":6,"transit":false},{"i_lat":-6.288927,"distance":1994,"is_transit":false,"station_id":"JMU","station_name":"Jurangmangu","i_long":106.728916,"transit":false,"line":6,"time":4},{"time":3,"i_lat":-6.276362,"transit":false,"i_long":106.74273,"line":6,"station_id":"PDJ","station_name":"Pondokranji","distance":2179,"is_transit":false},{"i_lat":-6.237242,"i_long":106.780334,"distance":6218,"station_id":"KBY","transit":false,"station_name":"Kebayoran","time":8,"line":6,"is_transit":false},{"station_id":"PLM","i_lat":-6.207404,"i_long":106.79689,"time":7,"station_name":"Palmerah","transit":false,"distance":3737,"is_transit":false,"line":6},{"line":1,"is_transit":true,"i_long":106.811091,"station_name":"Tanah Abang","station_id":"THB","time":6,"i_lat":-6.185545,"distance":3191,"transit":true},{"transit":false,"station_name":"Karet","distance":2029,"time":5,"station_id":"KAT","line":1,"i_lat":-6.20132,"i_long":106.816351,"is_transit":false},{"station_name":"Sudirman Baru","i_lat":-6.201433,"station_id":"SUDB","time":1,"i_long":106.819881,"line":1,"is_transit":false,"distance":471,"transit":false},{"transit":false,"distance":280,"i_lat":-6.202263,"time":1,"i_long":106.822649,"station_id":"SUD","station_name":"Sudirman","line":1,"is_transit":false},{"distance":3186,"station_name":"Manggarai","time":4,"is_transit":false,"line":2,"transit":false,"i_long":106.84912,"station_id":"MRI","i_lat":-6.209883},{"i_long":106.858896,"is_transit":false,"i_lat":-6.212485,"station_id":"MTR","distance":1275,"time":2,"line":1,"station_name":"Matraman","transit":false},{"distance":1377,"time":8,"i_lat":-6.215091,"station_name":"Jatinegara","transit":true,"station_id":"JNG","is_transit":true,"i_long":106.86807400000001,"line":1},{"is_transit":false,"distance":1236,"station_name":"Pondok Jati","i_lat":-6.209188,"i_long":106.861737,"time":2,"transit":false,"station_id":"POK","line":11},{"station_name":"Kramat","i_long":106.855437,"transit":false,"station_id":"KMT","i_lat":-6.193792,"line":11,"time":2,"distance":1829,"is_transit":false},{"station_id":"GST","time":1,"i_lat":-6.185975,"station_name":"Gang Sentiong","distance":973,"transit":false,"is_transit":false,"i_long":106.850107,"line":11},{"line":11,"transit":false,"is_transit":false,"i_lat":-6.174784,"distance":1567,"i_long":106.84368,"time":8,"station_id":"PSE","station_name":"Pasar Senen"},{"station_name":"Kemayoran","transit":false,"line":11,"is_transit":false,"i_lat":-6.161728,"time":4,"i_long":106.839204,"distance":1436,"station_id":"KMO"},{"i_long":106.836569,"is_transit":false,"i_lat":-6.14505,"station_id":"RJW","time":5,"distance":1901,"station_name":"Rajawali","transit":false,"line":11},{"i_lat":-6.132549,"distance":1444,"is_transit":true,"station_id":"KPB","station_name":"Kampung Bandan","time":3,"i_long":106.826365,"transit":true,"line":4},{"station_id":"JAKK","is_transit":true,"time":3,"station_name":"Jakarta Kota","transit":true,"i_lat":-6.137569,"line":2,"i_long":106.812439,"distance":1364},{"is_transit":false,"time":4,"i_lat":-6.141205,"distance":1264,"line":2,"transit":false,"station_id":"JAY","station_name":"Jayakarta","i_long":106.820901},{"is_transit":false,"distance":1080,"transit":false,"station_name":"Manggabesar","i_lat":-6.149769,"station_id":"MGB","i_long":106.82482,"time":2,"line":2},{"is_transit":false,"station_id":"SW","line":2,"station_name":"Sawah Besar","transit":false,"i_lat":-6.160725,"distance":906,"i_long":106.827103,"time":2},{"station_name":"Juanda","is_transit":false,"transit":false,"station_id":"JUA","time":2,"distance":1149,"i_long":106.828284,"line":2,"i_lat":-6.166716}]]}