{"data":[[{"station_name":"Daru","transit":false,"line":0,"is_transit":false,"station_id":"DAR","time":0,"distance":0,"i_lat":-6.338021,"i_long":106.491338},{"station_name":"Cilejit","time":6,"station_id":"CJT","distance":2675,"i_long":106.508482,"is_transit":false,"line":0,"transit":false,"i_lat":-6.354349},{"station_name":"Parung Panjang","station_id":"PRP","transit":false,"is_transit":false,"time":9,"distance":7025,"line":6,"i_long":106.568863,"i_lat":-6.3441410000000005},{"transit":false,"distance":5968,"line":0,"i_lat":-6.329547,"time":8,"is_transit":false,"i_long":106.617853,"station_name":"Cicayur","station_id":"CC"},{"line":0,"distance":2519,"is_transit":false,"station_name":"Cisauk","station_id":"CSK","transit":false,"time":4,"i_lat":-6.32484,"i_long":106.640411},{"station_id":"SRP","i_lat":-6.319871,"distance":1784,"is_transit":false,"i_long":106.66566,"time":4,"transit":false,"station_name":"Serpong","line":6},{"i_lat":-6.314823,"line":6,"transit":false,"distance":2413,"station_name":"Rawa Buntu","time":4,"station_id":"RU","i_long":106.675475,"is_transit":false},{"i_lat":-6.296963,"distance":4566,"line":6,"i_long":106.712277,"station_id":"SDM","is_transit":false,"station_name":"Sudimara","time":6,"transit":false},{"i_long":106.728916,"transit":false,"station_name":"Jurangmangu","is_transit":false,"i_lat":-6.288927,"distance":1994,"time":4,"line":6,"station_id":"JMU"},{"is_transit":false,"transit":false,"station_id":"PDJ","station_name":"Pondokranji","i_lat":-6.276362,"i_long":106.74273,"line":6,"distance":2179,"time":3},{"distance":6218,"time":8,"station_name":"Kebayoran","is_transit":false,"i_long":106.780334,"line":6,"transit":false,"i_lat":-6.237242,"station_id":"KBY"},{"line":6,"distance":3737,"station_name":"Palmerah","transit":false,"station_id":"PLM","time":7,"is_transit":false,"i_lat":-6.207404,"i_long":106.79689},{"distance":3191,"i_lat":-6.185545,"station_id":"THB","i_long":106.811091,"station_name":"Tanah Abang","is_transit":true,"transit":true,"line":1,"time":6},{"station_id":"DU","station_name":"Duri","is_transit":true,"time":8,"line":1,"distance":3632,"i_lat":-6.155215,"transit":true,"i_long":106.800832},{"line":0,"transit":false,"is_transit":false,"time":4,"distance":1230,"station_id":"AK","i_lat":-6.144674,"station_name":"Angke","i_long":106.79867},{"distance":4102,"is_transit":true,"station_name":"Kampung Bandan","transit":true,"time":9,"station_id":"KPB","i_long":106.826365,"line":0,"i_lat":-6.132549},{"is_transit":false,"i_lat":-6.14505,"time":3,"station_name":"Rajawali","transit":false,"distance":1444,"i_long":106.836569,"line":11,"station_id":"RJW"},{"distance":1901,"station_id":"KMO","i_lat":-6.161728,"station_name":"Kemayoran","transit":false,"line":11,"is_transit":false,"time":5,"i_long":106.839204},{"distance":1436,"station_id":"PSE","is_transit":false,"station_name":"Pasar Senen","transit":false,"i_long":106.84368,"line":11,"i_lat":-6.174784,"time":4},{"station_id":"GST","transit":false,"i_long":106.850107,"station_name":"Gang Sentiong","line":11,"distance":1567,"time":8,"is_transit":false,"i_lat":-6.185975},{"station_name":"Kramat","i_lat":-6.193792,"distance":973,"station_id":"KMT","time":1,"line":11,"is_transit":false,"i_long":106.855437,"transit":false}],[{"station_name":"Daru","i_lat":-6.338021,"line":0,"is_transit":false,"station_id":"DAR","i_long":106.491338,"time":0,"distance":0,"transit":false},{"distance":2675,"is_transit":false,"i_long":106.508482,"time":6,"i_lat":-6.354349,"transit":false,"line":0,"station_name":"Cilejit","station_id":"CJT"},{"i_long":106.568863,"transit":false,"station_id":"PRP","is_transit":false,"time":9,"distance":7025,"station_name":"Parung Panjang","i_lat":-6.3441410000000005,"line":6},{"distance":5968,"is_transit":false,"i_long":106.617853,"station_name":"Cicayur","line":0,"i_lat":-6.329547,"station_id":"CC","time":8,"transit":false},{"station_id":"CSK","distance":2519,"is_transit":false,"time":4,"station_name":"Cisauk","transit":false,"i_lat":-6.32484,"line":0,"i_long":106.640411},{"line":6,"station_name":"Serpong","i_lat":-6.319871,"time":4,"is_transit":false,"station_id":"SRP","distance":1784,"transit":false,"i_long":106.66566},{"transit":false,"i_lat":-6.314823,"is_transit":false,"time":4,"distance":2413,"line":6,"i_long":106.675475,"station_name":"Rawa Buntu","station_id":"RU"},{"station_id":"SDM","transit":false,"station_name":"Sudimara","time":6,"i_lat":-6.296963,"distance":4566,"is_transit":false,"line":6,"i_long":106.712277},{"is_transit":false,"station_id":"JMU","distance":1994,"time":4,"i_lat":-6.288927,"line":6,"transit":false,"i_long":106.728916,"station_name":"Jurangmangu"},{"i_lat":-6.276362,"i_long":106.74273,"time":3,"station_name":"Pondokranji","line":6,"is_transit":false,"transit":false,"station_id":"PDJ","distance":2179},{"line":6,"i_long":106.780334,"distance":6218,"i_lat":-6.237242,"transit":false,"station_id":"KBY","is_transit":false,"time":8,"station_name":"Kebayoran"},{"transit":false,"time":7,"station_name":"Palmerah","line":6,"i_lat":-6.207404,"is_transit":false,"station_id":"PLM","i_long":106.79689,"distance":3737},{"line":1,"station_id":"THB","distance":3191,"station_name":"Tanah Abang","transit":true,"i_long":106.811091,"is_transit":true,"time":6,"i_lat":-6.185545},{"distance":2029,"time":5,"is_transit":false,"station_id":"KAT","station_name":"Karet","line":1,"i_lat":-6.20132,"i_long":106.816351,"transit":false},{"line":1,"transit":false,"station_id":"SUDB","time":1,"distance":471,"station_name":"Sudirman Baru","i_long":106.819881,"is_transit":false,"i_lat":-6.201433},{"time":1,"is_transit":false,"distance":280,"i_lat":-6.202263,"station_name":"Sudirman","transit":false,"i_long":106.822649,"line":1,"station_id":"SUD"},{"i_lat":-6.209883,"is_transit":true,"line":0,"i_long":106.84912,"distance":3186,"transit":false,"station_id":"MRI","station_name":"Manggarai","time":4},{"station_id":"MTR","line":1,"distance":1275,"time":2,"station_name":"Matraman","i_long":106.858896,"is_transit":false,"transit":false,"i_lat":-6.212485},{"distance":1377,"is_transit":true,"station_name":"Jatinegara","i_long":106.86807400000001,"time":8,"station_id":"JNG","line":0,"i_lat":-6.215091,"transit":true},{"i_lat":-6.209188,"station_name":"Pondok Jati","is_transit":false,"line":11,"station_id":"POK","transit":false,"time":2,"i_long":106.861737,"distance":1236},{"station_id":"KMT","time":2,"i_long":106.855437,"is_transit":false,"i_lat":-6.193792,"station_name":"Kramat","distance":1829,"transit":false,"line":11}],[{"distance":0,"i_lat":-6.338021,"line":0,"transit":false,"is_transit":false,"i_long":106.491338,"station_id":"DAR","station_name":"Daru","time":0},{"transit":false,"station_id":"CJT","i_long":106.508482,"distance":2675,"station_name":"Cilejit","time":6,"line":0,"is_transit":false,"i_lat":-6.354349},{"i_long":106.568863,"station_name":"Parung Panjang","is_transit":false,"line":6,"transit":false,"distance":7025,"i_lat":-6.3441410000000005,"station_id":"PRP","time":9},{"station_id":"CC","is_transit":false,"i_long":106.617853,"time":8,"distance":5968,"line":0,"transit":false,"i_lat":-6.329547,"station_name":"Cicayur"},{"transit":false,"i_lat":-6.32484,"distance":2519,"is_transit":false,"station_name":"Cisauk","station_id":"CSK","time":4,"i_long":106.640411,"line":0},{"transit":false,"i_lat":-6.319871,"i_long":106.66566,"is_transit":false,"distance":1784,"line":6,"station_id":"SRP","time":4,"station_name":"Serpong"},{"transit":false,"station_id":"RU","is_transit":false,"i_lat":-6.314823,"distance":2413,"time":4,"station_name":"Rawa Buntu","i_long":106.675475,"line":6},{"transit":false,"is_transit":false,"time":6,"station_name":"Sudimara","distance":4566,"i_lat":-6.296963,"station_id":"SDM","i_long":106.712277,"line":6},{"line":6,"station_id":"JMU","transit":false,"time":4,"station_name":"Jurangmangu","is_transit":false,"i_lat":-6.288927,"distance":1994,"i_long":106.728916},{"transit":false,"line":6,"distance":2179,"station_name":"Pondokranji","i_lat":-6.276362,"station_id":"PDJ","time":3,"is_transit":false,"i_long":106.74273},{"distance":6218,"time":8,"station_name":"Kebayoran","transit":false,"i_lat":-6.237242,"i_long":106.780334,"is_transit":false,"line":6,"station_id":"KBY"},{"station_name":"Palmerah","is_transit":false,"time":7,"i_long":106.79689,"i_lat":-6.207404,"transit":false,"distance":3737,"line":6,"station_id":"PLM"},{"is_transit":true,"station_name":"Tanah Abang","transit":true,"distance":3191,"i_lat":-6.185545,"i_long":106.811091,"station_id":"THB","time":6,"line":1},{"time":8,"distance":3632,"transit":true,"i_lat":-6.155215,"station_id":"DU","is_transit":true,"station_name":"Duri","i_long":106.800832,"line":1},{"line":0,"time":4,"station_name":"Angke","is_transit":false,"i_lat":-6.144674,"station_id":"AK","distance":1230,"transit":false,"i_long":106.79867},{"transit":false,"is_transit":true,"line":0,"station_name":"Kampung Bandan","i_long":106.826365,"station_id":"KPB","distance":4102,"i_lat":-6.132549,"time":9},{"is_transit":true,"i_lat":-6.137569,"station_name":"Jakarta Kota","i_long":106.812439,"time":3,"distance":1364,"station_id":"JAKK","transit":true,"line":0},{"distance":1264,"transit":false,"station_name":"Jayakarta","i_long":106.820901,"is_transit":false,"line":7,"i_lat":-6.141205,"station_id":"JAY","time":4},{"station_name":"Manggabesar","station_id":"MGB","is_transit":false,"i_lat":-6.149769,"distance":1080,"line":2,"i_long":106.82482,"time":2,"transit":false},{"station_name":"Sawah Besar","distance":906,"transit":false,"line":2,"is_transit":false,"i_lat":-6.160725,"i_long":106.827103,"station_id":"SW","time":2},{"distance":1149,"station_name":"Juanda","station_id":"JUA","i_lat":-6.166716,"is_transit":false,"time":2,"line":2,"i_long":106.828284,"transit":false},{"is_transit":false,"time":4,"distance":2015,"i_long":106.832183,"i_lat":-6.186295,"line":2,"station_name":"Gondangdia","transit":false,"station_id":"GDD"},{"line":0,"i_long":106.840169,"station_id":"CKI","station_name":"Cikini","transit":false,"time":3,"i_lat":-6.198556,"distance":1750,"is_transit":false},{"station_id":"MRI","is_transit":true,"distance":1590,"i_long":106.84912,"transit":true,"station_name":"Manggarai","i_lat":-6.209883,"time":4,"line":0},{"time":2,"line":1,"station_name":"Matraman","distance":1275,"transit":false,"is_transit":false,"i_long":106.858896,"station_id":"MTR","i_lat":-6.212485},{"line":0,"is_transit":true,"i_lat":-6.215091,"transit":true,"time":8,"station_name":"Jatinegara","station_id":"JNG","i_long":106.86807400000001,"distance":1377},{"transit":false,"station_id":"POK","is_transit":false,"station_name":"Pondok Jati","i_lat":-6.209188,"line":11,"i_long":106.861737,"time":2,"distance":1236},{"time":2,"is_transit":false,"station_name":"Kramat","distance":1829,"i_long":106.855437,"i_lat":-6.193792,"transit":false,"station_id":"KMT","line":11}],[{"i_lat":-6.338021,"i_long":106.491338,"line":0,"transit":false,"station_id":"DAR","is_transit":false,"time":0,"distance":0,"station_name":"Daru"},{"transit":false,"is_transit":false,"i_lat":-6.354349,"time":6,"line":0,"station_id":"CJT","distance":2675,"i_long":106.508482,"station_name":"Cilejit"},{"i_long":106.568863,"is_transit":false,"station_name":"Parung Panjang","i_lat":-6.3441410000000005,"station_id":"PRP","transit":false,"line":6,"distance":7025,"time":9},{"transit":false,"i_long":106.617853,"is_transit":false,"station_name":"Cicayur","station_id":"CC","time":8,"distance":5968,"i_lat":-6.329547,"line":0},{"transit":false,"i_long":106.640411,"line":0,"station_id":"CSK","distance":2519,"i_lat":-6.32484,"station_name":"Cisauk","is_transit":false,"time":4},{"transit":false,"i_lat":-6.319871,"distance":1784,"i_long":106.66566,"line":6,"station_id":"SRP","is_transit":false,"time":4,"station_name":"Serpong"},{"i_long":106.675475,"time":4,"distance":2413,"line":6,"station_name":"Rawa Buntu","is_transit":false,"i_lat":-6.314823,"station_id":"RU","transit":false},{"station_id":"SDM","station_name":"Sudimara","distance":4566,"line":6,"i_lat":-6.296963,"is_transit":false,"transit":false,"time":6,"i_long":106.712277},{"line":6,"station_id":"JMU","i_long":106.728916,"station_name":"Jurangmangu","transit":false,"is_transit":false,"i_lat":-6.288927,"time":4,"distance":1994},{"time":3,"distance":2179,"i_long":106.74273,"line":6,"station_name":"Pondokranji","transit":false,"is_transit":false,"i_lat":-6.276362,"station_id":"PDJ"},{"line":6,"is_transit":false,"station_id":"KBY","time":8,"transit":false,"station_name":"Kebayoran","distance":6218,"i_lat":-6.237242,"i_long":106.780334},{"distance":3737,"station_name":"Palmerah","line":6,"time":7,"transit":false,"is_transit":false,"i_lat":-6.207404,"i_long":106.79689,"station_id":"PLM"},{"transit":true,"i_long":106.811091,"line":1,"is_transit":true,"time":6,"station_id":"THB","station_name":"Tanah Abang","i_lat":-6.185545,"distance":3191},{"time":5,"station_id":"KAT","transit":false,"line":1,"i_lat":-6.20132,"is_transit":false,"i_long":106.816351,"distance":2029,"station_name":"Karet"},{"transit":false,"i_lat":-6.201433,"station_id":"SUDB","time":1,"distance":471,"i_long":106.819881,"is_transit":false,"line":1,"station_name":"Sudirman Baru"},{"station_name":"Sudirman","i_lat":-6.202263,"station_id":"SUD","is_transit":false,"i_long":106.822649,"time":1,"distance":280,"line":1,"transit":false},{"is_transit":true,"time":4,"i_long":106.84912,"transit":true,"station_name":"Manggarai","i_lat":-6.209883,"station_id":"MRI","distance":3186,"line":0},{"time":4,"is_transit":false,"station_id":"CKI","distance":1590,"i_lat":-6.198556,"i_long":106.840169,"station_name":"Cikini","line":0,"transit":false},{"is_transit":false,"station_name":"Gondangdia","station_id":"GDD","transit":false,"i_long":106.832183,"i_lat":-6.186295,"time":3,"line":2,"distance":1750},{"i_lat":-6.166716,"is_transit":false,"line":2,"station_id":"JUA","distance":2015,"time":4,"transit":false,"station_name":"Juanda","i_long":106.828284},{"station_name":"Sawah Besar","station_id":"SW","distance":1149,"time":2,"is_transit":false,"i_lat":-6.160725,"line":2,"i_long":106.827103,"transit":false},{"i_long":106.82482,"station_name":"Manggabesar","time":2,"line":2,"is_transit":false,"station_id":"MGB","distance":906,"transit":false,"i_lat":-6.149769},{"is_transit":false,"line":7,"transit":false,"i_long":106.820901,"station_name":"Jayakarta","time":2,"distance":1080,"station_id":"JAY","i_lat":-6.141205},{"station_id":"JAKK","distance":1264,"i_lat":-6.137569,"time":4,"is_transit":true,"station_name":"Jakarta Kota","line":0,"transit":true,"i_long":106.812439},{"transit":true,"i_lat":-6.132549,"line":0,"distance":1364,"station_id":"KPB","time":3,"station_name":"Kampung Bandan","i_long":106.826365,"is_transit":true},{"line":11,"i_lat":-6.14505,"i_long":106.836569,"is_transit":false,"time":3,"distance":1444,"station_id":"RJW","transit":false,"station_name":"Rajawali"},{"is_transit":false,"distance":1901,"time":5,"i_lat":-6.161728,"i_long":106.839204,"line":11,"station_name":"Kemayoran","station_id":"KMO","transit":false},{"distance":1436,"time":4,"station_id":"PSE","i_lat":-6.174784,"station_name":"Pasar Senen","transit":false,"i_long":106.84368,"line":11,"is_transit":false},{"is_transit":false,"time":8,"transit":false,"station_id":"GST","station_name":"Gang Sentiong","i_lat":-6.185975,"distance":1567,"i_long":106.850107,"line":11},{"station_id":"KMT","is_transit":false,"i_lat":-6.193792,"line":11,"station_name":"Kramat","distance":973,"time":1,"i_long":106.855437,"transit":false}]]}