{"data":[[{"transit":false,"distance":0,"station_id":"DAR","is_transit":false,"i_lat":-6.338021,"line":0,"time":0,"station_name":"Daru","i_long":106.491338},{"transit":false,"is_transit":false,"distance":2675,"i_long":106.508482,"station_id":"CJT","i_lat":-6.354349,"line":3,"station_name":"Cilejit","time":6},{"is_transit":false,"station_id":"PRP","i_long":106.568863,"transit":false,"distance":7025,"station_name":"Parung Panjang","i_lat":-6.3441410000000005,"line":6,"time":9},{"i_lat":-6.329547,"line":3,"is_transit":false,"station_id":"CC","i_long":106.617853,"time":8,"station_name":"Cicayur","transit":false,"distance":5968},{"station_id":"CSK","distance":2519,"time":4,"i_lat":-6.32484,"station_name":"Cisauk","is_transit":false,"i_long":106.640411,"line":3,"transit":false},{"transit":false,"i_lat":-6.319871,"is_transit":false,"i_long":106.66566,"station_id":"SRP","distance":1784,"station_name":"Serpong","time":4,"line":6},{"station_name":"Rawa Buntu","transit":false,"station_id":"RU","i_long":106.675475,"distance":2413,"is_transit":false,"i_lat":-6.314823,"line":6,"time":4},{"distance":4566,"i_long":106.712277,"transit":false,"line":6,"i_lat":-6.296963,"is_transit":false,"station_name":"Sudimara","station_id":"SDM","time":6},{"line":6,"station_name":"Jurangmangu","time":4,"station_id":"JMU","i_lat":-6.288927,"transit":false,"is_transit":false,"i_long":106.728916,"distance":1994},{"i_lat":-6.276362,"transit":false,"line":6,"station_id":"PDJ","time":3,"i_long":106.74273,"distance":2179,"station_name":"Pondokranji","is_transit":false},{"station_id":"KBY","is_transit":false,"time":8,"line":6,"transit":false,"i_long":106.780334,"distance":6218,"station_name":"Kebayoran","i_lat":-6.237242},{"i_long":106.79689,"time":7,"station_id":"PLM","transit":false,"distance":3737,"is_transit":false,"i_lat":-6.207404,"station_name":"Palmerah","line":6},{"station_id":"THB","transit":true,"is_transit":true,"station_name":"Tanah Abang","time":6,"distance":3191,"i_lat":-6.185545,"i_long":106.811091,"line":1},{"station_name":"Duri","i_lat":-6.155215,"line":1,"time":8,"station_id":"DU","transit":false,"is_transit":false,"distance":3632,"i_long":106.800832},{"distance":1230,"transit":false,"is_transit":false,"i_lat":-6.144674,"line":1,"time":4,"i_long":106.79867,"station_id":"AK","station_name":"Angke"},{"station_id":"KPB","transit":true,"is_transit":true,"station_name":"Kampung Bandan","time":9,"i_lat":-6.132549,"line":4,"i_long":106.826365,"distance":4102},{"distance":1364,"transit":false,"time":3,"i_long":106.812439,"i_lat":-6.137569,"line":2,"is_transit":false,"station_id":"JAKK","station_name":"Jakarta Kota"}],[{"transit":false,"is_transit":false,"line":0,"station_id":"DAR","distance":0,"i_long":106.491338,"i_lat":-6.338021,"station_name":"Daru","time":0},{"station_name":"Cilejit","is_transit":false,"time":6,"distance":2675,"i_lat":-6.354349,"line":3,"transit":false,"i_long":106.508482,"station_id":"CJT"},{"distance":7025,"i_long":106.568863,"line":6,"station_name":"Parung Panjang","station_id":"PRP","time":9,"i_lat":-6.3441410000000005,"transit":false,"is_transit":false},{"i_long":106.617853,"is_transit":false,"time":8,"transit":false,"station_id":"CC","line":3,"station_name":"Cicayur","distance":5968,"i_lat":-6.329547},{"distance":2519,"i_long":106.640411,"line":3,"is_transit":false,"transit":false,"station_id":"CSK","station_name":"Cisauk","time":4,"i_lat":-6.32484},{"transit":false,"station_name":"Serpong","is_transit":false,"i_long":106.66566,"distance":1784,"line":6,"i_lat":-6.319871,"station_id":"SRP","time":4},{"transit":false,"time":4,"i_long":106.675475,"line":6,"i_lat":-6.314823,"is_transit":false,"station_id":"RU","station_name":"Rawa Buntu","distance":2413},{"station_id":"SDM","time":6,"station_name":"Sudimara","distance":4566,"line":6,"i_long":106.712277,"transit":false,"is_transit":false,"i_lat":-6.296963},{"line":6,"is_transit":false,"station_id":"JMU","transit":false,"time":4,"i_lat":-6.288927,"i_long":106.728916,"station_name":"Jurangmangu","distance":1994},{"is_transit":false,"time":3,"line":6,"station_id":"PDJ","i_long":106.74273,"station_name":"Pondokranji","distance":2179,"i_lat":-6.276362,"transit":false},{"line":6,"i_long":106.780334,"station_name":"Kebayoran","distance":6218,"station_id":"KBY","time":8,"transit":false,"is_transit":false,"i_lat":-6.237242},{"distance":3737,"station_name":"Palmerah","line":6,"station_id":"PLM","is_transit":false,"time":7,"transit":false,"i_lat":-6.207404,"i_long":106.79689},{"is_transit":true,"distance":3191,"station_id":"THB","i_long":106.811091,"time":6,"transit":true,"station_name":"Tanah Abang","line":1,"i_lat":-6.185545},{"time":5,"line":1,"transit":false,"is_transit":false,"station_id":"KAT","i_lat":-6.20132,"i_long":106.816351,"station_name":"Karet","distance":2029},{"transit":false,"i_long":106.819881,"station_name":"Sudirman Baru","time":1,"station_id":"SUDB","is_transit":false,"line":1,"i_lat":-6.201433,"distance":471},{"time":1,"i_lat":-6.202263,"i_long":106.822649,"is_transit":false,"transit":false,"line":1,"station_name":"Sudirman","station_id":"SUD","distance":280},{"station_name":"Manggarai","distance":3186,"i_lat":-6.209883,"station_id":"MRI","is_transit":true,"time":4,"transit":true,"i_long":106.84912,"line":2},{"distance":1590,"i_long":106.840169,"transit":false,"is_transit":false,"station_id":"CKI","line":2,"station_name":"Cikini","time":4,"i_lat":-6.198556},{"i_lat":-6.186295,"line":2,"station_name":"Gondangdia","is_transit":false,"distance":1750,"i_long":106.832183,"station_id":"GDD","transit":false,"time":3},{"transit":false,"line":2,"is_transit":false,"station_id":"JUA","i_lat":-6.166716,"station_name":"Juanda","distance":2015,"time":4,"i_long":106.828284},{"is_transit":false,"i_lat":-6.160725,"i_long":106.827103,"station_name":"Sawah Besar","station_id":"SW","distance":1149,"transit":false,"time":2,"line":2},{"i_lat":-6.149769,"station_name":"Manggabesar","is_transit":false,"transit":false,"distance":906,"line":2,"time":2,"station_id":"MGB","i_long":106.82482},{"distance":1080,"line":2,"station_id":"JAY","i_long":106.820901,"station_name":"Jayakarta","is_transit":false,"transit":false,"time":2,"i_lat":-6.141205},{"i_long":106.812439,"line":2,"time":4,"station_name":"Jakarta Kota","is_transit":false,"transit":false,"distance":1264,"station_id":"JAKK","i_lat":-6.137569}],[{"i_long":106.491338,"transit":false,"line":0,"distance":0,"is_transit":false,"time":0,"i_lat":-6.338021,"station_id":"DAR","station_name":"Daru"},{"is_transit":false,"distance":2675,"i_lat":-6.354349,"station_id":"CJT","line":3,"station_name":"Cilejit","i_long":106.508482,"time":6,"transit":false},{"line":6,"station_name":"Parung Panjang","is_transit":false,"time":9,"i_long":106.568863,"distance":7025,"transit":false,"station_id":"PRP","i_lat":-6.3441410000000005},{"transit":false,"station_id":"CC","distance":5968,"station_name":"Cicayur","line":3,"is_transit":false,"i_long":106.617853,"time":8,"i_lat":-6.329547},{"i_lat":-6.32484,"is_transit":false,"transit":false,"line":3,"station_name":"Cisauk","time":4,"distance":2519,"station_id":"CSK","i_long":106.640411},{"i_long":106.66566,"distance":1784,"time":4,"is_transit":false,"i_lat":-6.319871,"station_id":"SRP","transit":false,"line":6,"station_name":"Serpong"},{"i_lat":-6.314823,"i_long":106.675475,"line":6,"distance":2413,"transit":false,"is_transit":false,"station_id":"RU","time":4,"station_name":"Rawa Buntu"},{"station_name":"Sudimara","is_transit":false,"distance":4566,"i_lat":-6.296963,"transit":false,"i_long":106.712277,"station_id":"SDM","time":6,"line":6},{"i_long":106.728916,"line":6,"station_name":"Jurangmangu","is_transit":false,"station_id":"JMU","time":4,"distance":1994,"transit":false,"i_lat":-6.288927},{"time":3,"distance":2179,"i_long":106.74273,"transit":false,"station_id":"PDJ","i_lat":-6.276362,"line":6,"is_transit":false,"station_name":"Pondokranji"},{"line":6,"transit":false,"i_long":106.780334,"time":8,"is_transit":false,"station_id":"KBY","station_name":"Kebayoran","i_lat":-6.237242,"distance":6218},{"i_long":106.79689,"line":6,"station_name":"Palmerah","transit":false,"time":7,"i_lat":-6.207404,"distance":3737,"station_id":"PLM","is_transit":false},{"i_lat":-6.185545,"i_long":106.811091,"line":1,"time":6,"transit":true,"is_transit":true,"distance":3191,"station_name":"Tanah Abang","station_id":"THB"},{"station_name":"Karet","station_id":"KAT","distance":2029,"i_lat":-6.20132,"transit":false,"i_long":106.816351,"time":5,"is_transit":false,"line":1},{"station_id":"SUDB","station_name":"Sudirman Baru","distance":471,"transit":false,"time":1,"i_lat":-6.201433,"line":1,"is_transit":false,"i_long":106.819881},{"distance":280,"station_name":"Sudirman","time":1,"transit":false,"i_lat":-6.202263,"i_long":106.822649,"line":1,"station_id":"SUD","is_transit":false},{"i_long":106.84912,"line":2,"i_lat":-6.209883,"station_id":"MRI","transit":false,"distance":3186,"station_name":"Manggarai","is_transit":false,"time":4},{"station_id":"MTR","time":2,"line":1,"transit":false,"is_transit":false,"station_name":"Matraman","distance":1275,"i_lat":-6.212485,"i_long":106.858896},{"i_long":106.86807400000001,"is_transit":true,"transit":true,"line":1,"distance":1377,"station_id":"JNG","station_name":"Jatinegara","time":8,"i_lat":-6.215091},{"i_long":106.861737,"i_lat":-6.209188,"line":11,"distance":1236,"station_name":"Pondok Jati","time":2,"transit":false,"station_id":"POK","is_transit":false},{"line":11,"is_transit":false,"i_long":106.855437,"time":2,"station_name":"Kramat","station_id":"KMT","distance":1829,"i_lat":-6.193792,"transit":false},{"station_id":"GST","line":11,"station_name":"Gang Sentiong","is_transit":false,"time":1,"transit":false,"i_long":106.850107,"i_lat":-6.185975,"distance":973},{"station_name":"Pasar Senen","i_lat":-6.174784,"is_transit":false,"i_long":106.84368,"line":11,"transit":false,"distance":1567,"station_id":"PSE","time":8},{"i_long":106.839204,"distance":1436,"i_lat":-6.161728,"is_transit":false,"transit":false,"station_name":"Kemayoran","station_id":"KMO","line":11,"time":4},{"time":5,"distance":1901,"i_long":106.836569,"station_name":"Rajawali","station_id":"RJW","is_transit":false,"i_lat":-6.14505,"line":11,"transit":false},{"distance":1444,"is_transit":true,"i_lat":-6.132549,"station_name":"Kampung Bandan","time":3,"transit":true,"i_long":106.826365,"station_id":"KPB","line":4},{"station_id":"JAKK","is_transit":false,"distance":1364,"time":3,"i_lat":-6.137569,"station_name":"Jakarta Kota","transit":false,"i_long":106.812439,"line":2}],[{"i_long":106.491338,"station_name":"Daru","line":0,"i_lat":-6.338021,"time":0,"station_id":"DAR","is_transit":false,"transit":false,"distance":0},{"distance":2675,"station_name":"Cilejit","station_id":"CJT","line":3,"i_lat":-6.354349,"time":6,"is_transit":false,"i_long":106.508482,"transit":false},{"line":6,"is_transit":false,"distance":7025,"station_id":"PRP","station_name":"Parung Panjang","time":9,"i_lat":-6.3441410000000005,"i_long":106.568863,"transit":false},{"transit":false,"i_lat":-6.329547,"station_id":"CC","is_transit":false,"time":8,"line":3,"distance":5968,"station_name":"Cicayur","i_long":106.617853},{"transit":false,"is_transit":false,"i_long":106.640411,"time":4,"station_name":"Cisauk","distance":2519,"i_lat":-6.32484,"line":3,"station_id":"CSK"},{"distance":1784,"i_lat":-6.319871,"line":6,"station_id":"SRP","i_long":106.66566,"time":4,"station_name":"Serpong","transit":false,"is_transit":false},{"station_name":"Rawa Buntu","is_transit":false,"time":4,"line":6,"i_lat":-6.314823,"station_id":"RU","i_long":106.675475,"distance":2413,"transit":false},{"station_id":"SDM","is_transit":false,"time":6,"transit":false,"i_long":106.712277,"line":6,"distance":4566,"station_name":"Sudimara","i_lat":-6.296963},{"distance":1994,"is_transit":false,"i_long":106.728916,"time":4,"station_name":"Jurangmangu","line":6,"i_lat":-6.288927,"transit":false,"station_id":"JMU"},{"station_name":"Pondokranji","is_transit":false,"i_lat":-6.276362,"time":3,"distance":2179,"i_long":106.74273,"transit":false,"station_id":"PDJ","line":6},{"i_long":106.780334,"distance":6218,"line":6,"is_transit":false,"i_lat":-6.237242,"station_name":"Kebayoran","time":8,"transit":false,"station_id":"KBY"},{"line":6,"i_lat":-6.207404,"transit":false,"station_id":"PLM","distance":3737,"station_name":"Palmerah","time":7,"i_long":106.79689,"is_transit":false},{"distance":3191,"transit":true,"i_lat":-6.185545,"station_id":"THB","time":6,"is_transit":true,"station_name":"Tanah Abang","line":1,"i_long":106.811091},{"i_long":106.800832,"distance":3632,"station_id":"DU","station_name":"Duri","line":1,"time":8,"i_lat":-6.155215,"is_transit":false,"transit":false},{"is_transit":false,"distance":1230,"i_lat":-6.144674,"i_long":106.79867,"line":1,"transit":false,"station_name":"Angke","station_id":"AK","time":4},{"i_lat":-6.132549,"distance":4102,"time":9,"i_long":106.826365,"station_name":"Kampung Bandan","station_id":"KPB","line":4,"is_transit":true,"transit":true},{"line":11,"station_id":"RJW","time":3,"distance":1444,"i_long":106.836569,"i_lat":-6.14505,"transit":false,"is_transit":false,"station_name":"Rajawali"},{"station_name":"Kemayoran","time":5,"transit":false,"is_transit":false,"station_id":"KMO","distance":1901,"i_lat":-6.161728,"line":11,"i_long":106.839204},{"station_id":"PSE","distance":1436,"time":4,"line":11,"transit":false,"is_transit":false,"station_name":"Pasar Senen","i_lat":-6.174784,"i_long":106.84368},{"i_lat":-6.185975,"i_long":106.850107,"time":8,"station_name":"Gang Sentiong","station_id":"GST","line":11,"distance":1567,"is_transit":false,"transit":false},{"i_long":106.855437,"transit":false,"station_name":"Kramat","station_id":"KMT","distance":973,"i_lat":-6.193792,"line":11,"is_transit":false,"time":1},{"i_lat":-6.209188,"transit":false,"distance":1829,"is_transit":false,"station_id":"POK","i_long":106.861737,"line":11,"station_name":"Pondok Jati","time":2},{"line":1,"i_long":106.86807400000001,"station_name":"Jatinegara","i_lat":-6.215091,"transit":true,"is_transit":true,"station_id":"JNG","time":9,"distance":1236},{"station_id":"MTR","time":2,"distance":1377,"i_long":106.858896,"station_name":"Matraman","i_lat":-6.212485,"line":1,"is_transit":false,"transit":false},{"is_transit":true,"transit":true,"i_lat":-6.209883,"i_long":106.84912,"time":2,"station_name":"Manggarai","line":2,"station_id":"MRI","distance":1275},{"is_transit":false,"i_long":106.840169,"line":2,"station_name":"Cikini","station_id":"CKI","distance":1590,"time":4,"i_lat":-6.198556,"transit":false},{"transit":false,"line":2,"i_lat":-6.186295,"station_id":"GDD","time":3,"is_transit":false,"i_long":106.832183,"station_name":"Gondangdia","distance":1750},{"distance":2015,"i_long":106.828284,"time":4,"i_lat":-6.166716,"line":2,"station_id":"JUA","is_transit":false,"transit":false,"station_name":"Juanda"},{"i_lat":-6.160725,"station_id":"SW","distance":1149,"is_transit":false,"line":2,"transit":false,"station_name":"Sawah Besar","i_long":106.827103,"time":2},{"time":2,"is_transit":false,"line":2,"transit":false,"i_lat":-6.149769,"station_name":"Manggabesar","distance":906,"station_id":"MGB","i_long":106.82482},{"distance":1080,"station_id":"JAY","station_name":"Jayakarta","time":2,"i_lat":-6.141205,"is_transit":false,"i_long":106.820901,"line":2,"transit":false},{"station_name":"Jakarta Kota","i_long":106.812439,"is_transit":false,"time":4,"i_lat":-6.137569,"line":2,"transit":false,"station_id":"JAKK","distance":1264}]]}