{"data":[[{"is_transit":false,"distance":0,"station_id":"DAR","station_name":"Daru","i_lat":-6.338021,"i_long":106.491338,"line":0,"time":0,"transit":false},{"line":3,"time":6,"station_name":"Cilejit","distance":2675,"station_id":"CJT","is_transit":false,"i_long":106.508482,"i_lat":-6.354349,"transit":false},{"time":9,"is_transit":false,"i_long":106.568863,"line":6,"i_lat":-6.3441410000000005,"distance":7025,"station_id":"PRP","station_name":"Parung Panjang","transit":false},{"time":8,"i_lat":-6.329547,"station_name":"Cicayur","distance":5968,"i_long":106.617853,"line":3,"is_transit":false,"transit":false,"station_id":"CC"},{"station_name":"Cisauk","transit":false,"distance":2519,"i_lat":-6.32484,"line":3,"i_long":106.640411,"time":4,"station_id":"CSK","is_transit":false},{"i_long":106.66566,"station_name":"Serpong","time":4,"station_id":"SRP","transit":false,"i_lat":-6.319871,"distance":1784,"is_transit":false,"line":6},{"line":6,"station_name":"Rawa Buntu","is_transit":false,"station_id":"RU","i_long":106.675475,"transit":false,"i_lat":-6.314823,"time":4,"distance":2413},{"i_lat":-6.296963,"is_transit":false,"station_id":"SDM","line":6,"transit":false,"i_long":106.712277,"station_name":"Sudimara","time":6,"distance":4566},{"is_transit":false,"station_name":"Jurangmangu","distance":1994,"station_id":"JMU","transit":false,"i_long":106.728916,"i_lat":-6.288927,"time":4,"line":6},{"transit":false,"i_lat":-6.276362,"is_transit":false,"i_long":106.74273,"station_name":"Pondokranji","line":6,"station_id":"PDJ","time":3,"distance":2179},{"station_name":"Kebayoran","line":6,"i_long":106.780334,"transit":false,"distance":6218,"station_id":"KBY","i_lat":-6.237242,"is_transit":false,"time":8},{"station_id":"PLM","transit":false,"time":7,"distance":3737,"station_name":"Palmerah","i_long":106.79689,"is_transit":false,"i_lat":-6.207404,"line":6},{"transit":true,"i_long":106.811091,"distance":3191,"station_id":"THB","line":1,"i_lat":-6.185545,"time":6,"station_name":"Tanah Abang","is_transit":true},{"transit":true,"time":8,"is_transit":true,"station_id":"DU","i_long":106.800832,"line":1,"distance":3632,"station_name":"Duri","i_lat":-6.155215},{"time":3,"station_name":"Grogol","line":5,"distance":1700,"is_transit":false,"i_long":106.788277,"station_id":"GGL","transit":false,"i_lat":-6.162021},{"station_id":"PSG","i_long":106.771379,"transit":false,"station_name":"Pesing","is_transit":false,"i_lat":-6.161433,"time":2,"distance":2036,"line":5},{"is_transit":false,"transit":false,"i_lat":-6.1587309999999995,"station_name":"Taman Kota","time":2,"distance":1614,"i_long":106.756522,"station_id":"TKO","line":5},{"is_transit":false,"time":2,"line":5,"station_id":"BOI","i_long":106.737035,"station_name":"Bojongindah","distance":2334,"transit":false,"i_lat":-6.159876},{"transit":false,"station_name":"Rawa Buaya","time":4,"i_long":106.723064,"distance":1152,"line":5,"i_lat":-6.162758,"station_id":"RW","is_transit":false},{"is_transit":false,"transit":false,"station_id":"KDS","time":3,"line":5,"station_name":"Kalideres","i_lat":-6.166068,"distance":2504,"i_long":106.701612}],[{"transit":false,"time":0,"i_long":106.491338,"i_lat":-6.338021,"line":0,"station_name":"Daru","is_transit":false,"distance":0,"station_id":"DAR"},{"transit":false,"time":6,"line":3,"station_name":"Cilejit","station_id":"CJT","i_lat":-6.354349,"distance":2675,"is_transit":false,"i_long":106.508482},{"station_name":"Parung Panjang","line":6,"station_id":"PRP","distance":7025,"i_long":106.568863,"i_lat":-6.3441410000000005,"time":9,"is_transit":false,"transit":false},{"transit":false,"i_lat":-6.329547,"line":3,"station_id":"CC","station_name":"Cicayur","i_long":106.617853,"is_transit":false,"distance":5968,"time":8},{"station_name":"Cisauk","station_id":"CSK","time":4,"is_transit":false,"line":3,"distance":2519,"i_long":106.640411,"transit":false,"i_lat":-6.32484},{"station_id":"SRP","time":4,"i_lat":-6.319871,"line":6,"transit":false,"i_long":106.66566,"is_transit":false,"station_name":"Serpong","distance":1784},{"transit":false,"time":4,"distance":2413,"station_id":"RU","is_transit":false,"i_lat":-6.314823,"i_long":106.675475,"line":6,"station_name":"Rawa Buntu"},{"station_id":"SDM","line":6,"time":6,"station_name":"Sudimara","i_lat":-6.296963,"i_long":106.712277,"distance":4566,"transit":false,"is_transit":false},{"is_transit":false,"time":4,"i_lat":-6.288927,"transit":false,"distance":1994,"station_id":"JMU","line":6,"station_name":"Jurangmangu","i_long":106.728916},{"transit":false,"i_long":106.74273,"station_name":"Pondokranji","time":3,"distance":2179,"station_id":"PDJ","i_lat":-6.276362,"line":6,"is_transit":false},{"line":6,"station_name":"Kebayoran","i_lat":-6.237242,"station_id":"KBY","transit":false,"time":8,"is_transit":false,"distance":6218,"i_long":106.780334},{"station_id":"PLM","distance":3737,"time":7,"station_name":"Palmerah","transit":false,"i_lat":-6.207404,"is_transit":false,"i_long":106.79689,"line":6},{"transit":true,"time":6,"i_lat":-6.185545,"i_long":106.811091,"line":1,"station_name":"Tanah Abang","distance":3191,"is_transit":true,"station_id":"THB"},{"line":1,"distance":2029,"i_long":106.816351,"transit":false,"is_transit":false,"time":5,"station_name":"Karet","station_id":"KAT","i_lat":-6.20132},{"station_id":"SUDB","time":1,"is_transit":false,"i_lat":-6.201433,"transit":false,"distance":471,"line":1,"i_long":106.819881,"station_name":"Sudirman Baru"},{"transit":false,"i_lat":-6.202263,"i_long":106.822649,"line":1,"station_id":"SUD","time":1,"is_transit":false,"distance":280,"station_name":"Sudirman"},{"is_transit":true,"transit":true,"i_lat":-6.209883,"i_long":106.84912,"distance":3186,"station_name":"Manggarai","station_id":"MRI","time":4,"line":2},{"is_transit":false,"i_lat":-6.198556,"transit":false,"i_long":106.840169,"line":2,"station_name":"Cikini","distance":1590,"station_id":"CKI","time":4},{"is_transit":false,"distance":1750,"transit":false,"i_lat":-6.186295,"station_name":"Gondangdia","station_id":"GDD","i_long":106.832183,"line":2,"time":3},{"station_id":"JUA","distance":2015,"transit":false,"i_lat":-6.166716,"station_name":"Juanda","is_transit":false,"line":2,"i_long":106.828284,"time":4},{"i_lat":-6.160725,"station_name":"Sawah Besar","distance":1149,"i_long":106.827103,"station_id":"SW","time":2,"transit":false,"line":2,"is_transit":false},{"time":2,"is_transit":false,"i_long":106.82482,"distance":906,"line":2,"transit":false,"station_id":"MGB","station_name":"Manggabesar","i_lat":-6.149769},{"is_transit":false,"distance":1080,"i_lat":-6.141205,"time":2,"i_long":106.820901,"station_name":"Jayakarta","transit":false,"line":2,"station_id":"JAY"},{"line":2,"i_lat":-6.137569,"transit":true,"station_name":"Jakarta Kota","time":4,"distance":1264,"is_transit":true,"station_id":"JAKK","i_long":106.812439},{"distance":1364,"station_name":"Kampung Bandan","time":3,"i_long":106.826365,"line":4,"i_lat":-6.132549,"station_id":"KPB","transit":true,"is_transit":true},{"station_id":"AK","transit":false,"i_long":106.79867,"distance":4102,"is_transit":false,"time":9,"station_name":"Angke","line":1,"i_lat":-6.144674},{"transit":true,"is_transit":true,"station_name":"Duri","distance":1230,"i_lat":-6.155215,"i_long":106.800832,"line":1,"station_id":"DU","time":4},{"time":3,"transit":false,"station_id":"GGL","station_name":"Grogol","i_lat":-6.162021,"i_long":106.788277,"distance":1700,"is_transit":false,"line":5},{"line":5,"i_lat":-6.161433,"transit":false,"i_long":106.771379,"is_transit":false,"station_id":"PSG","time":2,"station_name":"Pesing","distance":2036},{"station_name":"Taman Kota","transit":false,"distance":1614,"i_lat":-6.1587309999999995,"is_transit":false,"line":5,"time":2,"station_id":"TKO","i_long":106.756522},{"transit":false,"line":5,"station_name":"Bojongindah","distance":2334,"i_long":106.737035,"time":2,"is_transit":false,"station_id":"BOI","i_lat":-6.159876},{"station_name":"Rawa Buaya","time":4,"distance":1152,"transit":false,"is_transit":false,"i_lat":-6.162758,"station_id":"RW","i_long":106.723064,"line":5},{"station_id":"KDS","distance":2504,"line":5,"station_name":"Kalideres","time":3,"i_long":106.701612,"transit":false,"is_transit":false,"i_lat":-6.166068}],[{"station_id":"DAR","is_transit":false,"i_lat":-6.338021,"distance":0,"i_long":106.491338,"time":0,"station_name":"Daru","line":0,"transit":false},{"distance":2675,"transit":false,"i_long":106.508482,"line":3,"time":6,"station_id":"CJT","is_transit":false,"i_lat":-6.354349,"station_name":"Cilejit"},{"transit":false,"time":9,"i_long":106.568863,"station_name":"Parung Panjang","distance":7025,"station_id":"PRP","is_transit":false,"i_lat":-6.3441410000000005,"line":6},{"i_long":106.617853,"is_transit":false,"transit":false,"line":3,"distance":5968,"i_lat":-6.329547,"station_name":"Cicayur","station_id":"CC","time":8},{"station_id":"CSK","i_long":106.640411,"distance":2519,"station_name":"Cisauk","line":3,"is_transit":false,"time":4,"i_lat":-6.32484,"transit":false},{"line":6,"station_name":"Serpong","i_lat":-6.319871,"time":4,"is_transit":false,"i_long":106.66566,"transit":false,"station_id":"SRP","distance":1784},{"time":4,"i_long":106.675475,"transit":false,"is_transit":false,"station_name":"Rawa Buntu","station_id":"RU","distance":2413,"i_lat":-6.314823,"line":6},{"time":6,"i_lat":-6.296963,"i_long":106.712277,"line":6,"transit":false,"station_name":"Sudimara","station_id":"SDM","is_transit":false,"distance":4566},{"time":4,"is_transit":false,"distance":1994,"transit":false,"station_name":"Jurangmangu","i_long":106.728916,"line":6,"station_id":"JMU","i_lat":-6.288927},{"station_name":"Pondokranji","time":3,"distance":2179,"i_long":106.74273,"station_id":"PDJ","transit":false,"is_transit":false,"i_lat":-6.276362,"line":6},{"i_lat":-6.237242,"transit":false,"station_name":"Kebayoran","distance":6218,"line":6,"time":8,"i_long":106.780334,"station_id":"KBY","is_transit":false},{"i_long":106.79689,"transit":false,"line":6,"i_lat":-6.207404,"station_name":"Palmerah","time":7,"is_transit":false,"distance":3737,"station_id":"PLM"},{"i_long":106.811091,"is_transit":true,"line":1,"station_id":"THB","transit":true,"time":6,"station_name":"Tanah Abang","distance":3191,"i_lat":-6.185545},{"i_long":106.816351,"line":1,"distance":2029,"i_lat":-6.20132,"transit":false,"station_name":"Karet","is_transit":false,"station_id":"KAT","time":5},{"is_transit":false,"i_lat":-6.201433,"line":1,"transit":false,"i_long":106.819881,"station_id":"SUDB","time":1,"distance":471,"station_name":"Sudirman Baru"},{"line":1,"transit":false,"station_id":"SUD","i_lat":-6.202263,"time":1,"distance":280,"is_transit":false,"station_name":"Sudirman","i_long":106.822649},{"line":2,"transit":false,"is_transit":false,"i_lat":-6.209883,"i_long":106.84912,"station_name":"Manggarai","station_id":"MRI","time":4,"distance":3186},{"time":2,"distance":1275,"station_id":"MTR","station_name":"Matraman","i_lat":-6.212485,"i_long":106.858896,"transit":false,"is_transit":false,"line":1},{"time":8,"i_lat":-6.215091,"i_long":106.86807400000001,"transit":true,"is_transit":true,"line":1,"station_name":"Jatinegara","distance":1377,"station_id":"JNG"},{"i_lat":-6.209188,"station_name":"Pondok Jati","time":2,"line":11,"transit":false,"station_id":"POK","distance":1236,"i_long":106.861737,"is_transit":false},{"line":11,"station_name":"Kramat","is_transit":false,"time":2,"i_lat":-6.193792,"transit":false,"i_long":106.855437,"distance":1829,"station_id":"KMT"},{"time":1,"i_lat":-6.185975,"station_id":"GST","is_transit":false,"i_long":106.850107,"line":11,"station_name":"Gang Sentiong","distance":973,"transit":false},{"i_long":106.84368,"transit":false,"i_lat":-6.174784,"time":8,"station_name":"Pasar Senen","station_id":"PSE","line":11,"distance":1567,"is_transit":false},{"transit":false,"time":4,"is_transit":false,"station_name":"Kemayoran","station_id":"KMO","i_long":106.839204,"distance":1436,"i_lat":-6.161728,"line":11},{"i_long":106.836569,"line":11,"time":5,"is_transit":false,"i_lat":-6.14505,"station_id":"RJW","transit":false,"distance":1901,"station_name":"Rajawali"},{"station_name":"Kampung Bandan","time":3,"transit":true,"i_long":106.826365,"is_transit":true,"distance":1444,"i_lat":-6.132549,"line":4,"station_id":"KPB"},{"i_lat":-6.144674,"station_name":"Angke","transit":false,"station_id":"AK","is_transit":false,"distance":4102,"i_long":106.79867,"time":9,"line":1},{"station_id":"DU","is_transit":true,"transit":true,"time":4,"station_name":"Duri","i_lat":-6.155215,"i_long":106.800832,"distance":1230,"line":1},{"transit":false,"line":5,"distance":1700,"is_transit":false,"i_lat":-6.162021,"i_long":106.788277,"time":3,"station_name":"Grogol","station_id":"GGL"},{"station_id":"PSG","is_transit":false,"station_name":"Pesing","distance":2036,"i_long":106.771379,"line":5,"transit":false,"time":2,"i_lat":-6.161433},{"station_id":"TKO","time":2,"line":5,"is_transit":false,"transit":false,"i_long":106.756522,"station_name":"Taman Kota","distance":1614,"i_lat":-6.1587309999999995},{"i_lat":-6.159876,"distance":2334,"line":5,"is_transit":false,"station_id":"BOI","transit":false,"station_name":"Bojongindah","i_long":106.737035,"time":2},{"i_lat":-6.162758,"station_id":"RW","station_name":"Rawa Buaya","distance":1152,"is_transit":false,"line":5,"i_long":106.723064,"time":4,"transit":false},{"transit":false,"station_name":"Kalideres","time":3,"distance":2504,"i_long":106.701612,"line":5,"is_transit":false,"station_id":"KDS","i_lat":-6.166068}]]}