{"data":[[{"distance":0,"station_name":"Daru","transit":false,"i_lat":-6.338021,"i_long":106.491338,"is_transit":false,"line":0,"station_id":"DAR","time":0},{"station_id":"CJT","station_name":"Cilejit","transit":false,"distance":2675,"is_transit":false,"i_lat":-6.354349,"line":3,"i_long":106.508482,"time":6},{"i_lat":-6.3441410000000005,"i_long":106.568863,"station_name":"Parung Panjang","is_transit":false,"distance":7025,"station_id":"PRP","line":6,"time":9,"transit":false},{"is_transit":false,"distance":5968,"i_lat":-6.329547,"station_name":"Cicayur","i_long":106.617853,"station_id":"CC","transit":false,"line":3,"time":8},{"transit":false,"station_id":"CSK","line":3,"i_lat":-6.32484,"distance":2519,"is_transit":false,"time":4,"station_name":"Cisauk","i_long":106.640411},{"distance":1784,"line":6,"station_id":"SRP","time":4,"station_name":"Serpong","is_transit":false,"transit":false,"i_lat":-6.319871,"i_long":106.66566},{"station_name":"Rawa Buntu","i_long":106.675475,"i_lat":-6.314823,"transit":false,"line":6,"station_id":"RU","is_transit":false,"time":4,"distance":2413},{"line":6,"distance":4566,"is_transit":false,"transit":false,"time":6,"station_id":"SDM","i_lat":-6.296963,"station_name":"Sudimara","i_long":106.712277},{"distance":1994,"is_transit":false,"i_lat":-6.288927,"station_id":"JMU","time":4,"line":6,"transit":false,"i_long":106.728916,"station_name":"Jurangmangu"},{"station_id":"PDJ","station_name":"Pondokranji","distance":2179,"line":6,"transit":false,"i_lat":-6.276362,"i_long":106.74273,"is_transit":false,"time":3},{"i_long":106.780334,"is_transit":false,"i_lat":-6.237242,"station_id":"KBY","line":6,"time":8,"station_name":"Kebayoran","transit":false,"distance":6218},{"line":6,"station_id":"PLM","time":7,"is_transit":false,"distance":3737,"station_name":"Palmerah","i_lat":-6.207404,"i_long":106.79689,"transit":false},{"distance":3191,"station_id":"THB","is_transit":true,"i_lat":-6.185545,"time":6,"line":1,"station_name":"Tanah Abang","transit":true,"i_long":106.811091},{"distance":3632,"time":8,"station_name":"Duri","is_transit":true,"transit":true,"i_lat":-6.155215,"line":1,"i_long":106.800832,"station_id":"DU"},{"station_id":"GGL","line":5,"is_transit":false,"station_name":"Grogol","i_lat":-6.162021,"i_long":106.788277,"time":3,"distance":1700,"transit":false},{"is_transit":false,"station_name":"Pesing","i_long":106.771379,"distance":2036,"line":5,"time":2,"station_id":"PSG","transit":false,"i_lat":-6.161433},{"time":2,"is_transit":false,"distance":1614,"transit":false,"i_long":106.756522,"line":5,"station_id":"TKO","i_lat":-6.1587309999999995,"station_name":"Taman Kota"},{"distance":2334,"station_name":"Bojongindah","is_transit":false,"time":2,"station_id":"BOI","transit":false,"i_lat":-6.159876,"i_long":106.737035,"line":5},{"time":4,"i_long":106.723064,"transit":false,"is_transit":false,"station_id":"RW","distance":1152,"i_lat":-6.162758,"station_name":"Rawa Buaya","line":5},{"line":5,"time":3,"i_lat":-6.166068,"distance":2504,"is_transit":false,"transit":false,"station_id":"KDS","i_long":106.701612,"station_name":"Kalideres"},{"i_lat":-6.169933,"station_name":"Poris","i_long":106.679458,"time":3,"distance":2548,"station_id":"PI","line":5,"transit":false,"is_transit":false}],[{"i_long":106.491338,"i_lat":-6.338021,"station_name":"Daru","transit":false,"is_transit":false,"distance":0,"station_id":"DAR","time":0,"line":0},{"line":3,"station_name":"Cilejit","time":6,"transit":false,"is_transit":false,"i_lat":-6.354349,"i_long":106.508482,"distance":2675,"station_id":"CJT"},{"transit":false,"i_long":106.568863,"is_transit":false,"time":9,"line":6,"station_name":"Parung Panjang","distance":7025,"i_lat":-6.3441410000000005,"station_id":"PRP"},{"i_long":106.617853,"distance":5968,"time":8,"station_name":"Cicayur","station_id":"CC","is_transit":false,"transit":false,"line":3,"i_lat":-6.329547},{"transit":false,"i_lat":-6.32484,"i_long":106.640411,"line":3,"station_id":"CSK","is_transit":false,"distance":2519,"time":4,"station_name":"Cisauk"},{"station_name":"Serpong","transit":false,"time":4,"is_transit":false,"i_lat":-6.319871,"station_id":"SRP","distance":1784,"i_long":106.66566,"line":6},{"i_long":106.675475,"line":6,"i_lat":-6.314823,"time":4,"is_transit":false,"station_name":"Rawa Buntu","station_id":"RU","distance":2413,"transit":false},{"i_lat":-6.296963,"distance":4566,"station_name":"Sudimara","station_id":"SDM","time":6,"is_transit":false,"transit":false,"i_long":106.712277,"line":6},{"i_long":106.728916,"line":6,"distance":1994,"i_lat":-6.288927,"time":4,"station_name":"Jurangmangu","transit":false,"is_transit":false,"station_id":"JMU"},{"station_name":"Pondokranji","line":6,"distance":2179,"is_transit":false,"transit":false,"time":3,"i_lat":-6.276362,"station_id":"PDJ","i_long":106.74273},{"line":6,"transit":false,"station_name":"Kebayoran","is_transit":false,"distance":6218,"time":8,"i_lat":-6.237242,"station_id":"KBY","i_long":106.780334},{"i_lat":-6.207404,"transit":false,"station_name":"Palmerah","is_transit":false,"station_id":"PLM","time":7,"i_long":106.79689,"distance":3737,"line":6},{"transit":true,"time":6,"is_transit":true,"distance":3191,"station_name":"Tanah Abang","i_lat":-6.185545,"line":1,"i_long":106.811091,"station_id":"THB"},{"time":5,"i_lat":-6.20132,"is_transit":false,"i_long":106.816351,"station_id":"KAT","distance":2029,"line":1,"transit":false,"station_name":"Karet"},{"i_long":106.819881,"i_lat":-6.201433,"line":1,"time":1,"transit":false,"distance":471,"station_name":"Sudirman Baru","station_id":"SUDB","is_transit":false},{"line":1,"station_name":"Sudirman","station_id":"SUD","transit":false,"i_lat":-6.202263,"time":1,"is_transit":false,"i_long":106.822649,"distance":280},{"i_long":106.84912,"distance":3186,"time":4,"transit":true,"station_id":"MRI","station_name":"Manggarai","is_transit":true,"i_lat":-6.209883,"line":2},{"is_transit":false,"i_lat":-6.198556,"line":2,"i_long":106.840169,"distance":1590,"station_id":"CKI","station_name":"Cikini","transit":false,"time":4},{"transit":false,"is_transit":false,"distance":1750,"i_long":106.832183,"time":3,"line":2,"i_lat":-6.186295,"station_name":"Gondangdia","station_id":"GDD"},{"i_long":106.828284,"is_transit":false,"i_lat":-6.166716,"line":2,"transit":false,"station_id":"JUA","station_name":"Juanda","time":4,"distance":2015},{"station_id":"SW","is_transit":false,"station_name":"Sawah Besar","transit":false,"line":2,"distance":1149,"time":2,"i_lat":-6.160725,"i_long":106.827103},{"i_long":106.82482,"time":2,"distance":906,"line":2,"station_name":"Manggabesar","station_id":"MGB","transit":false,"is_transit":false,"i_lat":-6.149769},{"time":2,"transit":false,"line":2,"station_name":"Jayakarta","station_id":"JAY","i_long":106.820901,"is_transit":false,"distance":1080,"i_lat":-6.141205},{"is_transit":true,"time":4,"station_name":"Jakarta Kota","transit":true,"station_id":"JAKK","i_lat":-6.137569,"i_long":106.812439,"line":2,"distance":1264},{"transit":true,"station_id":"KPB","i_lat":-6.132549,"station_name":"Kampung Bandan","i_long":106.826365,"time":3,"distance":1364,"line":4,"is_transit":true},{"station_id":"AK","line":1,"i_long":106.79867,"distance":4102,"station_name":"Angke","is_transit":false,"i_lat":-6.144674,"time":9,"transit":false},{"station_id":"DU","is_transit":true,"i_lat":-6.155215,"station_name":"Duri","distance":1230,"time":4,"line":1,"i_long":106.800832,"transit":true},{"transit":false,"is_transit":false,"station_name":"Grogol","station_id":"GGL","distance":1700,"time":3,"i_long":106.788277,"line":5,"i_lat":-6.162021},{"station_name":"Pesing","i_long":106.771379,"distance":2036,"i_lat":-6.161433,"transit":false,"station_id":"PSG","line":5,"time":2,"is_transit":false},{"time":2,"is_transit":false,"transit":false,"i_long":106.756522,"station_name":"Taman Kota","i_lat":-6.1587309999999995,"distance":1614,"station_id":"TKO","line":5},{"station_name":"Bojongindah","i_long":106.737035,"time":2,"i_lat":-6.159876,"station_id":"BOI","distance":2334,"is_transit":false,"line":5,"transit":false},{"is_transit":false,"time":4,"station_id":"RW","station_name":"Rawa Buaya","i_lat":-6.162758,"line":5,"i_long":106.723064,"transit":false,"distance":1152},{"time":3,"is_transit":false,"distance":2504,"i_lat":-6.166068,"station_name":"Kalideres","station_id":"KDS","line":5,"i_long":106.701612,"transit":false},{"time":3,"distance":2548,"station_name":"Poris","transit":false,"station_id":"PI","is_transit":false,"i_lat":-6.169933,"line":5,"i_long":106.679458}],[{"is_transit":false,"station_id":"DAR","i_long":106.491338,"line":0,"i_lat":-6.338021,"transit":false,"time":0,"distance":0,"station_name":"Daru"},{"transit":false,"station_id":"CJT","i_long":106.508482,"line":3,"distance":2675,"station_name":"Cilejit","i_lat":-6.354349,"time":6,"is_transit":false},{"transit":false,"i_long":106.568863,"distance":7025,"is_transit":false,"line":6,"i_lat":-6.3441410000000005,"time":9,"station_id":"PRP","station_name":"Parung Panjang"},{"distance":5968,"station_name":"Cicayur","transit":false,"line":3,"i_lat":-6.329547,"is_transit":false,"i_long":106.617853,"station_id":"CC","time":8},{"is_transit":false,"station_name":"Cisauk","transit":false,"station_id":"CSK","i_lat":-6.32484,"distance":2519,"i_long":106.640411,"line":3,"time":4},{"line":6,"time":4,"i_lat":-6.319871,"i_long":106.66566,"is_transit":false,"distance":1784,"transit":false,"station_id":"SRP","station_name":"Serpong"},{"distance":2413,"is_transit":false,"station_name":"Rawa Buntu","i_long":106.675475,"i_lat":-6.314823,"line":6,"transit":false,"station_id":"RU","time":4},{"transit":false,"time":6,"station_name":"Sudimara","station_id":"SDM","is_transit":false,"i_lat":-6.296963,"line":6,"distance":4566,"i_long":106.712277},{"time":4,"station_name":"Jurangmangu","i_long":106.728916,"distance":1994,"transit":false,"line":6,"station_id":"JMU","is_transit":false,"i_lat":-6.288927},{"station_id":"PDJ","i_long":106.74273,"transit":false,"distance":2179,"i_lat":-6.276362,"line":6,"station_name":"Pondokranji","time":3,"is_transit":false},{"time":8,"station_id":"KBY","i_lat":-6.237242,"line":6,"distance":6218,"transit":false,"station_name":"Kebayoran","i_long":106.780334,"is_transit":false},{"station_name":"Palmerah","station_id":"PLM","distance":3737,"i_long":106.79689,"transit":false,"i_lat":-6.207404,"line":6,"time":7,"is_transit":false},{"transit":true,"i_long":106.811091,"station_name":"Tanah Abang","station_id":"THB","time":6,"is_transit":true,"i_lat":-6.185545,"line":1,"distance":3191},{"time":5,"is_transit":false,"station_name":"Karet","i_lat":-6.20132,"transit":false,"line":1,"distance":2029,"i_long":106.816351,"station_id":"KAT"},{"line":1,"is_transit":false,"station_name":"Sudirman Baru","transit":false,"time":1,"station_id":"SUDB","distance":471,"i_lat":-6.201433,"i_long":106.819881},{"time":1,"is_transit":false,"i_lat":-6.202263,"line":1,"station_id":"SUD","transit":false,"station_name":"Sudirman","distance":280,"i_long":106.822649},{"transit":false,"station_id":"MRI","distance":3186,"i_lat":-6.209883,"line":2,"station_name":"Manggarai","is_transit":false,"time":4,"i_long":106.84912},{"i_lat":-6.212485,"i_long":106.858896,"time":2,"station_name":"Matraman","transit":false,"distance":1275,"station_id":"MTR","is_transit":false,"line":1},{"distance":1377,"line":1,"station_name":"Jatinegara","transit":true,"i_lat":-6.215091,"station_id":"JNG","i_long":106.86807400000001,"is_transit":true,"time":8},{"time":2,"distance":1236,"station_name":"Pondok Jati","transit":false,"station_id":"POK","i_lat":-6.209188,"is_transit":false,"i_long":106.861737,"line":11},{"station_name":"Kramat","station_id":"KMT","i_lat":-6.193792,"transit":false,"time":2,"distance":1829,"line":11,"is_transit":false,"i_long":106.855437},{"station_id":"GST","transit":false,"is_transit":false,"distance":973,"station_name":"Gang Sentiong","time":1,"i_long":106.850107,"line":11,"i_lat":-6.185975},{"i_long":106.84368,"station_name":"Pasar Senen","line":11,"station_id":"PSE","time":8,"i_lat":-6.174784,"is_transit":false,"distance":1567,"transit":false},{"time":4,"i_long":106.839204,"i_lat":-6.161728,"distance":1436,"line":11,"station_name":"Kemayoran","transit":false,"station_id":"KMO","is_transit":false},{"station_name":"Rajawali","line":11,"transit":false,"i_long":106.836569,"distance":1901,"is_transit":false,"station_id":"RJW","i_lat":-6.14505,"time":5},{"station_id":"KPB","is_transit":true,"i_long":106.826365,"i_lat":-6.132549,"line":4,"station_name":"Kampung Bandan","distance":1444,"time":3,"transit":true},{"transit":false,"line":1,"is_transit":false,"distance":4102,"station_name":"Angke","time":9,"station_id":"AK","i_long":106.79867,"i_lat":-6.144674},{"is_transit":true,"time":4,"distance":1230,"station_id":"DU","i_lat":-6.155215,"transit":true,"station_name":"Duri","line":1,"i_long":106.800832},{"station_name":"Grogol","i_long":106.788277,"line":5,"is_transit":false,"i_lat":-6.162021,"transit":false,"time":3,"distance":1700,"station_id":"GGL"},{"time":2,"line":5,"station_name":"Pesing","distance":2036,"i_long":106.771379,"is_transit":false,"transit":false,"station_id":"PSG","i_lat":-6.161433},{"transit":false,"is_transit":false,"time":2,"distance":1614,"i_lat":-6.1587309999999995,"line":5,"station_name":"Taman Kota","i_long":106.756522,"station_id":"TKO"},{"station_id":"BOI","i_lat":-6.159876,"time":2,"station_name":"Bojongindah","transit":false,"is_transit":false,"line":5,"i_long":106.737035,"distance":2334},{"i_lat":-6.162758,"transit":false,"is_transit":false,"line":5,"station_id":"RW","time":4,"distance":1152,"i_long":106.723064,"station_name":"Rawa Buaya"},{"station_name":"Kalideres","station_id":"KDS","transit":false,"is_transit":false,"line":5,"i_lat":-6.166068,"time":3,"i_long":106.701612,"distance":2504},{"is_transit":false,"station_name":"Poris","transit":false,"station_id":"PI","i_lat":-6.169933,"time":3,"distance":2548,"line":5,"i_long":106.679458}]]}