{"data":[[{"station_id":"DAR","station_name":"Daru","distance":0,"transit":false,"time":0,"line":0,"i_long":106.491338,"is_transit":false,"i_lat":-6.338021},{"station_name":"Cilejit","i_lat":-6.354349,"line":3,"transit":false,"distance":2675,"time":6,"i_long":106.508482,"is_transit":false,"station_id":"CJT"},{"i_lat":-6.3441410000000005,"distance":7025,"transit":false,"is_transit":false,"time":9,"line":6,"station_id":"PRP","station_name":"Parung Panjang","i_long":106.568863},{"i_long":106.617853,"station_id":"CC","is_transit":false,"station_name":"Cicayur","i_lat":-6.329547,"line":3,"distance":5968,"time":8,"transit":false},{"i_lat":-6.32484,"i_long":106.640411,"distance":2519,"line":3,"station_id":"CSK","is_transit":false,"transit":false,"time":4,"station_name":"Cisauk"},{"transit":false,"time":4,"is_transit":false,"station_name":"Serpong","i_lat":-6.319871,"i_long":106.66566,"station_id":"SRP","line":6,"distance":1784},{"i_long":106.675475,"is_transit":false,"line":6,"time":4,"distance":2413,"station_id":"RU","i_lat":-6.314823,"transit":false,"station_name":"Rawa Buntu"},{"line":6,"distance":4566,"station_id":"SDM","is_transit":false,"time":6,"station_name":"Sudimara","i_lat":-6.296963,"i_long":106.712277,"transit":false},{"i_lat":-6.288927,"time":4,"station_id":"JMU","i_long":106.728916,"transit":false,"line":6,"station_name":"Jurangmangu","is_transit":false,"distance":1994},{"distance":2179,"line":6,"station_name":"Pondokranji","is_transit":false,"time":3,"station_id":"PDJ","transit":false,"i_lat":-6.276362,"i_long":106.74273},{"station_id":"KBY","station_name":"Kebayoran","transit":false,"time":8,"is_transit":false,"i_lat":-6.237242,"distance":6218,"line":6,"i_long":106.780334},{"line":6,"transit":false,"station_id":"PLM","distance":3737,"time":7,"is_transit":false,"station_name":"Palmerah","i_lat":-6.207404,"i_long":106.79689},{"station_id":"THB","transit":true,"i_long":106.811091,"distance":3191,"station_name":"Tanah Abang","i_lat":-6.185545,"time":6,"line":1,"is_transit":true},{"is_transit":true,"distance":3632,"station_id":"DU","line":1,"station_name":"Duri","i_long":106.800832,"transit":true,"time":8,"i_lat":-6.155215},{"station_name":"Grogol","transit":false,"is_transit":false,"station_id":"GGL","i_lat":-6.162021,"distance":1700,"i_long":106.788277,"time":3,"line":5},{"is_transit":false,"distance":2036,"transit":false,"station_name":"Pesing","station_id":"PSG","i_long":106.771379,"i_lat":-6.161433,"line":5,"time":2},{"station_name":"Taman Kota","distance":1614,"station_id":"TKO","line":5,"transit":false,"is_transit":false,"i_lat":-6.1587309999999995,"time":2,"i_long":106.756522},{"time":2,"i_lat":-6.159876,"i_long":106.737035,"station_name":"Bojongindah","distance":2334,"is_transit":false,"station_id":"BOI","transit":false,"line":5},{"distance":1152,"i_long":106.723064,"time":4,"station_id":"RW","line":5,"is_transit":false,"transit":false,"station_name":"Rawa Buaya","i_lat":-6.162758},{"station_id":"KDS","line":5,"i_lat":-6.166068,"time":3,"transit":false,"i_long":106.701612,"station_name":"Kalideres","distance":2504,"is_transit":false},{"station_name":"Poris","line":5,"i_lat":-6.169933,"time":3,"transit":false,"i_long":106.679458,"is_transit":false,"station_id":"PI","distance":2548},{"i_lat":-6.171811,"i_long":106.665036,"station_id":"BPR","transit":false,"is_transit":false,"station_name":"Batuceper","time":3,"line":5,"distance":1834},{"i_long":106.64657,"station_id":"TTI","i_lat":-6.17331,"time":3,"is_transit":false,"transit":false,"distance":2028,"line":5,"station_name":"Tanah Tinggi"},{"transit":false,"station_id":"TNG","line":5,"time":3,"station_name":"Tangerang","distance":1547,"i_lat":-6.176583,"is_transit":false,"i_long":106.632761}],[{"station_id":"DAR","is_transit":false,"i_long":106.491338,"line":0,"transit":false,"station_name":"Daru","i_lat":-6.338021,"time":0,"distance":0},{"i_lat":-6.354349,"station_id":"CJT","time":6,"i_long":106.508482,"transit":false,"line":3,"station_name":"Cilejit","distance":2675,"is_transit":false},{"transit":false,"distance":7025,"station_id":"PRP","station_name":"Parung Panjang","i_lat":-6.3441410000000005,"is_transit":false,"time":9,"i_long":106.568863,"line":6},{"i_lat":-6.329547,"is_transit":false,"i_long":106.617853,"distance":5968,"line":3,"station_id":"CC","time":8,"transit":false,"station_name":"Cicayur"},{"time":4,"station_name":"Cisauk","line":3,"distance":2519,"is_transit":false,"i_long":106.640411,"i_lat":-6.32484,"transit":false,"station_id":"CSK"},{"i_long":106.66566,"station_id":"SRP","station_name":"Serpong","transit":false,"line":6,"distance":1784,"time":4,"is_transit":false,"i_lat":-6.319871},{"station_name":"Rawa Buntu","is_transit":false,"time":4,"distance":2413,"station_id":"RU","line":6,"i_lat":-6.314823,"transit":false,"i_long":106.675475},{"i_lat":-6.296963,"line":6,"time":6,"station_name":"Sudimara","distance":4566,"is_transit":false,"i_long":106.712277,"transit":false,"station_id":"SDM"},{"time":4,"distance":1994,"station_id":"JMU","transit":false,"i_lat":-6.288927,"i_long":106.728916,"line":6,"station_name":"Jurangmangu","is_transit":false},{"time":3,"i_lat":-6.276362,"distance":2179,"line":6,"i_long":106.74273,"station_id":"PDJ","station_name":"Pondokranji","is_transit":false,"transit":false},{"station_id":"KBY","i_lat":-6.237242,"is_transit":false,"transit":false,"time":8,"i_long":106.780334,"station_name":"Kebayoran","line":6,"distance":6218},{"time":7,"is_transit":false,"station_id":"PLM","i_lat":-6.207404,"transit":false,"i_long":106.79689,"line":6,"station_name":"Palmerah","distance":3737},{"is_transit":true,"time":6,"transit":true,"station_name":"Tanah Abang","i_long":106.811091,"station_id":"THB","distance":3191,"i_lat":-6.185545,"line":1},{"i_lat":-6.20132,"distance":2029,"time":5,"i_long":106.816351,"transit":false,"is_transit":false,"station_id":"KAT","station_name":"Karet","line":1},{"i_lat":-6.201433,"station_id":"SUDB","i_long":106.819881,"line":1,"station_name":"Sudirman Baru","is_transit":false,"time":1,"transit":false,"distance":471},{"distance":280,"i_lat":-6.202263,"is_transit":false,"station_name":"Sudirman","transit":false,"station_id":"SUD","time":1,"i_long":106.822649,"line":1},{"i_lat":-6.209883,"station_id":"MRI","i_long":106.84912,"distance":3186,"transit":true,"station_name":"Manggarai","is_transit":true,"time":4,"line":2},{"i_lat":-6.198556,"station_name":"Cikini","distance":1590,"line":2,"i_long":106.840169,"transit":false,"time":4,"is_transit":false,"station_id":"CKI"},{"i_lat":-6.186295,"is_transit":false,"line":2,"station_name":"Gondangdia","transit":false,"station_id":"GDD","time":3,"i_long":106.832183,"distance":1750},{"i_long":106.828284,"line":2,"time":4,"transit":false,"is_transit":false,"distance":2015,"i_lat":-6.166716,"station_name":"Juanda","station_id":"JUA"},{"transit":false,"i_long":106.827103,"station_id":"SW","station_name":"Sawah Besar","line":2,"is_transit":false,"i_lat":-6.160725,"time":2,"distance":1149},{"i_long":106.82482,"is_transit":false,"distance":906,"time":2,"station_id":"MGB","line":2,"i_lat":-6.149769,"transit":false,"station_name":"Manggabesar"},{"line":2,"transit":false,"is_transit":false,"distance":1080,"i_long":106.820901,"station_id":"JAY","i_lat":-6.141205,"station_name":"Jayakarta","time":2},{"time":4,"i_lat":-6.137569,"is_transit":true,"station_name":"Jakarta Kota","distance":1264,"line":2,"transit":true,"station_id":"JAKK","i_long":106.812439},{"i_long":106.826365,"station_id":"KPB","is_transit":true,"transit":true,"time":3,"station_name":"Kampung Bandan","distance":1364,"i_lat":-6.132549,"line":4},{"line":1,"distance":4102,"station_id":"AK","i_lat":-6.144674,"i_long":106.79867,"station_name":"Angke","transit":false,"time":9,"is_transit":false},{"station_id":"DU","i_lat":-6.155215,"distance":1230,"line":1,"i_long":106.800832,"station_name":"Duri","is_transit":true,"transit":true,"time":4},{"station_name":"Grogol","line":5,"is_transit":false,"station_id":"GGL","i_long":106.788277,"i_lat":-6.162021,"time":3,"transit":false,"distance":1700},{"distance":2036,"transit":false,"is_transit":false,"station_id":"PSG","i_long":106.771379,"line":5,"station_name":"Pesing","i_lat":-6.161433,"time":2},{"i_long":106.756522,"time":2,"is_transit":false,"transit":false,"station_id":"TKO","station_name":"Taman Kota","i_lat":-6.1587309999999995,"distance":1614,"line":5},{"station_id":"BOI","is_transit":false,"station_name":"Bojongindah","i_lat":-6.159876,"i_long":106.737035,"time":2,"line":5,"transit":false,"distance":2334},{"i_lat":-6.162758,"station_id":"RW","station_name":"Rawa Buaya","distance":1152,"line":5,"time":4,"i_long":106.723064,"is_transit":false,"transit":false},{"station_id":"KDS","i_long":106.701612,"distance":2504,"line":5,"station_name":"Kalideres","transit":false,"time":3,"i_lat":-6.166068,"is_transit":false},{"station_id":"PI","line":5,"distance":2548,"i_long":106.679458,"i_lat":-6.169933,"station_name":"Poris","is_transit":false,"transit":false,"time":3},{"i_lat":-6.171811,"time":3,"distance":1834,"station_id":"BPR","line":5,"transit":false,"is_transit":false,"i_long":106.665036,"station_name":"Batuceper"},{"time":3,"transit":false,"is_transit":false,"distance":2028,"i_lat":-6.17331,"line":5,"i_long":106.64657,"station_name":"Tanah Tinggi","station_id":"TTI"},{"station_id":"TNG","time":3,"line":5,"transit":false,"i_long":106.632761,"i_lat":-6.176583,"distance":1547,"station_name":"Tangerang","is_transit":false}],[{"line":0,"is_transit":false,"i_lat":-6.338021,"distance":0,"transit":false,"i_long":106.491338,"station_id":"DAR","time":0,"station_name":"Daru"},{"station_id":"CJT","i_long":106.508482,"time":6,"distance":2675,"is_transit":false,"line":3,"station_name":"Cilejit","i_lat":-6.354349,"transit":false},{"distance":7025,"station_name":"Parung Panjang","transit":false,"i_lat":-6.3441410000000005,"station_id":"PRP","is_transit":false,"line":6,"time":9,"i_long":106.568863},{"is_transit":false,"line":3,"transit":false,"distance":5968,"i_long":106.617853,"i_lat":-6.329547,"station_name":"Cicayur","station_id":"CC","time":8},{"distance":2519,"is_transit":false,"station_id":"CSK","line":3,"station_name":"Cisauk","transit":false,"i_lat":-6.32484,"i_long":106.640411,"time":4},{"i_long":106.66566,"is_transit":false,"time":4,"station_name":"Serpong","distance":1784,"station_id":"SRP","i_lat":-6.319871,"line":6,"transit":false},{"time":4,"station_name":"Rawa Buntu","station_id":"RU","transit":false,"i_lat":-6.314823,"distance":2413,"i_long":106.675475,"line":6,"is_transit":false},{"is_transit":false,"transit":false,"station_name":"Sudimara","time":6,"station_id":"SDM","i_long":106.712277,"distance":4566,"i_lat":-6.296963,"line":6},{"station_id":"JMU","i_long":106.728916,"transit":false,"line":6,"is_transit":false,"station_name":"Jurangmangu","i_lat":-6.288927,"time":4,"distance":1994},{"i_lat":-6.276362,"is_transit":false,"transit":false,"time":3,"station_id":"PDJ","station_name":"Pondokranji","i_long":106.74273,"line":6,"distance":2179},{"i_lat":-6.237242,"station_name":"Kebayoran","line":6,"distance":6218,"transit":false,"i_long":106.780334,"station_id":"KBY","time":8,"is_transit":false},{"time":7,"i_lat":-6.207404,"is_transit":false,"station_name":"Palmerah","line":6,"i_long":106.79689,"transit":false,"distance":3737,"station_id":"PLM"},{"transit":true,"station_name":"Tanah Abang","line":1,"distance":3191,"time":6,"station_id":"THB","i_lat":-6.185545,"i_long":106.811091,"is_transit":true},{"time":5,"station_name":"Karet","line":1,"station_id":"KAT","is_transit":false,"transit":false,"i_long":106.816351,"distance":2029,"i_lat":-6.20132},{"line":1,"is_transit":false,"time":1,"i_long":106.819881,"i_lat":-6.201433,"transit":false,"distance":471,"station_id":"SUDB","station_name":"Sudirman Baru"},{"station_name":"Sudirman","distance":280,"i_lat":-6.202263,"transit":false,"time":1,"line":1,"i_long":106.822649,"station_id":"SUD","is_transit":false},{"i_lat":-6.209883,"is_transit":false,"transit":false,"time":4,"distance":3186,"i_long":106.84912,"station_name":"Manggarai","line":2,"station_id":"MRI"},{"is_transit":false,"time":2,"i_lat":-6.212485,"transit":false,"line":1,"distance":1275,"station_id":"MTR","station_name":"Matraman","i_long":106.858896},{"i_lat":-6.215091,"distance":1377,"is_transit":true,"line":1,"station_name":"Jatinegara","transit":true,"time":8,"i_long":106.86807400000001,"station_id":"JNG"},{"distance":1236,"is_transit":false,"i_lat":-6.209188,"i_long":106.861737,"transit":false,"time":2,"line":11,"station_id":"POK","station_name":"Pondok Jati"},{"is_transit":false,"station_name":"Kramat","transit":false,"distance":1829,"station_id":"KMT","line":11,"i_long":106.855437,"time":2,"i_lat":-6.193792},{"transit":false,"station_name":"Gang Sentiong","distance":973,"i_lat":-6.185975,"i_long":106.850107,"is_transit":false,"time":1,"line":11,"station_id":"GST"},{"i_long":106.84368,"distance":1567,"station_id":"PSE","time":8,"is_transit":false,"station_name":"Pasar Senen","i_lat":-6.174784,"line":11,"transit":false},{"station_id":"KMO","time":4,"station_name":"Kemayoran","line":11,"is_transit":false,"transit":false,"i_lat":-6.161728,"distance":1436,"i_long":106.839204},{"transit":false,"i_lat":-6.14505,"line":11,"time":5,"distance":1901,"i_long":106.836569,"station_name":"Rajawali","is_transit":false,"station_id":"RJW"},{"time":3,"station_name":"Kampung Bandan","transit":true,"station_id":"KPB","i_lat":-6.132549,"is_transit":true,"line":4,"i_long":106.826365,"distance":1444},{"transit":false,"distance":4102,"station_name":"Angke","is_transit":false,"line":1,"station_id":"AK","time":9,"i_lat":-6.144674,"i_long":106.79867},{"i_lat":-6.155215,"is_transit":true,"time":4,"i_long":106.800832,"transit":true,"station_name":"Duri","distance":1230,"station_id":"DU","line":1},{"time":3,"line":5,"transit":false,"i_lat":-6.162021,"station_name":"Grogol","is_transit":false,"distance":1700,"station_id":"GGL","i_long":106.788277},{"transit":false,"distance":2036,"time":2,"is_transit":false,"i_lat":-6.161433,"i_long":106.771379,"line":5,"station_name":"Pesing","station_id":"PSG"},{"station_id":"TKO","station_name":"Taman Kota","i_lat":-6.1587309999999995,"i_long":106.756522,"time":2,"transit":false,"line":5,"distance":1614,"is_transit":false},{"i_lat":-6.159876,"i_long":106.737035,"line":5,"is_transit":false,"station_id":"BOI","transit":false,"time":2,"station_name":"Bojongindah","distance":2334},{"i_long":106.723064,"station_name":"Rawa Buaya","station_id":"RW","transit":false,"line":5,"distance":1152,"is_transit":false,"i_lat":-6.162758,"time":4},{"station_id":"KDS","distance":2504,"line":5,"i_long":106.701612,"is_transit":false,"i_lat":-6.166068,"transit":false,"station_name":"Kalideres","time":3},{"station_name":"Poris","transit":false,"station_id":"PI","i_lat":-6.169933,"i_long":106.679458,"is_transit":false,"line":5,"time":3,"distance":2548},{"i_long":106.665036,"distance":1834,"transit":false,"i_lat":-6.171811,"line":5,"station_name":"Batuceper","is_transit":false,"station_id":"BPR","time":3},{"is_transit":false,"transit":false,"time":3,"station_id":"TTI","station_name":"Tanah Tinggi","i_lat":-6.17331,"i_long":106.64657,"line":5,"distance":2028},{"i_lat":-6.176583,"i_long":106.632761,"time":3,"is_transit":false,"station_name":"Tangerang","distance":1547,"line":5,"transit":false,"station_id":"TNG"}]]}