{"data":[[{"station_id":"DAR","station_name":"Daru","time":0,"distance":0,"i_lat":-6.338021,"i_long":106.491338,"is_transit":false,"line":0,"transit":false},{"line":3,"is_transit":false,"i_long":106.508482,"i_lat":-6.354349,"station_id":"CJT","distance":2675,"time":6,"station_name":"Cilejit","transit":false},{"station_id":"PRP","transit":false,"distance":7025,"station_name":"Parung Panjang","is_transit":false,"i_long":106.568863,"i_lat":-6.3441410000000005,"time":9,"line":6},{"i_lat":-6.329547,"transit":false,"distance":5968,"station_name":"Cicayur","is_transit":false,"station_id":"CC","time":8,"i_long":106.617853,"line":3},{"station_id":"CSK","time":4,"line":3,"transit":false,"is_transit":false,"station_name":"Cisauk","distance":2519,"i_lat":-6.32484,"i_long":106.640411},{"i_long":106.66566,"is_transit":false,"transit":false,"line":6,"distance":1784,"station_id":"SRP","station_name":"Serpong","time":4,"i_lat":-6.319871},{"i_long":106.675475,"i_lat":-6.314823,"line":6,"distance":2413,"station_name":"Rawa Buntu","time":4,"transit":false,"station_id":"RU","is_transit":false},{"line":6,"is_transit":false,"i_long":106.712277,"time":6,"station_name":"Sudimara","station_id":"SDM","distance":4566,"i_lat":-6.296963,"transit":false},{"station_id":"JMU","line":6,"station_name":"Jurangmangu","is_transit":false,"time":4,"transit":false,"i_long":106.728916,"i_lat":-6.288927,"distance":1994},{"station_name":"Pondokranji","i_lat":-6.276362,"is_transit":false,"i_long":106.74273,"line":6,"transit":false,"distance":2179,"station_id":"PDJ","time":3},{"i_long":106.780334,"distance":6218,"i_lat":-6.237242,"is_transit":false,"transit":false,"station_name":"Kebayoran","station_id":"KBY","line":6,"time":8},{"time":7,"distance":3737,"i_long":106.79689,"station_name":"Palmerah","station_id":"PLM","is_transit":false,"i_lat":-6.207404,"line":6,"transit":false},{"distance":3191,"is_transit":true,"i_lat":-6.185545,"station_name":"Tanah Abang","time":6,"transit":true,"i_long":106.811091,"station_id":"THB","line":1},{"station_id":"DU","is_transit":true,"distance":3632,"time":8,"i_lat":-6.155215,"station_name":"Duri","transit":true,"i_long":106.800832,"line":1},{"i_long":106.788277,"station_name":"Grogol","line":5,"i_lat":-6.162021,"time":3,"station_id":"GGL","is_transit":false,"transit":false,"distance":1700},{"distance":2036,"station_name":"Pesing","station_id":"PSG","line":5,"i_lat":-6.161433,"time":2,"is_transit":false,"i_long":106.771379,"transit":false},{"line":5,"is_transit":false,"distance":1614,"station_id":"TKO","station_name":"Taman Kota","time":2,"i_lat":-6.1587309999999995,"i_long":106.756522,"transit":false},{"transit":false,"distance":2334,"is_transit":false,"time":2,"i_long":106.737035,"station_name":"Bojongindah","line":5,"station_id":"BOI","i_lat":-6.159876},{"i_long":106.723064,"i_lat":-6.162758,"transit":false,"station_name":"Rawa Buaya","station_id":"RW","time":4,"is_transit":false,"line":5,"distance":1152},{"station_id":"KDS","line":5,"distance":2504,"is_transit":false,"i_lat":-6.166068,"time":3,"transit":false,"station_name":"Kalideres","i_long":106.701612},{"line":5,"distance":2548,"transit":false,"station_id":"PI","i_lat":-6.169933,"i_long":106.679458,"station_name":"Poris","time":3,"is_transit":false},{"i_lat":-6.171811,"distance":1834,"i_long":106.665036,"line":5,"transit":false,"station_name":"Batuceper","is_transit":false,"time":3,"station_id":"BPR"},{"is_transit":false,"distance":2028,"i_lat":-6.17331,"line":5,"station_id":"TTI","transit":false,"time":3,"i_long":106.64657,"station_name":"Tanah Tinggi"},{"time":3,"line":5,"station_name":"Tangerang","transit":false,"is_transit":false,"i_long":106.632761,"station_id":"TNG","distance":1547,"i_lat":-6.176583}],[{"distance":0,"transit":false,"station_name":"Daru","station_id":"DAR","is_transit":false,"time":0,"i_lat":-6.338021,"line":0,"i_long":106.491338},{"station_name":"Cilejit","distance":2675,"transit":false,"line":3,"i_long":106.508482,"station_id":"CJT","is_transit":false,"time":6,"i_lat":-6.354349},{"i_long":106.568863,"station_name":"Parung Panjang","line":6,"time":9,"is_transit":false,"station_id":"PRP","transit":false,"distance":7025,"i_lat":-6.3441410000000005},{"station_name":"Cicayur","station_id":"CC","is_transit":false,"distance":5968,"i_lat":-6.329547,"i_long":106.617853,"time":8,"line":3,"transit":false},{"i_lat":-6.32484,"i_long":106.640411,"is_transit":false,"time":4,"station_id":"CSK","transit":false,"station_name":"Cisauk","line":3,"distance":2519},{"distance":1784,"transit":false,"time":4,"line":6,"i_lat":-6.319871,"station_name":"Serpong","station_id":"SRP","is_transit":false,"i_long":106.66566},{"is_transit":false,"station_id":"RU","transit":false,"i_long":106.675475,"distance":2413,"line":6,"i_lat":-6.314823,"station_name":"Rawa Buntu","time":4},{"station_name":"Sudimara","time":6,"transit":false,"is_transit":false,"station_id":"SDM","distance":4566,"i_lat":-6.296963,"line":6,"i_long":106.712277},{"station_id":"JMU","distance":1994,"time":4,"line":6,"transit":false,"is_transit":false,"station_name":"Jurangmangu","i_lat":-6.288927,"i_long":106.728916},{"i_lat":-6.276362,"i_long":106.74273,"time":3,"station_name":"Pondokranji","station_id":"PDJ","line":6,"distance":2179,"is_transit":false,"transit":false},{"i_long":106.780334,"transit":false,"station_name":"Kebayoran","station_id":"KBY","distance":6218,"i_lat":-6.237242,"line":6,"is_transit":false,"time":8},{"i_lat":-6.207404,"transit":false,"distance":3737,"is_transit":false,"station_id":"PLM","i_long":106.79689,"line":6,"station_name":"Palmerah","time":7},{"line":1,"i_long":106.811091,"station_name":"Tanah Abang","i_lat":-6.185545,"transit":true,"is_transit":true,"station_id":"THB","time":6,"distance":3191},{"station_id":"KAT","time":5,"distance":2029,"i_long":106.816351,"station_name":"Karet","i_lat":-6.20132,"line":1,"is_transit":false,"transit":false},{"is_transit":false,"transit":false,"i_lat":-6.201433,"i_long":106.819881,"time":1,"station_name":"Sudirman Baru","line":1,"station_id":"SUDB","distance":471},{"is_transit":false,"i_long":106.822649,"line":1,"station_name":"Sudirman","station_id":"SUD","distance":280,"time":1,"i_lat":-6.202263,"transit":false},{"transit":true,"line":2,"i_lat":-6.209883,"station_id":"MRI","time":4,"is_transit":true,"i_long":106.84912,"station_name":"Manggarai","distance":3186},{"station_name":"Cikini","station_id":"CKI","time":4,"i_lat":-6.198556,"line":2,"is_transit":false,"i_long":106.840169,"transit":false,"distance":1590},{"station_id":"GDD","line":2,"transit":false,"station_name":"Gondangdia","i_lat":-6.186295,"i_long":106.832183,"is_transit":false,"distance":1750,"time":3},{"station_name":"Juanda","transit":false,"i_long":106.828284,"line":2,"is_transit":false,"station_id":"JUA","time":4,"i_lat":-6.166716,"distance":2015},{"time":2,"i_lat":-6.160725,"station_id":"SW","distance":1149,"line":2,"transit":false,"is_transit":false,"i_long":106.827103,"station_name":"Sawah Besar"},{"station_id":"MGB","i_lat":-6.149769,"i_long":106.82482,"line":2,"transit":false,"is_transit":false,"distance":906,"station_name":"Manggabesar","time":2},{"station_name":"Jayakarta","i_lat":-6.141205,"line":2,"transit":false,"is_transit":false,"distance":1080,"time":2,"i_long":106.820901,"station_id":"JAY"},{"i_long":106.812439,"time":4,"station_name":"Jakarta Kota","is_transit":true,"distance":1264,"transit":true,"station_id":"JAKK","i_lat":-6.137569,"line":2},{"i_long":106.826365,"line":4,"distance":1364,"i_lat":-6.132549,"time":3,"is_transit":true,"station_name":"Kampung Bandan","station_id":"KPB","transit":true},{"transit":false,"i_long":106.79867,"i_lat":-6.144674,"station_name":"Angke","is_transit":false,"time":9,"distance":4102,"station_id":"AK","line":1},{"station_id":"DU","distance":1230,"station_name":"Duri","time":4,"i_long":106.800832,"line":1,"is_transit":true,"i_lat":-6.155215,"transit":true},{"is_transit":false,"distance":1700,"i_long":106.788277,"time":3,"station_id":"GGL","line":5,"transit":false,"station_name":"Grogol","i_lat":-6.162021},{"station_id":"PSG","i_lat":-6.161433,"transit":false,"is_transit":false,"time":2,"distance":2036,"i_long":106.771379,"line":5,"station_name":"Pesing"},{"transit":false,"time":2,"distance":1614,"station_name":"Taman Kota","line":5,"station_id":"TKO","i_long":106.756522,"i_lat":-6.1587309999999995,"is_transit":false},{"time":2,"station_id":"BOI","i_lat":-6.159876,"i_long":106.737035,"line":5,"station_name":"Bojongindah","distance":2334,"transit":false,"is_transit":false},{"i_lat":-6.162758,"station_name":"Rawa Buaya","line":5,"station_id":"RW","is_transit":false,"time":4,"distance":1152,"i_long":106.723064,"transit":false},{"i_long":106.701612,"time":3,"station_id":"KDS","is_transit":false,"transit":false,"distance":2504,"i_lat":-6.166068,"line":5,"station_name":"Kalideres"},{"i_lat":-6.169933,"i_long":106.679458,"station_name":"Poris","station_id":"PI","is_transit":false,"distance":2548,"line":5,"time":3,"transit":false},{"transit":false,"line":5,"i_lat":-6.171811,"i_long":106.665036,"station_id":"BPR","station_name":"Batuceper","time":3,"is_transit":false,"distance":1834},{"station_id":"TTI","i_lat":-6.17331,"line":5,"time":3,"i_long":106.64657,"station_name":"Tanah Tinggi","distance":2028,"transit":false,"is_transit":false},{"i_lat":-6.176583,"line":5,"transit":false,"is_transit":false,"time":3,"station_name":"Tangerang","i_long":106.632761,"distance":1547,"station_id":"TNG"}],[{"station_name":"Daru","line":0,"is_transit":false,"transit":false,"station_id":"DAR","time":0,"i_long":106.491338,"i_lat":-6.338021,"distance":0},{"station_name":"Cilejit","distance":2675,"i_long":106.508482,"is_transit":false,"time":6,"i_lat":-6.354349,"transit":false,"line":3,"station_id":"CJT"},{"time":9,"i_long":106.568863,"line":6,"transit":false,"distance":7025,"i_lat":-6.3441410000000005,"station_id":"PRP","station_name":"Parung Panjang","is_transit":false},{"station_name":"Cicayur","distance":5968,"transit":false,"is_transit":false,"time":8,"i_lat":-6.329547,"i_long":106.617853,"station_id":"CC","line":3},{"line":3,"i_long":106.640411,"station_id":"CSK","transit":false,"i_lat":-6.32484,"station_name":"Cisauk","distance":2519,"time":4,"is_transit":false},{"distance":1784,"is_transit":false,"station_name":"Serpong","time":4,"i_long":106.66566,"line":6,"i_lat":-6.319871,"transit":false,"station_id":"SRP"},{"transit":false,"i_long":106.675475,"time":4,"is_transit":false,"i_lat":-6.314823,"station_name":"Rawa Buntu","distance":2413,"line":6,"station_id":"RU"},{"is_transit":false,"distance":4566,"i_lat":-6.296963,"station_id":"SDM","station_name":"Sudimara","transit":false,"time":6,"i_long":106.712277,"line":6},{"i_long":106.728916,"is_transit":false,"time":4,"distance":1994,"transit":false,"station_id":"JMU","line":6,"station_name":"Jurangmangu","i_lat":-6.288927},{"time":3,"distance":2179,"i_lat":-6.276362,"line":6,"station_name":"Pondokranji","i_long":106.74273,"transit":false,"is_transit":false,"station_id":"PDJ"},{"station_name":"Kebayoran","i_long":106.780334,"i_lat":-6.237242,"is_transit":false,"line":6,"transit":false,"time":8,"distance":6218,"station_id":"KBY"},{"station_name":"Palmerah","station_id":"PLM","is_transit":false,"transit":false,"time":7,"i_lat":-6.207404,"i_long":106.79689,"line":6,"distance":3737},{"i_lat":-6.185545,"time":6,"transit":true,"station_name":"Tanah Abang","station_id":"THB","is_transit":true,"i_long":106.811091,"distance":3191,"line":1},{"distance":2029,"transit":false,"i_long":106.816351,"station_id":"KAT","station_name":"Karet","time":5,"i_lat":-6.20132,"line":1,"is_transit":false},{"transit":false,"station_id":"SUDB","is_transit":false,"time":1,"distance":471,"i_lat":-6.201433,"line":1,"i_long":106.819881,"station_name":"Sudirman Baru"},{"time":1,"station_id":"SUD","i_long":106.822649,"is_transit":false,"distance":280,"transit":false,"station_name":"Sudirman","i_lat":-6.202263,"line":1},{"line":2,"time":4,"station_id":"MRI","distance":3186,"i_lat":-6.209883,"i_long":106.84912,"transit":false,"station_name":"Manggarai","is_transit":false},{"time":2,"station_id":"MTR","transit":false,"is_transit":false,"i_lat":-6.212485,"station_name":"Matraman","line":1,"distance":1275,"i_long":106.858896},{"i_long":106.86807400000001,"time":8,"line":1,"i_lat":-6.215091,"station_name":"Jatinegara","distance":1377,"transit":true,"station_id":"JNG","is_transit":true},{"distance":1236,"i_long":106.861737,"station_id":"POK","transit":false,"station_name":"Pondok Jati","i_lat":-6.209188,"time":2,"line":11,"is_transit":false},{"i_lat":-6.193792,"station_id":"KMT","i_long":106.855437,"time":2,"line":11,"distance":1829,"station_name":"Kramat","transit":false,"is_transit":false},{"is_transit":false,"line":11,"station_id":"GST","station_name":"Gang Sentiong","transit":false,"time":1,"distance":973,"i_lat":-6.185975,"i_long":106.850107},{"line":11,"station_id":"PSE","is_transit":false,"transit":false,"distance":1567,"i_long":106.84368,"station_name":"Pasar Senen","time":8,"i_lat":-6.174784},{"time":4,"i_long":106.839204,"line":11,"distance":1436,"station_id":"KMO","station_name":"Kemayoran","i_lat":-6.161728,"transit":false,"is_transit":false},{"time":5,"is_transit":false,"station_name":"Rajawali","station_id":"RJW","distance":1901,"i_long":106.836569,"line":11,"transit":false,"i_lat":-6.14505},{"station_name":"Kampung Bandan","time":3,"i_long":106.826365,"station_id":"KPB","distance":1444,"line":4,"is_transit":true,"transit":true,"i_lat":-6.132549},{"line":1,"transit":false,"distance":4102,"station_id":"AK","station_name":"Angke","i_long":106.79867,"i_lat":-6.144674,"is_transit":false,"time":9},{"station_id":"DU","i_lat":-6.155215,"line":1,"is_transit":true,"time":4,"transit":true,"station_name":"Duri","distance":1230,"i_long":106.800832},{"station_name":"Grogol","i_lat":-6.162021,"is_transit":false,"station_id":"GGL","i_long":106.788277,"time":3,"distance":1700,"line":5,"transit":false},{"is_transit":false,"distance":2036,"i_long":106.771379,"line":5,"station_name":"Pesing","transit":false,"i_lat":-6.161433,"time":2,"station_id":"PSG"},{"transit":false,"station_id":"TKO","i_long":106.756522,"line":5,"station_name":"Taman Kota","distance":1614,"i_lat":-6.1587309999999995,"time":2,"is_transit":false},{"is_transit":false,"i_lat":-6.159876,"transit":false,"station_id":"BOI","time":2,"distance":2334,"station_name":"Bojongindah","line":5,"i_long":106.737035},{"transit":false,"is_transit":false,"distance":1152,"time":4,"i_long":106.723064,"station_name":"Rawa Buaya","station_id":"RW","i_lat":-6.162758,"line":5},{"transit":false,"station_name":"Kalideres","i_long":106.701612,"is_transit":false,"station_id":"KDS","distance":2504,"i_lat":-6.166068,"line":5,"time":3},{"i_long":106.679458,"is_transit":false,"station_id":"PI","transit":false,"distance":2548,"station_name":"Poris","i_lat":-6.169933,"time":3,"line":5},{"station_name":"Batuceper","is_transit":false,"station_id":"BPR","distance":1834,"i_long":106.665036,"time":3,"i_lat":-6.171811,"transit":false,"line":5},{"distance":2028,"i_long":106.64657,"is_transit":false,"i_lat":-6.17331,"time":3,"station_id":"TTI","transit":false,"line":5,"station_name":"Tanah Tinggi"},{"is_transit":false,"line":5,"station_name":"Tangerang","distance":1547,"i_long":106.632761,"time":3,"i_lat":-6.176583,"transit":false,"station_id":"TNG"}]]}