{"data":[[{"station_id":"DAR","time":0,"i_long":106.491338,"i_lat":-6.338021,"line":0,"distance":0,"is_transit":false,"station_name":"Daru","transit":false},{"station_id":"CJT","time":6,"is_transit":false,"i_long":106.508482,"transit":false,"i_lat":-6.354349,"distance":2675,"line":3,"station_name":"Cilejit"},{"line":6,"transit":false,"i_lat":-6.3441410000000005,"station_name":"Parung Panjang","i_long":106.568863,"station_id":"PRP","is_transit":false,"distance":7025,"time":9},{"i_lat":-6.329547,"time":8,"line":3,"is_transit":false,"i_long":106.617853,"transit":false,"station_id":"CC","station_name":"Cicayur","distance":5968},{"station_id":"CSK","time":4,"distance":2519,"is_transit":false,"station_name":"Cisauk","i_lat":-6.32484,"transit":false,"i_long":106.640411,"line":3},{"distance":1784,"station_name":"Serpong","is_transit":false,"time":4,"i_lat":-6.319871,"line":6,"i_long":106.66566,"transit":false,"station_id":"SRP"},{"i_lat":-6.314823,"station_name":"Rawa Buntu","is_transit":false,"transit":false,"line":6,"time":4,"i_long":106.675475,"station_id":"RU","distance":2413},{"station_id":"SDM","is_transit":false,"transit":false,"distance":4566,"i_long":106.712277,"line":6,"station_name":"Sudimara","time":6,"i_lat":-6.296963},{"transit":false,"station_name":"Jurangmangu","time":4,"is_transit":false,"i_lat":-6.288927,"i_long":106.728916,"station_id":"JMU","line":6,"distance":1994},{"station_id":"PDJ","line":6,"i_long":106.74273,"i_lat":-6.276362,"transit":false,"time":3,"is_transit":false,"station_name":"Pondokranji","distance":2179},{"i_long":106.780334,"is_transit":false,"station_name":"Kebayoran","station_id":"KBY","i_lat":-6.237242,"time":8,"transit":false,"distance":6218,"line":6},{"station_id":"PLM","transit":false,"distance":3737,"is_transit":false,"time":7,"station_name":"Palmerah","i_long":106.79689,"line":6,"i_lat":-6.207404},{"station_name":"Tanah Abang","i_long":106.811091,"time":6,"distance":3191,"is_transit":true,"line":1,"i_lat":-6.185545,"station_id":"THB","transit":true},{"station_name":"Duri","line":1,"time":8,"distance":3632,"i_lat":-6.155215,"is_transit":true,"i_long":106.800832,"station_id":"DU","transit":true},{"station_id":"GGL","transit":false,"station_name":"Grogol","is_transit":false,"i_lat":-6.162021,"line":5,"distance":1700,"i_long":106.788277,"time":3},{"station_name":"Pesing","line":5,"i_long":106.771379,"distance":2036,"station_id":"PSG","transit":false,"time":2,"i_lat":-6.161433,"is_transit":false},{"distance":1614,"i_lat":-6.1587309999999995,"i_long":106.756522,"station_name":"Taman Kota","is_transit":false,"station_id":"TKO","line":5,"transit":false,"time":2},{"line":5,"i_long":106.737035,"station_id":"BOI","time":2,"i_lat":-6.159876,"station_name":"Bojongindah","transit":false,"is_transit":false,"distance":2334}],[{"time":0,"is_transit":false,"station_name":"Daru","station_id":"DAR","transit":false,"i_long":106.491338,"distance":0,"i_lat":-6.338021,"line":0},{"time":6,"i_lat":-6.354349,"is_transit":false,"distance":2675,"i_long":106.508482,"station_name":"Cilejit","transit":false,"line":3,"station_id":"CJT"},{"time":9,"transit":false,"i_lat":-6.3441410000000005,"station_name":"Parung Panjang","line":6,"is_transit":false,"distance":7025,"station_id":"PRP","i_long":106.568863},{"transit":false,"station_name":"Cicayur","i_lat":-6.329547,"station_id":"CC","time":8,"distance":5968,"i_long":106.617853,"is_transit":false,"line":3},{"i_lat":-6.32484,"station_id":"CSK","time":4,"station_name":"Cisauk","line":3,"distance":2519,"transit":false,"i_long":106.640411,"is_transit":false},{"line":6,"transit":false,"station_name":"Serpong","distance":1784,"i_long":106.66566,"station_id":"SRP","time":4,"i_lat":-6.319871,"is_transit":false},{"station_id":"RU","is_transit":false,"transit":false,"station_name":"Rawa Buntu","i_long":106.675475,"time":4,"i_lat":-6.314823,"line":6,"distance":2413},{"station_name":"Sudimara","is_transit":false,"time":6,"i_lat":-6.296963,"transit":false,"i_long":106.712277,"station_id":"SDM","distance":4566,"line":6},{"i_lat":-6.288927,"i_long":106.728916,"distance":1994,"line":6,"transit":false,"station_name":"Jurangmangu","station_id":"JMU","is_transit":false,"time":4},{"i_lat":-6.276362,"station_name":"Pondokranji","line":6,"is_transit":false,"time":3,"i_long":106.74273,"station_id":"PDJ","transit":false,"distance":2179},{"distance":6218,"line":6,"is_transit":false,"transit":false,"station_id":"KBY","station_name":"Kebayoran","i_lat":-6.237242,"i_long":106.780334,"time":8},{"is_transit":false,"transit":false,"station_id":"PLM","i_lat":-6.207404,"i_long":106.79689,"station_name":"Palmerah","time":7,"distance":3737,"line":6},{"i_lat":-6.185545,"is_transit":true,"time":6,"transit":true,"distance":3191,"i_long":106.811091,"line":1,"station_name":"Tanah Abang","station_id":"THB"},{"line":1,"station_id":"KAT","station_name":"Karet","transit":false,"i_long":106.816351,"distance":2029,"time":5,"is_transit":false,"i_lat":-6.20132},{"i_lat":-6.201433,"is_transit":false,"i_long":106.819881,"transit":false,"distance":471,"station_id":"SUDB","line":1,"time":1,"station_name":"Sudirman Baru"},{"i_long":106.822649,"is_transit":false,"distance":280,"transit":false,"station_id":"SUD","time":1,"i_lat":-6.202263,"station_name":"Sudirman","line":1},{"transit":true,"time":4,"is_transit":true,"station_name":"Manggarai","i_lat":-6.209883,"line":2,"station_id":"MRI","distance":3186,"i_long":106.84912},{"i_long":106.840169,"line":2,"station_id":"CKI","is_transit":false,"distance":1590,"i_lat":-6.198556,"station_name":"Cikini","time":4,"transit":false},{"transit":false,"station_id":"GDD","i_lat":-6.186295,"station_name":"Gondangdia","is_transit":false,"time":3,"line":2,"distance":1750,"i_long":106.832183},{"station_name":"Juanda","is_transit":false,"transit":false,"i_long":106.828284,"line":2,"distance":2015,"time":4,"station_id":"JUA","i_lat":-6.166716},{"station_name":"Sawah Besar","is_transit":false,"i_lat":-6.160725,"time":2,"transit":false,"i_long":106.827103,"station_id":"SW","line":2,"distance":1149},{"time":2,"distance":906,"transit":false,"is_transit":false,"station_name":"Manggabesar","station_id":"MGB","line":2,"i_long":106.82482,"i_lat":-6.149769},{"station_name":"Jayakarta","time":2,"i_lat":-6.141205,"i_long":106.820901,"station_id":"JAY","line":2,"is_transit":false,"distance":1080,"transit":false},{"station_id":"JAKK","time":4,"i_lat":-6.137569,"is_transit":true,"station_name":"Jakarta Kota","i_long":106.812439,"line":2,"distance":1264,"transit":true},{"line":4,"distance":1364,"station_id":"KPB","station_name":"Kampung Bandan","i_lat":-6.132549,"transit":true,"i_long":106.826365,"is_transit":true,"time":3},{"transit":false,"i_lat":-6.144674,"station_id":"AK","station_name":"Angke","line":1,"i_long":106.79867,"is_transit":false,"distance":4102,"time":9},{"line":1,"station_name":"Duri","is_transit":true,"station_id":"DU","i_long":106.800832,"time":4,"transit":true,"i_lat":-6.155215,"distance":1230},{"line":5,"station_id":"GGL","is_transit":false,"station_name":"Grogol","i_long":106.788277,"time":3,"transit":false,"distance":1700,"i_lat":-6.162021},{"station_name":"Pesing","distance":2036,"transit":false,"line":5,"station_id":"PSG","time":2,"i_lat":-6.161433,"is_transit":false,"i_long":106.771379},{"transit":false,"i_lat":-6.1587309999999995,"i_long":106.756522,"station_id":"TKO","station_name":"Taman Kota","is_transit":false,"time":2,"distance":1614,"line":5},{"i_lat":-6.159876,"station_name":"Bojongindah","station_id":"BOI","line":5,"transit":false,"is_transit":false,"i_long":106.737035,"time":2,"distance":2334}],[{"is_transit":false,"i_long":106.491338,"line":0,"station_name":"Daru","time":0,"distance":0,"i_lat":-6.338021,"transit":false,"station_id":"DAR"},{"time":6,"i_lat":-6.354349,"station_name":"Cilejit","i_long":106.508482,"is_transit":false,"transit":false,"distance":2675,"line":3,"station_id":"CJT"},{"time":9,"line":6,"station_name":"Parung Panjang","is_transit":false,"i_lat":-6.3441410000000005,"i_long":106.568863,"transit":false,"distance":7025,"station_id":"PRP"},{"i_lat":-6.329547,"is_transit":false,"distance":5968,"station_id":"CC","time":8,"i_long":106.617853,"line":3,"transit":false,"station_name":"Cicayur"},{"time":4,"i_lat":-6.32484,"distance":2519,"station_name":"Cisauk","line":3,"is_transit":false,"transit":false,"station_id":"CSK","i_long":106.640411},{"station_id":"SRP","i_lat":-6.319871,"line":6,"time":4,"is_transit":false,"transit":false,"i_long":106.66566,"station_name":"Serpong","distance":1784},{"i_long":106.675475,"transit":false,"time":4,"i_lat":-6.314823,"station_name":"Rawa Buntu","station_id":"RU","is_transit":false,"line":6,"distance":2413},{"transit":false,"station_id":"SDM","is_transit":false,"time":6,"i_long":106.712277,"distance":4566,"station_name":"Sudimara","i_lat":-6.296963,"line":6},{"i_long":106.728916,"is_transit":false,"i_lat":-6.288927,"line":6,"station_id":"JMU","time":4,"distance":1994,"station_name":"Jurangmangu","transit":false},{"i_long":106.74273,"line":6,"time":3,"is_transit":false,"i_lat":-6.276362,"transit":false,"station_id":"PDJ","distance":2179,"station_name":"Pondokranji"},{"i_long":106.780334,"station_id":"KBY","distance":6218,"i_lat":-6.237242,"transit":false,"station_name":"Kebayoran","is_transit":false,"time":8,"line":6},{"line":6,"i_long":106.79689,"is_transit":false,"i_lat":-6.207404,"time":7,"transit":false,"station_name":"Palmerah","station_id":"PLM","distance":3737},{"station_id":"THB","is_transit":true,"i_long":106.811091,"line":1,"transit":true,"time":6,"distance":3191,"station_name":"Tanah Abang","i_lat":-6.185545},{"transit":false,"distance":2029,"i_lat":-6.20132,"line":1,"time":5,"i_long":106.816351,"station_name":"Karet","is_transit":false,"station_id":"KAT"},{"distance":471,"transit":false,"i_long":106.819881,"line":1,"i_lat":-6.201433,"station_name":"Sudirman Baru","station_id":"SUDB","is_transit":false,"time":1},{"i_long":106.822649,"time":1,"transit":false,"i_lat":-6.202263,"station_id":"SUD","line":1,"distance":280,"station_name":"Sudirman","is_transit":false},{"i_lat":-6.209883,"station_name":"Manggarai","station_id":"MRI","is_transit":false,"time":4,"i_long":106.84912,"transit":false,"distance":3186,"line":2},{"station_name":"Matraman","line":1,"is_transit":false,"i_long":106.858896,"station_id":"MTR","i_lat":-6.212485,"distance":1275,"time":2,"transit":false},{"i_long":106.86807400000001,"i_lat":-6.215091,"line":1,"station_id":"JNG","distance":1377,"time":8,"is_transit":true,"transit":true,"station_name":"Jatinegara"},{"station_name":"Pondok Jati","line":11,"i_long":106.861737,"transit":false,"is_transit":false,"distance":1236,"station_id":"POK","i_lat":-6.209188,"time":2},{"distance":1829,"station_name":"Kramat","station_id":"KMT","time":2,"i_lat":-6.193792,"transit":false,"is_transit":false,"i_long":106.855437,"line":11},{"time":1,"station_name":"Gang Sentiong","i_long":106.850107,"line":11,"station_id":"GST","is_transit":false,"transit":false,"distance":973,"i_lat":-6.185975},{"is_transit":false,"transit":false,"station_id":"PSE","time":8,"i_long":106.84368,"line":11,"distance":1567,"station_name":"Pasar Senen","i_lat":-6.174784},{"station_id":"KMO","time":4,"i_lat":-6.161728,"station_name":"Kemayoran","line":11,"transit":false,"distance":1436,"is_transit":false,"i_long":106.839204},{"time":5,"distance":1901,"station_id":"RJW","transit":false,"i_lat":-6.14505,"is_transit":false,"station_name":"Rajawali","i_long":106.836569,"line":11},{"line":4,"is_transit":true,"station_name":"Kampung Bandan","station_id":"KPB","transit":true,"time":3,"distance":1444,"i_lat":-6.132549,"i_long":106.826365},{"is_transit":false,"i_long":106.79867,"time":9,"line":1,"distance":4102,"station_id":"AK","station_name":"Angke","i_lat":-6.144674,"transit":false},{"transit":true,"i_long":106.800832,"time":4,"station_id":"DU","i_lat":-6.155215,"line":1,"is_transit":true,"distance":1230,"station_name":"Duri"},{"transit":false,"i_lat":-6.162021,"i_long":106.788277,"station_name":"Grogol","line":5,"distance":1700,"station_id":"GGL","is_transit":false,"time":3},{"distance":2036,"transit":false,"station_name":"Pesing","station_id":"PSG","is_transit":false,"time":2,"i_long":106.771379,"line":5,"i_lat":-6.161433},{"time":2,"i_long":106.756522,"line":5,"distance":1614,"i_lat":-6.1587309999999995,"transit":false,"station_name":"Taman Kota","is_transit":false,"station_id":"TKO"},{"transit":false,"i_lat":-6.159876,"station_name":"Bojongindah","i_long":106.737035,"is_transit":false,"time":2,"distance":2334,"line":5,"station_id":"BOI"}]]}