{"data":[[{"station_id":"DL","is_transit":false,"time":0,"station_name":"Delanggu","i_lat":-7.62181,"i_long":110.706679,"distance":0,"line":7,"transit":false},{"station_id":"CE","i_lat":-7.668597,"i_long":110.674861,"line":7,"is_transit":false,"time":7,"distance":6271,"station_name":"Ceper","transit":false},{"time":9,"distance":9279,"station_id":"KT","i_lat":-7.712087,"i_long":110.602981,"line":7,"transit":false,"is_transit":false,"station_name":"Klaten"},{"is_transit":false,"transit":false,"distance":6738,"i_long":110.548972,"line":7,"time":8,"station_name":"Srowot","i_lat":-7.74111,"station_id":"SWT"},{"distance":5850,"transit":false,"station_name":"Brambanan","is_transit":false,"i_long":110.500451,"line":0,"time":7,"station_id":"BBN","i_lat":-7.756284},{"transit":false,"distance":7905,"is_transit":false,"i_lat":-7.784476,"line":7,"time":8,"station_id":"MGW","i_long":110.436791,"station_name":"Maguwo"},{"distance":6799,"station_id":"LPN","i_lat":-7.790018,"i_long":110.375434,"line":7,"station_name":"Lempuyangan","is_transit":false,"transit":false,"time":7},{"station_name":"Yogyakarta","i_long":110.36345,"distance":1307,"transit":false,"i_lat":-7.788961,"line":7,"is_transit":false,"time":6,"station_id":"YK"},{"time":5,"station_id":"PTN","transit":false,"i_lat":-7.790605,"i_long":110.32542,"is_transit":false,"station_name":"Patukan","distance":4241,"line":7},{"line":7,"distance":4579,"is_transit":false,"time":4,"transit":false,"station_id":"RWL","station_name":"Rewulu","i_lat":-7.797702,"i_long":110.279205},{"line":0,"station_name":"Sentolo","transit":false,"time":8,"distance":9041,"i_long":110.220122,"i_lat":-7.832939,"station_id":"STL","is_transit":false},{"i_lat":-7.859237,"distance":10145,"i_long":110.158003,"station_id":"WT","line":7,"is_transit":false,"station_name":"Wates","transit":false,"time":25},{"distance":13652,"is_transit":false,"time":15,"i_lat":-7.861626,"transit":false,"i_long":110.040449,"line":7,"station_name":"Wojo","station_id":"WJ"},{"station_id":"JN","distance":8393,"is_transit":false,"i_lat":-7.801845,"station_name":"Jenar","i_long":110.000548,"line":0,"transit":false,"time":10}]]}