{"data":[[{"line":0,"distance":0,"i_lat":-7.62181,"is_transit":false,"transit":false,"station_name":"Delanggu","station_id":"DL","i_long":110.706679,"time":0},{"time":7,"is_transit":false,"line":0,"i_long":110.674861,"distance":6271,"station_id":"CE","transit":false,"i_lat":-7.668597,"station_name":"Ceper"},{"transit":false,"line":7,"time":9,"station_id":"KT","is_transit":false,"distance":9279,"i_lat":-7.712087,"i_long":110.602981,"station_name":"Klaten"},{"distance":6738,"station_id":"SWT","time":8,"i_lat":-7.74111,"line":7,"is_transit":false,"transit":false,"i_long":110.548972,"station_name":"Srowot"},{"transit":false,"station_id":"BBN","station_name":"Brambanan","i_lat":-7.756284,"time":7,"is_transit":false,"distance":5850,"line":0,"i_long":110.500451},{"time":8,"line":7,"transit":false,"is_transit":false,"distance":7905,"station_id":"MGW","i_lat":-7.784476,"station_name":"Maguwo","i_long":110.436791},{"line":7,"station_name":"Lempuyangan","is_transit":false,"distance":6799,"i_lat":-7.790018,"transit":false,"time":7,"i_long":110.375434,"station_id":"LPN"},{"i_lat":-7.788961,"station_name":"Yogyakarta","is_transit":false,"transit":false,"i_long":110.36345,"line":7,"distance":1307,"station_id":"YK","time":6},{"time":5,"station_name":"Patukan","station_id":"PTN","i_lat":-7.790605,"line":7,"distance":4241,"transit":false,"is_transit":false,"i_long":110.32542},{"i_long":110.279205,"time":4,"distance":4579,"is_transit":false,"station_name":"Rewulu","station_id":"RWL","transit":false,"line":7,"i_lat":-7.797702},{"time":8,"i_lat":-7.832939,"station_id":"STL","i_long":110.220122,"station_name":"Sentolo","transit":false,"line":7,"is_transit":false,"distance":9041},{"i_lat":-7.859237,"station_id":"WT","is_transit":false,"line":7,"distance":10145,"i_long":110.158003,"station_name":"Wates","transit":false,"time":25},{"station_name":"Wojo","time":15,"station_id":"WJ","is_transit":false,"transit":false,"distance":13652,"i_long":110.040449,"line":7,"i_lat":-7.861626},{"i_long":110.000548,"time":10,"is_transit":false,"station_name":"Jenar","transit":false,"i_lat":-7.801845,"distance":8393,"line":7,"station_id":"JN"}]]}