{"data":[[{"i_lat":-7.62181,"transit":false,"station_id":"DL","is_transit":false,"i_long":110.706679,"line":7,"time":0,"station_name":"Delanggu","distance":0},{"i_lat":-7.668597,"transit":false,"distance":6271,"is_transit":false,"station_id":"CE","i_long":110.674861,"station_name":"Ceper","line":7,"time":7},{"station_id":"KT","station_name":"Klaten","time":9,"is_transit":false,"i_long":110.602981,"i_lat":-7.712087,"line":7,"transit":false,"distance":9279},{"station_name":"Srowot","i_long":110.548972,"time":8,"distance":6738,"station_id":"SWT","i_lat":-7.74111,"is_transit":false,"transit":false,"line":7},{"i_long":110.500451,"transit":false,"distance":5850,"station_name":"Brambanan","time":7,"line":0,"station_id":"BBN","is_transit":false,"i_lat":-7.756284},{"distance":7905,"i_lat":-7.784476,"transit":false,"is_transit":false,"time":8,"i_long":110.436791,"line":7,"station_id":"MGW","station_name":"Maguwo"},{"station_id":"LPN","i_long":110.375434,"transit":false,"line":7,"time":7,"station_name":"Lempuyangan","is_transit":false,"distance":6799,"i_lat":-7.790018},{"station_name":"Yogyakarta","time":6,"distance":1307,"i_lat":-7.788961,"i_long":110.36345,"transit":false,"is_transit":false,"station_id":"YK","line":7},{"line":7,"transit":false,"is_transit":false,"station_id":"PTN","station_name":"Patukan","distance":4241,"time":5,"i_long":110.32542,"i_lat":-7.790605},{"time":4,"transit":false,"line":7,"station_name":"Rewulu","is_transit":false,"station_id":"RWL","i_lat":-7.797702,"i_long":110.279205,"distance":4579},{"station_id":"STL","line":0,"i_long":110.220122,"is_transit":false,"time":8,"transit":false,"distance":9041,"i_lat":-7.832939,"station_name":"Sentolo"},{"distance":10145,"line":7,"station_id":"WT","is_transit":false,"time":25,"transit":false,"station_name":"Wates","i_long":110.158003,"i_lat":-7.859237},{"time":15,"is_transit":false,"station_id":"WJ","distance":13652,"i_lat":-7.861626,"transit":false,"line":7,"station_name":"Wojo","i_long":110.040449},{"is_transit":false,"station_name":"Jenar","line":0,"transit":false,"time":10,"i_lat":-7.801845,"i_long":110.000548,"station_id":"JN","distance":8393}]]}