{"data":[[{"i_long":110.706679,"line":7,"station_name":"Delanggu","time":0,"distance":0,"station_id":"DL","transit":false,"is_transit":false,"i_lat":-7.62181},{"line":7,"station_name":"Ceper","transit":false,"time":7,"distance":6271,"i_lat":-7.668597,"station_id":"CE","is_transit":false,"i_long":110.674861},{"i_lat":-7.712087,"i_long":110.602981,"station_id":"KT","station_name":"Klaten","transit":false,"distance":9279,"line":7,"is_transit":false,"time":9},{"transit":false,"station_id":"SWT","time":8,"distance":6738,"i_lat":-7.74111,"i_long":110.548972,"station_name":"Srowot","is_transit":false,"line":7},{"time":7,"transit":false,"i_lat":-7.756284,"line":0,"distance":5850,"station_name":"Brambanan","station_id":"BBN","is_transit":false,"i_long":110.500451},{"transit":false,"i_long":110.436791,"line":7,"i_lat":-7.784476,"distance":7905,"time":8,"station_name":"Maguwo","station_id":"MGW","is_transit":false},{"transit":false,"station_name":"Lempuyangan","i_long":110.375434,"distance":6799,"i_lat":-7.790018,"station_id":"LPN","is_transit":false,"time":7,"line":7},{"station_name":"Yogyakarta","transit":false,"line":7,"time":6,"i_long":110.36345,"distance":1307,"i_lat":-7.788961,"station_id":"YK","is_transit":false},{"station_id":"PTN","station_name":"Patukan","distance":4241,"time":5,"transit":false,"is_transit":false,"i_long":110.32542,"line":7,"i_lat":-7.790605},{"line":7,"distance":4579,"is_transit":false,"station_name":"Rewulu","transit":false,"station_id":"RWL","time":4,"i_long":110.279205,"i_lat":-7.797702},{"is_transit":false,"transit":false,"station_id":"STL","line":0,"i_long":110.220122,"distance":9041,"time":8,"i_lat":-7.832939,"station_name":"Sentolo"},{"station_id":"WT","time":25,"distance":10145,"transit":false,"line":7,"i_long":110.158003,"station_name":"Wates","i_lat":-7.859237,"is_transit":false},{"i_long":110.040449,"station_id":"WJ","i_lat":-7.861626,"distance":13652,"is_transit":false,"transit":false,"station_name":"Wojo","time":15,"line":7},{"time":10,"station_name":"Jenar","distance":8393,"line":0,"is_transit":false,"transit":false,"station_id":"JN","i_long":110.000548,"i_lat":-7.801845},{"time":16,"i_long":109.90723,"is_transit":false,"i_lat":-7.725824,"station_name":"Kutoarjo","station_id":"KTA","line":0,"transit":false,"distance":10145}]]}