{"data":[[{"line":7,"station_id":"DL","i_long":110.706679,"i_lat":-7.62181,"station_name":"Delanggu","transit":false,"time":0,"is_transit":false,"distance":0},{"i_lat":-7.668597,"station_name":"Ceper","line":7,"transit":false,"i_long":110.674861,"is_transit":false,"station_id":"CE","distance":6271,"time":7},{"is_transit":false,"time":9,"line":7,"distance":9279,"transit":false,"station_name":"Klaten","i_long":110.602981,"i_lat":-7.712087,"station_id":"KT"},{"station_name":"Srowot","distance":6738,"i_long":110.548972,"line":7,"transit":false,"i_lat":-7.74111,"time":8,"is_transit":false,"station_id":"SWT"},{"station_name":"Brambanan","is_transit":false,"i_long":110.500451,"distance":5850,"line":0,"i_lat":-7.756284,"transit":false,"time":7,"station_id":"BBN"},{"station_id":"MGW","i_lat":-7.784476,"line":7,"station_name":"Maguwo","distance":7905,"time":8,"transit":false,"i_long":110.436791,"is_transit":false},{"transit":false,"i_lat":-7.790018,"time":7,"distance":6799,"i_long":110.375434,"line":7,"station_id":"LPN","station_name":"Lempuyangan","is_transit":false},{"distance":1307,"time":6,"transit":false,"station_id":"YK","i_long":110.36345,"station_name":"Yogyakarta","line":7,"i_lat":-7.788961,"is_transit":false},{"i_long":110.32542,"is_transit":false,"time":5,"transit":false,"station_id":"PTN","distance":4241,"i_lat":-7.790605,"station_name":"Patukan","line":7},{"station_name":"Rewulu","time":4,"i_long":110.279205,"line":7,"station_id":"RWL","transit":false,"distance":4579,"i_lat":-7.797702,"is_transit":false},{"i_lat":-7.832939,"station_id":"STL","time":8,"transit":false,"i_long":110.220122,"line":0,"station_name":"Sentolo","is_transit":false,"distance":9041},{"i_lat":-7.859237,"transit":false,"station_id":"WT","is_transit":false,"i_long":110.158003,"line":7,"time":25,"station_name":"Wates","distance":10145},{"i_lat":-7.861626,"transit":false,"distance":13652,"is_transit":false,"station_id":"WJ","i_long":110.040449,"station_name":"Wojo","line":7,"time":15},{"distance":8393,"i_lat":-7.801845,"is_transit":false,"station_id":"JN","time":10,"station_name":"Jenar","transit":false,"i_long":110.000548,"line":0},{"time":16,"is_transit":false,"distance":10145,"station_name":"Kutoarjo","i_lat":-7.725824,"i_long":109.90723,"line":0,"transit":false,"station_id":"KTA"}]]}