{"data":[[{"is_transit":false,"station_name":"Delanggu","station_id":"DL","transit":false,"i_long":110.706679,"time":0,"i_lat":-7.62181,"line":0,"distance":0},{"station_id":"CE","i_long":110.674861,"is_transit":false,"line":0,"distance":6271,"i_lat":-7.668597,"station_name":"Ceper","transit":false,"time":7},{"station_id":"KT","time":9,"i_long":110.602981,"line":7,"transit":false,"is_transit":false,"i_lat":-7.712087,"distance":9279,"station_name":"Klaten"},{"is_transit":false,"station_id":"SWT","station_name":"Srowot","distance":6738,"transit":false,"i_long":110.548972,"i_lat":-7.74111,"line":7,"time":8},{"time":7,"station_id":"BBN","line":0,"i_long":110.500451,"station_name":"Brambanan","i_lat":-7.756284,"distance":5850,"is_transit":false,"transit":false},{"i_long":110.436791,"line":7,"station_id":"MGW","i_lat":-7.784476,"distance":7905,"transit":false,"is_transit":false,"station_name":"Maguwo","time":8},{"time":7,"i_long":110.375434,"distance":6799,"station_id":"LPN","line":7,"station_name":"Lempuyangan","transit":false,"i_lat":-7.790018,"is_transit":false},{"transit":false,"line":7,"is_transit":false,"station_id":"YK","time":6,"i_lat":-7.788961,"station_name":"Yogyakarta","i_long":110.36345,"distance":1307},{"is_transit":false,"i_lat":-7.790605,"station_id":"PTN","station_name":"Patukan","i_long":110.32542,"distance":4241,"transit":false,"time":5,"line":7},{"i_long":110.279205,"line":7,"distance":4579,"station_name":"Rewulu","time":4,"i_lat":-7.797702,"transit":false,"station_id":"RWL","is_transit":false},{"station_id":"STL","line":7,"i_long":110.220122,"transit":false,"is_transit":false,"distance":9041,"station_name":"Sentolo","time":8,"i_lat":-7.832939},{"station_name":"Wates","station_id":"WT","line":7,"distance":10145,"transit":false,"time":25,"i_lat":-7.859237,"i_long":110.158003,"is_transit":false},{"line":7,"transit":false,"time":15,"station_id":"WJ","distance":13652,"i_long":110.040449,"i_lat":-7.861626,"is_transit":false,"station_name":"Wojo"},{"transit":false,"distance":8393,"time":10,"i_long":110.000548,"i_lat":-7.801845,"station_name":"Jenar","line":7,"station_id":"JN","is_transit":false},{"time":16,"station_id":"KTA","transit":false,"line":7,"station_name":"Kutoarjo","i_long":109.90723,"distance":10145,"is_transit":false,"i_lat":-7.725824}]]}