{"data":[[{"is_transit":false,"station_name":"Delanggu","distance":0,"transit":false,"i_long":110.706679,"i_lat":-7.62181,"time":0,"line":7,"station_id":"DL"},{"i_lat":-7.668597,"station_id":"CE","is_transit":false,"time":7,"station_name":"Ceper","i_long":110.674861,"distance":6271,"transit":false,"line":7},{"is_transit":false,"distance":9279,"i_long":110.602981,"station_id":"KT","line":7,"station_name":"Klaten","time":9,"transit":false,"i_lat":-7.712087},{"is_transit":false,"transit":false,"i_lat":-7.74111,"station_name":"Srowot","station_id":"SWT","time":8,"distance":6738,"i_long":110.548972,"line":7},{"time":7,"i_long":110.500451,"distance":5850,"line":0,"transit":false,"station_id":"BBN","station_name":"Brambanan","i_lat":-7.756284,"is_transit":false},{"distance":7905,"time":8,"station_name":"Maguwo","i_lat":-7.784476,"station_id":"MGW","line":7,"i_long":110.436791,"is_transit":false,"transit":false},{"distance":6799,"is_transit":false,"station_id":"LPN","station_name":"Lempuyangan","i_lat":-7.790018,"time":7,"transit":false,"i_long":110.375434,"line":7},{"transit":false,"i_lat":-7.788961,"line":7,"is_transit":false,"distance":1307,"station_name":"Yogyakarta","i_long":110.36345,"station_id":"YK","time":6},{"time":5,"i_lat":-7.790605,"i_long":110.32542,"transit":false,"station_name":"Patukan","distance":4241,"line":7,"is_transit":false,"station_id":"PTN"},{"i_long":110.279205,"transit":false,"is_transit":false,"time":4,"line":7,"station_name":"Rewulu","station_id":"RWL","distance":4579,"i_lat":-7.797702},{"i_lat":-7.832939,"distance":9041,"i_long":110.220122,"line":0,"is_transit":false,"transit":false,"station_name":"Sentolo","station_id":"STL","time":8},{"distance":10145,"is_transit":false,"station_name":"Wates","i_long":110.158003,"transit":false,"time":25,"station_id":"WT","i_lat":-7.859237,"line":7},{"time":15,"distance":13652,"is_transit":false,"line":7,"i_long":110.040449,"i_lat":-7.861626,"station_id":"WJ","transit":false,"station_name":"Wojo"},{"station_name":"Jenar","i_long":110.000548,"i_lat":-7.801845,"is_transit":false,"line":0,"station_id":"JN","time":10,"transit":false,"distance":8393},{"line":0,"transit":false,"distance":10145,"time":16,"station_id":"KTA","is_transit":false,"station_name":"Kutoarjo","i_lat":-7.725824,"i_long":109.90723}]]}