{"data":[[{"line":7,"i_lat":-7.62181,"time":0,"is_transit":false,"transit":false,"i_long":110.706679,"station_name":"Delanggu","distance":0,"station_id":"DL"},{"station_id":"CE","is_transit":false,"i_long":110.674861,"transit":false,"line":7,"time":7,"distance":6271,"i_lat":-7.668597,"station_name":"Ceper"},{"is_transit":false,"station_name":"Klaten","i_long":110.602981,"line":7,"time":9,"transit":false,"i_lat":-7.712087,"distance":9279,"station_id":"KT"},{"time":8,"is_transit":false,"station_name":"Srowot","station_id":"SWT","distance":6738,"i_lat":-7.74111,"line":7,"transit":false,"i_long":110.548972},{"time":7,"station_name":"Brambanan","transit":false,"station_id":"BBN","is_transit":false,"i_lat":-7.756284,"line":0,"distance":5850,"i_long":110.500451},{"line":7,"i_lat":-7.784476,"distance":7905,"station_name":"Maguwo","station_id":"MGW","i_long":110.436791,"is_transit":false,"time":8,"transit":false},{"time":7,"i_lat":-7.790018,"station_id":"LPN","station_name":"Lempuyangan","transit":false,"is_transit":false,"distance":6799,"i_long":110.375434,"line":7}]]}