{"data":[[{"i_long":110.706679,"is_transit":false,"line":7,"station_id":"DL","station_name":"Delanggu","i_lat":-7.62181,"transit":false,"distance":0,"time":0},{"i_long":110.674861,"i_lat":-7.668597,"station_id":"CE","is_transit":false,"transit":false,"distance":6271,"time":7,"station_name":"Ceper","line":7},{"i_long":110.602981,"distance":9279,"line":7,"station_name":"Klaten","is_transit":false,"i_lat":-7.712087,"station_id":"KT","time":9,"transit":false},{"station_id":"SWT","distance":6738,"line":7,"time":8,"i_long":110.548972,"i_lat":-7.74111,"is_transit":false,"transit":false,"station_name":"Srowot"},{"i_lat":-7.756284,"time":7,"distance":5850,"transit":false,"station_name":"Brambanan","line":0,"i_long":110.500451,"is_transit":false,"station_id":"BBN"},{"station_id":"MGW","is_transit":false,"station_name":"Maguwo","distance":7905,"time":8,"i_long":110.436791,"line":7,"transit":false,"i_lat":-7.784476},{"time":7,"is_transit":false,"transit":false,"line":7,"station_name":"Lempuyangan","station_id":"LPN","distance":6799,"i_lat":-7.790018,"i_long":110.375434}]]}