{"data":[[{"distance":0,"is_transit":false,"transit":false,"i_long":110.706679,"time":0,"station_name":"Delanggu","i_lat":-7.62181,"line":0,"station_id":"DL"},{"i_lat":-7.668597,"is_transit":false,"station_name":"Ceper","distance":6271,"line":0,"time":7,"i_long":110.674861,"station_id":"CE","transit":false},{"is_transit":false,"distance":9279,"station_id":"KT","i_lat":-7.712087,"station_name":"Klaten","transit":false,"time":9,"line":7,"i_long":110.602981},{"time":8,"station_id":"SWT","line":7,"station_name":"Srowot","transit":false,"i_lat":-7.74111,"i_long":110.548972,"distance":6738,"is_transit":false},{"transit":false,"i_lat":-7.756284,"is_transit":false,"station_id":"BBN","distance":5850,"time":7,"i_long":110.500451,"line":0,"station_name":"Brambanan"},{"transit":false,"is_transit":false,"time":8,"line":7,"distance":7905,"station_id":"MGW","station_name":"Maguwo","i_lat":-7.784476,"i_long":110.436791},{"i_lat":-7.790018,"station_id":"LPN","transit":false,"time":7,"is_transit":false,"i_long":110.375434,"line":7,"distance":6799,"station_name":"Lempuyangan"}]]}