{"data":[[{"line":0,"station_id":"DL","is_transit":false,"station_name":"Delanggu","time":0,"i_long":110.706679,"transit":false,"distance":0,"i_lat":-7.62181},{"transit":false,"is_transit":false,"i_long":110.674861,"station_name":"Ceper","distance":6271,"station_id":"CE","i_lat":-7.668597,"time":7,"line":0},{"line":7,"is_transit":false,"distance":9279,"station_id":"KT","station_name":"Klaten","transit":false,"time":9,"i_lat":-7.712087,"i_long":110.602981},{"distance":6738,"is_transit":false,"station_name":"Srowot","time":8,"line":7,"station_id":"SWT","i_lat":-7.74111,"i_long":110.548972,"transit":false},{"i_lat":-7.756284,"i_long":110.500451,"line":0,"transit":false,"is_transit":false,"station_id":"BBN","time":7,"station_name":"Brambanan","distance":5850},{"time":8,"is_transit":false,"station_id":"MGW","i_lat":-7.784476,"line":7,"station_name":"Maguwo","distance":7905,"transit":false,"i_long":110.436791}]]}