{"data":[[{"station_id":"DL","is_transit":false,"i_lat":-7.62181,"transit":false,"station_name":"Delanggu","time":0,"line":7,"distance":0,"i_long":110.706679},{"distance":6271,"i_long":110.674861,"transit":false,"station_id":"CE","is_transit":false,"station_name":"Ceper","i_lat":-7.668597,"line":7,"time":7},{"station_name":"Klaten","i_lat":-7.712087,"time":9,"transit":false,"station_id":"KT","line":7,"i_long":110.602981,"is_transit":false,"distance":9279},{"is_transit":false,"station_name":"Srowot","i_lat":-7.74111,"i_long":110.548972,"time":8,"line":7,"station_id":"SWT","transit":false,"distance":6738},{"distance":5850,"time":7,"transit":false,"station_name":"Brambanan","i_long":110.500451,"i_lat":-7.756284,"is_transit":false,"station_id":"BBN","line":0},{"transit":false,"i_long":110.436791,"station_id":"MGW","station_name":"Maguwo","distance":7905,"is_transit":false,"line":7,"i_lat":-7.784476,"time":8}]]}