{"data":[[{"line":7,"transit":false,"is_transit":false,"station_id":"DL","station_name":"Delanggu","distance":0,"time":0,"i_long":110.706679,"i_lat":-7.62181},{"time":7,"transit":false,"line":7,"station_name":"Ceper","is_transit":false,"station_id":"CE","i_lat":-7.668597,"i_long":110.674861,"distance":6271},{"station_id":"KT","line":7,"i_long":110.602981,"is_transit":false,"time":9,"transit":false,"distance":9279,"i_lat":-7.712087,"station_name":"Klaten"},{"distance":6738,"line":7,"station_id":"SWT","is_transit":false,"time":8,"transit":false,"station_name":"Srowot","i_long":110.548972,"i_lat":-7.74111},{"time":7,"is_transit":false,"station_id":"BBN","distance":5850,"i_lat":-7.756284,"transit":false,"line":0,"station_name":"Brambanan","i_long":110.500451},{"is_transit":false,"station_name":"Maguwo","line":7,"transit":false,"time":8,"i_lat":-7.784476,"i_long":110.436791,"station_id":"MGW","distance":7905}]]}