{"data":[[{"station_name":"Delanggu","transit":false,"distance":0,"station_id":"DL","line":7,"time":0,"is_transit":false,"i_lat":-7.62181,"i_long":110.706679},{"time":7,"station_name":"Ceper","is_transit":false,"i_lat":-7.668597,"line":7,"i_long":110.674861,"station_id":"CE","transit":false,"distance":6271},{"transit":false,"is_transit":false,"line":7,"time":9,"distance":9279,"station_name":"Klaten","i_long":110.602981,"i_lat":-7.712087,"station_id":"KT"},{"station_id":"SWT","transit":false,"distance":6738,"i_lat":-7.74111,"i_long":110.548972,"line":7,"time":8,"is_transit":false,"station_name":"Srowot"},{"distance":5850,"station_id":"BBN","i_lat":-7.756284,"station_name":"Brambanan","transit":false,"is_transit":false,"line":0,"i_long":110.500451,"time":7},{"line":7,"i_lat":-7.784476,"distance":7905,"transit":false,"station_id":"MGW","time":8,"station_name":"Maguwo","i_long":110.436791,"is_transit":false}]]}