{"data":[[{"transit":false,"i_lat":-6.405256,"i_long":106.816926,"distance":0,"station_id":"DP","line":0,"time":0,"station_name":"Depok","is_transit":false},{"line":0,"time":3,"i_long":106.819451,"i_lat":-6.391065,"is_transit":false,"station_id":"DPB","station_name":"Depokbaru","distance":1584,"transit":false},{"time":4,"line":2,"transit":false,"distance":2727,"i_long":106.831114,"station_id":"POC","station_name":"Pondok Cina","is_transit":false,"i_lat":-6.369073},{"station_name":"Univ. Indonesia","transit":false,"is_transit":false,"station_id":"UI","distance":1109,"i_long":106.831474,"line":2,"time":2,"i_lat":-6.360749},{"i_long":106.834175,"time":3,"line":2,"transit":false,"i_lat":-6.339291,"station_id":"UP","distance":2264,"station_name":"Univ. Pancasila","is_transit":false},{"time":2,"distance":1029,"i_lat":-6.330363,"station_name":"Lenteng Agung","is_transit":false,"station_id":"LNA","transit":false,"i_long":106.832616,"line":2},{"station_id":"TNT","station_name":"Tanjung Barat","transit":false,"is_transit":false,"i_lat":-6.3080680000000005,"i_long":106.838896,"line":2,"distance":2671,"time":3},{"line":2,"time":4,"station_id":"PSM","station_name":"Pasar Minggu","is_transit":false,"distance":2820,"i_long":106.843999,"i_lat":-6.2842400000000005,"transit":false},{"line":2,"i_long":106.851577,"transit":false,"is_transit":false,"station_name":"Pasar Minggu Baru","time":2,"station_id":"PSMB","distance":2380,"i_lat":-6.263214},{"is_transit":false,"time":2,"station_name":"Duren Kalibata","transit":false,"i_lat":-6.255332,"station_id":"DRN","line":0,"distance":824,"i_long":106.85449},{"i_lat":-6.242512,"is_transit":false,"i_long":106.856607,"transit":false,"station_id":"CW","station_name":"Cawang","line":0,"distance":1546,"time":3},{"station_id":"TEB","distance":1230,"i_long":106.857948,"line":2,"station_name":"Tebet","time":2,"is_transit":false,"transit":false,"i_lat":-6.226659},{"transit":true,"station_id":"MRI","time":4,"i_long":106.84912,"distance":2610,"line":0,"station_name":"Manggarai","i_lat":-6.209883,"is_transit":true},{"distance":3186,"i_long":106.822649,"line":1,"is_transit":false,"station_name":"Sudirman","station_id":"SUD","transit":false,"i_lat":-6.202263,"time":4},{"distance":280,"transit":false,"i_long":106.819881,"line":1,"station_name":"Sudirman Baru","i_lat":-6.201433,"is_transit":false,"time":1,"station_id":"SUDB"},{"station_name":"Karet","is_transit":false,"time":1,"station_id":"KAT","i_lat":-6.20132,"line":1,"transit":false,"distance":471,"i_long":106.816351},{"is_transit":true,"i_long":106.811091,"time":5,"station_name":"Tanah Abang","line":1,"station_id":"THB","transit":false,"distance":2029,"i_lat":-6.185545},{"time":8,"transit":true,"i_long":106.800832,"station_id":"DU","station_name":"Duri","distance":3632,"i_lat":-6.155215,"is_transit":true,"line":1},{"station_name":"Angke","station_id":"AK","time":4,"distance":1230,"is_transit":false,"i_long":106.79867,"i_lat":-6.144674,"transit":false,"line":0},{"time":9,"transit":false,"distance":4102,"i_lat":-6.132549,"is_transit":true,"line":0,"station_id":"KPB","station_name":"Kampung Bandan","i_long":106.826365},{"transit":false,"time":4,"i_long":106.84464,"line":0,"i_lat":-6.128023,"distance":2185,"station_id":"AC","station_name":"Ancol","is_transit":false}],[{"i_lat":-6.405256,"time":0,"i_long":106.816926,"line":0,"station_name":"Depok","is_transit":false,"station_id":"DP","distance":0,"transit":false},{"station_name":"Depokbaru","time":3,"station_id":"DPB","line":0,"is_transit":false,"i_lat":-6.391065,"distance":1584,"transit":false,"i_long":106.819451},{"i_long":106.831114,"line":2,"station_id":"POC","station_name":"Pondok Cina","distance":2727,"transit":false,"time":4,"i_lat":-6.369073,"is_transit":false},{"transit":false,"station_id":"UI","distance":1109,"time":2,"station_name":"Univ. Indonesia","line":2,"i_lat":-6.360749,"i_long":106.831474,"is_transit":false},{"station_name":"Univ. Pancasila","i_lat":-6.339291,"time":3,"is_transit":false,"distance":2264,"line":2,"station_id":"UP","transit":false,"i_long":106.834175},{"station_name":"Lenteng Agung","distance":1029,"transit":false,"time":2,"i_lat":-6.330363,"i_long":106.832616,"is_transit":false,"station_id":"LNA","line":2},{"station_id":"TNT","i_lat":-6.3080680000000005,"transit":false,"is_transit":false,"i_long":106.838896,"time":3,"line":2,"distance":2671,"station_name":"Tanjung Barat"},{"time":4,"station_id":"PSM","station_name":"Pasar Minggu","i_long":106.843999,"is_transit":false,"distance":2820,"i_lat":-6.2842400000000005,"line":2,"transit":false},{"is_transit":false,"time":2,"station_id":"PSMB","station_name":"Pasar Minggu Baru","distance":2380,"transit":false,"i_lat":-6.263214,"line":2,"i_long":106.851577},{"distance":824,"is_transit":false,"station_name":"Duren Kalibata","station_id":"DRN","time":2,"transit":false,"i_lat":-6.255332,"i_long":106.85449,"line":0},{"station_name":"Cawang","station_id":"CW","i_lat":-6.242512,"i_long":106.856607,"is_transit":false,"distance":1546,"line":0,"transit":false,"time":3},{"station_name":"Tebet","transit":false,"is_transit":false,"station_id":"TEB","distance":1230,"i_lat":-6.226659,"i_long":106.857948,"time":2,"line":2},{"station_id":"MRI","is_transit":true,"i_long":106.84912,"distance":2610,"transit":true,"station_name":"Manggarai","line":0,"i_lat":-6.209883,"time":4},{"station_id":"CKI","is_transit":false,"line":0,"station_name":"Cikini","distance":1590,"i_long":106.840169,"transit":false,"time":4,"i_lat":-6.198556},{"line":2,"station_name":"Gondangdia","station_id":"GDD","i_long":106.832183,"distance":1750,"time":3,"transit":false,"i_lat":-6.186295,"is_transit":false},{"distance":2015,"is_transit":false,"line":2,"i_lat":-6.166716,"station_name":"Juanda","time":4,"transit":false,"i_long":106.828284,"station_id":"JUA"},{"distance":1149,"i_long":106.827103,"is_transit":false,"station_name":"Sawah Besar","line":2,"time":2,"i_lat":-6.160725,"station_id":"SW","transit":false},{"line":2,"i_lat":-6.149769,"time":2,"station_name":"Manggabesar","distance":906,"transit":false,"is_transit":false,"i_long":106.82482,"station_id":"MGB"},{"station_id":"JAY","line":7,"station_name":"Jayakarta","is_transit":false,"time":2,"distance":1080,"transit":false,"i_long":106.820901,"i_lat":-6.141205},{"i_long":106.812439,"station_name":"Jakarta Kota","line":0,"distance":1264,"is_transit":true,"i_lat":-6.137569,"station_id":"JAKK","time":4,"transit":true},{"transit":false,"time":3,"i_lat":-6.132549,"i_long":106.826365,"line":0,"station_name":"Kampung Bandan","is_transit":true,"distance":1364,"station_id":"KPB"},{"line":0,"station_name":"Ancol","station_id":"AC","is_transit":false,"time":4,"transit":false,"i_lat":-6.128023,"distance":2185,"i_long":106.84464}],[{"station_id":"DP","distance":0,"i_long":106.816926,"station_name":"Depok","line":0,"time":0,"is_transit":false,"transit":false,"i_lat":-6.405256},{"is_transit":false,"station_id":"DPB","time":3,"distance":1584,"station_name":"Depokbaru","transit":false,"i_long":106.819451,"i_lat":-6.391065,"line":0},{"i_long":106.831114,"line":2,"transit":false,"i_lat":-6.369073,"station_name":"Pondok Cina","station_id":"POC","distance":2727,"is_transit":false,"time":4},{"station_id":"UI","station_name":"Univ. Indonesia","transit":false,"i_long":106.831474,"is_transit":false,"time":2,"i_lat":-6.360749,"line":2,"distance":1109},{"station_id":"UP","transit":false,"i_long":106.834175,"line":2,"i_lat":-6.339291,"station_name":"Univ. Pancasila","is_transit":false,"time":3,"distance":2264},{"i_lat":-6.330363,"transit":false,"station_name":"Lenteng Agung","is_transit":false,"time":2,"station_id":"LNA","line":2,"distance":1029,"i_long":106.832616},{"distance":2671,"station_name":"Tanjung Barat","transit":false,"time":3,"line":2,"station_id":"TNT","is_transit":false,"i_lat":-6.3080680000000005,"i_long":106.838896},{"station_id":"PSM","transit":false,"i_lat":-6.2842400000000005,"distance":2820,"station_name":"Pasar Minggu","is_transit":false,"i_long":106.843999,"line":2,"time":4},{"is_transit":false,"station_id":"PSMB","i_long":106.851577,"station_name":"Pasar Minggu Baru","distance":2380,"i_lat":-6.263214,"transit":false,"time":2,"line":2},{"station_id":"DRN","transit":false,"i_long":106.85449,"line":0,"i_lat":-6.255332,"time":2,"station_name":"Duren Kalibata","is_transit":false,"distance":824},{"time":3,"i_long":106.856607,"i_lat":-6.242512,"station_id":"CW","line":0,"station_name":"Cawang","transit":false,"distance":1546,"is_transit":false},{"is_transit":false,"transit":false,"time":2,"distance":1230,"i_lat":-6.226659,"line":2,"i_long":106.857948,"station_name":"Tebet","station_id":"TEB"},{"station_name":"Manggarai","i_long":106.84912,"line":0,"time":4,"transit":true,"is_transit":true,"i_lat":-6.209883,"station_id":"MRI","distance":2610},{"station_name":"Matraman","i_long":106.858896,"station_id":"MTR","time":2,"transit":false,"i_lat":-6.212485,"is_transit":false,"distance":1275,"line":1},{"is_transit":true,"line":0,"i_long":106.86807400000001,"i_lat":-6.215091,"distance":1377,"transit":true,"station_id":"JNG","station_name":"Jatinegara","time":8},{"station_id":"POK","transit":false,"i_lat":-6.209188,"i_long":106.861737,"station_name":"Pondok Jati","time":2,"line":11,"is_transit":false,"distance":1236},{"i_lat":-6.193792,"time":2,"is_transit":false,"distance":1829,"i_long":106.855437,"transit":false,"station_name":"Kramat","station_id":"KMT","line":11},{"i_long":106.850107,"station_name":"Gang Sentiong","time":1,"i_lat":-6.185975,"distance":973,"is_transit":false,"station_id":"GST","line":11,"transit":false},{"i_long":106.84368,"distance":1567,"line":11,"station_id":"PSE","i_lat":-6.174784,"station_name":"Pasar Senen","is_transit":false,"time":8,"transit":false},{"station_name":"Kemayoran","distance":1436,"i_lat":-6.161728,"time":4,"i_long":106.839204,"station_id":"KMO","is_transit":false,"transit":false,"line":11},{"is_transit":false,"transit":false,"station_name":"Rajawali","time":5,"station_id":"RJW","distance":1901,"i_long":106.836569,"line":11,"i_lat":-6.14505},{"distance":1444,"transit":true,"i_lat":-6.132549,"station_id":"KPB","line":0,"time":3,"station_name":"Kampung Bandan","is_transit":true,"i_long":106.826365},{"station_name":"Ancol","station_id":"AC","i_lat":-6.128023,"i_long":106.84464,"distance":2185,"is_transit":false,"time":4,"line":0,"transit":false}]]}