{"data":[[{"distance":0,"station_id":"DP","line":2,"i_lat":-6.405256,"is_transit":false,"transit":false,"time":0,"station_name":"Depok","i_long":106.816926},{"is_transit":false,"i_lat":-6.391065,"line":2,"time":3,"transit":false,"station_name":"Depokbaru","i_long":106.819451,"station_id":"DPB","distance":1584},{"time":4,"station_id":"POC","is_transit":false,"i_lat":-6.369073,"line":2,"i_long":106.831114,"distance":2727,"station_name":"Pondok Cina","transit":false},{"distance":1109,"time":2,"is_transit":false,"transit":false,"i_lat":-6.360749,"i_long":106.831474,"station_id":"UI","line":2,"station_name":"Univ. Indonesia"},{"distance":2264,"is_transit":false,"station_id":"UP","line":2,"i_long":106.834175,"station_name":"Univ. Pancasila","i_lat":-6.339291,"transit":false,"time":3},{"i_long":106.832616,"station_id":"LNA","line":2,"i_lat":-6.330363,"is_transit":false,"time":2,"distance":1029,"transit":false,"station_name":"Lenteng Agung"},{"station_name":"Tanjung Barat","i_long":106.838896,"transit":false,"station_id":"TNT","distance":2671,"is_transit":false,"i_lat":-6.3080680000000005,"line":2,"time":3},{"time":4,"station_name":"Pasar Minggu","i_long":106.843999,"station_id":"PSM","transit":false,"i_lat":-6.2842400000000005,"line":2,"is_transit":false,"distance":2820},{"station_name":"Pasar Minggu Baru","is_transit":false,"i_lat":-6.263214,"time":2,"station_id":"PSMB","transit":false,"i_long":106.851577,"distance":2380,"line":2},{"is_transit":false,"i_long":106.85449,"transit":false,"station_name":"Duren Kalibata","station_id":"DRN","i_lat":-6.255332,"time":2,"distance":824,"line":2},{"station_id":"CW","line":2,"distance":1546,"i_long":106.856607,"time":3,"transit":false,"i_lat":-6.242512,"station_name":"Cawang","is_transit":false},{"transit":false,"i_lat":-6.226659,"line":2,"i_long":106.857948,"is_transit":false,"distance":1230,"station_name":"Tebet","time":2,"station_id":"TEB"},{"is_transit":true,"station_name":"Manggarai","time":4,"i_lat":-6.209883,"line":2,"i_long":106.84912,"distance":2610,"station_id":"MRI","transit":true},{"station_id":"SUD","i_lat":-6.202263,"line":1,"time":4,"i_long":106.822649,"is_transit":false,"station_name":"Sudirman","distance":3186,"transit":false},{"station_name":"Sudirman Baru","is_transit":false,"i_lat":-6.201433,"i_long":106.819881,"transit":false,"line":1,"distance":280,"time":1,"station_id":"SUDB"},{"is_transit":false,"line":1,"transit":false,"i_long":106.816351,"station_id":"KAT","distance":471,"i_lat":-6.20132,"time":1,"station_name":"Karet"},{"i_long":106.811091,"is_transit":false,"transit":false,"line":1,"i_lat":-6.185545,"station_name":"Tanah Abang","time":5,"station_id":"THB","distance":2029},{"time":8,"station_id":"DU","distance":3632,"i_lat":-6.155215,"i_long":106.800832,"transit":false,"is_transit":false,"station_name":"Duri","line":1},{"time":4,"line":1,"station_name":"Angke","is_transit":false,"i_lat":-6.144674,"transit":false,"i_long":106.79867,"distance":1230,"station_id":"AK"},{"i_lat":-6.132549,"distance":4102,"is_transit":true,"time":9,"line":4,"station_name":"Kampung Bandan","i_long":106.826365,"transit":true,"station_id":"KPB"},{"station_id":"AC","line":4,"station_name":"Ancol","is_transit":false,"i_long":106.84464,"transit":false,"time":4,"i_lat":-6.128023,"distance":2185}],[{"time":0,"transit":false,"distance":0,"station_id":"DP","is_transit":false,"i_lat":-6.405256,"station_name":"Depok","i_long":106.816926,"line":2},{"is_transit":false,"i_lat":-6.391065,"station_id":"DPB","transit":false,"station_name":"Depokbaru","time":3,"i_long":106.819451,"line":2,"distance":1584},{"transit":false,"station_name":"Pondok Cina","line":2,"is_transit":false,"distance":2727,"time":4,"i_lat":-6.369073,"station_id":"POC","i_long":106.831114},{"distance":1109,"station_id":"UI","i_long":106.831474,"i_lat":-6.360749,"transit":false,"time":2,"station_name":"Univ. Indonesia","is_transit":false,"line":2},{"transit":false,"station_name":"Univ. Pancasila","is_transit":false,"time":3,"i_long":106.834175,"line":2,"distance":2264,"i_lat":-6.339291,"station_id":"UP"},{"station_name":"Lenteng Agung","station_id":"LNA","time":2,"transit":false,"i_long":106.832616,"is_transit":false,"line":2,"i_lat":-6.330363,"distance":1029},{"station_name":"Tanjung Barat","time":3,"distance":2671,"station_id":"TNT","i_lat":-6.3080680000000005,"i_long":106.838896,"is_transit":false,"line":2,"transit":false},{"line":2,"i_lat":-6.2842400000000005,"station_id":"PSM","station_name":"Pasar Minggu","transit":false,"time":4,"is_transit":false,"i_long":106.843999,"distance":2820},{"station_name":"Pasar Minggu Baru","transit":false,"distance":2380,"line":2,"i_long":106.851577,"is_transit":false,"time":2,"i_lat":-6.263214,"station_id":"PSMB"},{"transit":false,"i_lat":-6.255332,"station_id":"DRN","station_name":"Duren Kalibata","time":2,"line":2,"distance":824,"i_long":106.85449,"is_transit":false},{"station_name":"Cawang","is_transit":false,"i_lat":-6.242512,"distance":1546,"i_long":106.856607,"line":2,"time":3,"transit":false,"station_id":"CW"},{"station_id":"TEB","line":2,"time":2,"station_name":"Tebet","i_lat":-6.226659,"distance":1230,"i_long":106.857948,"is_transit":false,"transit":false},{"time":4,"is_transit":false,"line":2,"i_long":106.84912,"station_id":"MRI","i_lat":-6.209883,"station_name":"Manggarai","distance":2610,"transit":false},{"transit":false,"distance":1590,"is_transit":false,"line":2,"station_id":"CKI","station_name":"Cikini","time":4,"i_lat":-6.198556,"i_long":106.840169},{"i_long":106.832183,"station_id":"GDD","i_lat":-6.186295,"transit":false,"station_name":"Gondangdia","distance":1750,"is_transit":false,"time":3,"line":2},{"transit":false,"distance":2015,"time":4,"station_name":"Juanda","is_transit":false,"i_long":106.828284,"line":2,"station_id":"JUA","i_lat":-6.166716},{"i_lat":-6.160725,"distance":1149,"i_long":106.827103,"line":2,"is_transit":false,"station_name":"Sawah Besar","station_id":"SW","time":2,"transit":false},{"station_name":"Manggabesar","is_transit":false,"i_lat":-6.149769,"time":2,"distance":906,"station_id":"MGB","i_long":106.82482,"transit":false,"line":2},{"time":2,"distance":1080,"station_id":"JAY","i_long":106.820901,"is_transit":false,"line":2,"i_lat":-6.141205,"transit":false,"station_name":"Jayakarta"},{"station_id":"JAKK","transit":true,"i_long":106.812439,"time":4,"distance":1264,"station_name":"Jakarta Kota","is_transit":true,"i_lat":-6.137569,"line":2},{"station_id":"KPB","i_lat":-6.132549,"line":4,"transit":true,"is_transit":true,"station_name":"Kampung Bandan","distance":1364,"time":3,"i_long":106.826365},{"distance":2185,"station_id":"AC","station_name":"Ancol","line":4,"transit":false,"time":4,"i_lat":-6.128023,"is_transit":false,"i_long":106.84464}],[{"station_id":"DP","i_long":106.816926,"line":2,"is_transit":false,"i_lat":-6.405256,"distance":0,"time":0,"transit":false,"station_name":"Depok"},{"transit":false,"station_id":"DPB","time":3,"distance":1584,"is_transit":false,"i_lat":-6.391065,"line":2,"station_name":"Depokbaru","i_long":106.819451},{"station_name":"Pondok Cina","line":2,"is_transit":false,"time":4,"distance":2727,"transit":false,"i_long":106.831114,"station_id":"POC","i_lat":-6.369073},{"transit":false,"station_name":"Univ. Indonesia","station_id":"UI","time":2,"distance":1109,"is_transit":false,"i_lat":-6.360749,"i_long":106.831474,"line":2},{"station_id":"UP","i_long":106.834175,"line":2,"station_name":"Univ. Pancasila","time":3,"i_lat":-6.339291,"transit":false,"distance":2264,"is_transit":false},{"distance":1029,"i_lat":-6.330363,"transit":false,"station_name":"Lenteng Agung","is_transit":false,"i_long":106.832616,"station_id":"LNA","time":2,"line":2},{"is_transit":false,"station_id":"TNT","line":2,"i_long":106.838896,"transit":false,"time":3,"distance":2671,"i_lat":-6.3080680000000005,"station_name":"Tanjung Barat"},{"station_id":"PSM","time":4,"station_name":"Pasar Minggu","line":2,"i_lat":-6.2842400000000005,"is_transit":false,"i_long":106.843999,"transit":false,"distance":2820},{"transit":false,"line":2,"is_transit":false,"station_id":"PSMB","distance":2380,"i_long":106.851577,"station_name":"Pasar Minggu Baru","time":2,"i_lat":-6.263214},{"line":2,"i_lat":-6.255332,"station_name":"Duren Kalibata","is_transit":false,"time":2,"i_long":106.85449,"transit":false,"distance":824,"station_id":"DRN"},{"station_id":"CW","is_transit":false,"i_long":106.856607,"time":3,"i_lat":-6.242512,"transit":false,"station_name":"Cawang","distance":1546,"line":2},{"i_long":106.857948,"line":2,"is_transit":false,"station_name":"Tebet","time":2,"distance":1230,"i_lat":-6.226659,"transit":false,"station_id":"TEB"},{"station_id":"MRI","line":2,"station_name":"Manggarai","i_lat":-6.209883,"i_long":106.84912,"transit":true,"is_transit":true,"distance":2610,"time":4},{"i_lat":-6.212485,"distance":1275,"station_name":"Matraman","is_transit":false,"transit":false,"station_id":"MTR","i_long":106.858896,"time":2,"line":1},{"is_transit":true,"station_name":"Jatinegara","line":1,"station_id":"JNG","transit":true,"distance":1377,"i_lat":-6.215091,"i_long":106.86807400000001,"time":8},{"time":2,"transit":false,"is_transit":false,"i_lat":-6.209188,"station_id":"POK","station_name":"Pondok Jati","i_long":106.861737,"distance":1236,"line":11},{"i_lat":-6.193792,"line":11,"i_long":106.855437,"station_name":"Kramat","distance":1829,"station_id":"KMT","transit":false,"is_transit":false,"time":2},{"i_lat":-6.185975,"station_id":"GST","station_name":"Gang Sentiong","line":11,"is_transit":false,"distance":973,"i_long":106.850107,"time":1,"transit":false},{"i_lat":-6.174784,"transit":false,"station_name":"Pasar Senen","is_transit":false,"distance":1567,"i_long":106.84368,"time":8,"line":11,"station_id":"PSE"},{"is_transit":false,"station_id":"KMO","i_lat":-6.161728,"i_long":106.839204,"distance":1436,"line":11,"time":4,"station_name":"Kemayoran","transit":false},{"transit":false,"distance":1901,"i_lat":-6.14505,"line":11,"i_long":106.836569,"station_id":"RJW","is_transit":false,"time":5,"station_name":"Rajawali"},{"station_id":"KPB","is_transit":true,"station_name":"Kampung Bandan","time":3,"line":4,"i_long":106.826365,"transit":true,"distance":1444,"i_lat":-6.132549},{"distance":2185,"transit":false,"i_long":106.84464,"station_name":"Ancol","station_id":"AC","is_transit":false,"line":4,"time":4,"i_lat":-6.128023}]]}