{"data":[[{"line":2,"station_id":"DP","station_name":"Depok","distance":0,"time":0,"is_transit":false,"i_long":106.816926,"i_lat":-6.405256,"transit":false},{"station_name":"Depokbaru","distance":1584,"i_long":106.819451,"station_id":"DPB","is_transit":false,"line":2,"time":3,"transit":false,"i_lat":-6.391065},{"transit":false,"time":4,"station_id":"POC","is_transit":false,"line":2,"i_long":106.831114,"station_name":"Pondok Cina","i_lat":-6.369073,"distance":2727},{"transit":false,"i_long":106.831474,"time":2,"station_id":"UI","station_name":"Univ. Indonesia","distance":1109,"is_transit":false,"i_lat":-6.360749,"line":2},{"distance":2264,"station_id":"UP","i_lat":-6.339291,"line":2,"i_long":106.834175,"time":3,"station_name":"Univ. Pancasila","transit":false,"is_transit":false},{"station_name":"Lenteng Agung","line":2,"time":2,"is_transit":false,"distance":1029,"transit":false,"i_long":106.832616,"i_lat":-6.330363,"station_id":"LNA"},{"station_name":"Tanjung Barat","is_transit":false,"station_id":"TNT","time":3,"distance":2671,"i_long":106.838896,"line":2,"i_lat":-6.3080680000000005,"transit":false},{"is_transit":false,"station_name":"Pasar Minggu","time":4,"distance":2820,"station_id":"PSM","i_lat":-6.2842400000000005,"transit":false,"line":2,"i_long":106.843999},{"line":2,"station_name":"Pasar Minggu Baru","is_transit":false,"transit":false,"distance":2380,"i_lat":-6.263214,"time":2,"station_id":"PSMB","i_long":106.851577},{"distance":824,"i_long":106.85449,"i_lat":-6.255332,"line":2,"time":2,"station_id":"DRN","transit":false,"is_transit":false,"station_name":"Duren Kalibata"},{"is_transit":false,"transit":false,"line":2,"station_name":"Cawang","distance":1546,"i_lat":-6.242512,"i_long":106.856607,"time":3,"station_id":"CW"},{"distance":1230,"station_id":"TEB","time":2,"transit":false,"line":2,"i_long":106.857948,"i_lat":-6.226659,"station_name":"Tebet","is_transit":false},{"transit":true,"distance":2610,"station_name":"Manggarai","i_lat":-6.209883,"i_long":106.84912,"is_transit":true,"station_id":"MRI","time":4,"line":2},{"line":1,"is_transit":false,"time":4,"i_long":106.822649,"transit":false,"station_id":"SUD","distance":3186,"i_lat":-6.202263,"station_name":"Sudirman"},{"station_name":"Sudirman Baru","line":1,"i_lat":-6.201433,"station_id":"SUDB","transit":false,"time":1,"i_long":106.819881,"is_transit":false,"distance":280},{"line":1,"distance":471,"station_id":"KAT","station_name":"Karet","transit":false,"i_long":106.816351,"time":1,"i_lat":-6.20132,"is_transit":false},{"station_id":"THB","i_lat":-6.185545,"line":1,"is_transit":false,"station_name":"Tanah Abang","time":5,"transit":false,"i_long":106.811091,"distance":2029},{"station_name":"Duri","i_long":106.800832,"line":1,"is_transit":false,"distance":3632,"transit":false,"i_lat":-6.155215,"station_id":"DU","time":8},{"distance":1230,"i_lat":-6.144674,"station_name":"Angke","station_id":"AK","line":1,"transit":false,"i_long":106.79867,"is_transit":false,"time":4}],[{"station_id":"DP","distance":0,"line":2,"time":0,"station_name":"Depok","transit":false,"i_lat":-6.405256,"i_long":106.816926,"is_transit":false},{"is_transit":false,"distance":1584,"line":2,"transit":false,"time":3,"station_id":"DPB","i_lat":-6.391065,"station_name":"Depokbaru","i_long":106.819451},{"i_lat":-6.369073,"station_id":"POC","is_transit":false,"station_name":"Pondok Cina","transit":false,"line":2,"distance":2727,"time":4,"i_long":106.831114},{"time":2,"station_name":"Univ. Indonesia","distance":1109,"i_lat":-6.360749,"is_transit":false,"line":2,"i_long":106.831474,"transit":false,"station_id":"UI"},{"line":2,"station_name":"Univ. Pancasila","station_id":"UP","is_transit":false,"distance":2264,"i_long":106.834175,"transit":false,"time":3,"i_lat":-6.339291},{"transit":false,"time":2,"distance":1029,"i_long":106.832616,"station_name":"Lenteng Agung","i_lat":-6.330363,"station_id":"LNA","is_transit":false,"line":2},{"distance":2671,"station_name":"Tanjung Barat","station_id":"TNT","transit":false,"i_long":106.838896,"is_transit":false,"time":3,"i_lat":-6.3080680000000005,"line":2},{"i_long":106.843999,"is_transit":false,"station_name":"Pasar Minggu","distance":2820,"transit":false,"i_lat":-6.2842400000000005,"line":2,"station_id":"PSM","time":4},{"i_long":106.851577,"transit":false,"station_id":"PSMB","is_transit":false,"i_lat":-6.263214,"time":2,"line":2,"station_name":"Pasar Minggu Baru","distance":2380},{"i_long":106.85449,"i_lat":-6.255332,"transit":false,"station_id":"DRN","is_transit":false,"time":2,"station_name":"Duren Kalibata","line":2,"distance":824},{"station_name":"Cawang","time":3,"line":2,"transit":false,"station_id":"CW","i_lat":-6.242512,"is_transit":false,"i_long":106.856607,"distance":1546},{"distance":1230,"i_lat":-6.226659,"station_id":"TEB","time":2,"line":2,"i_long":106.857948,"station_name":"Tebet","is_transit":false,"transit":false},{"station_name":"Manggarai","line":2,"is_transit":false,"i_long":106.84912,"time":4,"transit":false,"station_id":"MRI","i_lat":-6.209883,"distance":2610},{"station_name":"Cikini","time":4,"transit":false,"station_id":"CKI","i_long":106.840169,"distance":1590,"i_lat":-6.198556,"is_transit":false,"line":2},{"time":3,"station_id":"GDD","is_transit":false,"station_name":"Gondangdia","distance":1750,"i_long":106.832183,"transit":false,"i_lat":-6.186295,"line":2},{"line":2,"station_id":"JUA","distance":2015,"time":4,"station_name":"Juanda","i_long":106.828284,"i_lat":-6.166716,"transit":false,"is_transit":false},{"time":2,"station_name":"Sawah Besar","i_lat":-6.160725,"station_id":"SW","transit":false,"is_transit":false,"distance":1149,"i_long":106.827103,"line":2},{"transit":false,"station_name":"Manggabesar","distance":906,"i_lat":-6.149769,"time":2,"station_id":"MGB","is_transit":false,"i_long":106.82482,"line":2},{"station_name":"Jayakarta","distance":1080,"line":2,"i_long":106.820901,"transit":false,"is_transit":false,"time":2,"station_id":"JAY","i_lat":-6.141205},{"is_transit":true,"distance":1264,"station_id":"JAKK","i_long":106.812439,"line":2,"i_lat":-6.137569,"transit":true,"station_name":"Jakarta Kota","time":4},{"time":3,"station_name":"Kampung Bandan","distance":1364,"line":4,"transit":true,"i_lat":-6.132549,"station_id":"KPB","is_transit":true,"i_long":106.826365},{"distance":4102,"i_long":106.79867,"i_lat":-6.144674,"station_name":"Angke","transit":false,"is_transit":false,"station_id":"AK","line":1,"time":9}],[{"is_transit":false,"distance":0,"transit":false,"time":0,"line":2,"i_long":106.816926,"station_name":"Depok","i_lat":-6.405256,"station_id":"DP"},{"station_name":"Depokbaru","is_transit":false,"time":3,"transit":false,"distance":1584,"i_lat":-6.391065,"i_long":106.819451,"line":2,"station_id":"DPB"},{"i_lat":-6.369073,"i_long":106.831114,"station_id":"POC","transit":false,"time":4,"distance":2727,"line":2,"station_name":"Pondok Cina","is_transit":false},{"time":2,"station_id":"UI","i_long":106.831474,"i_lat":-6.360749,"station_name":"Univ. Indonesia","line":2,"is_transit":false,"distance":1109,"transit":false},{"transit":false,"line":2,"is_transit":false,"time":3,"station_name":"Univ. Pancasila","i_long":106.834175,"station_id":"UP","i_lat":-6.339291,"distance":2264},{"i_long":106.832616,"line":2,"i_lat":-6.330363,"time":2,"distance":1029,"transit":false,"station_id":"LNA","station_name":"Lenteng Agung","is_transit":false},{"line":2,"transit":false,"time":3,"distance":2671,"station_id":"TNT","station_name":"Tanjung Barat","i_lat":-6.3080680000000005,"i_long":106.838896,"is_transit":false},{"transit":false,"station_id":"PSM","i_lat":-6.2842400000000005,"is_transit":false,"i_long":106.843999,"distance":2820,"time":4,"line":2,"station_name":"Pasar Minggu"},{"i_lat":-6.263214,"station_name":"Pasar Minggu Baru","station_id":"PSMB","line":2,"i_long":106.851577,"transit":false,"time":2,"distance":2380,"is_transit":false},{"is_transit":false,"transit":false,"time":2,"station_name":"Duren Kalibata","i_long":106.85449,"distance":824,"station_id":"DRN","i_lat":-6.255332,"line":2},{"station_id":"CW","i_lat":-6.242512,"transit":false,"station_name":"Cawang","i_long":106.856607,"time":3,"is_transit":false,"distance":1546,"line":2},{"distance":1230,"i_long":106.857948,"transit":false,"is_transit":false,"station_name":"Tebet","i_lat":-6.226659,"line":2,"time":2,"station_id":"TEB"},{"is_transit":true,"i_long":106.84912,"time":4,"i_lat":-6.209883,"transit":true,"line":2,"distance":2610,"station_id":"MRI","station_name":"Manggarai"},{"station_name":"Matraman","i_lat":-6.212485,"distance":1275,"transit":false,"station_id":"MTR","line":1,"time":2,"is_transit":false,"i_long":106.858896},{"distance":1377,"line":1,"station_id":"JNG","transit":true,"station_name":"Jatinegara","time":8,"i_lat":-6.215091,"is_transit":true,"i_long":106.86807400000001},{"station_name":"Pondok Jati","station_id":"POK","time":2,"i_long":106.861737,"line":11,"is_transit":false,"i_lat":-6.209188,"distance":1236,"transit":false},{"time":2,"station_name":"Kramat","i_lat":-6.193792,"station_id":"KMT","i_long":106.855437,"line":11,"is_transit":false,"transit":false,"distance":1829},{"i_long":106.850107,"station_name":"Gang Sentiong","transit":false,"line":11,"distance":973,"time":1,"station_id":"GST","is_transit":false,"i_lat":-6.185975},{"transit":false,"line":11,"station_name":"Pasar Senen","time":8,"is_transit":false,"distance":1567,"i_long":106.84368,"i_lat":-6.174784,"station_id":"PSE"},{"line":11,"time":4,"station_id":"KMO","station_name":"Kemayoran","is_transit":false,"distance":1436,"i_lat":-6.161728,"i_long":106.839204,"transit":false},{"distance":1901,"i_long":106.836569,"line":11,"i_lat":-6.14505,"station_id":"RJW","station_name":"Rajawali","is_transit":false,"transit":false,"time":5},{"station_id":"KPB","transit":true,"station_name":"Kampung Bandan","line":4,"i_lat":-6.132549,"time":3,"is_transit":true,"distance":1444,"i_long":106.826365},{"is_transit":false,"station_id":"AK","transit":false,"i_long":106.79867,"distance":4102,"i_lat":-6.144674,"line":1,"time":9,"station_name":"Angke"}]]}