{"data":[[{"time":0,"line":2,"i_long":106.816926,"station_id":"DP","is_transit":false,"station_name":"Depok","i_lat":-6.405256,"distance":0,"transit":false},{"transit":false,"line":2,"i_long":106.819451,"station_id":"DPB","time":3,"is_transit":false,"distance":1584,"i_lat":-6.391065,"station_name":"Depokbaru"},{"i_lat":-6.369073,"line":2,"transit":false,"distance":2727,"station_id":"POC","station_name":"Pondok Cina","is_transit":false,"time":4,"i_long":106.831114},{"is_transit":false,"i_long":106.831474,"i_lat":-6.360749,"time":2,"station_name":"Univ. Indonesia","station_id":"UI","distance":1109,"transit":false,"line":2},{"station_id":"UP","i_long":106.834175,"line":2,"is_transit":false,"transit":false,"station_name":"Univ. Pancasila","distance":2264,"time":3,"i_lat":-6.339291},{"station_name":"Lenteng Agung","time":2,"i_lat":-6.330363,"i_long":106.832616,"transit":false,"distance":1029,"line":2,"is_transit":false,"station_id":"LNA"},{"time":3,"distance":2671,"station_name":"Tanjung Barat","i_long":106.838896,"line":2,"i_lat":-6.3080680000000005,"transit":false,"is_transit":false,"station_id":"TNT"},{"line":2,"station_id":"PSM","i_long":106.843999,"distance":2820,"is_transit":false,"time":4,"station_name":"Pasar Minggu","transit":false,"i_lat":-6.2842400000000005},{"distance":2380,"transit":false,"is_transit":false,"i_lat":-6.263214,"i_long":106.851577,"line":2,"station_name":"Pasar Minggu Baru","station_id":"PSMB","time":2},{"transit":false,"i_long":106.85449,"time":2,"distance":824,"is_transit":false,"station_id":"DRN","line":2,"station_name":"Duren Kalibata","i_lat":-6.255332},{"station_name":"Cawang","line":2,"i_long":106.856607,"is_transit":false,"station_id":"CW","time":3,"distance":1546,"transit":false,"i_lat":-6.242512},{"station_id":"TEB","distance":1230,"line":2,"i_lat":-6.226659,"i_long":106.857948,"is_transit":false,"station_name":"Tebet","transit":false,"time":2},{"line":2,"transit":true,"i_lat":-6.209883,"time":4,"is_transit":true,"station_id":"MRI","distance":2610,"i_long":106.84912,"station_name":"Manggarai"},{"line":1,"transit":false,"station_name":"Sudirman","i_lat":-6.202263,"i_long":106.822649,"distance":3186,"is_transit":false,"station_id":"SUD","time":4},{"station_id":"SUDB","time":1,"distance":280,"transit":false,"i_long":106.819881,"is_transit":false,"station_name":"Sudirman Baru","i_lat":-6.201433,"line":1},{"i_lat":-6.20132,"time":1,"is_transit":false,"distance":471,"station_name":"Karet","transit":false,"i_long":106.816351,"line":1,"station_id":"KAT"},{"i_long":106.811091,"transit":false,"i_lat":-6.185545,"time":5,"station_name":"Tanah Abang","is_transit":false,"line":1,"station_id":"THB","distance":2029},{"is_transit":false,"time":8,"transit":false,"i_lat":-6.155215,"station_name":"Duri","i_long":106.800832,"line":1,"station_id":"DU","distance":3632},{"i_long":106.79867,"time":4,"station_id":"AK","station_name":"Angke","line":1,"i_lat":-6.144674,"transit":false,"is_transit":false,"distance":1230},{"i_lat":-6.132549,"station_id":"KPB","i_long":106.826365,"is_transit":true,"time":9,"station_name":"Kampung Bandan","transit":true,"line":4,"distance":4102},{"i_lat":-6.128023,"is_transit":false,"distance":2185,"transit":false,"line":4,"time":4,"i_long":106.84464,"station_id":"AC","station_name":"Ancol"}],[{"station_name":"Depok","i_long":106.816926,"station_id":"DP","is_transit":false,"time":0,"i_lat":-6.405256,"distance":0,"transit":false,"line":2},{"station_id":"DPB","distance":1584,"i_long":106.819451,"is_transit":false,"i_lat":-6.391065,"station_name":"Depokbaru","time":3,"transit":false,"line":2},{"distance":2727,"i_lat":-6.369073,"station_name":"Pondok Cina","line":2,"transit":false,"is_transit":false,"time":4,"i_long":106.831114,"station_id":"POC"},{"i_lat":-6.360749,"time":2,"is_transit":false,"line":2,"i_long":106.831474,"distance":1109,"station_name":"Univ. Indonesia","station_id":"UI","transit":false},{"station_id":"UP","time":3,"station_name":"Univ. Pancasila","i_lat":-6.339291,"i_long":106.834175,"line":2,"distance":2264,"is_transit":false,"transit":false},{"line":2,"time":2,"i_lat":-6.330363,"is_transit":false,"distance":1029,"station_id":"LNA","station_name":"Lenteng Agung","transit":false,"i_long":106.832616},{"distance":2671,"is_transit":false,"station_name":"Tanjung Barat","line":2,"transit":false,"station_id":"TNT","time":3,"i_lat":-6.3080680000000005,"i_long":106.838896},{"i_lat":-6.2842400000000005,"distance":2820,"station_id":"PSM","station_name":"Pasar Minggu","transit":false,"time":4,"i_long":106.843999,"line":2,"is_transit":false},{"transit":false,"i_lat":-6.263214,"is_transit":false,"line":2,"time":2,"distance":2380,"station_name":"Pasar Minggu Baru","station_id":"PSMB","i_long":106.851577},{"i_long":106.85449,"station_id":"DRN","line":2,"i_lat":-6.255332,"station_name":"Duren Kalibata","distance":824,"time":2,"is_transit":false,"transit":false},{"distance":1546,"station_name":"Cawang","is_transit":false,"transit":false,"station_id":"CW","i_long":106.856607,"time":3,"line":2,"i_lat":-6.242512},{"time":2,"station_name":"Tebet","line":2,"i_lat":-6.226659,"is_transit":false,"distance":1230,"station_id":"TEB","i_long":106.857948,"transit":false},{"station_id":"MRI","line":2,"time":4,"i_long":106.84912,"i_lat":-6.209883,"is_transit":false,"station_name":"Manggarai","transit":false,"distance":2610},{"i_long":106.840169,"station_name":"Cikini","station_id":"CKI","i_lat":-6.198556,"line":2,"time":4,"distance":1590,"is_transit":false,"transit":false},{"distance":1750,"transit":false,"station_name":"Gondangdia","station_id":"GDD","i_long":106.832183,"time":3,"line":2,"i_lat":-6.186295,"is_transit":false},{"i_long":106.828284,"is_transit":false,"distance":2015,"station_id":"JUA","line":2,"transit":false,"station_name":"Juanda","time":4,"i_lat":-6.166716},{"transit":false,"is_transit":false,"i_lat":-6.160725,"line":2,"i_long":106.827103,"distance":1149,"station_id":"SW","time":2,"station_name":"Sawah Besar"},{"is_transit":false,"i_lat":-6.149769,"station_id":"MGB","time":2,"distance":906,"transit":false,"station_name":"Manggabesar","i_long":106.82482,"line":2},{"transit":false,"is_transit":false,"distance":1080,"line":2,"station_id":"JAY","time":2,"station_name":"Jayakarta","i_lat":-6.141205,"i_long":106.820901},{"is_transit":true,"station_id":"JAKK","line":2,"time":4,"distance":1264,"station_name":"Jakarta Kota","transit":true,"i_lat":-6.137569,"i_long":106.812439},{"transit":true,"line":4,"station_id":"KPB","time":3,"i_long":106.826365,"i_lat":-6.132549,"distance":1364,"station_name":"Kampung Bandan","is_transit":true},{"distance":2185,"transit":false,"i_lat":-6.128023,"time":4,"station_name":"Ancol","is_transit":false,"i_long":106.84464,"line":4,"station_id":"AC"}],[{"distance":0,"transit":false,"i_long":106.816926,"line":2,"station_id":"DP","i_lat":-6.405256,"station_name":"Depok","time":0,"is_transit":false},{"is_transit":false,"time":3,"station_id":"DPB","distance":1584,"i_lat":-6.391065,"transit":false,"station_name":"Depokbaru","line":2,"i_long":106.819451},{"i_long":106.831114,"station_id":"POC","time":4,"station_name":"Pondok Cina","distance":2727,"transit":false,"i_lat":-6.369073,"line":2,"is_transit":false},{"station_id":"UI","transit":false,"station_name":"Univ. Indonesia","i_lat":-6.360749,"is_transit":false,"time":2,"line":2,"distance":1109,"i_long":106.831474},{"station_id":"UP","distance":2264,"i_lat":-6.339291,"i_long":106.834175,"time":3,"is_transit":false,"station_name":"Univ. Pancasila","transit":false,"line":2},{"is_transit":false,"station_id":"LNA","time":2,"station_name":"Lenteng Agung","i_lat":-6.330363,"line":2,"i_long":106.832616,"transit":false,"distance":1029},{"transit":false,"station_id":"TNT","i_lat":-6.3080680000000005,"is_transit":false,"time":3,"distance":2671,"station_name":"Tanjung Barat","i_long":106.838896,"line":2},{"time":4,"is_transit":false,"station_id":"PSM","transit":false,"i_long":106.843999,"line":2,"i_lat":-6.2842400000000005,"distance":2820,"station_name":"Pasar Minggu"},{"i_long":106.851577,"distance":2380,"line":2,"transit":false,"station_id":"PSMB","i_lat":-6.263214,"station_name":"Pasar Minggu Baru","is_transit":false,"time":2},{"station_name":"Duren Kalibata","station_id":"DRN","distance":824,"i_lat":-6.255332,"i_long":106.85449,"is_transit":false,"line":2,"transit":false,"time":2},{"i_lat":-6.242512,"distance":1546,"transit":false,"is_transit":false,"time":3,"i_long":106.856607,"station_id":"CW","station_name":"Cawang","line":2},{"distance":1230,"transit":false,"line":2,"is_transit":false,"i_lat":-6.226659,"station_id":"TEB","i_long":106.857948,"time":2,"station_name":"Tebet"},{"time":4,"i_lat":-6.209883,"i_long":106.84912,"station_id":"MRI","transit":true,"is_transit":true,"distance":2610,"station_name":"Manggarai","line":2},{"is_transit":false,"i_lat":-6.212485,"transit":false,"time":2,"station_name":"Matraman","station_id":"MTR","distance":1275,"line":1,"i_long":106.858896},{"i_lat":-6.215091,"i_long":106.86807400000001,"is_transit":true,"station_id":"JNG","time":8,"station_name":"Jatinegara","distance":1377,"line":1,"transit":true},{"station_name":"Pondok Jati","is_transit":false,"i_lat":-6.209188,"i_long":106.861737,"line":11,"station_id":"POK","time":2,"distance":1236,"transit":false},{"i_long":106.855437,"is_transit":false,"i_lat":-6.193792,"line":11,"station_id":"KMT","time":2,"station_name":"Kramat","transit":false,"distance":1829},{"distance":973,"time":1,"station_id":"GST","i_long":106.850107,"is_transit":false,"transit":false,"line":11,"station_name":"Gang Sentiong","i_lat":-6.185975},{"time":8,"distance":1567,"transit":false,"i_lat":-6.174784,"i_long":106.84368,"line":11,"is_transit":false,"station_id":"PSE","station_name":"Pasar Senen"},{"line":11,"i_long":106.839204,"transit":false,"is_transit":false,"i_lat":-6.161728,"time":4,"station_id":"KMO","distance":1436,"station_name":"Kemayoran"},{"distance":1901,"transit":false,"time":5,"is_transit":false,"station_name":"Rajawali","station_id":"RJW","i_long":106.836569,"line":11,"i_lat":-6.14505},{"distance":1444,"i_lat":-6.132549,"station_name":"Kampung Bandan","transit":true,"is_transit":true,"i_long":106.826365,"line":4,"station_id":"KPB","time":3},{"time":4,"station_id":"AC","distance":2185,"transit":false,"is_transit":false,"station_name":"Ancol","i_lat":-6.128023,"i_long":106.84464,"line":4}]]}