{"data":[[{"i_lat":-6.405256,"transit":false,"station_name":"Depok","is_transit":false,"time":0,"distance":0,"i_long":106.816926,"line":2,"station_id":"DP"},{"is_transit":false,"distance":1584,"time":3,"i_lat":-6.391065,"i_long":106.819451,"line":2,"station_name":"Depokbaru","transit":false,"station_id":"DPB"},{"is_transit":false,"time":4,"station_id":"POC","distance":2727,"i_lat":-6.369073,"line":2,"transit":false,"station_name":"Pondok Cina","i_long":106.831114},{"station_id":"UI","is_transit":false,"i_lat":-6.360749,"time":2,"i_long":106.831474,"distance":1109,"line":2,"transit":false,"station_name":"Univ. Indonesia"},{"time":3,"i_long":106.834175,"transit":false,"i_lat":-6.339291,"line":2,"station_name":"Univ. Pancasila","station_id":"UP","is_transit":false,"distance":2264},{"distance":1029,"i_long":106.832616,"station_name":"Lenteng Agung","transit":false,"time":2,"station_id":"LNA","i_lat":-6.330363,"line":2,"is_transit":false},{"transit":false,"i_long":106.838896,"line":2,"is_transit":false,"distance":2671,"station_name":"Tanjung Barat","station_id":"TNT","time":3,"i_lat":-6.3080680000000005},{"i_long":106.843999,"is_transit":false,"transit":false,"station_name":"Pasar Minggu","i_lat":-6.2842400000000005,"line":2,"distance":2820,"station_id":"PSM","time":4},{"transit":false,"station_name":"Pasar Minggu Baru","time":2,"distance":2380,"station_id":"PSMB","i_lat":-6.263214,"line":2,"is_transit":false,"i_long":106.851577},{"transit":false,"station_name":"Duren Kalibata","line":2,"station_id":"DRN","time":2,"i_long":106.85449,"is_transit":false,"distance":824,"i_lat":-6.255332},{"station_id":"CW","transit":false,"i_long":106.856607,"distance":1546,"station_name":"Cawang","i_lat":-6.242512,"is_transit":false,"time":3,"line":2},{"i_long":106.857948,"station_id":"TEB","i_lat":-6.226659,"line":2,"time":2,"distance":1230,"transit":false,"is_transit":false,"station_name":"Tebet"},{"time":4,"is_transit":true,"i_lat":-6.209883,"transit":true,"line":2,"station_id":"MRI","distance":2610,"i_long":106.84912,"station_name":"Manggarai"},{"is_transit":false,"station_id":"SUD","i_lat":-6.202263,"station_name":"Sudirman","line":1,"i_long":106.822649,"transit":false,"distance":3186,"time":4},{"station_id":"SUDB","time":1,"distance":280,"i_lat":-6.201433,"is_transit":false,"i_long":106.819881,"line":1,"transit":false,"station_name":"Sudirman Baru"},{"time":1,"distance":471,"station_id":"KAT","station_name":"Karet","i_lat":-6.20132,"i_long":106.816351,"line":1,"is_transit":false,"transit":false},{"i_lat":-6.185545,"time":5,"distance":2029,"station_name":"Tanah Abang","is_transit":false,"transit":false,"line":1,"station_id":"THB","i_long":106.811091},{"distance":3632,"i_lat":-6.155215,"line":1,"station_name":"Duri","station_id":"DU","is_transit":false,"time":8,"i_long":106.800832,"transit":false},{"is_transit":false,"line":1,"transit":false,"station_name":"Angke","i_lat":-6.144674,"i_long":106.79867,"distance":1230,"time":4,"station_id":"AK"},{"station_name":"Kampung Bandan","station_id":"KPB","is_transit":true,"time":9,"distance":4102,"i_lat":-6.132549,"transit":true,"i_long":106.826365,"line":4},{"i_long":106.84464,"time":4,"distance":2185,"i_lat":-6.128023,"station_id":"AC","transit":false,"line":4,"station_name":"Ancol","is_transit":false}],[{"i_lat":-6.405256,"i_long":106.816926,"station_id":"DP","station_name":"Depok","is_transit":false,"transit":false,"distance":0,"line":2,"time":0},{"time":3,"distance":1584,"station_name":"Depokbaru","transit":false,"station_id":"DPB","is_transit":false,"i_lat":-6.391065,"line":2,"i_long":106.819451},{"line":2,"is_transit":false,"station_id":"POC","distance":2727,"transit":false,"i_lat":-6.369073,"station_name":"Pondok Cina","time":4,"i_long":106.831114},{"distance":1109,"i_long":106.831474,"line":2,"is_transit":false,"station_name":"Univ. Indonesia","time":2,"transit":false,"station_id":"UI","i_lat":-6.360749},{"line":2,"i_lat":-6.339291,"time":3,"station_name":"Univ. Pancasila","station_id":"UP","i_long":106.834175,"transit":false,"is_transit":false,"distance":2264},{"transit":false,"station_id":"LNA","is_transit":false,"time":2,"i_long":106.832616,"distance":1029,"i_lat":-6.330363,"line":2,"station_name":"Lenteng Agung"},{"line":2,"transit":false,"time":3,"i_long":106.838896,"is_transit":false,"station_name":"Tanjung Barat","station_id":"TNT","i_lat":-6.3080680000000005,"distance":2671},{"line":2,"i_lat":-6.2842400000000005,"is_transit":false,"i_long":106.843999,"station_id":"PSM","station_name":"Pasar Minggu","time":4,"transit":false,"distance":2820},{"transit":false,"distance":2380,"line":2,"is_transit":false,"station_name":"Pasar Minggu Baru","station_id":"PSMB","time":2,"i_lat":-6.263214,"i_long":106.851577},{"line":2,"transit":false,"station_id":"DRN","distance":824,"i_long":106.85449,"is_transit":false,"station_name":"Duren Kalibata","i_lat":-6.255332,"time":2},{"is_transit":false,"transit":false,"line":2,"i_long":106.856607,"station_name":"Cawang","distance":1546,"time":3,"i_lat":-6.242512,"station_id":"CW"},{"station_name":"Tebet","station_id":"TEB","i_long":106.857948,"line":2,"distance":1230,"time":2,"i_lat":-6.226659,"transit":false,"is_transit":false},{"i_long":106.84912,"is_transit":false,"distance":2610,"line":2,"station_name":"Manggarai","time":4,"i_lat":-6.209883,"transit":false,"station_id":"MRI"},{"line":2,"distance":1590,"station_name":"Cikini","i_long":106.840169,"transit":false,"is_transit":false,"i_lat":-6.198556,"time":4,"station_id":"CKI"},{"station_name":"Gondangdia","is_transit":false,"time":3,"distance":1750,"i_lat":-6.186295,"i_long":106.832183,"station_id":"GDD","transit":false,"line":2},{"station_name":"Juanda","time":4,"is_transit":false,"distance":2015,"i_lat":-6.166716,"transit":false,"line":2,"station_id":"JUA","i_long":106.828284},{"transit":false,"station_name":"Sawah Besar","station_id":"SW","distance":1149,"i_lat":-6.160725,"i_long":106.827103,"line":2,"is_transit":false,"time":2},{"distance":906,"time":2,"is_transit":false,"line":2,"i_long":106.82482,"station_name":"Manggabesar","i_lat":-6.149769,"transit":false,"station_id":"MGB"},{"time":2,"i_lat":-6.141205,"i_long":106.820901,"line":2,"transit":false,"is_transit":false,"station_id":"JAY","distance":1080,"station_name":"Jayakarta"},{"i_long":106.812439,"time":4,"line":2,"transit":true,"is_transit":true,"i_lat":-6.137569,"distance":1264,"station_name":"Jakarta Kota","station_id":"JAKK"},{"i_long":106.826365,"transit":true,"is_transit":true,"station_id":"KPB","i_lat":-6.132549,"distance":1364,"time":3,"line":4,"station_name":"Kampung Bandan"},{"distance":2185,"is_transit":false,"i_lat":-6.128023,"transit":false,"station_name":"Ancol","time":4,"i_long":106.84464,"line":4,"station_id":"AC"}],[{"i_lat":-6.405256,"line":2,"transit":false,"i_long":106.816926,"distance":0,"station_id":"DP","is_transit":false,"station_name":"Depok","time":0},{"is_transit":false,"transit":false,"station_id":"DPB","station_name":"Depokbaru","distance":1584,"line":2,"i_lat":-6.391065,"time":3,"i_long":106.819451},{"transit":false,"station_name":"Pondok Cina","station_id":"POC","i_long":106.831114,"i_lat":-6.369073,"line":2,"time":4,"is_transit":false,"distance":2727},{"i_lat":-6.360749,"line":2,"station_id":"UI","transit":false,"station_name":"Univ. Indonesia","time":2,"distance":1109,"i_long":106.831474,"is_transit":false},{"distance":2264,"line":2,"time":3,"station_name":"Univ. Pancasila","station_id":"UP","is_transit":false,"transit":false,"i_lat":-6.339291,"i_long":106.834175},{"station_id":"LNA","is_transit":false,"time":2,"station_name":"Lenteng Agung","i_lat":-6.330363,"i_long":106.832616,"transit":false,"line":2,"distance":1029},{"station_id":"TNT","line":2,"distance":2671,"is_transit":false,"i_lat":-6.3080680000000005,"i_long":106.838896,"station_name":"Tanjung Barat","time":3,"transit":false},{"time":4,"transit":false,"line":2,"distance":2820,"station_name":"Pasar Minggu","i_lat":-6.2842400000000005,"is_transit":false,"i_long":106.843999,"station_id":"PSM"},{"distance":2380,"time":2,"station_name":"Pasar Minggu Baru","transit":false,"i_lat":-6.263214,"is_transit":false,"line":2,"station_id":"PSMB","i_long":106.851577},{"transit":false,"station_name":"Duren Kalibata","line":2,"i_lat":-6.255332,"i_long":106.85449,"station_id":"DRN","time":2,"is_transit":false,"distance":824},{"distance":1546,"i_lat":-6.242512,"line":2,"time":3,"station_id":"CW","i_long":106.856607,"transit":false,"is_transit":false,"station_name":"Cawang"},{"station_name":"Tebet","i_long":106.857948,"transit":false,"time":2,"is_transit":false,"distance":1230,"i_lat":-6.226659,"station_id":"TEB","line":2},{"i_long":106.84912,"line":2,"station_name":"Manggarai","distance":2610,"station_id":"MRI","time":4,"i_lat":-6.209883,"transit":true,"is_transit":true},{"distance":1275,"i_lat":-6.212485,"transit":false,"line":1,"i_long":106.858896,"station_id":"MTR","station_name":"Matraman","is_transit":false,"time":2},{"is_transit":true,"line":1,"station_id":"JNG","time":8,"i_lat":-6.215091,"i_long":106.86807400000001,"transit":true,"distance":1377,"station_name":"Jatinegara"},{"station_name":"Pondok Jati","station_id":"POK","time":2,"i_long":106.861737,"is_transit":false,"distance":1236,"i_lat":-6.209188,"line":11,"transit":false},{"line":11,"i_lat":-6.193792,"time":2,"transit":false,"i_long":106.855437,"station_id":"KMT","is_transit":false,"station_name":"Kramat","distance":1829},{"time":1,"is_transit":false,"i_lat":-6.185975,"line":11,"station_name":"Gang Sentiong","station_id":"GST","transit":false,"i_long":106.850107,"distance":973},{"transit":false,"i_lat":-6.174784,"station_id":"PSE","station_name":"Pasar Senen","distance":1567,"time":8,"is_transit":false,"i_long":106.84368,"line":11},{"station_name":"Kemayoran","i_long":106.839204,"line":11,"transit":false,"distance":1436,"station_id":"KMO","is_transit":false,"i_lat":-6.161728,"time":4},{"is_transit":false,"station_name":"Rajawali","i_long":106.836569,"station_id":"RJW","time":5,"line":11,"distance":1901,"transit":false,"i_lat":-6.14505},{"i_long":106.826365,"line":4,"station_id":"KPB","station_name":"Kampung Bandan","transit":true,"is_transit":true,"time":3,"distance":1444,"i_lat":-6.132549},{"distance":2185,"i_long":106.84464,"station_name":"Ancol","is_transit":false,"time":4,"i_lat":-6.128023,"line":4,"station_id":"AC","transit":false}]]}