{"data":[[{"i_long":106.816926,"station_id":"DP","transit":false,"line":2,"station_name":"Depok","distance":0,"time":0,"i_lat":-6.405256,"is_transit":false},{"time":3,"i_long":106.819451,"station_id":"DPB","line":2,"distance":1584,"station_name":"Depokbaru","is_transit":false,"i_lat":-6.391065,"transit":false},{"line":2,"i_long":106.831114,"station_id":"POC","distance":2727,"is_transit":false,"time":4,"i_lat":-6.369073,"transit":false,"station_name":"Pondok Cina"},{"distance":1109,"line":2,"station_id":"UI","station_name":"Univ. Indonesia","time":2,"transit":false,"is_transit":false,"i_lat":-6.360749,"i_long":106.831474},{"transit":false,"i_lat":-6.339291,"time":3,"station_name":"Univ. Pancasila","is_transit":false,"distance":2264,"i_long":106.834175,"station_id":"UP","line":2},{"station_name":"Lenteng Agung","station_id":"LNA","is_transit":false,"time":2,"i_long":106.832616,"i_lat":-6.330363,"distance":1029,"line":2,"transit":false},{"station_id":"TNT","distance":2671,"station_name":"Tanjung Barat","time":3,"i_lat":-6.3080680000000005,"i_long":106.838896,"is_transit":false,"transit":false,"line":2},{"station_id":"PSM","time":4,"i_lat":-6.2842400000000005,"transit":false,"is_transit":false,"distance":2820,"line":2,"i_long":106.843999,"station_name":"Pasar Minggu"},{"distance":2380,"i_lat":-6.263214,"time":2,"line":2,"transit":false,"i_long":106.851577,"is_transit":false,"station_name":"Pasar Minggu Baru","station_id":"PSMB"},{"station_id":"DRN","station_name":"Duren Kalibata","transit":false,"i_lat":-6.255332,"is_transit":false,"i_long":106.85449,"distance":824,"time":2,"line":2},{"transit":false,"is_transit":false,"distance":1546,"i_long":106.856607,"line":2,"station_name":"Cawang","station_id":"CW","time":3,"i_lat":-6.242512},{"distance":1230,"i_long":106.857948,"is_transit":false,"station_id":"TEB","transit":false,"line":2,"station_name":"Tebet","i_lat":-6.226659,"time":2},{"is_transit":true,"i_lat":-6.209883,"station_name":"Manggarai","station_id":"MRI","line":2,"transit":true,"distance":2610,"i_long":106.84912,"time":4},{"is_transit":false,"station_id":"SUD","i_lat":-6.202263,"distance":3186,"time":4,"station_name":"Sudirman","line":1,"i_long":106.822649,"transit":false},{"station_name":"Sudirman Baru","i_long":106.819881,"time":1,"station_id":"SUDB","is_transit":false,"i_lat":-6.201433,"transit":false,"distance":280,"line":1},{"i_long":106.816351,"distance":471,"station_name":"Karet","station_id":"KAT","time":1,"is_transit":false,"i_lat":-6.20132,"transit":false,"line":1},{"i_lat":-6.185545,"station_name":"Tanah Abang","time":5,"transit":false,"is_transit":false,"distance":2029,"station_id":"THB","line":1,"i_long":106.811091},{"i_lat":-6.155215,"i_long":106.800832,"is_transit":false,"time":8,"station_id":"DU","station_name":"Duri","transit":false,"distance":3632,"line":1},{"transit":false,"distance":1230,"station_id":"AK","line":1,"is_transit":false,"i_lat":-6.144674,"time":4,"i_long":106.79867,"station_name":"Angke"}],[{"station_name":"Depok","line":2,"transit":false,"i_long":106.816926,"time":0,"station_id":"DP","distance":0,"is_transit":false,"i_lat":-6.405256},{"is_transit":false,"line":2,"i_lat":-6.391065,"station_id":"DPB","transit":false,"time":3,"distance":1584,"i_long":106.819451,"station_name":"Depokbaru"},{"distance":2727,"line":2,"station_name":"Pondok Cina","time":4,"is_transit":false,"transit":false,"i_lat":-6.369073,"station_id":"POC","i_long":106.831114},{"i_long":106.831474,"transit":false,"line":2,"station_id":"UI","station_name":"Univ. Indonesia","time":2,"distance":1109,"i_lat":-6.360749,"is_transit":false},{"transit":false,"station_name":"Univ. Pancasila","is_transit":false,"distance":2264,"i_lat":-6.339291,"line":2,"i_long":106.834175,"station_id":"UP","time":3},{"line":2,"distance":1029,"station_id":"LNA","is_transit":false,"i_lat":-6.330363,"time":2,"transit":false,"station_name":"Lenteng Agung","i_long":106.832616},{"i_lat":-6.3080680000000005,"line":2,"time":3,"distance":2671,"transit":false,"i_long":106.838896,"station_id":"TNT","station_name":"Tanjung Barat","is_transit":false},{"is_transit":false,"i_long":106.843999,"time":4,"transit":false,"distance":2820,"line":2,"station_id":"PSM","i_lat":-6.2842400000000005,"station_name":"Pasar Minggu"},{"station_name":"Pasar Minggu Baru","distance":2380,"i_lat":-6.263214,"transit":false,"station_id":"PSMB","line":2,"time":2,"is_transit":false,"i_long":106.851577},{"distance":824,"i_long":106.85449,"is_transit":false,"i_lat":-6.255332,"transit":false,"station_id":"DRN","time":2,"line":2,"station_name":"Duren Kalibata"},{"is_transit":false,"transit":false,"station_id":"CW","i_long":106.856607,"i_lat":-6.242512,"station_name":"Cawang","distance":1546,"line":2,"time":3},{"time":2,"station_id":"TEB","distance":1230,"is_transit":false,"i_lat":-6.226659,"transit":false,"i_long":106.857948,"station_name":"Tebet","line":2},{"i_lat":-6.209883,"distance":2610,"station_id":"MRI","time":4,"is_transit":false,"line":2,"i_long":106.84912,"station_name":"Manggarai","transit":false},{"is_transit":false,"station_name":"Cikini","distance":1590,"station_id":"CKI","transit":false,"i_lat":-6.198556,"i_long":106.840169,"line":2,"time":4},{"time":3,"i_long":106.832183,"distance":1750,"station_name":"Gondangdia","is_transit":false,"i_lat":-6.186295,"transit":false,"line":2,"station_id":"GDD"},{"line":2,"distance":2015,"is_transit":false,"i_lat":-6.166716,"station_id":"JUA","i_long":106.828284,"time":4,"station_name":"Juanda","transit":false},{"station_name":"Sawah Besar","transit":false,"i_lat":-6.160725,"line":2,"time":2,"distance":1149,"station_id":"SW","is_transit":false,"i_long":106.827103},{"station_id":"MGB","line":2,"transit":false,"distance":906,"i_long":106.82482,"time":2,"is_transit":false,"i_lat":-6.149769,"station_name":"Manggabesar"},{"i_lat":-6.141205,"line":2,"distance":1080,"i_long":106.820901,"station_id":"JAY","time":2,"station_name":"Jayakarta","is_transit":false,"transit":false},{"station_name":"Jakarta Kota","is_transit":true,"time":4,"i_long":106.812439,"distance":1264,"station_id":"JAKK","line":2,"i_lat":-6.137569,"transit":true},{"is_transit":true,"i_long":106.826365,"line":4,"distance":1364,"i_lat":-6.132549,"station_name":"Kampung Bandan","transit":true,"station_id":"KPB","time":3},{"time":9,"transit":false,"station_id":"AK","distance":4102,"station_name":"Angke","is_transit":false,"i_lat":-6.144674,"i_long":106.79867,"line":1}],[{"i_lat":-6.405256,"station_id":"DP","distance":0,"transit":false,"i_long":106.816926,"is_transit":false,"line":2,"station_name":"Depok","time":0},{"station_name":"Depokbaru","i_long":106.819451,"line":2,"transit":false,"station_id":"DPB","is_transit":false,"i_lat":-6.391065,"time":3,"distance":1584},{"time":4,"i_long":106.831114,"transit":false,"distance":2727,"line":2,"station_name":"Pondok Cina","i_lat":-6.369073,"is_transit":false,"station_id":"POC"},{"time":2,"line":2,"station_name":"Univ. Indonesia","i_lat":-6.360749,"i_long":106.831474,"is_transit":false,"distance":1109,"transit":false,"station_id":"UI"},{"is_transit":false,"i_long":106.834175,"i_lat":-6.339291,"station_name":"Univ. Pancasila","line":2,"station_id":"UP","transit":false,"time":3,"distance":2264},{"i_long":106.832616,"is_transit":false,"i_lat":-6.330363,"time":2,"station_name":"Lenteng Agung","distance":1029,"station_id":"LNA","transit":false,"line":2},{"i_long":106.838896,"i_lat":-6.3080680000000005,"line":2,"transit":false,"station_id":"TNT","distance":2671,"is_transit":false,"station_name":"Tanjung Barat","time":3},{"i_long":106.843999,"line":2,"transit":false,"station_name":"Pasar Minggu","is_transit":false,"time":4,"distance":2820,"station_id":"PSM","i_lat":-6.2842400000000005},{"i_lat":-6.263214,"line":2,"time":2,"station_id":"PSMB","i_long":106.851577,"station_name":"Pasar Minggu Baru","transit":false,"distance":2380,"is_transit":false},{"time":2,"station_name":"Duren Kalibata","distance":824,"i_long":106.85449,"is_transit":false,"i_lat":-6.255332,"transit":false,"station_id":"DRN","line":2},{"distance":1546,"i_long":106.856607,"i_lat":-6.242512,"line":2,"station_id":"CW","station_name":"Cawang","is_transit":false,"time":3,"transit":false},{"station_name":"Tebet","i_lat":-6.226659,"is_transit":false,"time":2,"distance":1230,"line":2,"transit":false,"i_long":106.857948,"station_id":"TEB"},{"time":4,"i_lat":-6.209883,"station_name":"Manggarai","i_long":106.84912,"transit":true,"distance":2610,"station_id":"MRI","line":2,"is_transit":true},{"distance":1275,"i_long":106.858896,"transit":false,"time":2,"line":1,"i_lat":-6.212485,"station_name":"Matraman","is_transit":false,"station_id":"MTR"},{"time":8,"i_lat":-6.215091,"station_id":"JNG","station_name":"Jatinegara","is_transit":true,"distance":1377,"i_long":106.86807400000001,"transit":true,"line":1},{"station_id":"POK","i_lat":-6.209188,"i_long":106.861737,"transit":false,"time":2,"distance":1236,"station_name":"Pondok Jati","is_transit":false,"line":11},{"station_id":"KMT","is_transit":false,"time":2,"i_long":106.855437,"line":11,"station_name":"Kramat","i_lat":-6.193792,"transit":false,"distance":1829},{"transit":false,"i_long":106.850107,"line":11,"distance":973,"time":1,"is_transit":false,"station_name":"Gang Sentiong","station_id":"GST","i_lat":-6.185975},{"transit":false,"line":11,"station_name":"Pasar Senen","station_id":"PSE","is_transit":false,"distance":1567,"time":8,"i_lat":-6.174784,"i_long":106.84368},{"distance":1436,"transit":false,"line":11,"i_lat":-6.161728,"station_name":"Kemayoran","is_transit":false,"time":4,"station_id":"KMO","i_long":106.839204},{"station_id":"RJW","is_transit":false,"i_lat":-6.14505,"i_long":106.836569,"station_name":"Rajawali","line":11,"time":5,"distance":1901,"transit":false},{"time":3,"distance":1444,"i_lat":-6.132549,"is_transit":true,"station_name":"Kampung Bandan","station_id":"KPB","transit":true,"line":4,"i_long":106.826365},{"i_long":106.79867,"station_id":"AK","is_transit":false,"transit":false,"station_name":"Angke","time":9,"i_lat":-6.144674,"line":1,"distance":4102}]]}