{"data":[[{"time":0,"i_long":106.816926,"station_id":"DP","is_transit":false,"distance":0,"station_name":"Depok","line":0,"i_lat":-6.405256,"transit":false},{"line":0,"is_transit":false,"station_id":"DPB","station_name":"Depokbaru","time":3,"i_lat":-6.391065,"i_long":106.819451,"transit":false,"distance":1584},{"i_lat":-6.369073,"transit":false,"station_id":"POC","is_transit":false,"time":4,"i_long":106.831114,"distance":2727,"station_name":"Pondok Cina","line":2},{"line":2,"time":2,"i_lat":-6.360749,"transit":false,"i_long":106.831474,"station_id":"UI","distance":1109,"is_transit":false,"station_name":"Univ. Indonesia"},{"is_transit":false,"transit":false,"line":2,"station_id":"UP","distance":2264,"station_name":"Univ. Pancasila","time":3,"i_lat":-6.339291,"i_long":106.834175},{"i_lat":-6.330363,"i_long":106.832616,"distance":1029,"is_transit":false,"transit":false,"station_id":"LNA","time":2,"station_name":"Lenteng Agung","line":2},{"time":3,"transit":false,"is_transit":false,"station_id":"TNT","i_long":106.838896,"station_name":"Tanjung Barat","i_lat":-6.3080680000000005,"line":2,"distance":2671},{"i_lat":-6.2842400000000005,"is_transit":false,"time":4,"i_long":106.843999,"station_id":"PSM","station_name":"Pasar Minggu","distance":2820,"line":2,"transit":false},{"distance":2380,"is_transit":false,"station_name":"Pasar Minggu Baru","i_lat":-6.263214,"station_id":"PSMB","line":2,"time":2,"transit":false,"i_long":106.851577},{"distance":824,"line":0,"is_transit":false,"station_name":"Duren Kalibata","time":2,"transit":false,"i_lat":-6.255332,"i_long":106.85449,"station_id":"DRN"},{"time":3,"distance":1546,"station_id":"CW","station_name":"Cawang","transit":false,"i_lat":-6.242512,"i_long":106.856607,"is_transit":false,"line":0},{"transit":false,"time":2,"i_lat":-6.226659,"station_id":"TEB","station_name":"Tebet","distance":1230,"i_long":106.857948,"is_transit":false,"line":2},{"station_id":"MRI","is_transit":true,"distance":2610,"transit":true,"i_long":106.84912,"time":4,"station_name":"Manggarai","i_lat":-6.209883,"line":0},{"time":4,"station_id":"SUD","station_name":"Sudirman","line":1,"distance":3186,"i_lat":-6.202263,"i_long":106.822649,"is_transit":false,"transit":false},{"distance":280,"i_lat":-6.201433,"line":1,"time":1,"transit":false,"i_long":106.819881,"station_id":"SUDB","is_transit":false,"station_name":"Sudirman Baru"},{"station_id":"KAT","is_transit":false,"station_name":"Karet","transit":false,"i_lat":-6.20132,"i_long":106.816351,"line":1,"time":1,"distance":471},{"is_transit":true,"station_id":"THB","line":1,"i_lat":-6.185545,"time":5,"transit":false,"station_name":"Tanah Abang","i_long":106.811091,"distance":2029},{"is_transit":true,"station_name":"Duri","transit":true,"distance":3632,"line":1,"time":8,"i_lat":-6.155215,"station_id":"DU","i_long":106.800832},{"line":0,"station_id":"AK","station_name":"Angke","transit":false,"distance":1230,"i_lat":-6.144674,"time":4,"is_transit":false,"i_long":106.79867}],[{"time":0,"station_id":"DP","is_transit":false,"i_lat":-6.405256,"distance":0,"i_long":106.816926,"line":0,"station_name":"Depok","transit":false},{"is_transit":false,"time":3,"station_id":"DPB","i_lat":-6.391065,"i_long":106.819451,"line":0,"station_name":"Depokbaru","distance":1584,"transit":false},{"line":2,"station_id":"POC","transit":false,"is_transit":false,"i_lat":-6.369073,"time":4,"i_long":106.831114,"station_name":"Pondok Cina","distance":2727},{"i_long":106.831474,"station_name":"Univ. Indonesia","i_lat":-6.360749,"distance":1109,"station_id":"UI","time":2,"line":2,"transit":false,"is_transit":false},{"line":2,"is_transit":false,"station_id":"UP","i_lat":-6.339291,"station_name":"Univ. Pancasila","i_long":106.834175,"distance":2264,"time":3,"transit":false},{"transit":false,"station_name":"Lenteng Agung","station_id":"LNA","i_lat":-6.330363,"i_long":106.832616,"distance":1029,"line":2,"time":2,"is_transit":false},{"time":3,"distance":2671,"station_name":"Tanjung Barat","is_transit":false,"transit":false,"station_id":"TNT","i_lat":-6.3080680000000005,"i_long":106.838896,"line":2},{"transit":false,"is_transit":false,"station_id":"PSM","time":4,"i_lat":-6.2842400000000005,"i_long":106.843999,"distance":2820,"line":2,"station_name":"Pasar Minggu"},{"is_transit":false,"transit":false,"station_id":"PSMB","line":2,"time":2,"station_name":"Pasar Minggu Baru","distance":2380,"i_long":106.851577,"i_lat":-6.263214},{"transit":false,"line":0,"is_transit":false,"distance":824,"i_lat":-6.255332,"i_long":106.85449,"station_id":"DRN","time":2,"station_name":"Duren Kalibata"},{"station_id":"CW","distance":1546,"time":3,"line":0,"i_long":106.856607,"i_lat":-6.242512,"station_name":"Cawang","transit":false,"is_transit":false},{"station_id":"TEB","time":2,"distance":1230,"is_transit":false,"i_long":106.857948,"transit":false,"i_lat":-6.226659,"line":2,"station_name":"Tebet"},{"time":4,"station_name":"Manggarai","is_transit":true,"station_id":"MRI","transit":true,"i_lat":-6.209883,"distance":2610,"i_long":106.84912,"line":0},{"i_lat":-6.198556,"station_id":"CKI","time":4,"station_name":"Cikini","transit":false,"line":0,"is_transit":false,"distance":1590,"i_long":106.840169},{"station_name":"Gondangdia","i_long":106.832183,"time":3,"line":2,"i_lat":-6.186295,"station_id":"GDD","distance":1750,"is_transit":false,"transit":false},{"is_transit":false,"i_long":106.828284,"time":4,"i_lat":-6.166716,"distance":2015,"station_name":"Juanda","station_id":"JUA","transit":false,"line":2},{"transit":false,"i_lat":-6.160725,"is_transit":false,"station_name":"Sawah Besar","i_long":106.827103,"station_id":"SW","distance":1149,"time":2,"line":2},{"time":2,"is_transit":false,"transit":false,"distance":906,"station_id":"MGB","i_lat":-6.149769,"line":2,"i_long":106.82482,"station_name":"Manggabesar"},{"is_transit":false,"transit":false,"station_name":"Jayakarta","time":2,"i_lat":-6.141205,"line":7,"station_id":"JAY","distance":1080,"i_long":106.820901},{"transit":true,"station_id":"JAKK","is_transit":true,"i_long":106.812439,"distance":1264,"time":4,"i_lat":-6.137569,"line":0,"station_name":"Jakarta Kota"},{"i_lat":-6.132549,"station_name":"Kampung Bandan","i_long":106.826365,"line":0,"distance":1364,"transit":false,"is_transit":true,"time":3,"station_id":"KPB"},{"station_name":"Angke","transit":false,"i_long":106.79867,"distance":4102,"i_lat":-6.144674,"line":0,"station_id":"AK","time":9,"is_transit":false}],[{"transit":false,"i_lat":-6.405256,"time":0,"is_transit":false,"distance":0,"station_name":"Depok","station_id":"DP","i_long":106.816926,"line":0},{"time":3,"transit":false,"distance":1584,"i_lat":-6.391065,"line":0,"station_id":"DPB","station_name":"Depokbaru","i_long":106.819451,"is_transit":false},{"distance":2727,"station_name":"Pondok Cina","is_transit":false,"time":4,"i_lat":-6.369073,"i_long":106.831114,"transit":false,"station_id":"POC","line":2},{"station_id":"UI","station_name":"Univ. Indonesia","i_long":106.831474,"i_lat":-6.360749,"time":2,"is_transit":false,"transit":false,"distance":1109,"line":2},{"i_long":106.834175,"station_name":"Univ. Pancasila","distance":2264,"is_transit":false,"transit":false,"line":2,"station_id":"UP","i_lat":-6.339291,"time":3},{"line":2,"time":2,"i_lat":-6.330363,"distance":1029,"station_name":"Lenteng Agung","station_id":"LNA","is_transit":false,"transit":false,"i_long":106.832616},{"is_transit":false,"i_lat":-6.3080680000000005,"time":3,"i_long":106.838896,"distance":2671,"transit":false,"station_id":"TNT","station_name":"Tanjung Barat","line":2},{"i_lat":-6.2842400000000005,"station_name":"Pasar Minggu","i_long":106.843999,"distance":2820,"station_id":"PSM","is_transit":false,"time":4,"line":2,"transit":false},{"is_transit":false,"station_id":"PSMB","distance":2380,"station_name":"Pasar Minggu Baru","transit":false,"i_lat":-6.263214,"time":2,"line":2,"i_long":106.851577},{"time":2,"distance":824,"transit":false,"station_name":"Duren Kalibata","station_id":"DRN","is_transit":false,"i_lat":-6.255332,"i_long":106.85449,"line":0},{"station_name":"Cawang","i_lat":-6.242512,"line":0,"station_id":"CW","is_transit":false,"i_long":106.856607,"transit":false,"time":3,"distance":1546},{"station_id":"TEB","time":2,"i_lat":-6.226659,"line":2,"station_name":"Tebet","distance":1230,"transit":false,"i_long":106.857948,"is_transit":false},{"time":4,"distance":2610,"transit":true,"station_id":"MRI","station_name":"Manggarai","line":0,"i_lat":-6.209883,"is_transit":true,"i_long":106.84912},{"i_long":106.858896,"station_name":"Matraman","line":1,"is_transit":false,"distance":1275,"transit":false,"time":2,"station_id":"MTR","i_lat":-6.212485},{"station_id":"JNG","line":0,"distance":1377,"i_long":106.86807400000001,"transit":true,"i_lat":-6.215091,"station_name":"Jatinegara","time":8,"is_transit":true},{"station_id":"POK","transit":false,"i_long":106.861737,"is_transit":false,"distance":1236,"i_lat":-6.209188,"line":11,"station_name":"Pondok Jati","time":2},{"is_transit":false,"time":2,"distance":1829,"station_id":"KMT","station_name":"Kramat","i_lat":-6.193792,"transit":false,"line":11,"i_long":106.855437},{"station_name":"Gang Sentiong","transit":false,"i_lat":-6.185975,"station_id":"GST","line":11,"i_long":106.850107,"is_transit":false,"distance":973,"time":1},{"station_id":"PSE","distance":1567,"time":8,"i_lat":-6.174784,"i_long":106.84368,"line":11,"transit":false,"is_transit":false,"station_name":"Pasar Senen"},{"transit":false,"is_transit":false,"i_lat":-6.161728,"i_long":106.839204,"station_id":"KMO","station_name":"Kemayoran","time":4,"distance":1436,"line":11},{"time":5,"i_long":106.836569,"station_id":"RJW","transit":false,"i_lat":-6.14505,"distance":1901,"line":11,"is_transit":false,"station_name":"Rajawali"},{"distance":1444,"is_transit":true,"i_long":106.826365,"station_id":"KPB","transit":true,"station_name":"Kampung Bandan","time":3,"i_lat":-6.132549,"line":0},{"station_name":"Angke","transit":false,"time":9,"station_id":"AK","i_lat":-6.144674,"i_long":106.79867,"line":0,"is_transit":false,"distance":4102}]]}