{"data":[[{"transit":false,"station_id":"DP","i_lat":-6.405256,"i_long":106.816926,"station_name":"Depok","distance":0,"time":0,"is_transit":false,"line":0},{"transit":false,"is_transit":true,"time":6,"station_name":"Citayam","distance":5084,"line":1,"station_id":"CTA","i_lat":-6.448811,"i_long":106.800298},{"time":5,"station_id":"BJD","i_lat":-6.493243,"distance":5197,"is_transit":false,"i_long":106.792719,"line":0,"transit":false,"station_name":"Bojonggede"},{"time":5,"station_name":"Cilebut","station_id":"CLT","i_lat":-6.530544,"is_transit":false,"line":0,"distance":4331,"transit":false,"i_long":106.800016},{"transit":false,"distance":7514,"i_lat":-6.594596,"is_transit":true,"station_name":"Bogor","station_id":"BOO","line":1,"i_long":106.790574,"time":9}]]}