{"data":[[{"i_lat":-6.405256,"line":2,"is_transit":false,"transit":false,"distance":0,"station_id":"DP","i_long":106.816926,"time":0,"station_name":"Depok"},{"time":6,"i_long":106.800298,"transit":false,"line":2,"station_id":"CTA","station_name":"Citayam","is_transit":false,"i_lat":-6.448811,"distance":5084},{"time":5,"station_name":"Bojonggede","line":2,"transit":false,"distance":5197,"i_lat":-6.493243,"i_long":106.792719,"station_id":"BJD","is_transit":false},{"i_long":106.800016,"i_lat":-6.530544,"station_id":"CLT","distance":4331,"time":5,"station_name":"Cilebut","is_transit":false,"line":2,"transit":false},{"station_name":"Bogor","distance":7514,"time":9,"station_id":"BOO","i_long":106.790574,"transit":false,"is_transit":false,"i_lat":-6.594596,"line":2}]]}