{"data":[[{"is_transit":false,"transit":false,"station_id":"DP","distance":0,"station_name":"Depok","i_lat":-6.405256,"i_long":106.816926,"line":2,"time":0},{"distance":5084,"i_long":106.800298,"station_id":"CTA","is_transit":false,"transit":false,"time":6,"station_name":"Citayam","line":2,"i_lat":-6.448811},{"station_id":"BJD","is_transit":false,"distance":5197,"i_long":106.792719,"line":2,"station_name":"Bojonggede","time":5,"transit":false,"i_lat":-6.493243},{"i_long":106.800016,"distance":4331,"station_id":"CLT","line":2,"is_transit":false,"transit":false,"i_lat":-6.530544,"station_name":"Cilebut","time":5},{"time":9,"i_lat":-6.594596,"line":2,"distance":7514,"transit":false,"station_name":"Bogor","station_id":"BOO","i_long":106.790574,"is_transit":false}]]}