{"data":[[{"station_id":"DP","line":2,"time":0,"i_long":106.816926,"is_transit":false,"station_name":"Depok","transit":false,"distance":0,"i_lat":-6.405256},{"is_transit":false,"station_id":"DPB","transit":false,"i_long":106.819451,"time":3,"line":2,"station_name":"Depokbaru","distance":1584,"i_lat":-6.391065},{"distance":2727,"i_long":106.831114,"time":4,"is_transit":false,"station_id":"POC","station_name":"Pondok Cina","line":2,"transit":false,"i_lat":-6.369073},{"line":2,"distance":1109,"transit":false,"is_transit":false,"station_name":"Univ. Indonesia","station_id":"UI","time":2,"i_long":106.831474,"i_lat":-6.360749},{"i_long":106.834175,"is_transit":false,"transit":false,"station_name":"Univ. Pancasila","distance":2264,"i_lat":-6.339291,"line":2,"station_id":"UP","time":3},{"is_transit":false,"station_name":"Lenteng Agung","station_id":"LNA","transit":false,"distance":1029,"line":2,"time":2,"i_lat":-6.330363,"i_long":106.832616},{"transit":false,"distance":2671,"i_lat":-6.3080680000000005,"line":2,"station_name":"Tanjung Barat","time":3,"i_long":106.838896,"station_id":"TNT","is_transit":false},{"line":2,"i_lat":-6.2842400000000005,"time":4,"station_name":"Pasar Minggu","station_id":"PSM","i_long":106.843999,"transit":false,"distance":2820,"is_transit":false},{"distance":2380,"line":2,"time":2,"transit":false,"station_name":"Pasar Minggu Baru","i_long":106.851577,"is_transit":false,"station_id":"PSMB","i_lat":-6.263214},{"line":2,"transit":false,"time":2,"distance":824,"station_id":"DRN","is_transit":false,"station_name":"Duren Kalibata","i_lat":-6.255332,"i_long":106.85449},{"is_transit":false,"station_name":"Cawang","line":2,"station_id":"CW","transit":false,"time":3,"distance":1546,"i_lat":-6.242512,"i_long":106.856607},{"time":2,"distance":1230,"station_id":"TEB","station_name":"Tebet","is_transit":false,"transit":false,"line":2,"i_long":106.857948,"i_lat":-6.226659},{"station_name":"Manggarai","is_transit":true,"time":4,"distance":2610,"transit":true,"station_id":"MRI","line":2,"i_lat":-6.209883,"i_long":106.84912},{"station_name":"Matraman","is_transit":false,"station_id":"MTR","transit":false,"time":2,"i_lat":-6.212485,"i_long":106.858896,"distance":1275,"line":1},{"is_transit":false,"distance":1377,"station_name":"Jatinegara","station_id":"JNG","i_lat":-6.215091,"i_long":106.86807400000001,"transit":false,"time":8,"line":1},{"transit":false,"time":3,"station_id":"KLD","i_long":106.899548,"distance":3395,"line":1,"station_name":"Klender","i_lat":-6.2135,"is_transit":false},{"time":2,"i_lat":-6.215568,"line":1,"station_name":"Buaran","distance":3100,"i_long":106.922662,"station_id":"BUA","transit":false,"is_transit":false},{"line":1,"transit":false,"distance":1305,"i_lat":-6.217455,"time":1,"i_long":106.939679,"station_id":"KLDB","is_transit":false,"station_name":"Klenderbaru"},{"line":1,"station_id":"CUK","transit":false,"i_long":106.951283,"station_name":"Cakung","distance":1385,"i_lat":-6.219053,"is_transit":false,"time":8},{"i_lat":-6.224515,"station_name":"Kranji","time":3,"station_id":"KRI","i_long":106.977657,"is_transit":false,"line":1,"transit":false,"distance":3097},{"is_transit":false,"time":4,"line":1,"distance":2520,"transit":false,"i_lat":-6.236616,"station_id":"BKS","station_name":"Bekasi","i_long":106.997013}],[{"i_lat":-6.405256,"i_long":106.816926,"time":0,"transit":false,"line":2,"station_name":"Depok","station_id":"DP","distance":0,"is_transit":false},{"time":3,"i_lat":-6.391065,"station_id":"DPB","station_name":"Depokbaru","i_long":106.819451,"distance":1584,"transit":false,"is_transit":false,"line":2},{"station_name":"Pondok Cina","i_lat":-6.369073,"line":2,"transit":false,"time":4,"station_id":"POC","distance":2727,"is_transit":false,"i_long":106.831114},{"is_transit":false,"distance":1109,"line":2,"station_name":"Univ. Indonesia","station_id":"UI","i_long":106.831474,"time":2,"i_lat":-6.360749,"transit":false},{"line":2,"i_lat":-6.339291,"station_id":"UP","distance":2264,"time":3,"transit":false,"is_transit":false,"i_long":106.834175,"station_name":"Univ. Pancasila"},{"distance":1029,"i_long":106.832616,"is_transit":false,"transit":false,"time":2,"station_name":"Lenteng Agung","i_lat":-6.330363,"station_id":"LNA","line":2},{"is_transit":false,"distance":2671,"time":3,"line":2,"transit":false,"i_long":106.838896,"i_lat":-6.3080680000000005,"station_id":"TNT","station_name":"Tanjung Barat"},{"line":2,"is_transit":false,"time":4,"i_long":106.843999,"distance":2820,"station_name":"Pasar Minggu","transit":false,"i_lat":-6.2842400000000005,"station_id":"PSM"},{"distance":2380,"station_id":"PSMB","line":2,"station_name":"Pasar Minggu Baru","time":2,"is_transit":false,"i_lat":-6.263214,"i_long":106.851577,"transit":false},{"distance":824,"line":2,"is_transit":false,"i_long":106.85449,"time":2,"station_name":"Duren Kalibata","i_lat":-6.255332,"station_id":"DRN","transit":false},{"is_transit":false,"station_id":"CW","line":2,"time":3,"i_lat":-6.242512,"transit":false,"station_name":"Cawang","distance":1546,"i_long":106.856607},{"is_transit":false,"i_lat":-6.226659,"station_name":"Tebet","transit":false,"time":2,"distance":1230,"station_id":"TEB","i_long":106.857948,"line":2},{"i_lat":-6.209883,"is_transit":true,"time":4,"distance":2610,"transit":true,"i_long":106.84912,"line":2,"station_id":"MRI","station_name":"Manggarai"},{"i_long":106.822649,"station_id":"SUD","i_lat":-6.202263,"distance":3186,"transit":false,"station_name":"Sudirman","is_transit":false,"time":4,"line":1},{"i_long":106.819881,"transit":false,"station_name":"Sudirman Baru","time":1,"i_lat":-6.201433,"station_id":"SUDB","is_transit":false,"line":1,"distance":280},{"station_name":"Karet","distance":471,"i_long":106.816351,"is_transit":false,"line":1,"transit":false,"i_lat":-6.20132,"time":1,"station_id":"KAT"},{"is_transit":false,"time":5,"i_long":106.811091,"line":1,"transit":false,"station_name":"Tanah Abang","distance":2029,"station_id":"THB","i_lat":-6.185545},{"i_long":106.800832,"is_transit":false,"line":1,"transit":false,"i_lat":-6.155215,"station_name":"Duri","distance":3632,"station_id":"DU","time":8},{"transit":false,"distance":1230,"i_long":106.79867,"line":1,"is_transit":false,"i_lat":-6.144674,"station_id":"AK","station_name":"Angke","time":4},{"i_lat":-6.132549,"is_transit":true,"transit":true,"station_name":"Kampung Bandan","time":9,"station_id":"KPB","i_long":106.826365,"line":4,"distance":4102},{"station_name":"Rajawali","time":3,"i_long":106.836569,"transit":false,"i_lat":-6.14505,"line":11,"is_transit":false,"station_id":"RJW","distance":1444},{"time":5,"i_lat":-6.161728,"distance":1901,"i_long":106.839204,"is_transit":false,"line":11,"station_name":"Kemayoran","transit":false,"station_id":"KMO"},{"time":4,"transit":false,"i_lat":-6.174784,"station_name":"Pasar Senen","distance":1436,"i_long":106.84368,"station_id":"PSE","is_transit":false,"line":11},{"is_transit":false,"transit":false,"distance":1567,"station_id":"GST","time":8,"line":11,"station_name":"Gang Sentiong","i_lat":-6.185975,"i_long":106.850107},{"station_id":"KMT","i_lat":-6.193792,"time":1,"transit":false,"i_long":106.855437,"line":11,"distance":973,"is_transit":false,"station_name":"Kramat"},{"i_lat":-6.209188,"line":11,"time":2,"is_transit":false,"distance":1829,"transit":false,"i_long":106.861737,"station_name":"Pondok Jati","station_id":"POK"},{"transit":true,"station_name":"Jatinegara","i_long":106.86807400000001,"time":9,"station_id":"JNG","distance":1236,"is_transit":true,"i_lat":-6.215091,"line":1},{"is_transit":false,"line":1,"station_id":"KLD","transit":false,"station_name":"Klender","time":3,"i_lat":-6.2135,"i_long":106.899548,"distance":3395},{"station_name":"Buaran","distance":3100,"transit":false,"i_long":106.922662,"is_transit":false,"station_id":"BUA","i_lat":-6.215568,"time":2,"line":1},{"i_long":106.939679,"is_transit":false,"station_id":"KLDB","transit":false,"line":1,"time":1,"i_lat":-6.217455,"distance":1305,"station_name":"Klenderbaru"},{"i_long":106.951283,"line":1,"is_transit":false,"transit":false,"station_name":"Cakung","time":8,"distance":1385,"i_lat":-6.219053,"station_id":"CUK"},{"i_long":106.977657,"transit":false,"i_lat":-6.224515,"time":3,"distance":3097,"line":1,"station_id":"KRI","is_transit":false,"station_name":"Kranji"},{"i_long":106.997013,"station_id":"BKS","i_lat":-6.236616,"line":1,"transit":false,"distance":2520,"time":4,"station_name":"Bekasi","is_transit":false}],[{"i_long":106.816926,"distance":0,"time":0,"i_lat":-6.405256,"line":2,"is_transit":false,"station_id":"DP","transit":false,"station_name":"Depok"},{"transit":false,"station_name":"Depokbaru","station_id":"DPB","i_lat":-6.391065,"line":2,"is_transit":false,"time":3,"distance":1584,"i_long":106.819451},{"is_transit":false,"station_id":"POC","line":2,"time":4,"transit":false,"distance":2727,"i_lat":-6.369073,"i_long":106.831114,"station_name":"Pondok Cina"},{"i_long":106.831474,"distance":1109,"line":2,"station_id":"UI","station_name":"Univ. Indonesia","time":2,"i_lat":-6.360749,"transit":false,"is_transit":false},{"distance":2264,"i_long":106.834175,"i_lat":-6.339291,"station_name":"Univ. Pancasila","line":2,"is_transit":false,"station_id":"UP","transit":false,"time":3},{"distance":1029,"time":2,"is_transit":false,"transit":false,"i_lat":-6.330363,"i_long":106.832616,"line":2,"station_id":"LNA","station_name":"Lenteng Agung"},{"station_name":"Tanjung Barat","time":3,"i_lat":-6.3080680000000005,"transit":false,"is_transit":false,"station_id":"TNT","distance":2671,"i_long":106.838896,"line":2},{"station_name":"Pasar Minggu","i_lat":-6.2842400000000005,"station_id":"PSM","is_transit":false,"distance":2820,"line":2,"i_long":106.843999,"time":4,"transit":false},{"i_lat":-6.263214,"time":2,"station_id":"PSMB","i_long":106.851577,"station_name":"Pasar Minggu Baru","is_transit":false,"line":2,"transit":false,"distance":2380},{"distance":824,"i_lat":-6.255332,"transit":false,"is_transit":false,"time":2,"i_long":106.85449,"line":2,"station_id":"DRN","station_name":"Duren Kalibata"},{"line":2,"is_transit":false,"time":3,"distance":1546,"station_name":"Cawang","i_lat":-6.242512,"transit":false,"i_long":106.856607,"station_id":"CW"},{"transit":false,"line":2,"distance":1230,"station_name":"Tebet","station_id":"TEB","time":2,"i_lat":-6.226659,"is_transit":false,"i_long":106.857948},{"distance":2610,"transit":false,"i_lat":-6.209883,"station_id":"MRI","line":2,"is_transit":false,"station_name":"Manggarai","i_long":106.84912,"time":4},{"transit":false,"station_name":"Cikini","line":2,"is_transit":false,"station_id":"CKI","distance":1590,"time":4,"i_lat":-6.198556,"i_long":106.840169},{"station_id":"GDD","transit":false,"time":3,"distance":1750,"i_long":106.832183,"i_lat":-6.186295,"line":2,"is_transit":false,"station_name":"Gondangdia"},{"is_transit":false,"i_lat":-6.166716,"time":4,"distance":2015,"transit":false,"i_long":106.828284,"station_id":"JUA","station_name":"Juanda","line":2},{"distance":1149,"station_name":"Sawah Besar","is_transit":false,"station_id":"SW","line":2,"i_long":106.827103,"transit":false,"time":2,"i_lat":-6.160725},{"transit":false,"i_lat":-6.149769,"station_name":"Manggabesar","station_id":"MGB","time":2,"distance":906,"is_transit":false,"i_long":106.82482,"line":2},{"i_long":106.820901,"i_lat":-6.141205,"is_transit":false,"station_id":"JAY","station_name":"Jayakarta","transit":false,"time":2,"distance":1080,"line":2},{"distance":1264,"station_name":"Jakarta Kota","time":4,"i_lat":-6.137569,"i_long":106.812439,"is_transit":true,"line":2,"transit":true,"station_id":"JAKK"},{"i_long":106.826365,"i_lat":-6.132549,"time":3,"distance":1364,"is_transit":true,"transit":true,"station_name":"Kampung Bandan","line":4,"station_id":"KPB"},{"transit":false,"is_transit":false,"i_long":106.836569,"station_id":"RJW","line":11,"time":3,"station_name":"Rajawali","distance":1444,"i_lat":-6.14505},{"station_id":"KMO","i_lat":-6.161728,"station_name":"Kemayoran","transit":false,"distance":1901,"i_long":106.839204,"is_transit":false,"time":5,"line":11},{"time":4,"distance":1436,"is_transit":false,"station_name":"Pasar Senen","i_long":106.84368,"i_lat":-6.174784,"line":11,"station_id":"PSE","transit":false},{"time":8,"i_lat":-6.185975,"is_transit":false,"transit":false,"distance":1567,"i_long":106.850107,"line":11,"station_id":"GST","station_name":"Gang Sentiong"},{"is_transit":false,"station_id":"KMT","transit":false,"i_long":106.855437,"line":11,"distance":973,"station_name":"Kramat","i_lat":-6.193792,"time":1},{"station_name":"Pondok Jati","distance":1829,"line":11,"station_id":"POK","is_transit":false,"i_lat":-6.209188,"time":2,"transit":false,"i_long":106.861737},{"i_lat":-6.215091,"is_transit":true,"distance":1236,"station_id":"JNG","transit":true,"station_name":"Jatinegara","i_long":106.86807400000001,"line":1,"time":9},{"i_lat":-6.2135,"i_long":106.899548,"time":3,"line":1,"station_name":"Klender","distance":3395,"is_transit":false,"transit":false,"station_id":"KLD"},{"i_long":106.922662,"station_name":"Buaran","transit":false,"distance":3100,"line":1,"time":2,"is_transit":false,"station_id":"BUA","i_lat":-6.215568},{"is_transit":false,"transit":false,"station_name":"Klenderbaru","distance":1305,"station_id":"KLDB","i_lat":-6.217455,"line":1,"time":1,"i_long":106.939679},{"station_id":"CUK","line":1,"is_transit":false,"transit":false,"time":8,"distance":1385,"i_lat":-6.219053,"i_long":106.951283,"station_name":"Cakung"},{"transit":false,"i_lat":-6.224515,"line":1,"station_name":"Kranji","i_long":106.977657,"station_id":"KRI","distance":3097,"is_transit":false,"time":3},{"station_id":"BKS","distance":2520,"station_name":"Bekasi","time":4,"i_lat":-6.236616,"line":1,"transit":false,"is_transit":false,"i_long":106.997013}]]}