{"data":[[{"i_lat":-6.405256,"time":0,"transit":false,"line":2,"station_id":"DP","is_transit":false,"distance":0,"station_name":"Depok","i_long":106.816926},{"station_name":"Citayam","is_transit":false,"transit":false,"distance":5084,"time":6,"i_long":106.800298,"i_lat":-6.448811,"station_id":"CTA","line":2},{"i_long":106.792719,"station_name":"Bojonggede","line":2,"transit":false,"station_id":"BJD","distance":5197,"time":5,"is_transit":false,"i_lat":-6.493243},{"station_id":"CLT","is_transit":false,"distance":4331,"time":5,"transit":false,"i_long":106.800016,"i_lat":-6.530544,"station_name":"Cilebut","line":2},{"transit":false,"time":9,"i_long":106.790574,"distance":7514,"i_lat":-6.594596,"station_name":"Bogor","is_transit":false,"line":2,"station_id":"BOO"}]]}