{"data":[[{"station_name":"Depok","station_id":"DP","is_transit":false,"time":0,"distance":0,"i_long":106.816926,"i_lat":-6.405256,"transit":false,"line":2},{"i_lat":-6.391065,"station_id":"DPB","line":2,"time":3,"distance":1584,"i_long":106.819451,"is_transit":false,"transit":false,"station_name":"Depokbaru"},{"is_transit":false,"station_id":"POC","transit":false,"distance":2727,"time":4,"i_lat":-6.369073,"station_name":"Pondok Cina","i_long":106.831114,"line":2},{"transit":false,"distance":1109,"i_long":106.831474,"station_name":"Univ. Indonesia","is_transit":false,"line":2,"time":2,"station_id":"UI","i_lat":-6.360749},{"i_lat":-6.339291,"i_long":106.834175,"line":2,"station_name":"Univ. Pancasila","station_id":"UP","transit":false,"is_transit":false,"time":3,"distance":2264},{"time":2,"i_long":106.832616,"line":2,"is_transit":false,"station_id":"LNA","distance":1029,"transit":false,"station_name":"Lenteng Agung","i_lat":-6.330363},{"station_id":"TNT","distance":2671,"i_lat":-6.3080680000000005,"is_transit":false,"i_long":106.838896,"line":2,"station_name":"Tanjung Barat","time":3,"transit":false},{"transit":false,"station_id":"PSM","i_long":106.843999,"line":2,"station_name":"Pasar Minggu","is_transit":false,"time":4,"distance":2820,"i_lat":-6.2842400000000005},{"line":2,"i_lat":-6.263214,"station_id":"PSMB","distance":2380,"transit":false,"is_transit":false,"station_name":"Pasar Minggu Baru","time":2,"i_long":106.851577},{"station_id":"DRN","station_name":"Duren Kalibata","transit":false,"distance":824,"is_transit":false,"line":2,"i_lat":-6.255332,"time":2,"i_long":106.85449},{"distance":1546,"station_name":"Cawang","line":2,"i_lat":-6.242512,"time":3,"i_long":106.856607,"transit":false,"station_id":"CW","is_transit":false},{"line":2,"distance":1230,"i_lat":-6.226659,"i_long":106.857948,"station_id":"TEB","transit":false,"is_transit":false,"station_name":"Tebet","time":2},{"is_transit":true,"time":4,"transit":true,"line":2,"station_name":"Manggarai","i_lat":-6.209883,"distance":2610,"i_long":106.84912,"station_id":"MRI"},{"is_transit":false,"transit":false,"time":2,"i_lat":-6.212485,"distance":1275,"station_name":"Matraman","line":1,"station_id":"MTR","i_long":106.858896},{"is_transit":false,"time":8,"i_lat":-6.215091,"i_long":106.86807400000001,"station_id":"JNG","transit":false,"station_name":"Jatinegara","distance":1377,"line":1},{"station_name":"Klender","line":1,"i_lat":-6.2135,"station_id":"KLD","i_long":106.899548,"is_transit":false,"transit":false,"time":3,"distance":3395},{"transit":false,"i_lat":-6.215568,"i_long":106.922662,"station_id":"BUA","is_transit":false,"distance":3100,"station_name":"Buaran","time":2,"line":1},{"is_transit":false,"station_id":"KLDB","time":1,"distance":1305,"i_lat":-6.217455,"station_name":"Klenderbaru","transit":false,"line":1,"i_long":106.939679},{"station_id":"CUK","transit":false,"i_long":106.951283,"station_name":"Cakung","time":8,"line":1,"distance":1385,"i_lat":-6.219053,"is_transit":false},{"i_long":106.977657,"transit":false,"station_name":"Kranji","station_id":"KRI","distance":3097,"time":3,"is_transit":false,"i_lat":-6.224515,"line":1},{"time":4,"i_lat":-6.236616,"distance":2520,"transit":false,"station_name":"Bekasi","is_transit":false,"i_long":106.997013,"station_id":"BKS","line":1}],[{"is_transit":false,"i_long":106.816926,"transit":false,"station_name":"Depok","time":0,"distance":0,"line":2,"i_lat":-6.405256,"station_id":"DP"},{"station_id":"DPB","i_lat":-6.391065,"line":2,"is_transit":false,"i_long":106.819451,"time":3,"distance":1584,"station_name":"Depokbaru","transit":false},{"station_id":"POC","time":4,"i_lat":-6.369073,"distance":2727,"station_name":"Pondok Cina","i_long":106.831114,"line":2,"transit":false,"is_transit":false},{"station_name":"Univ. Indonesia","station_id":"UI","i_long":106.831474,"time":2,"line":2,"distance":1109,"transit":false,"is_transit":false,"i_lat":-6.360749},{"station_id":"UP","line":2,"transit":false,"station_name":"Univ. Pancasila","i_long":106.834175,"distance":2264,"is_transit":false,"time":3,"i_lat":-6.339291},{"i_lat":-6.330363,"is_transit":false,"transit":false,"distance":1029,"time":2,"station_id":"LNA","line":2,"i_long":106.832616,"station_name":"Lenteng Agung"},{"distance":2671,"is_transit":false,"i_long":106.838896,"time":3,"station_name":"Tanjung Barat","line":2,"transit":false,"i_lat":-6.3080680000000005,"station_id":"TNT"},{"station_name":"Pasar Minggu","i_lat":-6.2842400000000005,"distance":2820,"line":2,"station_id":"PSM","is_transit":false,"i_long":106.843999,"time":4,"transit":false},{"line":2,"station_id":"PSMB","i_long":106.851577,"station_name":"Pasar Minggu Baru","is_transit":false,"distance":2380,"i_lat":-6.263214,"transit":false,"time":2},{"distance":824,"station_id":"DRN","i_lat":-6.255332,"i_long":106.85449,"is_transit":false,"transit":false,"station_name":"Duren Kalibata","line":2,"time":2},{"station_name":"Cawang","time":3,"station_id":"CW","transit":false,"line":2,"i_long":106.856607,"distance":1546,"is_transit":false,"i_lat":-6.242512},{"station_id":"TEB","transit":false,"station_name":"Tebet","distance":1230,"time":2,"i_lat":-6.226659,"is_transit":false,"line":2,"i_long":106.857948},{"station_name":"Manggarai","time":4,"is_transit":true,"line":2,"i_long":106.84912,"station_id":"MRI","transit":true,"distance":2610,"i_lat":-6.209883},{"station_name":"Sudirman","station_id":"SUD","transit":false,"i_lat":-6.202263,"i_long":106.822649,"line":1,"time":4,"distance":3186,"is_transit":false},{"i_long":106.819881,"transit":false,"station_id":"SUDB","is_transit":false,"time":1,"line":1,"station_name":"Sudirman Baru","distance":280,"i_lat":-6.201433},{"i_long":106.816351,"station_name":"Karet","time":1,"distance":471,"line":1,"station_id":"KAT","i_lat":-6.20132,"transit":false,"is_transit":false},{"transit":false,"i_lat":-6.185545,"time":5,"distance":2029,"station_id":"THB","i_long":106.811091,"station_name":"Tanah Abang","is_transit":false,"line":1},{"i_lat":-6.155215,"i_long":106.800832,"station_name":"Duri","station_id":"DU","is_transit":false,"distance":3632,"line":1,"time":8,"transit":false},{"transit":false,"line":1,"i_lat":-6.144674,"i_long":106.79867,"station_id":"AK","station_name":"Angke","time":4,"is_transit":false,"distance":1230},{"station_id":"KPB","i_lat":-6.132549,"line":4,"time":9,"i_long":106.826365,"station_name":"Kampung Bandan","distance":4102,"transit":true,"is_transit":true},{"i_lat":-6.14505,"line":11,"transit":false,"is_transit":false,"time":3,"station_name":"Rajawali","i_long":106.836569,"distance":1444,"station_id":"RJW"},{"station_name":"Kemayoran","line":11,"is_transit":false,"transit":false,"station_id":"KMO","time":5,"i_long":106.839204,"i_lat":-6.161728,"distance":1901},{"station_name":"Pasar Senen","distance":1436,"i_long":106.84368,"is_transit":false,"time":4,"i_lat":-6.174784,"transit":false,"line":11,"station_id":"PSE"},{"time":8,"i_long":106.850107,"line":11,"transit":false,"distance":1567,"i_lat":-6.185975,"station_id":"GST","station_name":"Gang Sentiong","is_transit":false},{"station_name":"Kramat","distance":973,"transit":false,"is_transit":false,"time":1,"i_lat":-6.193792,"i_long":106.855437,"station_id":"KMT","line":11},{"line":11,"i_long":106.861737,"station_id":"POK","transit":false,"i_lat":-6.209188,"station_name":"Pondok Jati","distance":1829,"time":2,"is_transit":false},{"distance":1236,"is_transit":true,"station_name":"Jatinegara","time":9,"i_long":106.86807400000001,"line":1,"i_lat":-6.215091,"transit":true,"station_id":"JNG"},{"transit":false,"i_long":106.899548,"time":3,"is_transit":false,"i_lat":-6.2135,"station_name":"Klender","distance":3395,"line":1,"station_id":"KLD"},{"is_transit":false,"distance":3100,"i_lat":-6.215568,"station_id":"BUA","station_name":"Buaran","transit":false,"time":2,"i_long":106.922662,"line":1},{"i_long":106.939679,"is_transit":false,"time":1,"distance":1305,"transit":false,"station_id":"KLDB","line":1,"station_name":"Klenderbaru","i_lat":-6.217455},{"time":8,"distance":1385,"i_lat":-6.219053,"line":1,"station_name":"Cakung","i_long":106.951283,"transit":false,"is_transit":false,"station_id":"CUK"},{"station_name":"Kranji","i_long":106.977657,"i_lat":-6.224515,"is_transit":false,"line":1,"transit":false,"time":3,"distance":3097,"station_id":"KRI"},{"station_name":"Bekasi","station_id":"BKS","is_transit":false,"transit":false,"time":4,"i_lat":-6.236616,"i_long":106.997013,"line":1,"distance":2520}],[{"i_lat":-6.405256,"i_long":106.816926,"line":2,"transit":false,"station_name":"Depok","is_transit":false,"time":0,"station_id":"DP","distance":0},{"is_transit":false,"line":2,"station_name":"Depokbaru","distance":1584,"time":3,"i_lat":-6.391065,"transit":false,"i_long":106.819451,"station_id":"DPB"},{"is_transit":false,"time":4,"i_lat":-6.369073,"transit":false,"distance":2727,"i_long":106.831114,"line":2,"station_name":"Pondok Cina","station_id":"POC"},{"line":2,"distance":1109,"station_id":"UI","i_lat":-6.360749,"i_long":106.831474,"transit":false,"station_name":"Univ. Indonesia","is_transit":false,"time":2},{"line":2,"transit":false,"station_id":"UP","i_lat":-6.339291,"is_transit":false,"station_name":"Univ. Pancasila","time":3,"i_long":106.834175,"distance":2264},{"i_long":106.832616,"time":2,"line":2,"station_name":"Lenteng Agung","station_id":"LNA","distance":1029,"i_lat":-6.330363,"transit":false,"is_transit":false},{"i_lat":-6.3080680000000005,"time":3,"line":2,"transit":false,"station_name":"Tanjung Barat","station_id":"TNT","distance":2671,"is_transit":false,"i_long":106.838896},{"distance":2820,"station_id":"PSM","station_name":"Pasar Minggu","is_transit":false,"transit":false,"i_long":106.843999,"i_lat":-6.2842400000000005,"time":4,"line":2},{"station_id":"PSMB","time":2,"i_lat":-6.263214,"is_transit":false,"station_name":"Pasar Minggu Baru","distance":2380,"i_long":106.851577,"line":2,"transit":false},{"station_name":"Duren Kalibata","i_long":106.85449,"i_lat":-6.255332,"time":2,"line":2,"is_transit":false,"station_id":"DRN","distance":824,"transit":false},{"i_long":106.856607,"station_id":"CW","transit":false,"is_transit":false,"time":3,"station_name":"Cawang","i_lat":-6.242512,"line":2,"distance":1546},{"station_name":"Tebet","i_long":106.857948,"transit":false,"line":2,"i_lat":-6.226659,"is_transit":false,"time":2,"station_id":"TEB","distance":1230},{"i_lat":-6.209883,"i_long":106.84912,"station_id":"MRI","is_transit":false,"time":4,"line":2,"distance":2610,"transit":false,"station_name":"Manggarai"},{"station_name":"Cikini","transit":false,"line":2,"station_id":"CKI","is_transit":false,"i_lat":-6.198556,"i_long":106.840169,"time":4,"distance":1590},{"station_id":"GDD","time":3,"is_transit":false,"i_long":106.832183,"i_lat":-6.186295,"distance":1750,"station_name":"Gondangdia","transit":false,"line":2},{"station_id":"JUA","is_transit":false,"time":4,"distance":2015,"i_long":106.828284,"i_lat":-6.166716,"line":2,"station_name":"Juanda","transit":false},{"distance":1149,"i_long":106.827103,"station_name":"Sawah Besar","transit":false,"station_id":"SW","is_transit":false,"i_lat":-6.160725,"line":2,"time":2},{"line":2,"i_long":106.82482,"station_id":"MGB","is_transit":false,"distance":906,"i_lat":-6.149769,"station_name":"Manggabesar","time":2,"transit":false},{"i_lat":-6.141205,"station_id":"JAY","i_long":106.820901,"transit":false,"time":2,"line":2,"distance":1080,"station_name":"Jayakarta","is_transit":false},{"transit":true,"station_id":"JAKK","i_long":106.812439,"distance":1264,"is_transit":true,"station_name":"Jakarta Kota","time":4,"line":2,"i_lat":-6.137569},{"station_name":"Kampung Bandan","line":4,"is_transit":true,"i_lat":-6.132549,"transit":true,"time":3,"i_long":106.826365,"station_id":"KPB","distance":1364},{"transit":false,"station_name":"Rajawali","i_long":106.836569,"is_transit":false,"station_id":"RJW","distance":1444,"i_lat":-6.14505,"line":11,"time":3},{"i_long":106.839204,"is_transit":false,"station_id":"KMO","transit":false,"distance":1901,"station_name":"Kemayoran","i_lat":-6.161728,"time":5,"line":11},{"station_name":"Pasar Senen","is_transit":false,"station_id":"PSE","distance":1436,"i_long":106.84368,"time":4,"i_lat":-6.174784,"transit":false,"line":11},{"distance":1567,"i_long":106.850107,"is_transit":false,"i_lat":-6.185975,"time":8,"station_id":"GST","transit":false,"line":11,"station_name":"Gang Sentiong"},{"is_transit":false,"line":11,"station_name":"Kramat","distance":973,"i_long":106.855437,"time":1,"i_lat":-6.193792,"transit":false,"station_id":"KMT"},{"line":11,"is_transit":false,"transit":false,"i_long":106.861737,"station_id":"POK","distance":1829,"station_name":"Pondok Jati","time":2,"i_lat":-6.209188},{"i_lat":-6.215091,"transit":true,"is_transit":true,"i_long":106.86807400000001,"line":1,"time":9,"station_id":"JNG","station_name":"Jatinegara","distance":1236},{"line":1,"transit":false,"is_transit":false,"i_long":106.899548,"station_name":"Klender","distance":3395,"i_lat":-6.2135,"station_id":"KLD","time":3},{"station_id":"BUA","station_name":"Buaran","line":1,"i_lat":-6.215568,"is_transit":false,"distance":3100,"i_long":106.922662,"time":2,"transit":false},{"transit":false,"station_name":"Klenderbaru","line":1,"time":1,"distance":1305,"station_id":"KLDB","is_transit":false,"i_lat":-6.217455,"i_long":106.939679},{"line":1,"is_transit":false,"time":8,"i_long":106.951283,"station_id":"CUK","transit":false,"distance":1385,"station_name":"Cakung","i_lat":-6.219053},{"station_name":"Kranji","is_transit":false,"time":3,"distance":3097,"transit":false,"station_id":"KRI","i_lat":-6.224515,"i_long":106.977657,"line":1},{"i_lat":-6.236616,"is_transit":false,"line":1,"station_name":"Bekasi","transit":false,"station_id":"BKS","i_long":106.997013,"distance":2520,"time":4}]]}