{"data":[[{"line":2,"transit":false,"is_transit":false,"i_lat":-6.405256,"i_long":106.816926,"station_name":"Depok","station_id":"DP","time":0,"distance":0},{"time":3,"distance":1584,"station_id":"DPB","station_name":"Depokbaru","i_lat":-6.391065,"i_long":106.819451,"transit":false,"is_transit":false,"line":2},{"time":4,"i_lat":-6.369073,"i_long":106.831114,"transit":false,"is_transit":false,"line":2,"station_name":"Pondok Cina","distance":2727,"station_id":"POC"},{"i_lat":-6.360749,"time":2,"station_name":"Univ. Indonesia","line":2,"transit":false,"distance":1109,"station_id":"UI","i_long":106.831474,"is_transit":false},{"line":2,"station_name":"Univ. Pancasila","is_transit":false,"time":3,"i_lat":-6.339291,"transit":false,"i_long":106.834175,"distance":2264,"station_id":"UP"},{"time":2,"i_lat":-6.330363,"station_id":"LNA","is_transit":false,"i_long":106.832616,"line":2,"station_name":"Lenteng Agung","distance":1029,"transit":false},{"i_long":106.838896,"transit":false,"i_lat":-6.3080680000000005,"time":3,"station_id":"TNT","station_name":"Tanjung Barat","line":2,"distance":2671,"is_transit":false},{"transit":false,"time":4,"is_transit":false,"station_id":"PSM","station_name":"Pasar Minggu","i_long":106.843999,"distance":2820,"i_lat":-6.2842400000000005,"line":2},{"i_long":106.851577,"line":2,"time":2,"is_transit":false,"i_lat":-6.263214,"distance":2380,"station_id":"PSMB","transit":false,"station_name":"Pasar Minggu Baru"},{"station_name":"Duren Kalibata","time":2,"transit":false,"i_long":106.85449,"is_transit":false,"distance":824,"i_lat":-6.255332,"line":2,"station_id":"DRN"},{"i_lat":-6.242512,"station_name":"Cawang","is_transit":false,"station_id":"CW","distance":1546,"transit":false,"i_long":106.856607,"time":3,"line":2},{"station_id":"TEB","is_transit":false,"transit":false,"time":2,"station_name":"Tebet","i_lat":-6.226659,"i_long":106.857948,"distance":1230,"line":2},{"transit":true,"line":2,"distance":2610,"is_transit":true,"i_lat":-6.209883,"i_long":106.84912,"time":4,"station_name":"Manggarai","station_id":"MRI"},{"station_id":"MTR","is_transit":false,"station_name":"Matraman","distance":1275,"i_long":106.858896,"line":1,"transit":false,"time":2,"i_lat":-6.212485},{"station_id":"JNG","time":8,"line":1,"is_transit":false,"transit":false,"i_long":106.86807400000001,"distance":1377,"station_name":"Jatinegara","i_lat":-6.215091},{"i_lat":-6.2135,"distance":3395,"line":1,"is_transit":false,"station_id":"KLD","transit":false,"station_name":"Klender","i_long":106.899548,"time":3},{"i_lat":-6.215568,"station_id":"BUA","station_name":"Buaran","distance":3100,"is_transit":false,"line":1,"i_long":106.922662,"time":2,"transit":false},{"station_name":"Klenderbaru","transit":false,"is_transit":false,"station_id":"KLDB","time":1,"i_lat":-6.217455,"i_long":106.939679,"distance":1305,"line":1},{"line":1,"transit":false,"i_lat":-6.219053,"station_name":"Cakung","distance":1385,"station_id":"CUK","is_transit":false,"time":8,"i_long":106.951283},{"is_transit":false,"transit":false,"line":1,"station_id":"KRI","time":3,"i_long":106.977657,"distance":3097,"i_lat":-6.224515,"station_name":"Kranji"},{"line":1,"distance":2520,"is_transit":false,"transit":false,"station_id":"BKS","time":4,"i_lat":-6.236616,"i_long":106.997013,"station_name":"Bekasi"}],[{"time":0,"transit":false,"i_lat":-6.405256,"station_name":"Depok","line":2,"station_id":"DP","is_transit":false,"i_long":106.816926,"distance":0},{"distance":1584,"i_lat":-6.391065,"line":2,"transit":false,"is_transit":false,"station_name":"Depokbaru","time":3,"station_id":"DPB","i_long":106.819451},{"station_id":"POC","station_name":"Pondok Cina","is_transit":false,"transit":false,"time":4,"i_long":106.831114,"distance":2727,"line":2,"i_lat":-6.369073},{"station_id":"UI","i_lat":-6.360749,"transit":false,"station_name":"Univ. Indonesia","time":2,"i_long":106.831474,"distance":1109,"is_transit":false,"line":2},{"transit":false,"station_id":"UP","is_transit":false,"i_long":106.834175,"distance":2264,"time":3,"line":2,"i_lat":-6.339291,"station_name":"Univ. Pancasila"},{"transit":false,"distance":1029,"time":2,"i_lat":-6.330363,"line":2,"station_name":"Lenteng Agung","station_id":"LNA","i_long":106.832616,"is_transit":false},{"transit":false,"station_id":"TNT","i_lat":-6.3080680000000005,"time":3,"line":2,"station_name":"Tanjung Barat","distance":2671,"i_long":106.838896,"is_transit":false},{"is_transit":false,"distance":2820,"line":2,"station_id":"PSM","station_name":"Pasar Minggu","time":4,"i_lat":-6.2842400000000005,"transit":false,"i_long":106.843999},{"distance":2380,"i_lat":-6.263214,"i_long":106.851577,"time":2,"line":2,"station_name":"Pasar Minggu Baru","station_id":"PSMB","transit":false,"is_transit":false},{"station_id":"DRN","i_long":106.85449,"distance":824,"time":2,"transit":false,"line":2,"is_transit":false,"station_name":"Duren Kalibata","i_lat":-6.255332},{"transit":false,"station_name":"Cawang","i_lat":-6.242512,"is_transit":false,"station_id":"CW","time":3,"i_long":106.856607,"line":2,"distance":1546},{"time":2,"i_lat":-6.226659,"line":2,"station_id":"TEB","distance":1230,"station_name":"Tebet","i_long":106.857948,"transit":false,"is_transit":false},{"station_name":"Manggarai","distance":2610,"line":2,"station_id":"MRI","transit":true,"is_transit":true,"time":4,"i_long":106.84912,"i_lat":-6.209883},{"distance":3186,"i_long":106.822649,"line":1,"time":4,"i_lat":-6.202263,"station_id":"SUD","is_transit":false,"station_name":"Sudirman","transit":false},{"line":1,"is_transit":false,"transit":false,"i_long":106.819881,"station_name":"Sudirman Baru","i_lat":-6.201433,"time":1,"distance":280,"station_id":"SUDB"},{"distance":471,"i_long":106.816351,"is_transit":false,"i_lat":-6.20132,"transit":false,"station_id":"KAT","station_name":"Karet","time":1,"line":1},{"distance":2029,"transit":false,"station_name":"Tanah Abang","i_lat":-6.185545,"station_id":"THB","is_transit":false,"time":5,"i_long":106.811091,"line":1},{"i_lat":-6.155215,"distance":3632,"i_long":106.800832,"line":1,"station_name":"Duri","transit":false,"station_id":"DU","time":8,"is_transit":false},{"time":4,"transit":false,"distance":1230,"station_name":"Angke","is_transit":false,"i_long":106.79867,"station_id":"AK","i_lat":-6.144674,"line":1},{"distance":4102,"i_lat":-6.132549,"transit":true,"line":4,"station_name":"Kampung Bandan","i_long":106.826365,"is_transit":true,"time":9,"station_id":"KPB"},{"station_name":"Rajawali","is_transit":false,"i_long":106.836569,"i_lat":-6.14505,"transit":false,"line":11,"time":3,"distance":1444,"station_id":"RJW"},{"distance":1901,"line":11,"is_transit":false,"time":5,"station_name":"Kemayoran","i_long":106.839204,"station_id":"KMO","i_lat":-6.161728,"transit":false},{"i_long":106.84368,"station_name":"Pasar Senen","i_lat":-6.174784,"is_transit":false,"station_id":"PSE","transit":false,"distance":1436,"time":4,"line":11},{"line":11,"i_lat":-6.185975,"i_long":106.850107,"is_transit":false,"station_name":"Gang Sentiong","distance":1567,"station_id":"GST","transit":false,"time":8},{"time":1,"is_transit":false,"station_name":"Kramat","station_id":"KMT","transit":false,"i_long":106.855437,"line":11,"distance":973,"i_lat":-6.193792},{"i_long":106.861737,"i_lat":-6.209188,"is_transit":false,"station_id":"POK","time":2,"transit":false,"station_name":"Pondok Jati","line":11,"distance":1829},{"transit":true,"i_lat":-6.215091,"station_name":"Jatinegara","is_transit":true,"distance":1236,"time":9,"line":1,"i_long":106.86807400000001,"station_id":"JNG"},{"station_id":"KLD","time":3,"i_lat":-6.2135,"transit":false,"distance":3395,"is_transit":false,"i_long":106.899548,"station_name":"Klender","line":1},{"station_name":"Buaran","is_transit":false,"time":2,"transit":false,"i_lat":-6.215568,"i_long":106.922662,"line":1,"distance":3100,"station_id":"BUA"},{"line":1,"is_transit":false,"distance":1305,"station_name":"Klenderbaru","i_lat":-6.217455,"time":1,"station_id":"KLDB","transit":false,"i_long":106.939679},{"i_long":106.951283,"line":1,"distance":1385,"time":8,"station_id":"CUK","is_transit":false,"transit":false,"i_lat":-6.219053,"station_name":"Cakung"},{"station_id":"KRI","i_long":106.977657,"station_name":"Kranji","i_lat":-6.224515,"line":1,"distance":3097,"is_transit":false,"time":3,"transit":false},{"is_transit":false,"time":4,"i_lat":-6.236616,"i_long":106.997013,"station_id":"BKS","station_name":"Bekasi","transit":false,"distance":2520,"line":1}],[{"i_lat":-6.405256,"time":0,"transit":false,"station_name":"Depok","distance":0,"line":2,"station_id":"DP","is_transit":false,"i_long":106.816926},{"i_lat":-6.391065,"station_name":"Depokbaru","transit":false,"is_transit":false,"i_long":106.819451,"line":2,"time":3,"distance":1584,"station_id":"DPB"},{"line":2,"distance":2727,"i_long":106.831114,"is_transit":false,"transit":false,"station_name":"Pondok Cina","station_id":"POC","time":4,"i_lat":-6.369073},{"i_long":106.831474,"line":2,"is_transit":false,"transit":false,"distance":1109,"time":2,"station_name":"Univ. Indonesia","i_lat":-6.360749,"station_id":"UI"},{"i_lat":-6.339291,"station_name":"Univ. Pancasila","transit":false,"distance":2264,"line":2,"station_id":"UP","time":3,"is_transit":false,"i_long":106.834175},{"time":2,"line":2,"transit":false,"distance":1029,"station_id":"LNA","is_transit":false,"station_name":"Lenteng Agung","i_long":106.832616,"i_lat":-6.330363},{"distance":2671,"transit":false,"station_id":"TNT","is_transit":false,"time":3,"i_lat":-6.3080680000000005,"i_long":106.838896,"station_name":"Tanjung Barat","line":2},{"station_id":"PSM","station_name":"Pasar Minggu","is_transit":false,"distance":2820,"time":4,"transit":false,"line":2,"i_lat":-6.2842400000000005,"i_long":106.843999},{"line":2,"station_name":"Pasar Minggu Baru","i_lat":-6.263214,"transit":false,"time":2,"i_long":106.851577,"station_id":"PSMB","is_transit":false,"distance":2380},{"station_name":"Duren Kalibata","i_lat":-6.255332,"station_id":"DRN","is_transit":false,"transit":false,"distance":824,"i_long":106.85449,"time":2,"line":2},{"time":3,"transit":false,"distance":1546,"station_name":"Cawang","i_lat":-6.242512,"line":2,"i_long":106.856607,"station_id":"CW","is_transit":false},{"station_name":"Tebet","station_id":"TEB","distance":1230,"line":2,"time":2,"i_lat":-6.226659,"is_transit":false,"transit":false,"i_long":106.857948},{"line":2,"station_id":"MRI","time":4,"transit":false,"i_long":106.84912,"station_name":"Manggarai","distance":2610,"i_lat":-6.209883,"is_transit":false},{"station_name":"Cikini","is_transit":false,"time":4,"station_id":"CKI","distance":1590,"line":2,"i_long":106.840169,"transit":false,"i_lat":-6.198556},{"transit":false,"station_name":"Gondangdia","i_long":106.832183,"line":2,"i_lat":-6.186295,"distance":1750,"is_transit":false,"station_id":"GDD","time":3},{"station_name":"Juanda","station_id":"JUA","i_long":106.828284,"time":4,"transit":false,"is_transit":false,"distance":2015,"line":2,"i_lat":-6.166716},{"time":2,"is_transit":false,"i_long":106.827103,"line":2,"station_id":"SW","transit":false,"distance":1149,"i_lat":-6.160725,"station_name":"Sawah Besar"},{"station_id":"MGB","distance":906,"line":2,"time":2,"i_lat":-6.149769,"i_long":106.82482,"station_name":"Manggabesar","transit":false,"is_transit":false},{"i_lat":-6.141205,"time":2,"station_name":"Jayakarta","is_transit":false,"station_id":"JAY","line":2,"i_long":106.820901,"transit":false,"distance":1080},{"distance":1264,"i_lat":-6.137569,"i_long":106.812439,"station_name":"Jakarta Kota","is_transit":true,"transit":true,"time":4,"line":2,"station_id":"JAKK"},{"i_long":106.826365,"i_lat":-6.132549,"time":3,"line":4,"station_id":"KPB","transit":true,"is_transit":true,"distance":1364,"station_name":"Kampung Bandan"},{"transit":false,"distance":1444,"station_name":"Rajawali","i_lat":-6.14505,"line":11,"time":3,"is_transit":false,"i_long":106.836569,"station_id":"RJW"},{"line":11,"station_id":"KMO","is_transit":false,"i_lat":-6.161728,"distance":1901,"i_long":106.839204,"station_name":"Kemayoran","time":5,"transit":false},{"i_long":106.84368,"is_transit":false,"time":4,"line":11,"station_id":"PSE","transit":false,"station_name":"Pasar Senen","distance":1436,"i_lat":-6.174784},{"line":11,"i_long":106.850107,"distance":1567,"transit":false,"station_name":"Gang Sentiong","station_id":"GST","is_transit":false,"time":8,"i_lat":-6.185975},{"i_long":106.855437,"transit":false,"distance":973,"is_transit":false,"station_name":"Kramat","time":1,"line":11,"i_lat":-6.193792,"station_id":"KMT"},{"i_long":106.861737,"i_lat":-6.209188,"transit":false,"station_id":"POK","distance":1829,"station_name":"Pondok Jati","time":2,"is_transit":false,"line":11},{"is_transit":true,"line":1,"i_long":106.86807400000001,"i_lat":-6.215091,"time":9,"distance":1236,"station_id":"JNG","station_name":"Jatinegara","transit":true},{"station_name":"Klender","distance":3395,"line":1,"station_id":"KLD","is_transit":false,"i_long":106.899548,"time":3,"transit":false,"i_lat":-6.2135},{"station_name":"Buaran","is_transit":false,"distance":3100,"i_long":106.922662,"line":1,"transit":false,"station_id":"BUA","time":2,"i_lat":-6.215568},{"distance":1305,"i_lat":-6.217455,"line":1,"station_name":"Klenderbaru","transit":false,"is_transit":false,"i_long":106.939679,"time":1,"station_id":"KLDB"},{"i_lat":-6.219053,"distance":1385,"transit":false,"is_transit":false,"station_name":"Cakung","i_long":106.951283,"line":1,"station_id":"CUK","time":8},{"distance":3097,"is_transit":false,"transit":false,"i_lat":-6.224515,"station_id":"KRI","time":3,"i_long":106.977657,"line":1,"station_name":"Kranji"},{"i_long":106.997013,"station_name":"Bekasi","transit":false,"distance":2520,"is_transit":false,"time":4,"line":1,"station_id":"BKS","i_lat":-6.236616}]]}