{"data":[[{"line":0,"i_long":106.816926,"is_transit":false,"transit":false,"station_name":"Depok","i_lat":-6.405256,"station_id":"DP","distance":0,"time":0},{"time":3,"is_transit":false,"transit":false,"i_lat":-6.391065,"line":0,"i_long":106.819451,"distance":1584,"station_name":"Depokbaru","station_id":"DPB"},{"i_lat":-6.369073,"station_id":"POC","time":4,"station_name":"Pondok Cina","transit":false,"is_transit":false,"i_long":106.831114,"distance":2727,"line":2},{"line":2,"transit":false,"i_lat":-6.360749,"station_name":"Univ. Indonesia","is_transit":false,"station_id":"UI","i_long":106.831474,"time":2,"distance":1109},{"line":2,"station_name":"Univ. Pancasila","time":3,"i_lat":-6.339291,"distance":2264,"is_transit":false,"station_id":"UP","transit":false,"i_long":106.834175},{"station_id":"LNA","time":2,"distance":1029,"line":2,"is_transit":false,"transit":false,"station_name":"Lenteng Agung","i_lat":-6.330363,"i_long":106.832616},{"station_name":"Tanjung Barat","i_long":106.838896,"i_lat":-6.3080680000000005,"transit":false,"line":2,"is_transit":false,"distance":2671,"time":3,"station_id":"TNT"},{"distance":2820,"i_long":106.843999,"is_transit":false,"transit":false,"i_lat":-6.2842400000000005,"station_name":"Pasar Minggu","station_id":"PSM","line":2,"time":4},{"i_long":106.851577,"i_lat":-6.263214,"distance":2380,"station_id":"PSMB","line":2,"time":2,"is_transit":false,"station_name":"Pasar Minggu Baru","transit":false},{"distance":824,"station_id":"DRN","time":2,"i_lat":-6.255332,"is_transit":false,"station_name":"Duren Kalibata","transit":false,"i_long":106.85449,"line":0},{"time":3,"station_id":"CW","is_transit":false,"station_name":"Cawang","i_lat":-6.242512,"i_long":106.856607,"line":0,"transit":false,"distance":1546},{"distance":1230,"transit":false,"i_long":106.857948,"station_id":"TEB","line":2,"i_lat":-6.226659,"time":2,"station_name":"Tebet","is_transit":false},{"distance":2610,"i_long":106.84912,"is_transit":true,"time":4,"transit":true,"i_lat":-6.209883,"station_id":"MRI","station_name":"Manggarai","line":0},{"i_long":106.858896,"transit":false,"time":2,"distance":1275,"station_id":"MTR","is_transit":false,"line":1,"station_name":"Matraman","i_lat":-6.212485},{"station_name":"Jatinegara","i_long":106.86807400000001,"i_lat":-6.215091,"time":8,"is_transit":true,"station_id":"JNG","distance":1377,"transit":false,"line":0},{"distance":3395,"transit":false,"line":1,"is_transit":false,"time":3,"station_name":"Klender","i_long":106.899548,"i_lat":-6.2135,"station_id":"KLD"},{"time":2,"distance":3100,"i_long":106.922662,"i_lat":-6.215568,"transit":false,"is_transit":false,"station_name":"Buaran","line":0,"station_id":"BUA"},{"time":1,"distance":1305,"i_long":106.939679,"station_id":"KLDB","line":1,"is_transit":false,"i_lat":-6.217455,"station_name":"Klenderbaru","transit":false},{"time":8,"station_name":"Cakung","is_transit":false,"distance":1385,"line":0,"station_id":"CUK","i_long":106.951283,"transit":false,"i_lat":-6.219053},{"i_long":106.977657,"time":3,"station_id":"KRI","line":1,"distance":3097,"transit":false,"i_lat":-6.224515,"is_transit":false,"station_name":"Kranji"},{"transit":false,"station_name":"Bekasi","i_lat":-6.236616,"time":4,"is_transit":false,"station_id":"BKS","line":0,"distance":2520,"i_long":106.997013}],[{"time":0,"line":0,"distance":0,"is_transit":false,"station_id":"DP","station_name":"Depok","i_lat":-6.405256,"transit":false,"i_long":106.816926},{"station_name":"Depokbaru","i_long":106.819451,"i_lat":-6.391065,"distance":1584,"transit":false,"line":0,"station_id":"DPB","is_transit":false,"time":3},{"i_lat":-6.369073,"distance":2727,"i_long":106.831114,"is_transit":false,"station_id":"POC","time":4,"station_name":"Pondok Cina","transit":false,"line":2},{"is_transit":false,"transit":false,"i_long":106.831474,"station_name":"Univ. Indonesia","distance":1109,"line":2,"station_id":"UI","i_lat":-6.360749,"time":2},{"distance":2264,"time":3,"transit":false,"i_lat":-6.339291,"i_long":106.834175,"station_name":"Univ. Pancasila","station_id":"UP","line":2,"is_transit":false},{"i_lat":-6.330363,"i_long":106.832616,"station_name":"Lenteng Agung","transit":false,"station_id":"LNA","time":2,"line":2,"is_transit":false,"distance":1029},{"distance":2671,"i_lat":-6.3080680000000005,"is_transit":false,"transit":false,"station_id":"TNT","station_name":"Tanjung Barat","line":2,"time":3,"i_long":106.838896},{"i_lat":-6.2842400000000005,"station_name":"Pasar Minggu","transit":false,"is_transit":false,"i_long":106.843999,"station_id":"PSM","line":2,"time":4,"distance":2820},{"distance":2380,"station_name":"Pasar Minggu Baru","time":2,"i_long":106.851577,"transit":false,"i_lat":-6.263214,"line":2,"station_id":"PSMB","is_transit":false},{"station_id":"DRN","i_long":106.85449,"time":2,"i_lat":-6.255332,"transit":false,"distance":824,"is_transit":false,"line":0,"station_name":"Duren Kalibata"},{"station_name":"Cawang","i_long":106.856607,"i_lat":-6.242512,"transit":false,"station_id":"CW","distance":1546,"line":0,"is_transit":false,"time":3},{"station_name":"Tebet","transit":false,"station_id":"TEB","distance":1230,"i_lat":-6.226659,"time":2,"line":2,"i_long":106.857948,"is_transit":false},{"line":0,"is_transit":true,"station_id":"MRI","transit":true,"i_lat":-6.209883,"time":4,"station_name":"Manggarai","i_long":106.84912,"distance":2610},{"line":1,"distance":3186,"station_id":"SUD","i_lat":-6.202263,"transit":false,"time":4,"station_name":"Sudirman","i_long":106.822649,"is_transit":false},{"is_transit":false,"transit":false,"i_long":106.819881,"i_lat":-6.201433,"station_name":"Sudirman Baru","station_id":"SUDB","time":1,"line":1,"distance":280},{"i_lat":-6.20132,"station_name":"Karet","line":1,"distance":471,"is_transit":false,"station_id":"KAT","time":1,"i_long":106.816351,"transit":false},{"distance":2029,"line":1,"time":5,"station_id":"THB","transit":false,"i_lat":-6.185545,"is_transit":true,"station_name":"Tanah Abang","i_long":106.811091},{"time":8,"station_name":"Duri","i_lat":-6.155215,"line":1,"distance":3632,"transit":true,"i_long":106.800832,"is_transit":true,"station_id":"DU"},{"station_name":"Angke","time":4,"is_transit":false,"transit":false,"distance":1230,"i_long":106.79867,"station_id":"AK","i_lat":-6.144674,"line":0},{"i_lat":-6.132549,"transit":true,"distance":4102,"station_name":"Kampung Bandan","i_long":106.826365,"is_transit":true,"time":9,"line":0,"station_id":"KPB"},{"time":3,"is_transit":false,"station_id":"RJW","i_long":106.836569,"station_name":"Rajawali","transit":false,"line":11,"distance":1444,"i_lat":-6.14505},{"station_id":"KMO","transit":false,"time":5,"distance":1901,"is_transit":false,"station_name":"Kemayoran","i_lat":-6.161728,"line":11,"i_long":106.839204},{"station_id":"PSE","station_name":"Pasar Senen","line":11,"i_long":106.84368,"distance":1436,"is_transit":false,"i_lat":-6.174784,"time":4,"transit":false},{"station_id":"GST","line":11,"distance":1567,"i_lat":-6.185975,"is_transit":false,"time":8,"transit":false,"i_long":106.850107,"station_name":"Gang Sentiong"},{"distance":973,"line":11,"i_lat":-6.193792,"i_long":106.855437,"time":1,"station_id":"KMT","is_transit":false,"station_name":"Kramat","transit":false},{"station_id":"POK","transit":false,"time":2,"i_lat":-6.209188,"i_long":106.861737,"is_transit":false,"distance":1829,"station_name":"Pondok Jati","line":11},{"line":0,"station_name":"Jatinegara","distance":1236,"station_id":"JNG","i_long":106.86807400000001,"is_transit":true,"i_lat":-6.215091,"time":9,"transit":true},{"time":3,"station_id":"KLD","station_name":"Klender","transit":false,"i_lat":-6.2135,"is_transit":false,"distance":3395,"line":1,"i_long":106.899548},{"i_long":106.922662,"transit":false,"is_transit":false,"time":2,"station_name":"Buaran","i_lat":-6.215568,"station_id":"BUA","line":0,"distance":3100},{"distance":1305,"time":1,"station_id":"KLDB","i_lat":-6.217455,"i_long":106.939679,"is_transit":false,"line":1,"station_name":"Klenderbaru","transit":false},{"transit":false,"line":0,"station_name":"Cakung","distance":1385,"i_lat":-6.219053,"is_transit":false,"i_long":106.951283,"station_id":"CUK","time":8},{"is_transit":false,"time":3,"i_lat":-6.224515,"distance":3097,"station_id":"KRI","line":1,"station_name":"Kranji","i_long":106.977657,"transit":false},{"distance":2520,"station_name":"Bekasi","station_id":"BKS","i_lat":-6.236616,"line":0,"transit":false,"time":4,"i_long":106.997013,"is_transit":false}],[{"time":0,"distance":0,"station_id":"DP","i_long":106.816926,"station_name":"Depok","i_lat":-6.405256,"line":0,"is_transit":false,"transit":false},{"station_id":"DPB","station_name":"Depokbaru","transit":false,"line":0,"time":3,"is_transit":false,"i_long":106.819451,"i_lat":-6.391065,"distance":1584},{"line":2,"station_id":"POC","is_transit":false,"i_long":106.831114,"time":4,"distance":2727,"station_name":"Pondok Cina","transit":false,"i_lat":-6.369073},{"distance":1109,"i_long":106.831474,"station_id":"UI","is_transit":false,"line":2,"time":2,"transit":false,"i_lat":-6.360749,"station_name":"Univ. Indonesia"},{"transit":false,"distance":2264,"i_lat":-6.339291,"i_long":106.834175,"line":2,"is_transit":false,"station_name":"Univ. Pancasila","station_id":"UP","time":3},{"distance":1029,"station_name":"Lenteng Agung","is_transit":false,"station_id":"LNA","i_lat":-6.330363,"line":2,"time":2,"transit":false,"i_long":106.832616},{"i_long":106.838896,"is_transit":false,"line":2,"station_name":"Tanjung Barat","i_lat":-6.3080680000000005,"transit":false,"station_id":"TNT","distance":2671,"time":3},{"time":4,"distance":2820,"transit":false,"station_name":"Pasar Minggu","i_long":106.843999,"is_transit":false,"station_id":"PSM","i_lat":-6.2842400000000005,"line":2},{"transit":false,"station_id":"PSMB","i_long":106.851577,"station_name":"Pasar Minggu Baru","distance":2380,"time":2,"i_lat":-6.263214,"is_transit":false,"line":2},{"station_id":"DRN","is_transit":false,"time":2,"station_name":"Duren Kalibata","transit":false,"i_long":106.85449,"line":0,"distance":824,"i_lat":-6.255332},{"i_long":106.856607,"station_name":"Cawang","i_lat":-6.242512,"time":3,"is_transit":false,"station_id":"CW","distance":1546,"transit":false,"line":0},{"distance":1230,"is_transit":false,"time":2,"transit":false,"i_long":106.857948,"i_lat":-6.226659,"line":2,"station_id":"TEB","station_name":"Tebet"},{"is_transit":true,"transit":true,"station_id":"MRI","i_lat":-6.209883,"time":4,"distance":2610,"line":0,"station_name":"Manggarai","i_long":106.84912},{"distance":1590,"transit":false,"i_lat":-6.198556,"time":4,"station_name":"Cikini","is_transit":false,"i_long":106.840169,"line":0,"station_id":"CKI"},{"is_transit":false,"line":2,"distance":1750,"transit":false,"station_id":"GDD","time":3,"station_name":"Gondangdia","i_long":106.832183,"i_lat":-6.186295},{"is_transit":false,"time":4,"station_name":"Juanda","i_long":106.828284,"line":2,"station_id":"JUA","i_lat":-6.166716,"distance":2015,"transit":false},{"station_id":"SW","transit":false,"is_transit":false,"distance":1149,"i_lat":-6.160725,"time":2,"station_name":"Sawah Besar","line":2,"i_long":106.827103},{"station_id":"MGB","line":2,"distance":906,"station_name":"Manggabesar","is_transit":false,"time":2,"transit":false,"i_lat":-6.149769,"i_long":106.82482},{"time":2,"distance":1080,"transit":false,"i_lat":-6.141205,"line":7,"is_transit":false,"station_id":"JAY","station_name":"Jayakarta","i_long":106.820901},{"distance":1264,"i_lat":-6.137569,"time":4,"is_transit":true,"station_name":"Jakarta Kota","transit":true,"i_long":106.812439,"line":0,"station_id":"JAKK"},{"line":0,"time":3,"i_lat":-6.132549,"distance":1364,"transit":true,"station_name":"Kampung Bandan","is_transit":true,"station_id":"KPB","i_long":106.826365},{"is_transit":false,"station_id":"RJW","distance":1444,"i_lat":-6.14505,"time":3,"transit":false,"station_name":"Rajawali","line":11,"i_long":106.836569},{"line":11,"station_id":"KMO","transit":false,"distance":1901,"station_name":"Kemayoran","i_long":106.839204,"is_transit":false,"time":5,"i_lat":-6.161728},{"distance":1436,"station_id":"PSE","transit":false,"i_long":106.84368,"time":4,"station_name":"Pasar Senen","is_transit":false,"line":11,"i_lat":-6.174784},{"distance":1567,"i_lat":-6.185975,"is_transit":false,"time":8,"station_name":"Gang Sentiong","transit":false,"i_long":106.850107,"line":11,"station_id":"GST"},{"station_id":"KMT","distance":973,"is_transit":false,"transit":false,"line":11,"time":1,"station_name":"Kramat","i_lat":-6.193792,"i_long":106.855437},{"i_lat":-6.209188,"time":2,"is_transit":false,"distance":1829,"transit":false,"station_id":"POK","station_name":"Pondok Jati","i_long":106.861737,"line":11},{"line":0,"is_transit":true,"station_id":"JNG","station_name":"Jatinegara","i_lat":-6.215091,"transit":true,"time":9,"distance":1236,"i_long":106.86807400000001},{"station_id":"KLD","distance":3395,"transit":false,"time":3,"is_transit":false,"i_lat":-6.2135,"line":1,"station_name":"Klender","i_long":106.899548},{"line":0,"station_id":"BUA","transit":false,"is_transit":false,"time":2,"distance":3100,"station_name":"Buaran","i_lat":-6.215568,"i_long":106.922662},{"distance":1305,"station_id":"KLDB","time":1,"station_name":"Klenderbaru","transit":false,"i_long":106.939679,"line":1,"i_lat":-6.217455,"is_transit":false},{"i_long":106.951283,"line":0,"time":8,"distance":1385,"transit":false,"i_lat":-6.219053,"station_id":"CUK","station_name":"Cakung","is_transit":false},{"transit":false,"i_lat":-6.224515,"i_long":106.977657,"is_transit":false,"time":3,"station_name":"Kranji","line":1,"station_id":"KRI","distance":3097},{"distance":2520,"transit":false,"time":4,"i_long":106.997013,"line":0,"is_transit":false,"i_lat":-6.236616,"station_name":"Bekasi","station_id":"BKS"}]]}