{"data":[[{"i_lat":-6.405256,"line":0,"station_name":"Depok","i_long":106.816926,"station_id":"DP","is_transit":false,"time":0,"transit":false,"distance":0},{"station_name":"Depokbaru","line":0,"transit":false,"is_transit":false,"time":3,"distance":1584,"i_long":106.819451,"station_id":"DPB","i_lat":-6.391065},{"distance":2727,"station_name":"Pondok Cina","station_id":"POC","time":4,"i_long":106.831114,"line":2,"transit":false,"i_lat":-6.369073,"is_transit":false},{"station_name":"Univ. Indonesia","station_id":"UI","i_lat":-6.360749,"line":2,"time":2,"is_transit":false,"i_long":106.831474,"transit":false,"distance":1109},{"distance":2264,"time":3,"i_lat":-6.339291,"i_long":106.834175,"station_name":"Univ. Pancasila","station_id":"UP","transit":false,"line":2,"is_transit":false},{"line":2,"i_long":106.832616,"distance":1029,"transit":false,"station_id":"LNA","time":2,"station_name":"Lenteng Agung","is_transit":false,"i_lat":-6.330363},{"is_transit":false,"i_long":106.838896,"distance":2671,"transit":false,"station_name":"Tanjung Barat","time":3,"i_lat":-6.3080680000000005,"station_id":"TNT","line":2},{"time":4,"distance":2820,"station_id":"PSM","is_transit":false,"i_long":106.843999,"line":2,"station_name":"Pasar Minggu","transit":false,"i_lat":-6.2842400000000005},{"i_long":106.851577,"transit":false,"i_lat":-6.263214,"station_id":"PSMB","line":2,"station_name":"Pasar Minggu Baru","is_transit":false,"distance":2380,"time":2},{"is_transit":false,"line":0,"transit":false,"station_id":"DRN","i_lat":-6.255332,"distance":824,"station_name":"Duren Kalibata","time":2,"i_long":106.85449},{"station_name":"Cawang","is_transit":false,"time":3,"distance":1546,"station_id":"CW","i_lat":-6.242512,"line":0,"transit":false,"i_long":106.856607},{"i_long":106.857948,"station_id":"TEB","station_name":"Tebet","transit":false,"line":2,"i_lat":-6.226659,"is_transit":false,"time":2,"distance":1230},{"station_id":"MRI","transit":true,"is_transit":true,"i_lat":-6.209883,"station_name":"Manggarai","i_long":106.84912,"line":0,"distance":2610,"time":4},{"transit":false,"time":2,"line":1,"distance":1275,"i_long":106.858896,"station_name":"Matraman","station_id":"MTR","is_transit":false,"i_lat":-6.212485},{"distance":1377,"i_long":106.86807400000001,"i_lat":-6.215091,"station_name":"Jatinegara","time":8,"station_id":"JNG","transit":false,"line":0,"is_transit":true},{"is_transit":false,"line":1,"transit":false,"station_name":"Klender","i_lat":-6.2135,"i_long":106.899548,"station_id":"KLD","time":3,"distance":3395},{"station_id":"BUA","is_transit":false,"i_lat":-6.215568,"i_long":106.922662,"line":0,"time":2,"station_name":"Buaran","transit":false,"distance":3100},{"time":1,"transit":false,"station_id":"KLDB","station_name":"Klenderbaru","i_long":106.939679,"is_transit":false,"line":1,"i_lat":-6.217455,"distance":1305},{"station_name":"Cakung","is_transit":false,"distance":1385,"station_id":"CUK","i_long":106.951283,"i_lat":-6.219053,"line":0,"transit":false,"time":8},{"station_name":"Kranji","station_id":"KRI","line":1,"i_long":106.977657,"is_transit":false,"i_lat":-6.224515,"transit":false,"distance":3097,"time":3},{"transit":false,"line":0,"i_lat":-6.236616,"distance":2520,"station_name":"Bekasi","is_transit":false,"time":4,"i_long":106.997013,"station_id":"BKS"},{"is_transit":false,"i_lat":-6.248029,"distance":2368,"station_id":"BKST","i_long":107.016735,"station_name":"Bekasi Timur","transit":false,"time":2,"line":0},{"line":1,"station_name":"Tambun","station_id":"TB","i_lat":-6.258864,"is_transit":false,"time":7,"distance":4460,"transit":false,"i_long":107.055722},{"station_name":"Cibitung","transit":false,"line":0,"i_lat":-6.261877,"distance":3420,"is_transit":false,"station_id":"CIT","time":3,"i_long":107.083084}],[{"is_transit":false,"i_long":106.816926,"station_name":"Depok","i_lat":-6.405256,"station_id":"DP","line":0,"time":0,"transit":false,"distance":0},{"station_name":"Depokbaru","distance":1584,"station_id":"DPB","transit":false,"time":3,"is_transit":false,"line":0,"i_long":106.819451,"i_lat":-6.391065},{"distance":2727,"is_transit":false,"station_name":"Pondok Cina","time":4,"i_long":106.831114,"line":2,"i_lat":-6.369073,"transit":false,"station_id":"POC"},{"station_name":"Univ. Indonesia","transit":false,"i_lat":-6.360749,"i_long":106.831474,"distance":1109,"is_transit":false,"station_id":"UI","line":2,"time":2},{"transit":false,"is_transit":false,"station_id":"UP","i_long":106.834175,"distance":2264,"i_lat":-6.339291,"line":2,"station_name":"Univ. Pancasila","time":3},{"station_id":"LNA","is_transit":false,"line":2,"distance":1029,"i_lat":-6.330363,"time":2,"transit":false,"station_name":"Lenteng Agung","i_long":106.832616},{"line":2,"transit":false,"time":3,"distance":2671,"i_long":106.838896,"station_name":"Tanjung Barat","i_lat":-6.3080680000000005,"station_id":"TNT","is_transit":false},{"station_id":"PSM","is_transit":false,"time":4,"i_lat":-6.2842400000000005,"station_name":"Pasar Minggu","i_long":106.843999,"line":2,"transit":false,"distance":2820},{"i_long":106.851577,"distance":2380,"time":2,"station_name":"Pasar Minggu Baru","i_lat":-6.263214,"line":2,"is_transit":false,"transit":false,"station_id":"PSMB"},{"time":2,"is_transit":false,"line":0,"i_lat":-6.255332,"station_id":"DRN","transit":false,"i_long":106.85449,"distance":824,"station_name":"Duren Kalibata"},{"distance":1546,"time":3,"i_long":106.856607,"station_id":"CW","station_name":"Cawang","transit":false,"line":0,"i_lat":-6.242512,"is_transit":false},{"is_transit":false,"i_lat":-6.226659,"distance":1230,"i_long":106.857948,"station_name":"Tebet","time":2,"station_id":"TEB","transit":false,"line":2},{"i_long":106.84912,"line":0,"station_name":"Manggarai","transit":true,"station_id":"MRI","time":4,"distance":2610,"i_lat":-6.209883,"is_transit":true},{"transit":false,"is_transit":false,"station_id":"SUD","station_name":"Sudirman","i_long":106.822649,"time":4,"distance":3186,"i_lat":-6.202263,"line":1},{"time":1,"i_lat":-6.201433,"is_transit":false,"station_name":"Sudirman Baru","distance":280,"station_id":"SUDB","transit":false,"i_long":106.819881,"line":1},{"i_lat":-6.20132,"station_id":"KAT","i_long":106.816351,"transit":false,"is_transit":false,"time":1,"station_name":"Karet","line":1,"distance":471},{"station_name":"Tanah Abang","is_transit":true,"station_id":"THB","time":5,"transit":false,"i_lat":-6.185545,"i_long":106.811091,"distance":2029,"line":1},{"transit":true,"i_lat":-6.155215,"i_long":106.800832,"station_id":"DU","station_name":"Duri","time":8,"line":1,"is_transit":true,"distance":3632},{"station_name":"Angke","station_id":"AK","i_lat":-6.144674,"i_long":106.79867,"distance":1230,"transit":false,"is_transit":false,"time":4,"line":0},{"station_name":"Kampung Bandan","i_lat":-6.132549,"station_id":"KPB","transit":true,"line":0,"distance":4102,"i_long":106.826365,"is_transit":true,"time":9},{"i_lat":-6.14505,"station_id":"RJW","line":11,"i_long":106.836569,"station_name":"Rajawali","distance":1444,"is_transit":false,"time":3,"transit":false},{"is_transit":false,"line":11,"station_name":"Kemayoran","station_id":"KMO","time":5,"distance":1901,"i_long":106.839204,"transit":false,"i_lat":-6.161728},{"line":11,"distance":1436,"transit":false,"time":4,"i_lat":-6.174784,"station_id":"PSE","is_transit":false,"station_name":"Pasar Senen","i_long":106.84368},{"time":8,"is_transit":false,"i_lat":-6.185975,"station_id":"GST","transit":false,"station_name":"Gang Sentiong","i_long":106.850107,"distance":1567,"line":11},{"is_transit":false,"time":1,"i_long":106.855437,"distance":973,"line":11,"station_name":"Kramat","i_lat":-6.193792,"transit":false,"station_id":"KMT"},{"i_lat":-6.209188,"station_name":"Pondok Jati","is_transit":false,"station_id":"POK","i_long":106.861737,"transit":false,"distance":1829,"line":11,"time":2},{"transit":true,"is_transit":true,"time":9,"station_name":"Jatinegara","i_long":106.86807400000001,"station_id":"JNG","distance":1236,"i_lat":-6.215091,"line":0},{"time":3,"i_long":106.899548,"station_name":"Klender","transit":false,"i_lat":-6.2135,"is_transit":false,"distance":3395,"station_id":"KLD","line":1},{"time":2,"transit":false,"i_long":106.922662,"line":0,"distance":3100,"station_name":"Buaran","is_transit":false,"i_lat":-6.215568,"station_id":"BUA"},{"transit":false,"is_transit":false,"time":1,"station_id":"KLDB","i_long":106.939679,"i_lat":-6.217455,"line":1,"distance":1305,"station_name":"Klenderbaru"},{"station_id":"CUK","line":0,"transit":false,"station_name":"Cakung","distance":1385,"time":8,"is_transit":false,"i_lat":-6.219053,"i_long":106.951283},{"line":1,"time":3,"station_id":"KRI","transit":false,"is_transit":false,"station_name":"Kranji","i_long":106.977657,"i_lat":-6.224515,"distance":3097},{"i_long":106.997013,"line":0,"time":4,"distance":2520,"is_transit":false,"i_lat":-6.236616,"station_name":"Bekasi","transit":false,"station_id":"BKS"},{"distance":2368,"is_transit":false,"station_id":"BKST","transit":false,"time":2,"station_name":"Bekasi Timur","line":0,"i_long":107.016735,"i_lat":-6.248029},{"station_name":"Tambun","station_id":"TB","i_long":107.055722,"distance":4460,"time":7,"is_transit":false,"transit":false,"i_lat":-6.258864,"line":1},{"station_id":"CIT","distance":3420,"transit":false,"i_long":107.083084,"line":0,"time":3,"station_name":"Cibitung","is_transit":false,"i_lat":-6.261877}],[{"transit":false,"time":0,"i_long":106.816926,"distance":0,"is_transit":false,"station_name":"Depok","line":0,"station_id":"DP","i_lat":-6.405256},{"station_name":"Depokbaru","is_transit":false,"transit":false,"line":0,"i_lat":-6.391065,"i_long":106.819451,"time":3,"distance":1584,"station_id":"DPB"},{"transit":false,"station_id":"POC","distance":2727,"i_long":106.831114,"time":4,"is_transit":false,"line":2,"i_lat":-6.369073,"station_name":"Pondok Cina"},{"distance":1109,"is_transit":false,"station_id":"UI","time":2,"i_lat":-6.360749,"transit":false,"station_name":"Univ. Indonesia","i_long":106.831474,"line":2},{"station_id":"UP","i_lat":-6.339291,"distance":2264,"transit":false,"line":2,"is_transit":false,"i_long":106.834175,"station_name":"Univ. Pancasila","time":3},{"station_id":"LNA","line":2,"distance":1029,"is_transit":false,"transit":false,"station_name":"Lenteng Agung","time":2,"i_long":106.832616,"i_lat":-6.330363},{"station_id":"TNT","distance":2671,"transit":false,"line":2,"time":3,"i_lat":-6.3080680000000005,"i_long":106.838896,"station_name":"Tanjung Barat","is_transit":false},{"i_lat":-6.2842400000000005,"i_long":106.843999,"line":2,"distance":2820,"time":4,"is_transit":false,"transit":false,"station_id":"PSM","station_name":"Pasar Minggu"},{"time":2,"distance":2380,"i_lat":-6.263214,"transit":false,"station_name":"Pasar Minggu Baru","is_transit":false,"station_id":"PSMB","i_long":106.851577,"line":2},{"is_transit":false,"distance":824,"i_lat":-6.255332,"transit":false,"line":0,"i_long":106.85449,"station_id":"DRN","station_name":"Duren Kalibata","time":2},{"distance":1546,"is_transit":false,"time":3,"station_id":"CW","station_name":"Cawang","transit":false,"i_long":106.856607,"line":0,"i_lat":-6.242512},{"station_name":"Tebet","i_long":106.857948,"is_transit":false,"i_lat":-6.226659,"distance":1230,"line":2,"time":2,"station_id":"TEB","transit":false},{"distance":2610,"i_long":106.84912,"transit":true,"line":0,"time":4,"is_transit":true,"station_name":"Manggarai","station_id":"MRI","i_lat":-6.209883},{"time":4,"line":0,"i_long":106.840169,"station_id":"CKI","distance":1590,"i_lat":-6.198556,"is_transit":false,"station_name":"Cikini","transit":false},{"station_id":"GDD","time":3,"distance":1750,"station_name":"Gondangdia","i_lat":-6.186295,"is_transit":false,"i_long":106.832183,"transit":false,"line":2},{"i_long":106.828284,"time":4,"i_lat":-6.166716,"distance":2015,"is_transit":false,"station_id":"JUA","line":2,"station_name":"Juanda","transit":false},{"distance":1149,"i_lat":-6.160725,"is_transit":false,"line":2,"transit":false,"station_name":"Sawah Besar","time":2,"i_long":106.827103,"station_id":"SW"},{"is_transit":false,"time":2,"line":2,"distance":906,"transit":false,"station_name":"Manggabesar","i_lat":-6.149769,"i_long":106.82482,"station_id":"MGB"},{"transit":false,"i_long":106.820901,"line":7,"time":2,"station_name":"Jayakarta","station_id":"JAY","distance":1080,"i_lat":-6.141205,"is_transit":false},{"station_name":"Jakarta Kota","i_lat":-6.137569,"i_long":106.812439,"line":0,"station_id":"JAKK","is_transit":true,"time":4,"distance":1264,"transit":true},{"transit":true,"line":0,"distance":1364,"station_name":"Kampung Bandan","is_transit":true,"time":3,"i_long":106.826365,"station_id":"KPB","i_lat":-6.132549},{"station_name":"Rajawali","station_id":"RJW","time":3,"i_lat":-6.14505,"i_long":106.836569,"is_transit":false,"distance":1444,"transit":false,"line":11},{"distance":1901,"i_long":106.839204,"transit":false,"time":5,"station_name":"Kemayoran","i_lat":-6.161728,"line":11,"station_id":"KMO","is_transit":false},{"is_transit":false,"station_name":"Pasar Senen","station_id":"PSE","distance":1436,"transit":false,"i_lat":-6.174784,"i_long":106.84368,"time":4,"line":11},{"transit":false,"is_transit":false,"time":8,"line":11,"i_lat":-6.185975,"station_name":"Gang Sentiong","distance":1567,"i_long":106.850107,"station_id":"GST"},{"line":11,"i_lat":-6.193792,"transit":false,"i_long":106.855437,"station_name":"Kramat","station_id":"KMT","is_transit":false,"time":1,"distance":973},{"station_name":"Pondok Jati","time":2,"transit":false,"line":11,"i_lat":-6.209188,"is_transit":false,"distance":1829,"station_id":"POK","i_long":106.861737},{"transit":true,"i_long":106.86807400000001,"distance":1236,"line":0,"time":9,"i_lat":-6.215091,"station_name":"Jatinegara","is_transit":true,"station_id":"JNG"},{"line":1,"is_transit":false,"i_lat":-6.2135,"station_id":"KLD","i_long":106.899548,"transit":false,"time":3,"station_name":"Klender","distance":3395},{"time":2,"station_id":"BUA","transit":false,"i_long":106.922662,"distance":3100,"line":0,"is_transit":false,"i_lat":-6.215568,"station_name":"Buaran"},{"station_id":"KLDB","time":1,"transit":false,"i_long":106.939679,"line":1,"station_name":"Klenderbaru","i_lat":-6.217455,"distance":1305,"is_transit":false},{"distance":1385,"is_transit":false,"i_lat":-6.219053,"transit":false,"i_long":106.951283,"time":8,"station_name":"Cakung","station_id":"CUK","line":0},{"station_id":"KRI","is_transit":false,"distance":3097,"i_lat":-6.224515,"i_long":106.977657,"transit":false,"station_name":"Kranji","line":1,"time":3},{"station_name":"Bekasi","line":0,"time":4,"i_lat":-6.236616,"i_long":106.997013,"is_transit":false,"station_id":"BKS","transit":false,"distance":2520},{"i_long":107.016735,"station_name":"Bekasi Timur","time":2,"is_transit":false,"transit":false,"line":0,"station_id":"BKST","distance":2368,"i_lat":-6.248029},{"i_lat":-6.258864,"line":1,"transit":false,"station_id":"TB","is_transit":false,"time":7,"station_name":"Tambun","i_long":107.055722,"distance":4460},{"transit":false,"is_transit":false,"i_long":107.083084,"station_id":"CIT","i_lat":-6.261877,"time":3,"distance":3420,"station_name":"Cibitung","line":0}]]}