{"data":[[{"distance":0,"transit":false,"station_id":"DP","station_name":"Depok","is_transit":false,"i_lat":-6.405256,"line":2,"i_long":106.816926,"time":0},{"is_transit":false,"station_id":"DPB","line":2,"station_name":"Depokbaru","time":3,"transit":false,"distance":1584,"i_long":106.819451,"i_lat":-6.391065},{"is_transit":false,"time":4,"distance":2727,"i_long":106.831114,"line":2,"station_name":"Pondok Cina","i_lat":-6.369073,"station_id":"POC","transit":false},{"station_id":"UI","time":2,"distance":1109,"i_long":106.831474,"station_name":"Univ. Indonesia","is_transit":false,"line":2,"transit":false,"i_lat":-6.360749},{"distance":2264,"line":2,"transit":false,"time":3,"station_name":"Univ. Pancasila","is_transit":false,"i_lat":-6.339291,"i_long":106.834175,"station_id":"UP"},{"time":2,"distance":1029,"station_name":"Lenteng Agung","is_transit":false,"transit":false,"i_long":106.832616,"line":2,"station_id":"LNA","i_lat":-6.330363},{"transit":false,"line":2,"station_name":"Tanjung Barat","station_id":"TNT","is_transit":false,"i_long":106.838896,"distance":2671,"time":3,"i_lat":-6.3080680000000005},{"station_id":"PSM","station_name":"Pasar Minggu","i_long":106.843999,"line":2,"transit":false,"time":4,"distance":2820,"i_lat":-6.2842400000000005,"is_transit":false},{"transit":false,"distance":2380,"station_name":"Pasar Minggu Baru","is_transit":false,"time":2,"i_long":106.851577,"station_id":"PSMB","i_lat":-6.263214,"line":2},{"distance":824,"station_id":"DRN","is_transit":false,"i_lat":-6.255332,"i_long":106.85449,"station_name":"Duren Kalibata","time":2,"line":2,"transit":false},{"transit":false,"distance":1546,"is_transit":false,"i_lat":-6.242512,"station_id":"CW","line":2,"station_name":"Cawang","time":3,"i_long":106.856607},{"line":2,"transit":false,"distance":1230,"i_lat":-6.226659,"time":2,"i_long":106.857948,"station_name":"Tebet","station_id":"TEB","is_transit":false},{"time":4,"is_transit":true,"transit":true,"i_lat":-6.209883,"station_id":"MRI","station_name":"Manggarai","distance":2610,"i_long":106.84912,"line":2},{"time":4,"i_lat":-6.202263,"station_name":"Sudirman","transit":false,"line":1,"is_transit":false,"station_id":"SUD","distance":3186,"i_long":106.822649},{"is_transit":false,"i_lat":-6.201433,"distance":280,"line":1,"i_long":106.819881,"time":1,"transit":false,"station_id":"SUDB","station_name":"Sudirman Baru"},{"i_lat":-6.20132,"station_name":"Karet","is_transit":false,"station_id":"KAT","i_long":106.816351,"distance":471,"line":1,"time":1,"transit":false},{"is_transit":true,"station_id":"THB","distance":2029,"transit":true,"time":5,"i_lat":-6.185545,"i_long":106.811091,"line":1,"station_name":"Tanah Abang"},{"time":6,"station_id":"PLM","is_transit":false,"transit":false,"i_lat":-6.207404,"station_name":"Palmerah","distance":3191,"line":6,"i_long":106.79689},{"distance":3737,"station_id":"KBY","line":6,"station_name":"Kebayoran","transit":false,"time":7,"i_lat":-6.237242,"is_transit":false,"i_long":106.780334},{"is_transit":false,"i_lat":-6.276362,"i_long":106.74273,"transit":false,"line":6,"station_name":"Pondokranji","station_id":"PDJ","time":8,"distance":6218},{"distance":2179,"transit":false,"line":6,"i_lat":-6.288927,"is_transit":false,"i_long":106.728916,"station_name":"Jurangmangu","station_id":"JMU","time":3},{"distance":1994,"i_lat":-6.296963,"station_name":"Sudimara","is_transit":false,"time":4,"line":6,"station_id":"SDM","i_long":106.712277,"transit":false},{"station_id":"RU","distance":4566,"time":6,"station_name":"Rawa Buntu","transit":false,"is_transit":false,"i_lat":-6.314823,"line":6,"i_long":106.675475},{"time":4,"line":6,"is_transit":false,"i_lat":-6.319871,"i_long":106.66566,"transit":false,"station_id":"SRP","distance":2413,"station_name":"Serpong"},{"i_lat":-6.32484,"transit":false,"time":4,"station_name":"Cisauk","line":3,"distance":1784,"station_id":"CSK","is_transit":false,"i_long":106.640411},{"line":3,"i_lat":-6.329547,"distance":2519,"transit":false,"station_id":"CC","time":4,"station_name":"Cicayur","i_long":106.617853,"is_transit":false}],[{"transit":false,"time":0,"i_lat":-6.405256,"station_name":"Depok","station_id":"DP","is_transit":false,"i_long":106.816926,"distance":0,"line":2},{"transit":false,"i_long":106.819451,"line":2,"time":3,"distance":1584,"is_transit":false,"i_lat":-6.391065,"station_name":"Depokbaru","station_id":"DPB"},{"station_id":"POC","time":4,"i_lat":-6.369073,"is_transit":false,"transit":false,"i_long":106.831114,"distance":2727,"line":2,"station_name":"Pondok Cina"},{"i_long":106.831474,"transit":false,"station_id":"UI","distance":1109,"station_name":"Univ. Indonesia","time":2,"i_lat":-6.360749,"line":2,"is_transit":false},{"i_long":106.834175,"time":3,"station_id":"UP","line":2,"station_name":"Univ. Pancasila","distance":2264,"is_transit":false,"i_lat":-6.339291,"transit":false},{"i_lat":-6.330363,"transit":false,"time":2,"i_long":106.832616,"is_transit":false,"line":2,"station_id":"LNA","station_name":"Lenteng Agung","distance":1029},{"transit":false,"i_long":106.838896,"time":3,"is_transit":false,"station_id":"TNT","distance":2671,"station_name":"Tanjung Barat","line":2,"i_lat":-6.3080680000000005},{"is_transit":false,"time":4,"line":2,"i_lat":-6.2842400000000005,"station_id":"PSM","i_long":106.843999,"distance":2820,"station_name":"Pasar Minggu","transit":false},{"i_lat":-6.263214,"i_long":106.851577,"line":2,"is_transit":false,"station_name":"Pasar Minggu Baru","time":2,"transit":false,"distance":2380,"station_id":"PSMB"},{"station_id":"DRN","station_name":"Duren Kalibata","is_transit":false,"line":2,"time":2,"transit":false,"i_lat":-6.255332,"i_long":106.85449,"distance":824},{"i_lat":-6.242512,"time":3,"station_id":"CW","line":2,"transit":false,"is_transit":false,"distance":1546,"station_name":"Cawang","i_long":106.856607},{"time":2,"distance":1230,"i_long":106.857948,"line":2,"is_transit":false,"transit":false,"i_lat":-6.226659,"station_name":"Tebet","station_id":"TEB"},{"line":2,"station_name":"Manggarai","time":4,"i_long":106.84912,"transit":false,"station_id":"MRI","distance":2610,"is_transit":false,"i_lat":-6.209883},{"line":2,"is_transit":false,"i_lat":-6.198556,"station_name":"Cikini","transit":false,"station_id":"CKI","time":4,"i_long":106.840169,"distance":1590},{"time":3,"station_name":"Gondangdia","distance":1750,"line":2,"station_id":"GDD","i_long":106.832183,"i_lat":-6.186295,"transit":false,"is_transit":false},{"station_name":"Juanda","is_transit":false,"transit":false,"i_long":106.828284,"line":2,"station_id":"JUA","time":4,"i_lat":-6.166716,"distance":2015},{"i_long":106.827103,"station_name":"Sawah Besar","i_lat":-6.160725,"is_transit":false,"time":2,"line":2,"transit":false,"station_id":"SW","distance":1149},{"time":2,"distance":906,"station_id":"MGB","line":2,"station_name":"Manggabesar","is_transit":false,"i_lat":-6.149769,"i_long":106.82482,"transit":false},{"i_lat":-6.141205,"is_transit":false,"i_long":106.820901,"time":2,"transit":false,"station_name":"Jayakarta","station_id":"JAY","line":2,"distance":1080},{"transit":true,"station_id":"JAKK","distance":1264,"i_lat":-6.137569,"is_transit":true,"i_long":106.812439,"station_name":"Jakarta Kota","time":4,"line":2},{"station_name":"Kampung Bandan","transit":true,"distance":1364,"is_transit":true,"i_long":106.826365,"station_id":"KPB","i_lat":-6.132549,"time":3,"line":4},{"i_lat":-6.144674,"time":9,"transit":false,"station_name":"Angke","station_id":"AK","distance":4102,"i_long":106.79867,"line":1,"is_transit":false},{"i_lat":-6.155215,"i_long":106.800832,"time":4,"line":1,"is_transit":false,"distance":1230,"station_name":"Duri","transit":false,"station_id":"DU"},{"distance":3632,"time":8,"line":1,"i_long":106.811091,"i_lat":-6.185545,"station_name":"Tanah Abang","is_transit":true,"station_id":"THB","transit":true},{"i_long":106.79689,"is_transit":false,"i_lat":-6.207404,"station_id":"PLM","line":6,"station_name":"Palmerah","time":6,"distance":3191,"transit":false},{"station_name":"Kebayoran","transit":false,"station_id":"KBY","is_transit":false,"distance":3737,"i_lat":-6.237242,"time":7,"line":6,"i_long":106.780334},{"distance":6218,"station_name":"Pondokranji","time":8,"i_lat":-6.276362,"station_id":"PDJ","is_transit":false,"i_long":106.74273,"line":6,"transit":false},{"distance":2179,"station_name":"Jurangmangu","transit":false,"station_id":"JMU","line":6,"i_long":106.728916,"is_transit":false,"time":3,"i_lat":-6.288927},{"station_name":"Sudimara","station_id":"SDM","time":4,"transit":false,"is_transit":false,"i_lat":-6.296963,"line":6,"distance":1994,"i_long":106.712277},{"station_id":"RU","time":6,"distance":4566,"line":6,"station_name":"Rawa Buntu","transit":false,"i_lat":-6.314823,"is_transit":false,"i_long":106.675475},{"is_transit":false,"i_lat":-6.319871,"line":6,"i_long":106.66566,"time":4,"transit":false,"station_name":"Serpong","distance":2413,"station_id":"SRP"},{"i_lat":-6.32484,"transit":false,"time":4,"line":3,"distance":1784,"i_long":106.640411,"station_name":"Cisauk","station_id":"CSK","is_transit":false},{"distance":2519,"is_transit":false,"i_lat":-6.329547,"station_id":"CC","i_long":106.617853,"line":3,"transit":false,"time":4,"station_name":"Cicayur"}],[{"line":2,"time":0,"distance":0,"station_id":"DP","station_name":"Depok","i_lat":-6.405256,"is_transit":false,"i_long":106.816926,"transit":false},{"station_id":"DPB","i_lat":-6.391065,"i_long":106.819451,"transit":false,"distance":1584,"time":3,"station_name":"Depokbaru","is_transit":false,"line":2},{"transit":false,"is_transit":false,"time":4,"i_long":106.831114,"i_lat":-6.369073,"station_id":"POC","line":2,"station_name":"Pondok Cina","distance":2727},{"is_transit":false,"line":2,"transit":false,"i_lat":-6.360749,"station_name":"Univ. Indonesia","station_id":"UI","time":2,"distance":1109,"i_long":106.831474},{"transit":false,"i_lat":-6.339291,"time":3,"station_name":"Univ. Pancasila","i_long":106.834175,"line":2,"is_transit":false,"distance":2264,"station_id":"UP"},{"distance":1029,"is_transit":false,"transit":false,"time":2,"i_long":106.832616,"line":2,"station_id":"LNA","i_lat":-6.330363,"station_name":"Lenteng Agung"},{"station_id":"TNT","transit":false,"is_transit":false,"station_name":"Tanjung Barat","time":3,"distance":2671,"i_lat":-6.3080680000000005,"i_long":106.838896,"line":2},{"station_id":"PSM","transit":false,"is_transit":false,"station_name":"Pasar Minggu","i_lat":-6.2842400000000005,"line":2,"time":4,"distance":2820,"i_long":106.843999},{"i_lat":-6.263214,"i_long":106.851577,"transit":false,"line":2,"station_id":"PSMB","distance":2380,"is_transit":false,"station_name":"Pasar Minggu Baru","time":2},{"is_transit":false,"i_long":106.85449,"station_id":"DRN","distance":824,"transit":false,"i_lat":-6.255332,"line":2,"time":2,"station_name":"Duren Kalibata"},{"distance":1546,"station_id":"CW","line":2,"i_lat":-6.242512,"transit":false,"station_name":"Cawang","time":3,"is_transit":false,"i_long":106.856607},{"i_lat":-6.226659,"is_transit":false,"line":2,"distance":1230,"station_name":"Tebet","i_long":106.857948,"transit":false,"station_id":"TEB","time":2},{"station_name":"Manggarai","station_id":"MRI","time":4,"distance":2610,"i_lat":-6.209883,"i_long":106.84912,"is_transit":true,"line":2,"transit":true},{"transit":false,"is_transit":false,"distance":1275,"station_name":"Matraman","line":1,"i_lat":-6.212485,"station_id":"MTR","time":2,"i_long":106.858896},{"time":8,"transit":true,"station_id":"JNG","is_transit":true,"i_lat":-6.215091,"line":1,"distance":1377,"station_name":"Jatinegara","i_long":106.86807400000001},{"station_id":"POK","station_name":"Pondok Jati","i_lat":-6.209188,"distance":1236,"transit":false,"line":11,"time":2,"i_long":106.861737,"is_transit":false},{"line":11,"transit":false,"is_transit":false,"i_lat":-6.193792,"station_name":"Kramat","distance":1829,"i_long":106.855437,"station_id":"KMT","time":2},{"time":1,"is_transit":false,"i_long":106.850107,"station_name":"Gang Sentiong","transit":false,"distance":973,"i_lat":-6.185975,"station_id":"GST","line":11},{"line":11,"i_lat":-6.174784,"is_transit":false,"distance":1567,"station_id":"PSE","time":8,"transit":false,"station_name":"Pasar Senen","i_long":106.84368},{"is_transit":false,"distance":1436,"station_name":"Kemayoran","time":4,"i_lat":-6.161728,"i_long":106.839204,"transit":false,"station_id":"KMO","line":11},{"station_name":"Rajawali","i_lat":-6.14505,"i_long":106.836569,"is_transit":false,"line":11,"time":5,"transit":false,"distance":1901,"station_id":"RJW"},{"station_id":"KPB","i_long":106.826365,"distance":1444,"i_lat":-6.132549,"is_transit":true,"line":4,"transit":true,"station_name":"Kampung Bandan","time":3},{"line":1,"is_transit":false,"station_name":"Angke","distance":4102,"transit":false,"station_id":"AK","i_lat":-6.144674,"i_long":106.79867,"time":9},{"i_lat":-6.155215,"i_long":106.800832,"line":1,"is_transit":false,"time":4,"transit":false,"station_id":"DU","distance":1230,"station_name":"Duri"},{"is_transit":true,"time":8,"transit":true,"i_long":106.811091,"i_lat":-6.185545,"line":1,"station_name":"Tanah Abang","station_id":"THB","distance":3632},{"station_id":"PLM","time":6,"transit":false,"is_transit":false,"i_lat":-6.207404,"line":6,"i_long":106.79689,"station_name":"Palmerah","distance":3191},{"distance":3737,"transit":false,"time":7,"i_lat":-6.237242,"i_long":106.780334,"line":6,"station_id":"KBY","is_transit":false,"station_name":"Kebayoran"},{"distance":6218,"i_long":106.74273,"station_name":"Pondokranji","transit":false,"line":6,"i_lat":-6.276362,"is_transit":false,"station_id":"PDJ","time":8},{"time":3,"line":6,"is_transit":false,"distance":2179,"station_name":"Jurangmangu","station_id":"JMU","transit":false,"i_lat":-6.288927,"i_long":106.728916},{"time":4,"transit":false,"is_transit":false,"line":6,"i_lat":-6.296963,"i_long":106.712277,"station_id":"SDM","station_name":"Sudimara","distance":1994},{"station_name":"Rawa Buntu","station_id":"RU","distance":4566,"transit":false,"i_lat":-6.314823,"line":6,"is_transit":false,"i_long":106.675475,"time":6},{"station_id":"SRP","station_name":"Serpong","transit":false,"i_lat":-6.319871,"distance":2413,"time":4,"line":6,"is_transit":false,"i_long":106.66566},{"line":3,"is_transit":false,"station_name":"Cisauk","station_id":"CSK","transit":false,"time":4,"i_lat":-6.32484,"distance":1784,"i_long":106.640411},{"i_lat":-6.329547,"transit":false,"station_name":"Cicayur","is_transit":false,"line":3,"station_id":"CC","time":4,"i_long":106.617853,"distance":2519}]]}