{"data":[[{"i_lat":-6.405256,"line":2,"is_transit":false,"distance":0,"i_long":106.816926,"transit":false,"station_name":"Depok","time":0,"station_id":"DP"},{"station_id":"DPB","i_long":106.819451,"time":3,"i_lat":-6.391065,"distance":1584,"transit":false,"is_transit":false,"line":2,"station_name":"Depokbaru"},{"distance":2727,"station_name":"Pondok Cina","time":4,"station_id":"POC","transit":false,"line":2,"i_lat":-6.369073,"i_long":106.831114,"is_transit":false},{"line":2,"i_lat":-6.360749,"is_transit":false,"transit":false,"station_id":"UI","time":2,"i_long":106.831474,"station_name":"Univ. Indonesia","distance":1109},{"is_transit":false,"line":2,"distance":2264,"i_lat":-6.339291,"i_long":106.834175,"station_name":"Univ. Pancasila","station_id":"UP","time":3,"transit":false},{"transit":false,"i_long":106.832616,"station_name":"Lenteng Agung","station_id":"LNA","time":2,"distance":1029,"i_lat":-6.330363,"line":2,"is_transit":false},{"transit":false,"i_lat":-6.3080680000000005,"line":2,"station_id":"TNT","i_long":106.838896,"station_name":"Tanjung Barat","time":3,"distance":2671,"is_transit":false},{"transit":false,"station_name":"Pasar Minggu","station_id":"PSM","is_transit":false,"distance":2820,"i_lat":-6.2842400000000005,"time":4,"i_long":106.843999,"line":2},{"time":2,"i_lat":-6.263214,"station_id":"PSMB","station_name":"Pasar Minggu Baru","transit":false,"is_transit":false,"i_long":106.851577,"line":2,"distance":2380},{"time":2,"line":2,"i_long":106.85449,"i_lat":-6.255332,"transit":false,"is_transit":false,"station_name":"Duren Kalibata","distance":824,"station_id":"DRN"},{"line":2,"time":3,"distance":1546,"transit":false,"station_id":"CW","is_transit":false,"station_name":"Cawang","i_long":106.856607,"i_lat":-6.242512},{"line":2,"time":2,"transit":false,"i_lat":-6.226659,"is_transit":false,"station_id":"TEB","station_name":"Tebet","i_long":106.857948,"distance":1230},{"i_lat":-6.209883,"station_name":"Manggarai","i_long":106.84912,"time":4,"is_transit":true,"distance":2610,"line":2,"station_id":"MRI","transit":true},{"distance":1275,"station_id":"MTR","time":2,"is_transit":false,"line":1,"station_name":"Matraman","transit":false,"i_lat":-6.212485,"i_long":106.858896},{"line":1,"distance":1377,"is_transit":false,"station_name":"Jatinegara","time":8,"i_long":106.86807400000001,"transit":false,"i_lat":-6.215091,"station_id":"JNG"},{"is_transit":false,"transit":false,"station_name":"Klender","line":1,"time":3,"distance":3395,"i_long":106.899548,"i_lat":-6.2135,"station_id":"KLD"},{"station_name":"Buaran","time":2,"station_id":"BUA","transit":false,"i_long":106.922662,"line":1,"is_transit":false,"distance":3100,"i_lat":-6.215568},{"i_lat":-6.217455,"is_transit":false,"time":1,"i_long":106.939679,"line":1,"distance":1305,"station_name":"Klenderbaru","station_id":"KLDB","transit":false},{"time":8,"transit":false,"station_name":"Cakung","distance":1385,"i_lat":-6.219053,"station_id":"CUK","i_long":106.951283,"line":1,"is_transit":false},{"distance":3097,"line":1,"i_long":106.977657,"transit":false,"i_lat":-6.224515,"station_name":"Kranji","is_transit":false,"station_id":"KRI","time":3},{"station_id":"BKS","distance":2520,"i_long":106.997013,"is_transit":false,"i_lat":-6.236616,"station_name":"Bekasi","transit":false,"line":1,"time":4},{"line":1,"is_transit":false,"station_id":"BKST","i_long":107.016735,"station_name":"Bekasi Timur","transit":false,"time":2,"distance":2368,"i_lat":-6.248029},{"transit":false,"i_long":107.055722,"station_name":"Tambun","station_id":"TB","i_lat":-6.258864,"distance":4460,"line":1,"is_transit":false,"time":7},{"station_id":"CIT","transit":false,"time":3,"distance":3420,"i_lat":-6.261877,"station_name":"Cibitung","is_transit":false,"i_long":107.083084,"line":1}],[{"station_id":"DP","i_long":106.816926,"i_lat":-6.405256,"transit":false,"line":2,"is_transit":false,"station_name":"Depok","time":0,"distance":0},{"station_name":"Depokbaru","time":3,"distance":1584,"i_lat":-6.391065,"i_long":106.819451,"transit":false,"is_transit":false,"station_id":"DPB","line":2},{"station_name":"Pondok Cina","time":4,"transit":false,"is_transit":false,"station_id":"POC","i_lat":-6.369073,"distance":2727,"i_long":106.831114,"line":2},{"time":2,"i_long":106.831474,"station_id":"UI","line":2,"transit":false,"distance":1109,"i_lat":-6.360749,"station_name":"Univ. Indonesia","is_transit":false},{"is_transit":false,"transit":false,"time":3,"i_lat":-6.339291,"distance":2264,"station_id":"UP","station_name":"Univ. Pancasila","i_long":106.834175,"line":2},{"station_id":"LNA","station_name":"Lenteng Agung","time":2,"transit":false,"distance":1029,"is_transit":false,"i_lat":-6.330363,"i_long":106.832616,"line":2},{"station_name":"Tanjung Barat","i_long":106.838896,"transit":false,"i_lat":-6.3080680000000005,"line":2,"time":3,"is_transit":false,"station_id":"TNT","distance":2671},{"transit":false,"station_name":"Pasar Minggu","is_transit":false,"i_long":106.843999,"line":2,"distance":2820,"time":4,"station_id":"PSM","i_lat":-6.2842400000000005},{"station_id":"PSMB","i_long":106.851577,"line":2,"transit":false,"time":2,"is_transit":false,"station_name":"Pasar Minggu Baru","distance":2380,"i_lat":-6.263214},{"is_transit":false,"station_name":"Duren Kalibata","i_long":106.85449,"station_id":"DRN","distance":824,"transit":false,"line":2,"time":2,"i_lat":-6.255332},{"station_id":"CW","i_long":106.856607,"time":3,"transit":false,"distance":1546,"i_lat":-6.242512,"line":2,"station_name":"Cawang","is_transit":false},{"transit":false,"station_name":"Tebet","distance":1230,"line":2,"is_transit":false,"time":2,"station_id":"TEB","i_lat":-6.226659,"i_long":106.857948},{"station_name":"Manggarai","time":4,"transit":true,"line":2,"i_long":106.84912,"i_lat":-6.209883,"distance":2610,"is_transit":true,"station_id":"MRI"},{"i_long":106.822649,"distance":3186,"station_id":"SUD","line":1,"transit":false,"time":4,"is_transit":false,"i_lat":-6.202263,"station_name":"Sudirman"},{"time":1,"station_id":"SUDB","distance":280,"is_transit":false,"station_name":"Sudirman Baru","transit":false,"i_lat":-6.201433,"i_long":106.819881,"line":1},{"time":1,"i_lat":-6.20132,"i_long":106.816351,"line":1,"station_name":"Karet","transit":false,"distance":471,"station_id":"KAT","is_transit":false},{"distance":2029,"station_id":"THB","station_name":"Tanah Abang","transit":false,"i_long":106.811091,"is_transit":false,"line":1,"time":5,"i_lat":-6.185545},{"station_id":"DU","distance":3632,"transit":false,"i_long":106.800832,"station_name":"Duri","is_transit":false,"time":8,"i_lat":-6.155215,"line":1},{"is_transit":false,"i_lat":-6.144674,"station_name":"Angke","distance":1230,"station_id":"AK","line":1,"transit":false,"time":4,"i_long":106.79867},{"station_name":"Kampung Bandan","distance":4102,"i_long":106.826365,"i_lat":-6.132549,"transit":true,"station_id":"KPB","line":4,"is_transit":true,"time":9},{"is_transit":false,"line":11,"station_name":"Rajawali","distance":1444,"i_long":106.836569,"time":3,"station_id":"RJW","i_lat":-6.14505,"transit":false},{"is_transit":false,"time":5,"distance":1901,"i_long":106.839204,"station_name":"Kemayoran","transit":false,"station_id":"KMO","line":11,"i_lat":-6.161728},{"is_transit":false,"transit":false,"distance":1436,"time":4,"i_lat":-6.174784,"i_long":106.84368,"line":11,"station_name":"Pasar Senen","station_id":"PSE"},{"time":8,"i_lat":-6.185975,"distance":1567,"station_id":"GST","transit":false,"line":11,"is_transit":false,"station_name":"Gang Sentiong","i_long":106.850107},{"transit":false,"station_id":"KMT","i_lat":-6.193792,"line":11,"i_long":106.855437,"time":1,"station_name":"Kramat","is_transit":false,"distance":973},{"i_lat":-6.209188,"i_long":106.861737,"time":2,"station_id":"POK","line":11,"distance":1829,"station_name":"Pondok Jati","is_transit":false,"transit":false},{"time":9,"i_lat":-6.215091,"line":1,"transit":true,"is_transit":true,"station_name":"Jatinegara","station_id":"JNG","i_long":106.86807400000001,"distance":1236},{"i_long":106.899548,"station_id":"KLD","distance":3395,"i_lat":-6.2135,"is_transit":false,"line":1,"station_name":"Klender","transit":false,"time":3},{"transit":false,"station_name":"Buaran","is_transit":false,"line":1,"distance":3100,"i_lat":-6.215568,"time":2,"station_id":"BUA","i_long":106.922662},{"station_name":"Klenderbaru","i_long":106.939679,"is_transit":false,"station_id":"KLDB","line":1,"i_lat":-6.217455,"distance":1305,"transit":false,"time":1},{"time":8,"transit":false,"is_transit":false,"i_lat":-6.219053,"distance":1385,"station_id":"CUK","i_long":106.951283,"station_name":"Cakung","line":1},{"time":3,"station_name":"Kranji","is_transit":false,"station_id":"KRI","i_long":106.977657,"line":1,"i_lat":-6.224515,"transit":false,"distance":3097},{"i_long":106.997013,"station_id":"BKS","is_transit":false,"transit":false,"station_name":"Bekasi","line":1,"i_lat":-6.236616,"time":4,"distance":2520},{"line":1,"distance":2368,"time":2,"transit":false,"is_transit":false,"station_id":"BKST","station_name":"Bekasi Timur","i_lat":-6.248029,"i_long":107.016735},{"station_id":"TB","i_long":107.055722,"is_transit":false,"distance":4460,"transit":false,"time":7,"line":1,"station_name":"Tambun","i_lat":-6.258864},{"distance":3420,"is_transit":false,"time":3,"i_long":107.083084,"transit":false,"station_name":"Cibitung","i_lat":-6.261877,"station_id":"CIT","line":1}],[{"is_transit":false,"station_name":"Depok","distance":0,"transit":false,"line":2,"i_lat":-6.405256,"time":0,"i_long":106.816926,"station_id":"DP"},{"line":2,"station_name":"Depokbaru","time":3,"station_id":"DPB","is_transit":false,"transit":false,"i_lat":-6.391065,"i_long":106.819451,"distance":1584},{"i_long":106.831114,"station_name":"Pondok Cina","is_transit":false,"distance":2727,"transit":false,"station_id":"POC","i_lat":-6.369073,"time":4,"line":2},{"distance":1109,"time":2,"line":2,"station_name":"Univ. Indonesia","i_lat":-6.360749,"transit":false,"station_id":"UI","i_long":106.831474,"is_transit":false},{"station_id":"UP","i_lat":-6.339291,"i_long":106.834175,"is_transit":false,"station_name":"Univ. Pancasila","line":2,"transit":false,"distance":2264,"time":3},{"i_long":106.832616,"i_lat":-6.330363,"line":2,"station_name":"Lenteng Agung","is_transit":false,"station_id":"LNA","transit":false,"time":2,"distance":1029},{"station_id":"TNT","transit":false,"is_transit":false,"station_name":"Tanjung Barat","distance":2671,"i_long":106.838896,"line":2,"time":3,"i_lat":-6.3080680000000005},{"distance":2820,"time":4,"transit":false,"i_long":106.843999,"line":2,"station_id":"PSM","is_transit":false,"i_lat":-6.2842400000000005,"station_name":"Pasar Minggu"},{"station_id":"PSMB","transit":false,"i_lat":-6.263214,"is_transit":false,"time":2,"i_long":106.851577,"distance":2380,"line":2,"station_name":"Pasar Minggu Baru"},{"is_transit":false,"station_name":"Duren Kalibata","station_id":"DRN","i_lat":-6.255332,"i_long":106.85449,"line":2,"distance":824,"time":2,"transit":false},{"distance":1546,"station_name":"Cawang","station_id":"CW","is_transit":false,"i_lat":-6.242512,"time":3,"i_long":106.856607,"transit":false,"line":2},{"i_long":106.857948,"transit":false,"distance":1230,"station_name":"Tebet","is_transit":false,"line":2,"time":2,"station_id":"TEB","i_lat":-6.226659},{"station_id":"MRI","transit":false,"is_transit":false,"distance":2610,"station_name":"Manggarai","time":4,"i_lat":-6.209883,"line":2,"i_long":106.84912},{"time":4,"is_transit":false,"distance":1590,"station_id":"CKI","i_long":106.840169,"line":2,"station_name":"Cikini","transit":false,"i_lat":-6.198556},{"time":3,"transit":false,"station_name":"Gondangdia","is_transit":false,"i_long":106.832183,"distance":1750,"i_lat":-6.186295,"station_id":"GDD","line":2},{"station_name":"Juanda","i_long":106.828284,"line":2,"station_id":"JUA","transit":false,"distance":2015,"is_transit":false,"i_lat":-6.166716,"time":4},{"i_long":106.827103,"is_transit":false,"station_id":"SW","line":2,"i_lat":-6.160725,"distance":1149,"transit":false,"station_name":"Sawah Besar","time":2},{"line":2,"distance":906,"i_lat":-6.149769,"transit":false,"time":2,"station_name":"Manggabesar","station_id":"MGB","i_long":106.82482,"is_transit":false},{"time":2,"station_id":"JAY","line":2,"i_long":106.820901,"is_transit":false,"i_lat":-6.141205,"transit":false,"distance":1080,"station_name":"Jayakarta"},{"time":4,"station_name":"Jakarta Kota","distance":1264,"station_id":"JAKK","transit":true,"line":2,"i_long":106.812439,"i_lat":-6.137569,"is_transit":true},{"time":3,"i_long":106.826365,"i_lat":-6.132549,"line":4,"station_id":"KPB","distance":1364,"is_transit":true,"station_name":"Kampung Bandan","transit":true},{"time":3,"station_id":"RJW","i_lat":-6.14505,"line":11,"transit":false,"distance":1444,"i_long":106.836569,"station_name":"Rajawali","is_transit":false},{"i_lat":-6.161728,"distance":1901,"station_id":"KMO","line":11,"i_long":106.839204,"station_name":"Kemayoran","transit":false,"is_transit":false,"time":5},{"distance":1436,"i_lat":-6.174784,"line":11,"time":4,"is_transit":false,"station_name":"Pasar Senen","i_long":106.84368,"station_id":"PSE","transit":false},{"distance":1567,"station_id":"GST","i_long":106.850107,"transit":false,"i_lat":-6.185975,"is_transit":false,"line":11,"time":8,"station_name":"Gang Sentiong"},{"i_lat":-6.193792,"transit":false,"is_transit":false,"station_name":"Kramat","time":1,"i_long":106.855437,"line":11,"distance":973,"station_id":"KMT"},{"time":2,"line":11,"station_id":"POK","transit":false,"station_name":"Pondok Jati","i_long":106.861737,"is_transit":false,"distance":1829,"i_lat":-6.209188},{"transit":true,"i_lat":-6.215091,"i_long":106.86807400000001,"station_name":"Jatinegara","time":9,"station_id":"JNG","is_transit":true,"distance":1236,"line":1},{"i_long":106.899548,"transit":false,"station_id":"KLD","line":1,"station_name":"Klender","time":3,"is_transit":false,"distance":3395,"i_lat":-6.2135},{"time":2,"transit":false,"is_transit":false,"distance":3100,"i_lat":-6.215568,"station_name":"Buaran","line":1,"station_id":"BUA","i_long":106.922662},{"station_name":"Klenderbaru","distance":1305,"line":1,"transit":false,"time":1,"station_id":"KLDB","i_lat":-6.217455,"is_transit":false,"i_long":106.939679},{"i_long":106.951283,"i_lat":-6.219053,"is_transit":false,"transit":false,"station_name":"Cakung","distance":1385,"station_id":"CUK","time":8,"line":1},{"station_id":"KRI","i_long":106.977657,"distance":3097,"is_transit":false,"station_name":"Kranji","transit":false,"line":1,"i_lat":-6.224515,"time":3},{"is_transit":false,"station_id":"BKS","transit":false,"i_long":106.997013,"line":1,"time":4,"i_lat":-6.236616,"station_name":"Bekasi","distance":2520},{"station_name":"Bekasi Timur","time":2,"transit":false,"i_long":107.016735,"distance":2368,"i_lat":-6.248029,"line":1,"station_id":"BKST","is_transit":false},{"line":1,"i_long":107.055722,"i_lat":-6.258864,"transit":false,"time":7,"station_id":"TB","distance":4460,"is_transit":false,"station_name":"Tambun"},{"station_name":"Cibitung","time":3,"transit":false,"i_long":107.083084,"i_lat":-6.261877,"station_id":"CIT","is_transit":false,"distance":3420,"line":1}]]}