{"data":[[{"i_long":106.816926,"is_transit":false,"i_lat":-6.405256,"station_id":"DP","distance":0,"time":0,"line":2,"station_name":"Depok","transit":false},{"distance":1584,"time":3,"i_lat":-6.391065,"station_name":"Depokbaru","transit":false,"station_id":"DPB","is_transit":false,"i_long":106.819451,"line":2},{"is_transit":false,"distance":2727,"station_name":"Pondok Cina","i_lat":-6.369073,"i_long":106.831114,"time":4,"transit":false,"station_id":"POC","line":2},{"is_transit":false,"i_long":106.831474,"transit":false,"station_id":"UI","i_lat":-6.360749,"line":2,"time":2,"distance":1109,"station_name":"Univ. Indonesia"},{"station_id":"UP","time":3,"i_lat":-6.339291,"station_name":"Univ. Pancasila","distance":2264,"transit":false,"is_transit":false,"i_long":106.834175,"line":2},{"line":2,"transit":false,"is_transit":false,"i_lat":-6.330363,"distance":1029,"i_long":106.832616,"time":2,"station_id":"LNA","station_name":"Lenteng Agung"},{"station_name":"Tanjung Barat","transit":false,"line":2,"is_transit":false,"i_lat":-6.3080680000000005,"time":3,"i_long":106.838896,"distance":2671,"station_id":"TNT"},{"i_long":106.843999,"is_transit":false,"i_lat":-6.2842400000000005,"distance":2820,"time":4,"station_id":"PSM","station_name":"Pasar Minggu","transit":false,"line":2},{"i_lat":-6.263214,"distance":2380,"is_transit":false,"time":2,"station_id":"PSMB","station_name":"Pasar Minggu Baru","i_long":106.851577,"transit":false,"line":2},{"time":2,"station_id":"DRN","is_transit":false,"station_name":"Duren Kalibata","transit":false,"i_lat":-6.255332,"line":2,"i_long":106.85449,"distance":824},{"is_transit":false,"time":3,"i_lat":-6.242512,"distance":1546,"line":2,"transit":false,"station_id":"CW","station_name":"Cawang","i_long":106.856607},{"is_transit":false,"distance":1230,"transit":false,"station_name":"Tebet","i_lat":-6.226659,"station_id":"TEB","i_long":106.857948,"time":2,"line":2},{"is_transit":true,"station_id":"MRI","line":2,"station_name":"Manggarai","transit":true,"i_lat":-6.209883,"distance":2610,"i_long":106.84912,"time":4},{"station_name":"Matraman","is_transit":false,"transit":false,"station_id":"MTR","time":2,"distance":1275,"i_long":106.858896,"line":1,"i_lat":-6.212485},{"i_long":106.86807400000001,"distance":1377,"station_name":"Jatinegara","transit":false,"station_id":"JNG","i_lat":-6.215091,"time":8,"is_transit":false,"line":1},{"is_transit":false,"transit":false,"i_long":106.899548,"line":1,"i_lat":-6.2135,"time":3,"station_name":"Klender","distance":3395,"station_id":"KLD"},{"station_id":"BUA","i_long":106.922662,"time":2,"is_transit":false,"transit":false,"distance":3100,"i_lat":-6.215568,"line":1,"station_name":"Buaran"},{"line":1,"station_id":"KLDB","time":1,"transit":false,"station_name":"Klenderbaru","distance":1305,"is_transit":false,"i_lat":-6.217455,"i_long":106.939679},{"time":8,"station_name":"Cakung","station_id":"CUK","transit":false,"i_lat":-6.219053,"is_transit":false,"i_long":106.951283,"distance":1385,"line":1},{"distance":3097,"transit":false,"i_lat":-6.224515,"i_long":106.977657,"time":3,"station_id":"KRI","line":1,"station_name":"Kranji","is_transit":false},{"station_id":"BKS","i_long":106.997013,"line":1,"distance":2520,"station_name":"Bekasi","time":4,"transit":false,"is_transit":false,"i_lat":-6.236616},{"line":1,"i_long":107.016735,"time":2,"is_transit":false,"distance":2368,"station_name":"Bekasi Timur","station_id":"BKST","i_lat":-6.248029,"transit":false},{"station_id":"TB","transit":false,"i_lat":-6.258864,"station_name":"Tambun","is_transit":false,"line":1,"i_long":107.055722,"time":7,"distance":4460},{"time":3,"station_name":"Cibitung","i_lat":-6.261877,"station_id":"CIT","transit":false,"is_transit":false,"i_long":107.083084,"distance":3420,"line":1}],[{"is_transit":false,"line":2,"transit":false,"i_lat":-6.405256,"station_id":"DP","station_name":"Depok","time":0,"i_long":106.816926,"distance":0},{"transit":false,"station_id":"DPB","is_transit":false,"time":3,"i_long":106.819451,"distance":1584,"station_name":"Depokbaru","line":2,"i_lat":-6.391065},{"line":2,"i_long":106.831114,"transit":false,"is_transit":false,"station_id":"POC","i_lat":-6.369073,"distance":2727,"time":4,"station_name":"Pondok Cina"},{"transit":false,"station_id":"UI","i_lat":-6.360749,"i_long":106.831474,"time":2,"line":2,"is_transit":false,"station_name":"Univ. Indonesia","distance":1109},{"i_lat":-6.339291,"line":2,"is_transit":false,"i_long":106.834175,"station_id":"UP","distance":2264,"time":3,"transit":false,"station_name":"Univ. Pancasila"},{"distance":1029,"time":2,"i_lat":-6.330363,"station_name":"Lenteng Agung","i_long":106.832616,"is_transit":false,"transit":false,"line":2,"station_id":"LNA"},{"line":2,"station_id":"TNT","i_lat":-6.3080680000000005,"time":3,"transit":false,"i_long":106.838896,"distance":2671,"is_transit":false,"station_name":"Tanjung Barat"},{"is_transit":false,"transit":false,"time":4,"station_name":"Pasar Minggu","station_id":"PSM","i_lat":-6.2842400000000005,"line":2,"i_long":106.843999,"distance":2820},{"i_long":106.851577,"is_transit":false,"transit":false,"station_name":"Pasar Minggu Baru","distance":2380,"i_lat":-6.263214,"line":2,"station_id":"PSMB","time":2},{"transit":false,"i_lat":-6.255332,"line":2,"distance":824,"station_name":"Duren Kalibata","time":2,"i_long":106.85449,"station_id":"DRN","is_transit":false},{"i_lat":-6.242512,"i_long":106.856607,"station_id":"CW","is_transit":false,"time":3,"transit":false,"line":2,"distance":1546,"station_name":"Cawang"},{"station_name":"Tebet","transit":false,"station_id":"TEB","i_lat":-6.226659,"distance":1230,"is_transit":false,"i_long":106.857948,"time":2,"line":2},{"line":2,"transit":true,"station_name":"Manggarai","station_id":"MRI","i_lat":-6.209883,"time":4,"i_long":106.84912,"is_transit":true,"distance":2610},{"is_transit":false,"line":1,"station_id":"SUD","time":4,"station_name":"Sudirman","distance":3186,"transit":false,"i_lat":-6.202263,"i_long":106.822649},{"i_lat":-6.201433,"transit":false,"station_id":"SUDB","i_long":106.819881,"line":1,"time":1,"station_name":"Sudirman Baru","is_transit":false,"distance":280},{"i_long":106.816351,"station_id":"KAT","line":1,"time":1,"i_lat":-6.20132,"is_transit":false,"distance":471,"transit":false,"station_name":"Karet"},{"station_name":"Tanah Abang","station_id":"THB","i_long":106.811091,"transit":false,"i_lat":-6.185545,"is_transit":false,"line":1,"time":5,"distance":2029},{"station_id":"DU","line":1,"i_long":106.800832,"distance":3632,"i_lat":-6.155215,"time":8,"is_transit":false,"station_name":"Duri","transit":false},{"is_transit":false,"transit":false,"station_id":"AK","distance":1230,"station_name":"Angke","i_lat":-6.144674,"i_long":106.79867,"line":1,"time":4},{"distance":4102,"station_id":"KPB","time":9,"transit":true,"is_transit":true,"i_long":106.826365,"line":4,"station_name":"Kampung Bandan","i_lat":-6.132549},{"i_long":106.836569,"time":3,"is_transit":false,"station_id":"RJW","transit":false,"line":11,"distance":1444,"station_name":"Rajawali","i_lat":-6.14505},{"line":11,"transit":false,"station_id":"KMO","i_lat":-6.161728,"is_transit":false,"time":5,"distance":1901,"i_long":106.839204,"station_name":"Kemayoran"},{"i_long":106.84368,"line":11,"i_lat":-6.174784,"station_name":"Pasar Senen","time":4,"distance":1436,"is_transit":false,"transit":false,"station_id":"PSE"},{"station_name":"Gang Sentiong","time":8,"station_id":"GST","transit":false,"i_lat":-6.185975,"i_long":106.850107,"line":11,"is_transit":false,"distance":1567},{"time":1,"i_lat":-6.193792,"line":11,"is_transit":false,"i_long":106.855437,"station_id":"KMT","station_name":"Kramat","distance":973,"transit":false},{"distance":1829,"station_id":"POK","is_transit":false,"time":2,"line":11,"transit":false,"station_name":"Pondok Jati","i_lat":-6.209188,"i_long":106.861737},{"time":9,"line":1,"distance":1236,"is_transit":true,"station_name":"Jatinegara","i_lat":-6.215091,"station_id":"JNG","i_long":106.86807400000001,"transit":true},{"station_name":"Klender","is_transit":false,"transit":false,"i_lat":-6.2135,"station_id":"KLD","distance":3395,"i_long":106.899548,"line":1,"time":3},{"time":2,"transit":false,"i_lat":-6.215568,"i_long":106.922662,"line":1,"station_name":"Buaran","distance":3100,"station_id":"BUA","is_transit":false},{"distance":1305,"i_long":106.939679,"station_name":"Klenderbaru","is_transit":false,"time":1,"line":1,"transit":false,"station_id":"KLDB","i_lat":-6.217455},{"time":8,"i_long":106.951283,"station_name":"Cakung","transit":false,"is_transit":false,"station_id":"CUK","line":1,"distance":1385,"i_lat":-6.219053},{"distance":3097,"i_long":106.977657,"is_transit":false,"station_id":"KRI","transit":false,"line":1,"i_lat":-6.224515,"station_name":"Kranji","time":3},{"transit":false,"is_transit":false,"i_lat":-6.236616,"time":4,"line":1,"distance":2520,"i_long":106.997013,"station_id":"BKS","station_name":"Bekasi"},{"station_id":"BKST","time":2,"transit":false,"station_name":"Bekasi Timur","distance":2368,"is_transit":false,"i_lat":-6.248029,"line":1,"i_long":107.016735},{"station_name":"Tambun","station_id":"TB","line":1,"i_lat":-6.258864,"i_long":107.055722,"time":7,"transit":false,"is_transit":false,"distance":4460},{"line":1,"time":3,"i_long":107.083084,"station_name":"Cibitung","transit":false,"is_transit":false,"i_lat":-6.261877,"station_id":"CIT","distance":3420}],[{"station_id":"DP","is_transit":false,"distance":0,"line":2,"transit":false,"i_lat":-6.405256,"station_name":"Depok","i_long":106.816926,"time":0},{"i_lat":-6.391065,"is_transit":false,"transit":false,"i_long":106.819451,"line":2,"distance":1584,"station_name":"Depokbaru","time":3,"station_id":"DPB"},{"transit":false,"station_id":"POC","is_transit":false,"distance":2727,"i_lat":-6.369073,"station_name":"Pondok Cina","time":4,"line":2,"i_long":106.831114},{"station_name":"Univ. Indonesia","time":2,"transit":false,"line":2,"i_lat":-6.360749,"i_long":106.831474,"distance":1109,"is_transit":false,"station_id":"UI"},{"line":2,"station_id":"UP","transit":false,"distance":2264,"station_name":"Univ. Pancasila","is_transit":false,"i_long":106.834175,"time":3,"i_lat":-6.339291},{"line":2,"time":2,"i_lat":-6.330363,"transit":false,"station_id":"LNA","distance":1029,"is_transit":false,"i_long":106.832616,"station_name":"Lenteng Agung"},{"i_long":106.838896,"time":3,"station_name":"Tanjung Barat","is_transit":false,"distance":2671,"line":2,"i_lat":-6.3080680000000005,"transit":false,"station_id":"TNT"},{"time":4,"distance":2820,"i_lat":-6.2842400000000005,"line":2,"transit":false,"station_name":"Pasar Minggu","station_id":"PSM","is_transit":false,"i_long":106.843999},{"station_id":"PSMB","time":2,"transit":false,"distance":2380,"i_lat":-6.263214,"is_transit":false,"station_name":"Pasar Minggu Baru","i_long":106.851577,"line":2},{"i_long":106.85449,"is_transit":false,"transit":false,"i_lat":-6.255332,"station_name":"Duren Kalibata","time":2,"distance":824,"station_id":"DRN","line":2},{"transit":false,"is_transit":false,"line":2,"station_name":"Cawang","time":3,"distance":1546,"i_lat":-6.242512,"station_id":"CW","i_long":106.856607},{"i_long":106.857948,"line":2,"station_name":"Tebet","is_transit":false,"distance":1230,"station_id":"TEB","transit":false,"i_lat":-6.226659,"time":2},{"distance":2610,"is_transit":false,"time":4,"transit":false,"station_id":"MRI","station_name":"Manggarai","i_lat":-6.209883,"i_long":106.84912,"line":2},{"station_id":"CKI","i_lat":-6.198556,"i_long":106.840169,"line":2,"time":4,"distance":1590,"station_name":"Cikini","is_transit":false,"transit":false},{"distance":1750,"station_name":"Gondangdia","i_lat":-6.186295,"transit":false,"is_transit":false,"i_long":106.832183,"line":2,"station_id":"GDD","time":3},{"i_lat":-6.166716,"distance":2015,"is_transit":false,"time":4,"transit":false,"line":2,"station_name":"Juanda","station_id":"JUA","i_long":106.828284},{"i_lat":-6.160725,"transit":false,"line":2,"station_id":"SW","distance":1149,"is_transit":false,"i_long":106.827103,"station_name":"Sawah Besar","time":2},{"distance":906,"station_name":"Manggabesar","transit":false,"i_long":106.82482,"station_id":"MGB","is_transit":false,"i_lat":-6.149769,"line":2,"time":2},{"i_lat":-6.141205,"station_id":"JAY","i_long":106.820901,"transit":false,"distance":1080,"station_name":"Jayakarta","time":2,"is_transit":false,"line":2},{"transit":true,"is_transit":true,"line":2,"i_lat":-6.137569,"station_name":"Jakarta Kota","station_id":"JAKK","time":4,"distance":1264,"i_long":106.812439},{"i_long":106.826365,"is_transit":true,"station_id":"KPB","time":3,"station_name":"Kampung Bandan","distance":1364,"i_lat":-6.132549,"line":4,"transit":true},{"station_name":"Rajawali","i_long":106.836569,"time":3,"line":11,"is_transit":false,"i_lat":-6.14505,"transit":false,"station_id":"RJW","distance":1444},{"station_name":"Kemayoran","time":5,"i_lat":-6.161728,"transit":false,"is_transit":false,"distance":1901,"station_id":"KMO","i_long":106.839204,"line":11},{"station_name":"Pasar Senen","line":11,"time":4,"i_long":106.84368,"is_transit":false,"station_id":"PSE","transit":false,"distance":1436,"i_lat":-6.174784},{"distance":1567,"station_id":"GST","station_name":"Gang Sentiong","time":8,"i_lat":-6.185975,"i_long":106.850107,"line":11,"is_transit":false,"transit":false},{"i_long":106.855437,"time":1,"transit":false,"station_name":"Kramat","i_lat":-6.193792,"station_id":"KMT","line":11,"distance":973,"is_transit":false},{"i_lat":-6.209188,"i_long":106.861737,"line":11,"is_transit":false,"station_id":"POK","distance":1829,"time":2,"station_name":"Pondok Jati","transit":false},{"i_long":106.86807400000001,"distance":1236,"station_id":"JNG","time":9,"transit":true,"i_lat":-6.215091,"line":1,"station_name":"Jatinegara","is_transit":true},{"distance":3395,"i_lat":-6.2135,"transit":false,"station_id":"KLD","station_name":"Klender","is_transit":false,"i_long":106.899548,"line":1,"time":3},{"i_lat":-6.215568,"station_id":"BUA","is_transit":false,"station_name":"Buaran","transit":false,"distance":3100,"i_long":106.922662,"time":2,"line":1},{"time":1,"station_name":"Klenderbaru","transit":false,"distance":1305,"i_long":106.939679,"station_id":"KLDB","line":1,"i_lat":-6.217455,"is_transit":false},{"station_name":"Cakung","transit":false,"time":8,"distance":1385,"station_id":"CUK","i_lat":-6.219053,"is_transit":false,"i_long":106.951283,"line":1},{"station_name":"Kranji","time":3,"i_lat":-6.224515,"i_long":106.977657,"line":1,"distance":3097,"station_id":"KRI","is_transit":false,"transit":false},{"time":4,"station_name":"Bekasi","i_lat":-6.236616,"station_id":"BKS","transit":false,"i_long":106.997013,"distance":2520,"is_transit":false,"line":1},{"station_id":"BKST","transit":false,"i_long":107.016735,"line":1,"station_name":"Bekasi Timur","time":2,"distance":2368,"is_transit":false,"i_lat":-6.248029},{"distance":4460,"station_name":"Tambun","line":1,"station_id":"TB","i_lat":-6.258864,"i_long":107.055722,"is_transit":false,"transit":false,"time":7},{"station_id":"CIT","is_transit":false,"i_lat":-6.261877,"transit":false,"distance":3420,"i_long":107.083084,"line":1,"time":3,"station_name":"Cibitung"}]]}