{"data":[[{"i_lat":-6.405256,"distance":0,"i_long":106.816926,"transit":false,"station_name":"Depok","line":0,"time":0,"is_transit":false,"station_id":"DP"},{"transit":false,"station_name":"Depokbaru","distance":1584,"time":3,"i_lat":-6.391065,"station_id":"DPB","is_transit":false,"i_long":106.819451,"line":0},{"transit":false,"distance":2727,"i_long":106.831114,"station_id":"POC","i_lat":-6.369073,"is_transit":false,"time":4,"line":2,"station_name":"Pondok Cina"},{"transit":false,"station_id":"UI","station_name":"Univ. Indonesia","line":2,"is_transit":false,"distance":1109,"time":2,"i_lat":-6.360749,"i_long":106.831474},{"i_long":106.834175,"transit":false,"station_id":"UP","station_name":"Univ. Pancasila","distance":2264,"i_lat":-6.339291,"time":3,"is_transit":false,"line":2},{"i_long":106.832616,"time":2,"is_transit":false,"line":2,"station_name":"Lenteng Agung","distance":1029,"transit":false,"i_lat":-6.330363,"station_id":"LNA"},{"i_long":106.838896,"is_transit":false,"station_name":"Tanjung Barat","station_id":"TNT","line":2,"distance":2671,"transit":false,"i_lat":-6.3080680000000005,"time":3},{"station_name":"Pasar Minggu","transit":false,"line":2,"station_id":"PSM","i_lat":-6.2842400000000005,"distance":2820,"i_long":106.843999,"time":4,"is_transit":false},{"station_id":"PSMB","i_long":106.851577,"line":2,"transit":false,"is_transit":false,"distance":2380,"time":2,"station_name":"Pasar Minggu Baru","i_lat":-6.263214},{"time":2,"station_id":"DRN","line":0,"transit":false,"distance":824,"i_lat":-6.255332,"i_long":106.85449,"station_name":"Duren Kalibata","is_transit":false},{"station_name":"Cawang","station_id":"CW","transit":false,"time":3,"is_transit":false,"i_lat":-6.242512,"i_long":106.856607,"line":0,"distance":1546},{"transit":false,"i_lat":-6.226659,"is_transit":false,"station_id":"TEB","line":2,"i_long":106.857948,"time":2,"station_name":"Tebet","distance":1230},{"i_long":106.84912,"station_id":"MRI","time":4,"station_name":"Manggarai","line":0,"distance":2610,"transit":true,"is_transit":true,"i_lat":-6.209883},{"station_id":"SUD","i_lat":-6.202263,"i_long":106.822649,"transit":false,"station_name":"Sudirman","line":1,"time":4,"is_transit":false,"distance":3186},{"distance":280,"i_long":106.819881,"station_id":"SUDB","transit":false,"station_name":"Sudirman Baru","line":1,"is_transit":false,"i_lat":-6.201433,"time":1},{"i_lat":-6.20132,"is_transit":false,"time":1,"station_name":"Karet","transit":false,"distance":471,"i_long":106.816351,"line":1,"station_id":"KAT"},{"i_long":106.811091,"i_lat":-6.185545,"time":5,"distance":2029,"station_id":"THB","line":1,"is_transit":true,"transit":true,"station_name":"Tanah Abang"},{"i_lat":-6.207404,"i_long":106.79689,"line":6,"station_id":"PLM","is_transit":false,"station_name":"Palmerah","distance":3191,"transit":false,"time":6},{"is_transit":false,"station_id":"KBY","station_name":"Kebayoran","distance":3737,"i_long":106.780334,"line":6,"time":7,"transit":false,"i_lat":-6.237242},{"i_lat":-6.276362,"line":6,"station_name":"Pondokranji","distance":6218,"transit":false,"i_long":106.74273,"is_transit":false,"time":8,"station_id":"PDJ"},{"line":6,"station_id":"JMU","distance":2179,"i_long":106.728916,"time":3,"i_lat":-6.288927,"transit":false,"is_transit":false,"station_name":"Jurangmangu"},{"time":4,"transit":false,"distance":1994,"i_lat":-6.296963,"line":6,"is_transit":false,"station_name":"Sudimara","station_id":"SDM","i_long":106.712277},{"is_transit":false,"station_id":"RU","distance":4566,"transit":false,"i_lat":-6.314823,"station_name":"Rawa Buntu","time":6,"i_long":106.675475,"line":6},{"i_long":106.66566,"transit":false,"station_id":"SRP","is_transit":false,"i_lat":-6.319871,"time":4,"station_name":"Serpong","distance":2413,"line":6},{"i_lat":-6.32484,"station_id":"CSK","station_name":"Cisauk","transit":false,"time":4,"distance":1784,"line":0,"i_long":106.640411,"is_transit":false},{"i_lat":-6.329547,"station_name":"Cicayur","station_id":"CC","time":4,"is_transit":false,"distance":2519,"line":0,"transit":false,"i_long":106.617853},{"station_id":"PRP","i_lat":-6.3441410000000005,"is_transit":false,"transit":false,"time":8,"line":6,"i_long":106.568863,"distance":5968,"station_name":"Parung Panjang"},{"station_id":"CJT","is_transit":false,"i_long":106.508482,"i_lat":-6.354349,"transit":false,"station_name":"Cilejit","line":0,"distance":7025,"time":9},{"distance":2675,"is_transit":false,"i_lat":-6.338021,"time":6,"station_name":"Daru","station_id":"DAR","line":0,"transit":false,"i_long":106.491338},{"is_transit":false,"i_lat":-6.327251,"station_id":"TEJ","distance":3902,"station_name":"Tenjo","i_long":106.460812,"time":5,"line":6,"transit":false},{"station_id":"TGS","station_name":"Tigaraksa","i_long":106.425991,"transit":false,"line":6,"time":5,"i_lat":-6.328533,"distance":2974,"is_transit":false},{"time":3,"distance":2651,"is_transit":false,"i_long":106.411216,"i_lat":-6.33561,"transit":false,"station_name":"Cikoya","line":0,"station_id":"CKY"},{"station_id":"MJ","i_long":106.394373,"station_name":"Maja","distance":1853,"i_lat":-6.332307,"time":4,"is_transit":false,"line":6,"transit":false},{"time":10,"distance":7293,"station_name":"Citeras","i_long":106.332092,"is_transit":false,"line":0,"station_id":"CTR","i_lat":-6.334892,"transit":false}],[{"station_id":"DP","is_transit":false,"transit":false,"line":0,"i_lat":-6.405256,"station_name":"Depok","i_long":106.816926,"distance":0,"time":0},{"transit":false,"distance":1584,"line":0,"is_transit":false,"station_name":"Depokbaru","i_long":106.819451,"time":3,"i_lat":-6.391065,"station_id":"DPB"},{"station_id":"POC","is_transit":false,"station_name":"Pondok Cina","i_lat":-6.369073,"distance":2727,"time":4,"transit":false,"i_long":106.831114,"line":2},{"distance":1109,"transit":false,"station_id":"UI","is_transit":false,"time":2,"i_lat":-6.360749,"line":2,"station_name":"Univ. Indonesia","i_long":106.831474},{"is_transit":false,"distance":2264,"transit":false,"station_id":"UP","line":2,"station_name":"Univ. Pancasila","time":3,"i_long":106.834175,"i_lat":-6.339291},{"line":2,"station_name":"Lenteng Agung","station_id":"LNA","transit":false,"time":2,"distance":1029,"is_transit":false,"i_lat":-6.330363,"i_long":106.832616},{"is_transit":false,"distance":2671,"time":3,"i_lat":-6.3080680000000005,"i_long":106.838896,"line":2,"station_name":"Tanjung Barat","station_id":"TNT","transit":false},{"station_name":"Pasar Minggu","transit":false,"is_transit":false,"line":2,"time":4,"station_id":"PSM","i_lat":-6.2842400000000005,"distance":2820,"i_long":106.843999},{"i_long":106.851577,"station_id":"PSMB","is_transit":false,"station_name":"Pasar Minggu Baru","i_lat":-6.263214,"line":2,"transit":false,"time":2,"distance":2380},{"line":0,"station_id":"DRN","time":2,"distance":824,"i_long":106.85449,"transit":false,"is_transit":false,"i_lat":-6.255332,"station_name":"Duren Kalibata"},{"station_id":"CW","time":3,"transit":false,"is_transit":false,"station_name":"Cawang","i_lat":-6.242512,"i_long":106.856607,"line":0,"distance":1546},{"station_name":"Tebet","time":2,"line":2,"i_lat":-6.226659,"distance":1230,"i_long":106.857948,"station_id":"TEB","transit":false,"is_transit":false},{"station_name":"Manggarai","time":4,"line":0,"i_long":106.84912,"distance":2610,"transit":true,"is_transit":true,"i_lat":-6.209883,"station_id":"MRI"},{"station_id":"CKI","i_lat":-6.198556,"is_transit":false,"transit":false,"distance":1590,"i_long":106.840169,"time":4,"line":0,"station_name":"Cikini"},{"i_long":106.832183,"line":2,"transit":false,"distance":1750,"station_id":"GDD","i_lat":-6.186295,"time":3,"is_transit":false,"station_name":"Gondangdia"},{"transit":false,"is_transit":false,"distance":2015,"line":2,"station_name":"Juanda","i_lat":-6.166716,"i_long":106.828284,"station_id":"JUA","time":4},{"time":2,"is_transit":false,"station_name":"Sawah Besar","i_lat":-6.160725,"line":2,"station_id":"SW","transit":false,"distance":1149,"i_long":106.827103},{"transit":false,"is_transit":false,"station_name":"Manggabesar","station_id":"MGB","distance":906,"i_lat":-6.149769,"i_long":106.82482,"line":2,"time":2},{"is_transit":false,"distance":1080,"i_long":106.820901,"transit":false,"station_id":"JAY","line":7,"station_name":"Jayakarta","i_lat":-6.141205,"time":2},{"i_lat":-6.137569,"station_name":"Jakarta Kota","is_transit":true,"i_long":106.812439,"transit":true,"station_id":"JAKK","line":0,"time":4,"distance":1264},{"line":0,"i_long":106.826365,"station_id":"KPB","time":3,"is_transit":true,"transit":false,"station_name":"Kampung Bandan","distance":1364,"i_lat":-6.132549},{"station_name":"Angke","station_id":"AK","i_lat":-6.144674,"time":9,"is_transit":false,"transit":false,"distance":4102,"i_long":106.79867,"line":0},{"transit":true,"distance":1230,"is_transit":true,"station_name":"Duri","i_long":106.800832,"i_lat":-6.155215,"line":1,"station_id":"DU","time":4},{"line":1,"time":8,"distance":3632,"i_long":106.811091,"is_transit":true,"station_id":"THB","transit":true,"station_name":"Tanah Abang","i_lat":-6.185545},{"line":6,"station_name":"Palmerah","time":6,"i_lat":-6.207404,"is_transit":false,"station_id":"PLM","transit":false,"distance":3191,"i_long":106.79689},{"station_name":"Kebayoran","distance":3737,"station_id":"KBY","is_transit":false,"time":7,"i_long":106.780334,"line":6,"transit":false,"i_lat":-6.237242},{"line":6,"distance":6218,"station_name":"Pondokranji","station_id":"PDJ","time":8,"i_lat":-6.276362,"i_long":106.74273,"is_transit":false,"transit":false},{"station_id":"JMU","i_long":106.728916,"transit":false,"is_transit":false,"distance":2179,"i_lat":-6.288927,"station_name":"Jurangmangu","line":6,"time":3},{"time":4,"transit":false,"station_name":"Sudimara","i_lat":-6.296963,"i_long":106.712277,"is_transit":false,"distance":1994,"line":6,"station_id":"SDM"},{"i_lat":-6.314823,"station_id":"RU","is_transit":false,"time":6,"i_long":106.675475,"transit":false,"line":6,"station_name":"Rawa Buntu","distance":4566},{"is_transit":false,"time":4,"station_name":"Serpong","distance":2413,"i_long":106.66566,"line":6,"transit":false,"i_lat":-6.319871,"station_id":"SRP"},{"i_lat":-6.32484,"distance":1784,"station_name":"Cisauk","is_transit":false,"i_long":106.640411,"time":4,"transit":false,"line":0,"station_id":"CSK"},{"i_long":106.617853,"i_lat":-6.329547,"station_name":"Cicayur","time":4,"transit":false,"station_id":"CC","distance":2519,"line":0,"is_transit":false},{"time":8,"i_lat":-6.3441410000000005,"line":6,"station_id":"PRP","transit":false,"is_transit":false,"distance":5968,"i_long":106.568863,"station_name":"Parung Panjang"},{"i_long":106.508482,"transit":false,"time":9,"is_transit":false,"station_name":"Cilejit","i_lat":-6.354349,"line":0,"distance":7025,"station_id":"CJT"},{"i_lat":-6.338021,"station_id":"DAR","line":0,"time":6,"distance":2675,"i_long":106.491338,"station_name":"Daru","transit":false,"is_transit":false},{"line":6,"i_long":106.460812,"time":5,"is_transit":false,"i_lat":-6.327251,"station_id":"TEJ","station_name":"Tenjo","distance":3902,"transit":false},{"distance":2974,"station_id":"TGS","transit":false,"time":5,"i_long":106.425991,"line":6,"station_name":"Tigaraksa","i_lat":-6.328533,"is_transit":false},{"i_long":106.411216,"line":0,"transit":false,"i_lat":-6.33561,"time":3,"is_transit":false,"station_id":"CKY","station_name":"Cikoya","distance":2651},{"transit":false,"is_transit":false,"distance":1853,"line":6,"station_name":"Maja","i_long":106.394373,"time":4,"i_lat":-6.332307,"station_id":"MJ"},{"distance":7293,"station_id":"CTR","time":10,"station_name":"Citeras","line":0,"is_transit":false,"i_lat":-6.334892,"i_long":106.332092,"transit":false}],[{"station_id":"DP","station_name":"Depok","i_long":106.816926,"transit":false,"time":0,"distance":0,"i_lat":-6.405256,"line":0,"is_transit":false},{"station_name":"Depokbaru","distance":1584,"i_long":106.819451,"line":0,"is_transit":false,"time":3,"i_lat":-6.391065,"transit":false,"station_id":"DPB"},{"transit":false,"i_long":106.831114,"time":4,"line":2,"is_transit":false,"station_id":"POC","station_name":"Pondok Cina","i_lat":-6.369073,"distance":2727},{"is_transit":false,"station_name":"Univ. Indonesia","time":2,"distance":1109,"i_long":106.831474,"transit":false,"line":2,"station_id":"UI","i_lat":-6.360749},{"transit":false,"distance":2264,"station_name":"Univ. Pancasila","time":3,"station_id":"UP","i_long":106.834175,"is_transit":false,"line":2,"i_lat":-6.339291},{"line":2,"i_lat":-6.330363,"i_long":106.832616,"is_transit":false,"station_id":"LNA","transit":false,"station_name":"Lenteng Agung","distance":1029,"time":2},{"time":3,"station_id":"TNT","i_lat":-6.3080680000000005,"line":2,"distance":2671,"is_transit":false,"station_name":"Tanjung Barat","i_long":106.838896,"transit":false},{"station_id":"PSM","time":4,"station_name":"Pasar Minggu","transit":false,"i_lat":-6.2842400000000005,"distance":2820,"i_long":106.843999,"line":2,"is_transit":false},{"transit":false,"i_long":106.851577,"time":2,"station_id":"PSMB","i_lat":-6.263214,"is_transit":false,"station_name":"Pasar Minggu Baru","distance":2380,"line":2},{"station_name":"Duren Kalibata","transit":false,"is_transit":false,"line":0,"i_lat":-6.255332,"station_id":"DRN","distance":824,"i_long":106.85449,"time":2},{"station_id":"CW","station_name":"Cawang","is_transit":false,"i_lat":-6.242512,"line":0,"transit":false,"i_long":106.856607,"distance":1546,"time":3},{"station_name":"Tebet","distance":1230,"station_id":"TEB","is_transit":false,"line":2,"transit":false,"time":2,"i_lat":-6.226659,"i_long":106.857948},{"line":0,"transit":true,"is_transit":true,"i_lat":-6.209883,"station_name":"Manggarai","i_long":106.84912,"distance":2610,"time":4,"station_id":"MRI"},{"i_lat":-6.212485,"line":1,"station_name":"Matraman","time":2,"station_id":"MTR","transit":false,"is_transit":false,"distance":1275,"i_long":106.858896},{"station_id":"JNG","distance":1377,"i_long":106.86807400000001,"line":0,"transit":true,"station_name":"Jatinegara","is_transit":true,"time":8,"i_lat":-6.215091},{"line":11,"time":2,"is_transit":false,"distance":1236,"i_lat":-6.209188,"i_long":106.861737,"station_id":"POK","station_name":"Pondok Jati","transit":false},{"is_transit":false,"transit":false,"i_long":106.855437,"i_lat":-6.193792,"station_id":"KMT","station_name":"Kramat","time":2,"distance":1829,"line":11},{"time":1,"transit":false,"i_lat":-6.185975,"station_name":"Gang Sentiong","station_id":"GST","line":11,"distance":973,"is_transit":false,"i_long":106.850107},{"time":8,"i_lat":-6.174784,"distance":1567,"is_transit":false,"line":11,"i_long":106.84368,"station_id":"PSE","station_name":"Pasar Senen","transit":false},{"is_transit":false,"distance":1436,"i_long":106.839204,"station_name":"Kemayoran","station_id":"KMO","i_lat":-6.161728,"transit":false,"time":4,"line":11},{"time":5,"transit":false,"line":11,"i_long":106.836569,"station_id":"RJW","i_lat":-6.14505,"is_transit":false,"distance":1901,"station_name":"Rajawali"},{"transit":true,"station_id":"KPB","is_transit":true,"station_name":"Kampung Bandan","line":0,"i_long":106.826365,"distance":1444,"time":3,"i_lat":-6.132549},{"transit":false,"station_id":"AK","station_name":"Angke","distance":4102,"line":0,"is_transit":false,"time":9,"i_long":106.79867,"i_lat":-6.144674},{"i_long":106.800832,"station_id":"DU","transit":true,"station_name":"Duri","time":4,"i_lat":-6.155215,"line":1,"is_transit":true,"distance":1230},{"transit":true,"is_transit":true,"line":1,"station_id":"THB","i_long":106.811091,"i_lat":-6.185545,"time":8,"station_name":"Tanah Abang","distance":3632},{"line":6,"i_long":106.79689,"station_id":"PLM","transit":false,"time":6,"distance":3191,"station_name":"Palmerah","is_transit":false,"i_lat":-6.207404},{"distance":3737,"station_id":"KBY","is_transit":false,"i_lat":-6.237242,"station_name":"Kebayoran","transit":false,"time":7,"i_long":106.780334,"line":6},{"i_lat":-6.276362,"transit":false,"is_transit":false,"i_long":106.74273,"station_name":"Pondokranji","line":6,"station_id":"PDJ","distance":6218,"time":8},{"station_id":"JMU","transit":false,"is_transit":false,"i_lat":-6.288927,"distance":2179,"i_long":106.728916,"time":3,"line":6,"station_name":"Jurangmangu"},{"is_transit":false,"i_long":106.712277,"line":6,"distance":1994,"time":4,"station_id":"SDM","i_lat":-6.296963,"transit":false,"station_name":"Sudimara"},{"i_long":106.675475,"distance":4566,"is_transit":false,"transit":false,"time":6,"station_id":"RU","line":6,"station_name":"Rawa Buntu","i_lat":-6.314823},{"distance":2413,"line":6,"station_id":"SRP","i_long":106.66566,"station_name":"Serpong","transit":false,"time":4,"is_transit":false,"i_lat":-6.319871},{"distance":1784,"is_transit":false,"station_id":"CSK","station_name":"Cisauk","i_lat":-6.32484,"line":0,"transit":false,"time":4,"i_long":106.640411},{"time":4,"i_long":106.617853,"line":0,"distance":2519,"station_id":"CC","i_lat":-6.329547,"station_name":"Cicayur","transit":false,"is_transit":false},{"transit":false,"i_long":106.568863,"is_transit":false,"i_lat":-6.3441410000000005,"station_id":"PRP","station_name":"Parung Panjang","line":6,"distance":5968,"time":8},{"time":9,"is_transit":false,"i_lat":-6.354349,"i_long":106.508482,"station_name":"Cilejit","line":0,"transit":false,"station_id":"CJT","distance":7025},{"station_name":"Daru","is_transit":false,"transit":false,"time":6,"i_long":106.491338,"distance":2675,"line":0,"station_id":"DAR","i_lat":-6.338021},{"is_transit":false,"distance":3902,"time":5,"station_name":"Tenjo","transit":false,"station_id":"TEJ","i_lat":-6.327251,"line":6,"i_long":106.460812},{"distance":2974,"i_lat":-6.328533,"i_long":106.425991,"time":5,"transit":false,"is_transit":false,"line":6,"station_name":"Tigaraksa","station_id":"TGS"},{"is_transit":false,"line":0,"station_name":"Cikoya","distance":2651,"i_lat":-6.33561,"i_long":106.411216,"time":3,"station_id":"CKY","transit":false},{"station_name":"Maja","station_id":"MJ","time":4,"transit":false,"is_transit":false,"i_long":106.394373,"i_lat":-6.332307,"distance":1853,"line":6},{"time":10,"station_name":"Citeras","distance":7293,"station_id":"CTR","is_transit":false,"i_lat":-6.334892,"i_long":106.332092,"line":0,"transit":false}]]}