{"data":[[{"station_id":"DP","transit":false,"i_long":106.816926,"station_name":"Depok","time":0,"line":2,"distance":0,"i_lat":-6.405256,"is_transit":false},{"i_long":106.819451,"transit":false,"station_name":"Depokbaru","station_id":"DPB","distance":1584,"time":3,"is_transit":false,"i_lat":-6.391065,"line":2},{"time":4,"i_lat":-6.369073,"distance":2727,"transit":false,"station_name":"Pondok Cina","is_transit":false,"i_long":106.831114,"station_id":"POC","line":2},{"is_transit":false,"i_long":106.831474,"transit":false,"station_name":"Univ. Indonesia","time":2,"distance":1109,"line":2,"i_lat":-6.360749,"station_id":"UI"},{"station_id":"UP","i_lat":-6.339291,"line":2,"is_transit":false,"i_long":106.834175,"time":3,"distance":2264,"station_name":"Univ. Pancasila","transit":false},{"station_id":"LNA","time":2,"i_lat":-6.330363,"distance":1029,"station_name":"Lenteng Agung","i_long":106.832616,"line":2,"transit":false,"is_transit":false},{"station_name":"Tanjung Barat","station_id":"TNT","i_long":106.838896,"time":3,"line":2,"distance":2671,"transit":false,"is_transit":false,"i_lat":-6.3080680000000005},{"station_id":"PSM","line":2,"transit":false,"station_name":"Pasar Minggu","i_long":106.843999,"distance":2820,"is_transit":false,"time":4,"i_lat":-6.2842400000000005},{"i_lat":-6.263214,"is_transit":false,"transit":false,"distance":2380,"time":2,"station_id":"PSMB","line":2,"i_long":106.851577,"station_name":"Pasar Minggu Baru"},{"distance":824,"is_transit":false,"i_long":106.85449,"time":2,"station_name":"Duren Kalibata","line":2,"transit":false,"i_lat":-6.255332,"station_id":"DRN"},{"station_name":"Cawang","i_lat":-6.242512,"distance":1546,"line":2,"station_id":"CW","is_transit":false,"i_long":106.856607,"time":3,"transit":false},{"line":2,"station_id":"TEB","i_long":106.857948,"station_name":"Tebet","is_transit":false,"distance":1230,"i_lat":-6.226659,"transit":false,"time":2},{"distance":2610,"station_id":"MRI","i_lat":-6.209883,"i_long":106.84912,"is_transit":true,"transit":true,"station_name":"Manggarai","line":2,"time":4},{"station_name":"Sudirman","time":4,"station_id":"SUD","transit":false,"line":1,"i_long":106.822649,"distance":3186,"is_transit":false,"i_lat":-6.202263},{"station_id":"SUDB","transit":false,"station_name":"Sudirman Baru","distance":280,"time":1,"i_lat":-6.201433,"is_transit":false,"line":1,"i_long":106.819881},{"station_name":"Karet","time":1,"is_transit":false,"line":1,"i_long":106.816351,"station_id":"KAT","transit":false,"distance":471,"i_lat":-6.20132},{"station_name":"Tanah Abang","station_id":"THB","transit":true,"i_lat":-6.185545,"i_long":106.811091,"line":1,"time":5,"distance":2029,"is_transit":true},{"i_long":106.79689,"distance":3191,"line":6,"is_transit":false,"time":6,"station_id":"PLM","transit":false,"i_lat":-6.207404,"station_name":"Palmerah"},{"is_transit":false,"distance":3737,"transit":false,"i_long":106.780334,"i_lat":-6.237242,"line":6,"time":7,"station_id":"KBY","station_name":"Kebayoran"},{"station_name":"Pondokranji","transit":false,"station_id":"PDJ","line":6,"is_transit":false,"i_long":106.74273,"distance":6218,"i_lat":-6.276362,"time":8},{"i_lat":-6.288927,"i_long":106.728916,"station_name":"Jurangmangu","station_id":"JMU","is_transit":false,"distance":2179,"line":6,"time":3,"transit":false},{"transit":false,"line":6,"i_lat":-6.296963,"i_long":106.712277,"station_id":"SDM","station_name":"Sudimara","time":4,"is_transit":false,"distance":1994},{"station_id":"RU","i_lat":-6.314823,"line":6,"time":6,"i_long":106.675475,"station_name":"Rawa Buntu","distance":4566,"transit":false,"is_transit":false},{"i_lat":-6.319871,"line":6,"transit":false,"is_transit":false,"time":4,"station_name":"Serpong","i_long":106.66566,"distance":2413,"station_id":"SRP"},{"station_name":"Cisauk","line":3,"is_transit":false,"transit":false,"station_id":"CSK","time":4,"i_long":106.640411,"i_lat":-6.32484,"distance":1784},{"station_name":"Cicayur","distance":2519,"i_long":106.617853,"is_transit":false,"time":4,"i_lat":-6.329547,"transit":false,"line":3,"station_id":"CC"},{"time":8,"i_long":106.568863,"line":6,"transit":false,"distance":5968,"i_lat":-6.3441410000000005,"station_id":"PRP","station_name":"Parung Panjang","is_transit":false},{"station_name":"Cilejit","distance":7025,"transit":false,"is_transit":false,"time":9,"i_lat":-6.354349,"i_long":106.508482,"station_id":"CJT","line":3},{"line":0,"i_long":106.491338,"station_id":"DAR","transit":false,"i_lat":-6.338021,"station_name":"Daru","distance":2675,"time":6,"is_transit":false},{"distance":3902,"is_transit":false,"station_name":"Tenjo","time":5,"i_long":106.460812,"line":6,"i_lat":-6.327251,"transit":false,"station_id":"TEJ"},{"transit":false,"i_long":106.425991,"time":5,"is_transit":false,"i_lat":-6.328533,"station_name":"Tigaraksa","distance":2974,"line":6,"station_id":"TGS"},{"is_transit":false,"distance":2651,"i_lat":-6.33561,"station_id":"CKY","station_name":"Cikoya","transit":false,"time":3,"i_long":106.411216,"line":3}],[{"i_long":106.816926,"is_transit":false,"time":0,"distance":0,"transit":false,"station_id":"DP","line":2,"station_name":"Depok","i_lat":-6.405256},{"time":3,"distance":1584,"i_lat":-6.391065,"line":2,"station_name":"Depokbaru","i_long":106.819451,"transit":false,"is_transit":false,"station_id":"DPB"},{"station_name":"Pondok Cina","i_long":106.831114,"i_lat":-6.369073,"is_transit":false,"line":2,"transit":false,"time":4,"distance":2727,"station_id":"POC"},{"station_name":"Univ. Indonesia","station_id":"UI","is_transit":false,"transit":false,"time":2,"i_lat":-6.360749,"i_long":106.831474,"line":2,"distance":1109},{"i_lat":-6.339291,"time":3,"transit":false,"station_name":"Univ. Pancasila","station_id":"UP","is_transit":false,"i_long":106.834175,"distance":2264,"line":2},{"distance":1029,"transit":false,"i_long":106.832616,"station_id":"LNA","station_name":"Lenteng Agung","time":2,"i_lat":-6.330363,"line":2,"is_transit":false},{"transit":false,"station_id":"TNT","is_transit":false,"time":3,"distance":2671,"i_lat":-6.3080680000000005,"line":2,"i_long":106.838896,"station_name":"Tanjung Barat"},{"time":4,"station_id":"PSM","i_long":106.843999,"is_transit":false,"distance":2820,"transit":false,"station_name":"Pasar Minggu","i_lat":-6.2842400000000005,"line":2},{"line":2,"time":2,"station_id":"PSMB","distance":2380,"i_lat":-6.263214,"i_long":106.851577,"transit":false,"station_name":"Pasar Minggu Baru","is_transit":false},{"time":2,"station_id":"DRN","transit":false,"is_transit":false,"i_lat":-6.255332,"station_name":"Duren Kalibata","line":2,"distance":824,"i_long":106.85449},{"i_long":106.856607,"time":3,"line":2,"i_lat":-6.242512,"station_name":"Cawang","distance":1546,"transit":false,"station_id":"CW","is_transit":false},{"distance":1230,"i_long":106.857948,"station_id":"TEB","transit":false,"station_name":"Tebet","i_lat":-6.226659,"time":2,"line":2,"is_transit":false},{"i_lat":-6.209883,"station_id":"MRI","i_long":106.84912,"time":4,"line":2,"distance":2610,"station_name":"Manggarai","transit":false,"is_transit":false},{"is_transit":false,"line":2,"station_id":"CKI","station_name":"Cikini","transit":false,"time":4,"distance":1590,"i_lat":-6.198556,"i_long":106.840169},{"line":2,"station_id":"GDD","is_transit":false,"transit":false,"distance":1750,"i_long":106.832183,"station_name":"Gondangdia","time":3,"i_lat":-6.186295},{"time":4,"i_long":106.828284,"line":2,"distance":2015,"station_id":"JUA","station_name":"Juanda","i_lat":-6.166716,"transit":false,"is_transit":false},{"time":2,"is_transit":false,"station_name":"Sawah Besar","station_id":"SW","distance":1149,"i_long":106.827103,"line":2,"transit":false,"i_lat":-6.160725},{"i_lat":-6.149769,"transit":false,"line":2,"time":2,"station_id":"MGB","station_name":"Manggabesar","distance":906,"is_transit":false,"i_long":106.82482},{"station_id":"JAY","station_name":"Jayakarta","line":2,"distance":1080,"i_long":106.820901,"is_transit":false,"time":2,"transit":false,"i_lat":-6.141205},{"time":4,"station_name":"Jakarta Kota","i_lat":-6.137569,"station_id":"JAKK","distance":1264,"is_transit":true,"transit":true,"i_long":106.812439,"line":2},{"transit":true,"station_name":"Kampung Bandan","station_id":"KPB","distance":1364,"i_lat":-6.132549,"time":3,"line":4,"is_transit":true,"i_long":106.826365},{"station_id":"AK","time":9,"transit":false,"is_transit":false,"i_long":106.79867,"i_lat":-6.144674,"line":1,"distance":4102,"station_name":"Angke"},{"i_long":106.800832,"transit":false,"station_id":"DU","time":4,"line":1,"is_transit":false,"station_name":"Duri","distance":1230,"i_lat":-6.155215},{"distance":3632,"i_long":106.811091,"line":1,"station_id":"THB","is_transit":true,"time":8,"i_lat":-6.185545,"station_name":"Tanah Abang","transit":true},{"time":6,"station_name":"Palmerah","distance":3191,"station_id":"PLM","i_lat":-6.207404,"i_long":106.79689,"line":6,"transit":false,"is_transit":false},{"i_lat":-6.237242,"line":6,"distance":3737,"station_id":"KBY","transit":false,"station_name":"Kebayoran","is_transit":false,"time":7,"i_long":106.780334},{"is_transit":false,"line":6,"distance":6218,"i_long":106.74273,"station_name":"Pondokranji","time":8,"transit":false,"i_lat":-6.276362,"station_id":"PDJ"},{"station_name":"Jurangmangu","transit":false,"i_lat":-6.288927,"distance":2179,"time":3,"station_id":"JMU","is_transit":false,"i_long":106.728916,"line":6},{"distance":1994,"station_name":"Sudimara","transit":false,"station_id":"SDM","is_transit":false,"time":4,"i_lat":-6.296963,"line":6,"i_long":106.712277},{"i_lat":-6.314823,"i_long":106.675475,"station_name":"Rawa Buntu","is_transit":false,"distance":4566,"transit":false,"station_id":"RU","line":6,"time":6},{"line":6,"is_transit":false,"time":4,"distance":2413,"i_lat":-6.319871,"i_long":106.66566,"station_name":"Serpong","transit":false,"station_id":"SRP"},{"is_transit":false,"time":4,"station_id":"CSK","line":3,"transit":false,"distance":1784,"i_lat":-6.32484,"station_name":"Cisauk","i_long":106.640411},{"i_lat":-6.329547,"is_transit":false,"time":4,"station_id":"CC","transit":false,"line":3,"station_name":"Cicayur","distance":2519,"i_long":106.617853},{"station_name":"Parung Panjang","station_id":"PRP","is_transit":false,"time":8,"i_lat":-6.3441410000000005,"i_long":106.568863,"line":6,"distance":5968,"transit":false},{"i_long":106.508482,"transit":false,"line":3,"distance":7025,"i_lat":-6.354349,"station_name":"Cilejit","is_transit":false,"time":9,"station_id":"CJT"},{"station_name":"Daru","station_id":"DAR","time":6,"distance":2675,"transit":false,"i_long":106.491338,"is_transit":false,"line":0,"i_lat":-6.338021},{"station_name":"Tenjo","transit":false,"is_transit":false,"line":6,"station_id":"TEJ","i_lat":-6.327251,"time":5,"distance":3902,"i_long":106.460812},{"i_lat":-6.328533,"i_long":106.425991,"transit":false,"station_id":"TGS","line":6,"distance":2974,"time":5,"is_transit":false,"station_name":"Tigaraksa"},{"i_long":106.411216,"station_id":"CKY","is_transit":false,"i_lat":-6.33561,"time":3,"distance":2651,"line":3,"station_name":"Cikoya","transit":false}],[{"time":0,"i_lat":-6.405256,"line":2,"station_name":"Depok","distance":0,"transit":false,"station_id":"DP","is_transit":false,"i_long":106.816926},{"is_transit":false,"distance":1584,"transit":false,"i_long":106.819451,"i_lat":-6.391065,"time":3,"line":2,"station_name":"Depokbaru","station_id":"DPB"},{"i_long":106.831114,"transit":false,"station_id":"POC","time":4,"station_name":"Pondok Cina","distance":2727,"i_lat":-6.369073,"line":2,"is_transit":false},{"station_name":"Univ. Indonesia","transit":false,"is_transit":false,"i_long":106.831474,"line":2,"time":2,"station_id":"UI","distance":1109,"i_lat":-6.360749},{"station_name":"Univ. Pancasila","transit":false,"i_long":106.834175,"i_lat":-6.339291,"is_transit":false,"time":3,"station_id":"UP","distance":2264,"line":2},{"i_long":106.832616,"is_transit":false,"station_id":"LNA","time":2,"distance":1029,"line":2,"transit":false,"station_name":"Lenteng Agung","i_lat":-6.330363},{"station_id":"TNT","distance":2671,"i_long":106.838896,"is_transit":false,"transit":false,"i_lat":-6.3080680000000005,"time":3,"line":2,"station_name":"Tanjung Barat"},{"station_id":"PSM","transit":false,"station_name":"Pasar Minggu","is_transit":false,"i_long":106.843999,"i_lat":-6.2842400000000005,"distance":2820,"line":2,"time":4},{"distance":2380,"is_transit":false,"station_name":"Pasar Minggu Baru","line":2,"i_long":106.851577,"transit":false,"time":2,"i_lat":-6.263214,"station_id":"PSMB"},{"line":2,"transit":false,"is_transit":false,"i_long":106.85449,"distance":824,"station_id":"DRN","time":2,"station_name":"Duren Kalibata","i_lat":-6.255332},{"is_transit":false,"transit":false,"i_lat":-6.242512,"time":3,"i_long":106.856607,"station_name":"Cawang","station_id":"CW","distance":1546,"line":2},{"transit":false,"line":2,"distance":1230,"station_name":"Tebet","station_id":"TEB","i_lat":-6.226659,"time":2,"is_transit":false,"i_long":106.857948},{"is_transit":true,"i_lat":-6.209883,"transit":true,"distance":2610,"line":2,"i_long":106.84912,"time":4,"station_id":"MRI","station_name":"Manggarai"},{"i_lat":-6.212485,"transit":false,"distance":1275,"station_id":"MTR","time":2,"is_transit":false,"i_long":106.858896,"line":1,"station_name":"Matraman"},{"line":1,"i_lat":-6.215091,"i_long":106.86807400000001,"transit":true,"distance":1377,"is_transit":true,"station_id":"JNG","time":8,"station_name":"Jatinegara"},{"station_name":"Pondok Jati","station_id":"POK","i_lat":-6.209188,"time":2,"i_long":106.861737,"is_transit":false,"distance":1236,"line":11,"transit":false},{"i_lat":-6.193792,"transit":false,"is_transit":false,"line":11,"distance":1829,"station_id":"KMT","station_name":"Kramat","time":2,"i_long":106.855437},{"station_name":"Gang Sentiong","i_long":106.850107,"distance":973,"i_lat":-6.185975,"transit":false,"station_id":"GST","is_transit":false,"line":11,"time":1},{"transit":false,"distance":1567,"is_transit":false,"time":8,"station_id":"PSE","i_long":106.84368,"line":11,"i_lat":-6.174784,"station_name":"Pasar Senen"},{"time":4,"station_id":"KMO","line":11,"station_name":"Kemayoran","i_long":106.839204,"transit":false,"i_lat":-6.161728,"distance":1436,"is_transit":false},{"line":11,"distance":1901,"is_transit":false,"time":5,"i_lat":-6.14505,"station_name":"Rajawali","i_long":106.836569,"transit":false,"station_id":"RJW"},{"station_id":"KPB","distance":1444,"is_transit":true,"i_lat":-6.132549,"line":4,"time":3,"i_long":106.826365,"transit":true,"station_name":"Kampung Bandan"},{"station_id":"AK","is_transit":false,"time":9,"distance":4102,"i_lat":-6.144674,"line":1,"i_long":106.79867,"transit":false,"station_name":"Angke"},{"station_name":"Duri","is_transit":false,"distance":1230,"station_id":"DU","i_lat":-6.155215,"i_long":106.800832,"transit":false,"time":4,"line":1},{"i_long":106.811091,"transit":true,"station_name":"Tanah Abang","station_id":"THB","is_transit":true,"time":8,"line":1,"i_lat":-6.185545,"distance":3632},{"time":6,"transit":false,"station_id":"PLM","is_transit":false,"distance":3191,"line":6,"i_lat":-6.207404,"station_name":"Palmerah","i_long":106.79689},{"transit":false,"station_id":"KBY","i_lat":-6.237242,"time":7,"i_long":106.780334,"is_transit":false,"line":6,"station_name":"Kebayoran","distance":3737},{"time":8,"distance":6218,"i_long":106.74273,"line":6,"station_id":"PDJ","transit":false,"i_lat":-6.276362,"station_name":"Pondokranji","is_transit":false},{"line":6,"distance":2179,"is_transit":false,"transit":false,"station_name":"Jurangmangu","time":3,"station_id":"JMU","i_lat":-6.288927,"i_long":106.728916},{"time":4,"line":6,"i_lat":-6.296963,"is_transit":false,"distance":1994,"station_id":"SDM","i_long":106.712277,"station_name":"Sudimara","transit":false},{"time":6,"i_lat":-6.314823,"transit":false,"station_id":"RU","is_transit":false,"line":6,"i_long":106.675475,"station_name":"Rawa Buntu","distance":4566},{"time":4,"i_long":106.66566,"transit":false,"distance":2413,"line":6,"i_lat":-6.319871,"station_id":"SRP","is_transit":false,"station_name":"Serpong"},{"transit":false,"distance":1784,"station_name":"Cisauk","i_lat":-6.32484,"is_transit":false,"line":3,"station_id":"CSK","i_long":106.640411,"time":4},{"distance":2519,"time":4,"i_long":106.617853,"station_name":"Cicayur","i_lat":-6.329547,"transit":false,"is_transit":false,"line":3,"station_id":"CC"},{"i_lat":-6.3441410000000005,"station_id":"PRP","is_transit":false,"line":6,"time":8,"station_name":"Parung Panjang","transit":false,"distance":5968,"i_long":106.568863},{"transit":false,"station_name":"Cilejit","i_long":106.508482,"line":3,"is_transit":false,"time":9,"distance":7025,"station_id":"CJT","i_lat":-6.354349},{"i_long":106.491338,"station_name":"Daru","is_transit":false,"distance":2675,"station_id":"DAR","i_lat":-6.338021,"line":0,"transit":false,"time":6},{"distance":3902,"transit":false,"line":6,"station_id":"TEJ","i_lat":-6.327251,"i_long":106.460812,"time":5,"station_name":"Tenjo","is_transit":false},{"i_lat":-6.328533,"i_long":106.425991,"station_id":"TGS","time":5,"distance":2974,"line":6,"station_name":"Tigaraksa","is_transit":false,"transit":false},{"distance":2651,"line":3,"time":3,"i_long":106.411216,"station_id":"CKY","transit":false,"station_name":"Cikoya","is_transit":false,"i_lat":-6.33561}]]}