{"data":[[{"station_name":"Depok","i_long":106.816926,"distance":0,"transit":false,"is_transit":false,"time":0,"line":2,"station_id":"DP","i_lat":-6.405256},{"line":2,"time":3,"transit":false,"distance":1584,"station_name":"Depokbaru","i_long":106.819451,"is_transit":false,"i_lat":-6.391065,"station_id":"DPB"},{"time":4,"station_name":"Pondok Cina","distance":2727,"is_transit":false,"station_id":"POC","i_lat":-6.369073,"transit":false,"i_long":106.831114,"line":2},{"transit":false,"i_lat":-6.360749,"i_long":106.831474,"station_name":"Univ. Indonesia","is_transit":false,"line":2,"time":2,"station_id":"UI","distance":1109},{"station_name":"Univ. Pancasila","i_lat":-6.339291,"is_transit":false,"station_id":"UP","time":3,"i_long":106.834175,"line":2,"transit":false,"distance":2264},{"distance":1029,"i_long":106.832616,"station_id":"LNA","line":2,"is_transit":false,"time":2,"transit":false,"i_lat":-6.330363,"station_name":"Lenteng Agung"},{"time":3,"i_long":106.838896,"distance":2671,"is_transit":false,"transit":false,"i_lat":-6.3080680000000005,"station_name":"Tanjung Barat","line":2,"station_id":"TNT"},{"time":4,"station_id":"PSM","distance":2820,"station_name":"Pasar Minggu","transit":false,"i_long":106.843999,"is_transit":false,"line":2,"i_lat":-6.2842400000000005},{"time":2,"i_lat":-6.263214,"station_id":"PSMB","i_long":106.851577,"line":2,"distance":2380,"station_name":"Pasar Minggu Baru","is_transit":false,"transit":false},{"transit":false,"is_transit":false,"station_name":"Duren Kalibata","i_long":106.85449,"station_id":"DRN","distance":824,"line":2,"i_lat":-6.255332,"time":2},{"station_id":"CW","distance":1546,"station_name":"Cawang","is_transit":false,"transit":false,"time":3,"i_lat":-6.242512,"line":2,"i_long":106.856607},{"station_name":"Tebet","i_long":106.857948,"distance":1230,"is_transit":false,"time":2,"line":2,"station_id":"TEB","i_lat":-6.226659,"transit":false},{"station_name":"Manggarai","i_long":106.84912,"i_lat":-6.209883,"is_transit":true,"distance":2610,"line":2,"transit":true,"time":4,"station_id":"MRI"},{"line":1,"station_id":"SUD","station_name":"Sudirman","i_long":106.822649,"time":4,"distance":3186,"is_transit":false,"transit":false,"i_lat":-6.202263},{"i_lat":-6.201433,"distance":280,"i_long":106.819881,"is_transit":false,"line":1,"station_name":"Sudirman Baru","transit":false,"station_id":"SUDB","time":1},{"i_long":106.816351,"line":1,"time":1,"transit":false,"i_lat":-6.20132,"station_id":"KAT","is_transit":false,"station_name":"Karet","distance":471},{"i_long":106.811091,"transit":true,"line":1,"is_transit":true,"i_lat":-6.185545,"distance":2029,"time":5,"station_name":"Tanah Abang","station_id":"THB"},{"is_transit":false,"time":6,"station_id":"PLM","distance":3191,"line":6,"transit":false,"i_long":106.79689,"i_lat":-6.207404,"station_name":"Palmerah"},{"i_long":106.780334,"line":6,"time":7,"station_id":"KBY","station_name":"Kebayoran","transit":false,"distance":3737,"i_lat":-6.237242,"is_transit":false},{"is_transit":false,"i_lat":-6.276362,"line":6,"time":8,"station_id":"PDJ","distance":6218,"i_long":106.74273,"transit":false,"station_name":"Pondokranji"},{"distance":2179,"station_id":"JMU","is_transit":false,"i_long":106.728916,"line":6,"transit":false,"time":3,"i_lat":-6.288927,"station_name":"Jurangmangu"},{"distance":1994,"i_long":106.712277,"line":6,"station_name":"Sudimara","time":4,"station_id":"SDM","is_transit":false,"i_lat":-6.296963,"transit":false},{"time":6,"distance":4566,"i_lat":-6.314823,"station_id":"RU","line":6,"station_name":"Rawa Buntu","transit":false,"i_long":106.675475,"is_transit":false},{"line":6,"distance":2413,"transit":false,"station_id":"SRP","i_lat":-6.319871,"i_long":106.66566,"time":4,"station_name":"Serpong","is_transit":false},{"station_id":"CSK","is_transit":false,"transit":false,"line":3,"station_name":"Cisauk","time":4,"distance":1784,"i_long":106.640411,"i_lat":-6.32484},{"transit":false,"is_transit":false,"distance":2519,"i_long":106.617853,"time":4,"i_lat":-6.329547,"station_name":"Cicayur","station_id":"CC","line":3},{"is_transit":false,"transit":false,"distance":5968,"station_id":"PRP","i_long":106.568863,"time":8,"line":6,"i_lat":-6.3441410000000005,"station_name":"Parung Panjang"},{"line":3,"transit":false,"i_long":106.508482,"time":9,"station_id":"CJT","i_lat":-6.354349,"is_transit":false,"distance":7025,"station_name":"Cilejit"},{"is_transit":false,"i_lat":-6.338021,"station_name":"Daru","station_id":"DAR","transit":false,"i_long":106.491338,"line":0,"distance":2675,"time":6},{"transit":false,"i_lat":-6.327251,"line":6,"station_name":"Tenjo","distance":3902,"i_long":106.460812,"station_id":"TEJ","time":5,"is_transit":false},{"distance":2974,"i_lat":-6.328533,"is_transit":false,"station_name":"Tigaraksa","station_id":"TGS","transit":false,"i_long":106.425991,"line":6,"time":5},{"station_name":"Cikoya","station_id":"CKY","transit":false,"distance":2651,"time":3,"i_lat":-6.33561,"line":3,"is_transit":false,"i_long":106.411216}],[{"distance":0,"i_lat":-6.405256,"line":2,"station_id":"DP","i_long":106.816926,"transit":false,"station_name":"Depok","is_transit":false,"time":0},{"i_long":106.819451,"station_id":"DPB","distance":1584,"station_name":"Depokbaru","i_lat":-6.391065,"line":2,"time":3,"is_transit":false,"transit":false},{"station_name":"Pondok Cina","is_transit":false,"transit":false,"time":4,"line":2,"station_id":"POC","i_long":106.831114,"distance":2727,"i_lat":-6.369073},{"time":2,"i_lat":-6.360749,"station_name":"Univ. Indonesia","distance":1109,"transit":false,"i_long":106.831474,"line":2,"is_transit":false,"station_id":"UI"},{"time":3,"station_id":"UP","transit":false,"distance":2264,"line":2,"station_name":"Univ. Pancasila","i_lat":-6.339291,"is_transit":false,"i_long":106.834175},{"i_long":106.832616,"distance":1029,"line":2,"time":2,"station_id":"LNA","station_name":"Lenteng Agung","is_transit":false,"transit":false,"i_lat":-6.330363},{"time":3,"station_name":"Tanjung Barat","station_id":"TNT","distance":2671,"transit":false,"i_lat":-6.3080680000000005,"line":2,"i_long":106.838896,"is_transit":false},{"time":4,"station_id":"PSM","i_lat":-6.2842400000000005,"distance":2820,"station_name":"Pasar Minggu","transit":false,"is_transit":false,"i_long":106.843999,"line":2},{"i_lat":-6.263214,"station_name":"Pasar Minggu Baru","transit":false,"station_id":"PSMB","is_transit":false,"time":2,"distance":2380,"i_long":106.851577,"line":2},{"time":2,"transit":false,"i_long":106.85449,"line":2,"is_transit":false,"distance":824,"i_lat":-6.255332,"station_id":"DRN","station_name":"Duren Kalibata"},{"line":2,"station_name":"Cawang","is_transit":false,"distance":1546,"i_lat":-6.242512,"time":3,"transit":false,"station_id":"CW","i_long":106.856607},{"time":2,"station_name":"Tebet","distance":1230,"i_long":106.857948,"is_transit":false,"transit":false,"station_id":"TEB","line":2,"i_lat":-6.226659},{"is_transit":false,"time":4,"station_name":"Manggarai","i_long":106.84912,"i_lat":-6.209883,"line":2,"transit":false,"distance":2610,"station_id":"MRI"},{"station_id":"CKI","station_name":"Cikini","time":4,"transit":false,"is_transit":false,"distance":1590,"i_long":106.840169,"line":2,"i_lat":-6.198556},{"is_transit":false,"i_long":106.832183,"transit":false,"station_id":"GDD","distance":1750,"i_lat":-6.186295,"station_name":"Gondangdia","line":2,"time":3},{"station_name":"Juanda","transit":false,"i_lat":-6.166716,"is_transit":false,"distance":2015,"time":4,"station_id":"JUA","i_long":106.828284,"line":2},{"distance":1149,"time":2,"station_name":"Sawah Besar","transit":false,"i_lat":-6.160725,"is_transit":false,"station_id":"SW","i_long":106.827103,"line":2},{"is_transit":false,"line":2,"transit":false,"i_long":106.82482,"station_name":"Manggabesar","time":2,"distance":906,"i_lat":-6.149769,"station_id":"MGB"},{"transit":false,"distance":1080,"i_lat":-6.141205,"is_transit":false,"line":2,"station_name":"Jayakarta","time":2,"i_long":106.820901,"station_id":"JAY"},{"i_lat":-6.137569,"station_id":"JAKK","is_transit":true,"i_long":106.812439,"time":4,"distance":1264,"station_name":"Jakarta Kota","transit":true,"line":2},{"time":3,"i_lat":-6.132549,"is_transit":true,"distance":1364,"station_id":"KPB","i_long":106.826365,"line":4,"station_name":"Kampung Bandan","transit":true},{"station_id":"AK","line":1,"i_long":106.79867,"transit":false,"is_transit":false,"i_lat":-6.144674,"station_name":"Angke","time":9,"distance":4102},{"i_lat":-6.155215,"station_name":"Duri","transit":false,"station_id":"DU","is_transit":false,"i_long":106.800832,"distance":1230,"line":1,"time":4},{"transit":true,"line":1,"is_transit":true,"station_name":"Tanah Abang","time":8,"distance":3632,"i_long":106.811091,"station_id":"THB","i_lat":-6.185545},{"line":6,"station_name":"Palmerah","transit":false,"distance":3191,"i_lat":-6.207404,"is_transit":false,"time":6,"station_id":"PLM","i_long":106.79689},{"is_transit":false,"station_id":"KBY","i_long":106.780334,"i_lat":-6.237242,"line":6,"time":7,"station_name":"Kebayoran","transit":false,"distance":3737},{"line":6,"is_transit":false,"transit":false,"i_long":106.74273,"time":8,"i_lat":-6.276362,"station_id":"PDJ","distance":6218,"station_name":"Pondokranji"},{"line":6,"transit":false,"distance":2179,"i_lat":-6.288927,"is_transit":false,"time":3,"station_id":"JMU","i_long":106.728916,"station_name":"Jurangmangu"},{"is_transit":false,"time":4,"station_id":"SDM","distance":1994,"line":6,"transit":false,"i_long":106.712277,"station_name":"Sudimara","i_lat":-6.296963},{"station_id":"RU","distance":4566,"station_name":"Rawa Buntu","time":6,"transit":false,"is_transit":false,"i_long":106.675475,"i_lat":-6.314823,"line":6},{"i_lat":-6.319871,"time":4,"station_name":"Serpong","is_transit":false,"transit":false,"distance":2413,"i_long":106.66566,"station_id":"SRP","line":6},{"transit":false,"i_long":106.640411,"distance":1784,"i_lat":-6.32484,"station_name":"Cisauk","time":4,"station_id":"CSK","is_transit":false,"line":3},{"i_long":106.617853,"transit":false,"station_id":"CC","station_name":"Cicayur","time":4,"line":3,"is_transit":false,"distance":2519,"i_lat":-6.329547},{"distance":5968,"station_id":"PRP","station_name":"Parung Panjang","time":8,"i_lat":-6.3441410000000005,"transit":false,"i_long":106.568863,"is_transit":false,"line":6},{"station_name":"Cilejit","is_transit":false,"station_id":"CJT","i_long":106.508482,"transit":false,"i_lat":-6.354349,"line":3,"distance":7025,"time":9},{"i_lat":-6.338021,"is_transit":false,"transit":false,"line":0,"station_name":"Daru","i_long":106.491338,"time":6,"distance":2675,"station_id":"DAR"},{"i_lat":-6.327251,"is_transit":false,"line":6,"distance":3902,"station_id":"TEJ","i_long":106.460812,"time":5,"station_name":"Tenjo","transit":false},{"line":6,"is_transit":false,"transit":false,"station_name":"Tigaraksa","station_id":"TGS","i_long":106.425991,"time":5,"distance":2974,"i_lat":-6.328533},{"distance":2651,"transit":false,"line":3,"station_id":"CKY","is_transit":false,"time":3,"station_name":"Cikoya","i_long":106.411216,"i_lat":-6.33561}],[{"i_lat":-6.405256,"i_long":106.816926,"transit":false,"line":2,"distance":0,"station_name":"Depok","is_transit":false,"time":0,"station_id":"DP"},{"i_long":106.819451,"i_lat":-6.391065,"is_transit":false,"distance":1584,"station_name":"Depokbaru","station_id":"DPB","line":2,"time":3,"transit":false},{"is_transit":false,"station_id":"POC","i_lat":-6.369073,"line":2,"distance":2727,"station_name":"Pondok Cina","transit":false,"time":4,"i_long":106.831114},{"transit":false,"time":2,"is_transit":false,"i_lat":-6.360749,"i_long":106.831474,"distance":1109,"station_id":"UI","line":2,"station_name":"Univ. Indonesia"},{"station_id":"UP","distance":2264,"is_transit":false,"i_lat":-6.339291,"station_name":"Univ. Pancasila","transit":false,"line":2,"i_long":106.834175,"time":3},{"distance":1029,"i_lat":-6.330363,"is_transit":false,"i_long":106.832616,"line":2,"station_id":"LNA","transit":false,"station_name":"Lenteng Agung","time":2},{"station_id":"TNT","station_name":"Tanjung Barat","is_transit":false,"distance":2671,"transit":false,"i_lat":-6.3080680000000005,"line":2,"i_long":106.838896,"time":3},{"is_transit":false,"time":4,"station_id":"PSM","i_lat":-6.2842400000000005,"station_name":"Pasar Minggu","transit":false,"distance":2820,"i_long":106.843999,"line":2},{"station_name":"Pasar Minggu Baru","time":2,"i_long":106.851577,"line":2,"is_transit":false,"distance":2380,"station_id":"PSMB","i_lat":-6.263214,"transit":false},{"i_long":106.85449,"station_id":"DRN","is_transit":false,"distance":824,"i_lat":-6.255332,"station_name":"Duren Kalibata","transit":false,"time":2,"line":2},{"line":2,"i_lat":-6.242512,"time":3,"station_name":"Cawang","is_transit":false,"station_id":"CW","transit":false,"distance":1546,"i_long":106.856607},{"i_lat":-6.226659,"station_name":"Tebet","station_id":"TEB","time":2,"transit":false,"distance":1230,"is_transit":false,"i_long":106.857948,"line":2},{"transit":true,"time":4,"distance":2610,"i_lat":-6.209883,"line":2,"i_long":106.84912,"station_name":"Manggarai","is_transit":true,"station_id":"MRI"},{"i_lat":-6.212485,"line":1,"time":2,"transit":false,"station_name":"Matraman","i_long":106.858896,"distance":1275,"is_transit":false,"station_id":"MTR"},{"station_name":"Jatinegara","time":8,"transit":true,"is_transit":true,"i_lat":-6.215091,"line":1,"distance":1377,"i_long":106.86807400000001,"station_id":"JNG"},{"time":2,"transit":false,"station_name":"Pondok Jati","is_transit":false,"distance":1236,"line":11,"station_id":"POK","i_long":106.861737,"i_lat":-6.209188},{"line":11,"distance":1829,"time":2,"transit":false,"station_id":"KMT","is_transit":false,"i_lat":-6.193792,"i_long":106.855437,"station_name":"Kramat"},{"time":1,"i_lat":-6.185975,"is_transit":false,"station_name":"Gang Sentiong","i_long":106.850107,"line":11,"transit":false,"distance":973,"station_id":"GST"},{"line":11,"station_id":"PSE","distance":1567,"station_name":"Pasar Senen","i_long":106.84368,"i_lat":-6.174784,"is_transit":false,"time":8,"transit":false},{"i_lat":-6.161728,"transit":false,"time":4,"line":11,"is_transit":false,"distance":1436,"station_name":"Kemayoran","station_id":"KMO","i_long":106.839204},{"i_lat":-6.14505,"is_transit":false,"distance":1901,"station_name":"Rajawali","line":11,"i_long":106.836569,"time":5,"transit":false,"station_id":"RJW"},{"i_long":106.826365,"i_lat":-6.132549,"is_transit":true,"station_id":"KPB","station_name":"Kampung Bandan","time":3,"distance":1444,"line":4,"transit":true},{"i_long":106.79867,"transit":false,"station_id":"AK","line":1,"i_lat":-6.144674,"station_name":"Angke","distance":4102,"time":9,"is_transit":false},{"distance":1230,"station_name":"Duri","is_transit":false,"line":1,"i_long":106.800832,"time":4,"transit":false,"station_id":"DU","i_lat":-6.155215},{"time":8,"station_id":"THB","i_long":106.811091,"line":1,"transit":true,"i_lat":-6.185545,"station_name":"Tanah Abang","distance":3632,"is_transit":true},{"station_id":"PLM","i_long":106.79689,"line":6,"time":6,"i_lat":-6.207404,"station_name":"Palmerah","is_transit":false,"transit":false,"distance":3191},{"i_long":106.780334,"transit":false,"station_id":"KBY","line":6,"station_name":"Kebayoran","is_transit":false,"i_lat":-6.237242,"time":7,"distance":3737},{"station_name":"Pondokranji","i_long":106.74273,"line":6,"time":8,"station_id":"PDJ","i_lat":-6.276362,"transit":false,"is_transit":false,"distance":6218},{"is_transit":false,"distance":2179,"station_id":"JMU","i_lat":-6.288927,"i_long":106.728916,"time":3,"line":6,"transit":false,"station_name":"Jurangmangu"},{"i_lat":-6.296963,"line":6,"transit":false,"station_name":"Sudimara","distance":1994,"i_long":106.712277,"is_transit":false,"time":4,"station_id":"SDM"},{"time":6,"station_name":"Rawa Buntu","i_long":106.675475,"distance":4566,"station_id":"RU","i_lat":-6.314823,"line":6,"is_transit":false,"transit":false},{"i_lat":-6.319871,"station_name":"Serpong","station_id":"SRP","i_long":106.66566,"is_transit":false,"transit":false,"line":6,"time":4,"distance":2413},{"transit":false,"station_name":"Cisauk","is_transit":false,"i_lat":-6.32484,"line":3,"station_id":"CSK","i_long":106.640411,"distance":1784,"time":4},{"station_name":"Cicayur","transit":false,"line":3,"time":4,"distance":2519,"is_transit":false,"station_id":"CC","i_lat":-6.329547,"i_long":106.617853},{"transit":false,"distance":5968,"is_transit":false,"i_lat":-6.3441410000000005,"station_id":"PRP","i_long":106.568863,"station_name":"Parung Panjang","time":8,"line":6},{"station_name":"Cilejit","i_long":106.508482,"station_id":"CJT","distance":7025,"i_lat":-6.354349,"transit":false,"time":9,"line":3,"is_transit":false},{"station_id":"DAR","i_lat":-6.338021,"line":0,"transit":false,"distance":2675,"i_long":106.491338,"station_name":"Daru","time":6,"is_transit":false},{"station_id":"TEJ","distance":3902,"i_long":106.460812,"line":6,"transit":false,"station_name":"Tenjo","i_lat":-6.327251,"is_transit":false,"time":5},{"line":6,"i_long":106.425991,"station_name":"Tigaraksa","i_lat":-6.328533,"time":5,"is_transit":false,"transit":false,"distance":2974,"station_id":"TGS"},{"line":3,"transit":false,"i_long":106.411216,"time":3,"i_lat":-6.33561,"station_name":"Cikoya","is_transit":false,"station_id":"CKY","distance":2651}]]}