{"data":[[{"station_name":"Depok","station_id":"DP","i_long":106.816926,"is_transit":false,"line":2,"transit":false,"i_lat":-6.405256,"distance":0,"time":0},{"line":2,"distance":1584,"time":3,"station_id":"DPB","transit":false,"i_long":106.819451,"is_transit":false,"station_name":"Depokbaru","i_lat":-6.391065},{"transit":false,"i_lat":-6.369073,"station_name":"Pondok Cina","time":4,"distance":2727,"station_id":"POC","is_transit":false,"line":2,"i_long":106.831114},{"time":2,"station_id":"UI","station_name":"Univ. Indonesia","i_long":106.831474,"distance":1109,"transit":false,"is_transit":false,"i_lat":-6.360749,"line":2},{"transit":false,"line":2,"station_id":"UP","time":3,"distance":2264,"is_transit":false,"i_long":106.834175,"station_name":"Univ. Pancasila","i_lat":-6.339291},{"transit":false,"is_transit":false,"line":2,"station_name":"Lenteng Agung","distance":1029,"i_lat":-6.330363,"i_long":106.832616,"time":2,"station_id":"LNA"},{"station_id":"TNT","is_transit":false,"i_lat":-6.3080680000000005,"station_name":"Tanjung Barat","time":3,"transit":false,"i_long":106.838896,"distance":2671,"line":2},{"line":2,"station_id":"PSM","time":4,"is_transit":false,"i_lat":-6.2842400000000005,"distance":2820,"station_name":"Pasar Minggu","transit":false,"i_long":106.843999},{"i_long":106.851577,"time":2,"distance":2380,"i_lat":-6.263214,"transit":false,"line":2,"station_name":"Pasar Minggu Baru","is_transit":false,"station_id":"PSMB"},{"line":2,"time":2,"is_transit":false,"i_long":106.85449,"distance":824,"station_name":"Duren Kalibata","transit":false,"station_id":"DRN","i_lat":-6.255332},{"transit":false,"i_long":106.856607,"distance":1546,"is_transit":false,"time":3,"station_name":"Cawang","i_lat":-6.242512,"line":2,"station_id":"CW"},{"is_transit":false,"transit":false,"i_long":106.857948,"time":2,"station_id":"TEB","i_lat":-6.226659,"distance":1230,"station_name":"Tebet","line":2},{"station_id":"MRI","i_long":106.84912,"line":2,"distance":2610,"i_lat":-6.209883,"time":4,"transit":true,"station_name":"Manggarai","is_transit":true},{"station_id":"SUD","transit":false,"distance":3186,"station_name":"Sudirman","line":1,"i_lat":-6.202263,"time":4,"i_long":106.822649,"is_transit":false},{"transit":false,"station_name":"Sudirman Baru","is_transit":false,"i_lat":-6.201433,"i_long":106.819881,"time":1,"distance":280,"station_id":"SUDB","line":1},{"distance":471,"i_long":106.816351,"station_name":"Karet","line":1,"time":1,"is_transit":false,"transit":false,"i_lat":-6.20132,"station_id":"KAT"},{"transit":true,"i_long":106.811091,"line":1,"station_name":"Tanah Abang","i_lat":-6.185545,"station_id":"THB","distance":2029,"time":5,"is_transit":true},{"station_id":"PLM","transit":false,"time":6,"distance":3191,"station_name":"Palmerah","is_transit":false,"i_lat":-6.207404,"i_long":106.79689,"line":6},{"station_id":"KBY","i_lat":-6.237242,"i_long":106.780334,"distance":3737,"transit":false,"line":6,"station_name":"Kebayoran","time":7,"is_transit":false},{"time":8,"i_lat":-6.276362,"i_long":106.74273,"distance":6218,"station_id":"PDJ","is_transit":false,"line":6,"transit":false,"station_name":"Pondokranji"},{"line":6,"i_lat":-6.288927,"time":3,"distance":2179,"i_long":106.728916,"station_id":"JMU","station_name":"Jurangmangu","transit":false,"is_transit":false},{"transit":false,"station_id":"SDM","time":4,"is_transit":false,"station_name":"Sudimara","distance":1994,"line":6,"i_long":106.712277,"i_lat":-6.296963},{"i_long":106.675475,"i_lat":-6.314823,"line":6,"distance":4566,"station_id":"RU","station_name":"Rawa Buntu","time":6,"transit":false,"is_transit":false},{"line":6,"i_long":106.66566,"transit":false,"station_id":"SRP","station_name":"Serpong","time":4,"is_transit":false,"i_lat":-6.319871,"distance":2413},{"i_lat":-6.32484,"i_long":106.640411,"station_id":"CSK","distance":1784,"transit":false,"is_transit":false,"station_name":"Cisauk","time":4,"line":3},{"line":3,"transit":false,"distance":2519,"station_name":"Cicayur","i_lat":-6.329547,"time":4,"station_id":"CC","i_long":106.617853,"is_transit":false},{"i_long":106.568863,"station_name":"Parung Panjang","i_lat":-6.3441410000000005,"time":8,"transit":false,"station_id":"PRP","distance":5968,"is_transit":false,"line":6},{"transit":false,"station_name":"Cilejit","i_long":106.508482,"is_transit":false,"i_lat":-6.354349,"line":3,"time":9,"distance":7025,"station_id":"CJT"},{"station_id":"DAR","i_lat":-6.338021,"time":6,"line":0,"distance":2675,"is_transit":false,"i_long":106.491338,"station_name":"Daru","transit":false},{"transit":false,"is_transit":false,"station_name":"Tenjo","distance":3902,"line":6,"i_lat":-6.327251,"station_id":"TEJ","i_long":106.460812,"time":5},{"transit":false,"time":5,"distance":2974,"station_id":"TGS","is_transit":false,"i_long":106.425991,"station_name":"Tigaraksa","i_lat":-6.328533,"line":6},{"time":3,"station_name":"Cikoya","i_long":106.411216,"i_lat":-6.33561,"transit":false,"station_id":"CKY","is_transit":false,"distance":2651,"line":3},{"is_transit":false,"i_lat":-6.332307,"transit":false,"station_name":"Maja","time":4,"i_long":106.394373,"line":6,"distance":1853,"station_id":"MJ"},{"station_id":"CTR","transit":false,"station_name":"Citeras","line":3,"time":10,"distance":7293,"i_long":106.332092,"i_lat":-6.334892,"is_transit":false}],[{"distance":0,"transit":false,"station_name":"Depok","line":2,"i_lat":-6.405256,"station_id":"DP","is_transit":false,"i_long":106.816926,"time":0},{"distance":1584,"is_transit":false,"time":3,"line":2,"station_name":"Depokbaru","transit":false,"i_lat":-6.391065,"i_long":106.819451,"station_id":"DPB"},{"i_lat":-6.369073,"transit":false,"i_long":106.831114,"is_transit":false,"distance":2727,"station_id":"POC","line":2,"time":4,"station_name":"Pondok Cina"},{"i_lat":-6.360749,"transit":false,"is_transit":false,"i_long":106.831474,"time":2,"distance":1109,"station_id":"UI","line":2,"station_name":"Univ. Indonesia"},{"station_name":"Univ. Pancasila","distance":2264,"i_lat":-6.339291,"i_long":106.834175,"station_id":"UP","transit":false,"is_transit":false,"line":2,"time":3},{"time":2,"station_name":"Lenteng Agung","is_transit":false,"line":2,"distance":1029,"station_id":"LNA","i_lat":-6.330363,"i_long":106.832616,"transit":false},{"i_lat":-6.3080680000000005,"distance":2671,"is_transit":false,"line":2,"i_long":106.838896,"station_id":"TNT","time":3,"transit":false,"station_name":"Tanjung Barat"},{"i_lat":-6.2842400000000005,"time":4,"is_transit":false,"transit":false,"line":2,"distance":2820,"station_id":"PSM","station_name":"Pasar Minggu","i_long":106.843999},{"line":2,"time":2,"i_lat":-6.263214,"is_transit":false,"distance":2380,"station_name":"Pasar Minggu Baru","station_id":"PSMB","transit":false,"i_long":106.851577},{"i_long":106.85449,"line":2,"transit":false,"time":2,"station_name":"Duren Kalibata","distance":824,"station_id":"DRN","i_lat":-6.255332,"is_transit":false},{"transit":false,"distance":1546,"station_id":"CW","line":2,"i_long":106.856607,"station_name":"Cawang","is_transit":false,"time":3,"i_lat":-6.242512},{"station_id":"TEB","i_lat":-6.226659,"line":2,"is_transit":false,"i_long":106.857948,"transit":false,"station_name":"Tebet","distance":1230,"time":2},{"line":2,"distance":2610,"transit":false,"i_lat":-6.209883,"is_transit":false,"station_id":"MRI","station_name":"Manggarai","i_long":106.84912,"time":4},{"time":4,"i_lat":-6.198556,"line":2,"transit":false,"i_long":106.840169,"distance":1590,"station_id":"CKI","is_transit":false,"station_name":"Cikini"},{"is_transit":false,"i_long":106.832183,"line":2,"distance":1750,"station_name":"Gondangdia","time":3,"i_lat":-6.186295,"transit":false,"station_id":"GDD"},{"distance":2015,"i_lat":-6.166716,"i_long":106.828284,"station_id":"JUA","time":4,"is_transit":false,"transit":false,"line":2,"station_name":"Juanda"},{"is_transit":false,"i_lat":-6.160725,"distance":1149,"time":2,"station_id":"SW","station_name":"Sawah Besar","transit":false,"i_long":106.827103,"line":2},{"distance":906,"transit":false,"station_id":"MGB","line":2,"station_name":"Manggabesar","i_long":106.82482,"is_transit":false,"time":2,"i_lat":-6.149769},{"line":2,"transit":false,"station_id":"JAY","time":2,"i_lat":-6.141205,"i_long":106.820901,"station_name":"Jayakarta","is_transit":false,"distance":1080},{"transit":true,"time":4,"is_transit":true,"i_lat":-6.137569,"station_name":"Jakarta Kota","line":2,"i_long":106.812439,"distance":1264,"station_id":"JAKK"},{"transit":true,"time":3,"is_transit":true,"i_lat":-6.132549,"i_long":106.826365,"line":4,"distance":1364,"station_id":"KPB","station_name":"Kampung Bandan"},{"station_name":"Angke","i_long":106.79867,"time":9,"transit":false,"station_id":"AK","i_lat":-6.144674,"is_transit":false,"line":1,"distance":4102},{"station_name":"Duri","i_lat":-6.155215,"distance":1230,"is_transit":false,"transit":false,"line":1,"time":4,"i_long":106.800832,"station_id":"DU"},{"distance":3632,"i_lat":-6.185545,"time":8,"station_id":"THB","line":1,"transit":true,"is_transit":true,"i_long":106.811091,"station_name":"Tanah Abang"},{"distance":3191,"i_long":106.79689,"line":6,"station_id":"PLM","time":6,"station_name":"Palmerah","is_transit":false,"i_lat":-6.207404,"transit":false},{"distance":3737,"i_long":106.780334,"line":6,"time":7,"transit":false,"is_transit":false,"station_id":"KBY","station_name":"Kebayoran","i_lat":-6.237242},{"station_id":"PDJ","time":8,"distance":6218,"station_name":"Pondokranji","i_long":106.74273,"i_lat":-6.276362,"transit":false,"is_transit":false,"line":6},{"i_long":106.728916,"line":6,"is_transit":false,"station_name":"Jurangmangu","i_lat":-6.288927,"time":3,"distance":2179,"transit":false,"station_id":"JMU"},{"i_lat":-6.296963,"is_transit":false,"i_long":106.712277,"line":6,"station_id":"SDM","distance":1994,"transit":false,"station_name":"Sudimara","time":4},{"line":6,"distance":4566,"is_transit":false,"transit":false,"station_name":"Rawa Buntu","time":6,"station_id":"RU","i_long":106.675475,"i_lat":-6.314823},{"station_name":"Serpong","is_transit":false,"station_id":"SRP","time":4,"i_lat":-6.319871,"distance":2413,"i_long":106.66566,"transit":false,"line":6},{"station_id":"CSK","i_lat":-6.32484,"time":4,"i_long":106.640411,"distance":1784,"station_name":"Cisauk","transit":false,"line":3,"is_transit":false},{"station_name":"Cicayur","distance":2519,"transit":false,"is_transit":false,"i_lat":-6.329547,"station_id":"CC","time":4,"line":3,"i_long":106.617853},{"i_long":106.568863,"distance":5968,"transit":false,"i_lat":-6.3441410000000005,"line":6,"time":8,"is_transit":false,"station_name":"Parung Panjang","station_id":"PRP"},{"station_name":"Cilejit","line":3,"distance":7025,"i_long":106.508482,"i_lat":-6.354349,"station_id":"CJT","time":9,"is_transit":false,"transit":false},{"station_id":"DAR","line":0,"time":6,"is_transit":false,"distance":2675,"transit":false,"station_name":"Daru","i_long":106.491338,"i_lat":-6.338021},{"i_long":106.460812,"distance":3902,"i_lat":-6.327251,"transit":false,"is_transit":false,"line":6,"station_id":"TEJ","station_name":"Tenjo","time":5},{"distance":2974,"station_name":"Tigaraksa","is_transit":false,"i_lat":-6.328533,"transit":false,"i_long":106.425991,"line":6,"station_id":"TGS","time":5},{"station_name":"Cikoya","transit":false,"i_lat":-6.33561,"distance":2651,"line":3,"time":3,"is_transit":false,"i_long":106.411216,"station_id":"CKY"},{"time":4,"i_long":106.394373,"station_name":"Maja","distance":1853,"transit":false,"station_id":"MJ","line":6,"is_transit":false,"i_lat":-6.332307},{"distance":7293,"station_id":"CTR","line":3,"i_lat":-6.334892,"time":10,"i_long":106.332092,"station_name":"Citeras","is_transit":false,"transit":false}],[{"station_name":"Depok","i_long":106.816926,"is_transit":false,"line":2,"station_id":"DP","i_lat":-6.405256,"time":0,"distance":0,"transit":false},{"is_transit":false,"time":3,"i_lat":-6.391065,"distance":1584,"line":2,"station_id":"DPB","transit":false,"station_name":"Depokbaru","i_long":106.819451},{"station_name":"Pondok Cina","transit":false,"time":4,"is_transit":false,"i_long":106.831114,"distance":2727,"line":2,"station_id":"POC","i_lat":-6.369073},{"is_transit":false,"station_name":"Univ. Indonesia","line":2,"distance":1109,"station_id":"UI","transit":false,"i_lat":-6.360749,"time":2,"i_long":106.831474},{"is_transit":false,"i_lat":-6.339291,"i_long":106.834175,"time":3,"distance":2264,"transit":false,"station_name":"Univ. Pancasila","station_id":"UP","line":2},{"is_transit":false,"transit":false,"i_long":106.832616,"i_lat":-6.330363,"distance":1029,"line":2,"station_name":"Lenteng Agung","time":2,"station_id":"LNA"},{"is_transit":false,"station_id":"TNT","time":3,"transit":false,"station_name":"Tanjung Barat","i_long":106.838896,"line":2,"i_lat":-6.3080680000000005,"distance":2671},{"is_transit":false,"distance":2820,"line":2,"i_lat":-6.2842400000000005,"i_long":106.843999,"time":4,"station_id":"PSM","transit":false,"station_name":"Pasar Minggu"},{"distance":2380,"is_transit":false,"time":2,"transit":false,"i_lat":-6.263214,"i_long":106.851577,"station_name":"Pasar Minggu Baru","line":2,"station_id":"PSMB"},{"transit":false,"distance":824,"station_name":"Duren Kalibata","i_long":106.85449,"i_lat":-6.255332,"line":2,"is_transit":false,"station_id":"DRN","time":2},{"time":3,"is_transit":false,"station_id":"CW","i_lat":-6.242512,"i_long":106.856607,"distance":1546,"line":2,"station_name":"Cawang","transit":false},{"is_transit":false,"i_lat":-6.226659,"time":2,"distance":1230,"station_name":"Tebet","transit":false,"station_id":"TEB","line":2,"i_long":106.857948},{"transit":true,"distance":2610,"station_id":"MRI","station_name":"Manggarai","i_long":106.84912,"is_transit":true,"line":2,"i_lat":-6.209883,"time":4},{"i_long":106.858896,"station_name":"Matraman","i_lat":-6.212485,"line":1,"distance":1275,"station_id":"MTR","time":2,"transit":false,"is_transit":false},{"station_id":"JNG","transit":true,"time":8,"i_lat":-6.215091,"station_name":"Jatinegara","i_long":106.86807400000001,"distance":1377,"is_transit":true,"line":1},{"distance":1236,"station_name":"Pondok Jati","line":11,"time":2,"transit":false,"is_transit":false,"i_lat":-6.209188,"i_long":106.861737,"station_id":"POK"},{"i_long":106.855437,"time":2,"distance":1829,"line":11,"is_transit":false,"transit":false,"station_id":"KMT","station_name":"Kramat","i_lat":-6.193792},{"i_long":106.850107,"i_lat":-6.185975,"time":1,"distance":973,"station_name":"Gang Sentiong","transit":false,"is_transit":false,"station_id":"GST","line":11},{"transit":false,"station_id":"PSE","station_name":"Pasar Senen","i_long":106.84368,"distance":1567,"time":8,"is_transit":false,"i_lat":-6.174784,"line":11},{"is_transit":false,"station_id":"KMO","time":4,"distance":1436,"station_name":"Kemayoran","i_lat":-6.161728,"i_long":106.839204,"transit":false,"line":11},{"transit":false,"i_lat":-6.14505,"i_long":106.836569,"is_transit":false,"line":11,"station_id":"RJW","time":5,"station_name":"Rajawali","distance":1901},{"i_lat":-6.132549,"distance":1444,"station_name":"Kampung Bandan","i_long":106.826365,"time":3,"line":4,"station_id":"KPB","transit":true,"is_transit":true},{"i_long":106.79867,"distance":4102,"station_id":"AK","line":1,"transit":false,"i_lat":-6.144674,"is_transit":false,"time":9,"station_name":"Angke"},{"distance":1230,"station_id":"DU","transit":false,"i_lat":-6.155215,"station_name":"Duri","i_long":106.800832,"line":1,"is_transit":false,"time":4},{"distance":3632,"line":1,"station_id":"THB","time":8,"is_transit":true,"i_long":106.811091,"station_name":"Tanah Abang","i_lat":-6.185545,"transit":true},{"i_lat":-6.207404,"distance":3191,"is_transit":false,"line":6,"transit":false,"i_long":106.79689,"station_name":"Palmerah","station_id":"PLM","time":6},{"station_id":"KBY","transit":false,"station_name":"Kebayoran","distance":3737,"is_transit":false,"i_long":106.780334,"time":7,"line":6,"i_lat":-6.237242},{"i_long":106.74273,"transit":false,"station_id":"PDJ","time":8,"i_lat":-6.276362,"distance":6218,"station_name":"Pondokranji","is_transit":false,"line":6},{"station_id":"JMU","is_transit":false,"i_long":106.728916,"time":3,"station_name":"Jurangmangu","transit":false,"i_lat":-6.288927,"distance":2179,"line":6},{"i_long":106.712277,"distance":1994,"station_name":"Sudimara","station_id":"SDM","transit":false,"i_lat":-6.296963,"line":6,"time":4,"is_transit":false},{"i_long":106.675475,"station_id":"RU","line":6,"station_name":"Rawa Buntu","transit":false,"i_lat":-6.314823,"is_transit":false,"time":6,"distance":4566},{"i_long":106.66566,"transit":false,"time":4,"station_id":"SRP","distance":2413,"station_name":"Serpong","i_lat":-6.319871,"line":6,"is_transit":false},{"i_lat":-6.32484,"transit":false,"station_id":"CSK","i_long":106.640411,"station_name":"Cisauk","is_transit":false,"time":4,"distance":1784,"line":3},{"time":4,"transit":false,"distance":2519,"i_lat":-6.329547,"i_long":106.617853,"line":3,"is_transit":false,"station_name":"Cicayur","station_id":"CC"},{"time":8,"distance":5968,"line":6,"station_name":"Parung Panjang","is_transit":false,"transit":false,"station_id":"PRP","i_long":106.568863,"i_lat":-6.3441410000000005},{"i_long":106.508482,"time":9,"station_name":"Cilejit","distance":7025,"is_transit":false,"i_lat":-6.354349,"transit":false,"station_id":"CJT","line":3},{"i_long":106.491338,"is_transit":false,"i_lat":-6.338021,"station_id":"DAR","line":0,"time":6,"transit":false,"distance":2675,"station_name":"Daru"},{"i_lat":-6.327251,"transit":false,"i_long":106.460812,"station_id":"TEJ","distance":3902,"station_name":"Tenjo","line":6,"time":5,"is_transit":false},{"station_id":"TGS","is_transit":false,"i_lat":-6.328533,"line":6,"time":5,"distance":2974,"transit":false,"i_long":106.425991,"station_name":"Tigaraksa"},{"is_transit":false,"station_name":"Cikoya","distance":2651,"i_lat":-6.33561,"time":3,"station_id":"CKY","transit":false,"i_long":106.411216,"line":3},{"time":4,"station_id":"MJ","station_name":"Maja","is_transit":false,"i_long":106.394373,"distance":1853,"i_lat":-6.332307,"line":6,"transit":false},{"station_id":"CTR","is_transit":false,"time":10,"i_long":106.332092,"station_name":"Citeras","i_lat":-6.334892,"line":3,"distance":7293,"transit":false}]]}