{"data":[[{"station_id":"DP","station_name":"Depok","transit":false,"distance":0,"time":0,"i_long":106.816926,"is_transit":false,"i_lat":-6.405256,"line":2},{"transit":false,"is_transit":false,"i_long":106.819451,"station_name":"Depokbaru","time":3,"station_id":"DPB","line":2,"distance":1584,"i_lat":-6.391065},{"transit":false,"i_long":106.831114,"time":4,"line":2,"i_lat":-6.369073,"station_id":"POC","station_name":"Pondok Cina","distance":2727,"is_transit":false},{"transit":false,"distance":1109,"i_long":106.831474,"time":2,"station_id":"UI","i_lat":-6.360749,"is_transit":false,"station_name":"Univ. Indonesia","line":2},{"line":2,"is_transit":false,"transit":false,"i_long":106.834175,"distance":2264,"station_name":"Univ. Pancasila","time":3,"i_lat":-6.339291,"station_id":"UP"},{"is_transit":false,"time":2,"line":2,"station_id":"LNA","station_name":"Lenteng Agung","distance":1029,"i_long":106.832616,"i_lat":-6.330363,"transit":false},{"line":2,"time":3,"is_transit":false,"distance":2671,"transit":false,"station_id":"TNT","i_lat":-6.3080680000000005,"i_long":106.838896,"station_name":"Tanjung Barat"},{"is_transit":false,"line":2,"transit":false,"time":4,"distance":2820,"i_lat":-6.2842400000000005,"station_name":"Pasar Minggu","station_id":"PSM","i_long":106.843999},{"is_transit":false,"distance":2380,"time":2,"i_long":106.851577,"line":2,"station_name":"Pasar Minggu Baru","station_id":"PSMB","transit":false,"i_lat":-6.263214},{"station_name":"Duren Kalibata","is_transit":false,"station_id":"DRN","i_lat":-6.255332,"transit":false,"i_long":106.85449,"distance":824,"line":2,"time":2},{"time":3,"distance":1546,"is_transit":false,"transit":false,"i_lat":-6.242512,"i_long":106.856607,"line":2,"station_id":"CW","station_name":"Cawang"},{"station_name":"Tebet","distance":1230,"i_long":106.857948,"line":2,"station_id":"TEB","transit":false,"time":2,"is_transit":false,"i_lat":-6.226659},{"distance":2610,"transit":true,"time":4,"i_long":106.84912,"station_name":"Manggarai","line":2,"i_lat":-6.209883,"is_transit":true,"station_id":"MRI"},{"time":2,"i_lat":-6.212485,"transit":false,"line":1,"distance":1275,"station_name":"Matraman","i_long":106.858896,"station_id":"MTR","is_transit":false},{"station_id":"JNG","i_lat":-6.215091,"distance":1377,"time":8,"is_transit":false,"station_name":"Jatinegara","i_long":106.86807400000001,"line":1,"transit":false},{"line":1,"distance":3395,"i_lat":-6.2135,"is_transit":false,"i_long":106.899548,"time":3,"station_name":"Klender","transit":false,"station_id":"KLD"},{"line":1,"station_name":"Buaran","is_transit":false,"station_id":"BUA","transit":false,"distance":3100,"i_long":106.922662,"i_lat":-6.215568,"time":2},{"station_id":"KLDB","line":1,"time":1,"transit":false,"is_transit":false,"distance":1305,"i_long":106.939679,"i_lat":-6.217455,"station_name":"Klenderbaru"},{"line":1,"is_transit":false,"i_long":106.951283,"transit":false,"i_lat":-6.219053,"station_name":"Cakung","distance":1385,"station_id":"CUK","time":8},{"time":3,"i_lat":-6.224515,"station_name":"Kranji","station_id":"KRI","is_transit":false,"i_long":106.977657,"line":1,"distance":3097,"transit":false},{"transit":false,"time":4,"i_lat":-6.236616,"distance":2520,"station_id":"BKS","i_long":106.997013,"line":1,"is_transit":false,"station_name":"Bekasi"},{"distance":2368,"i_lat":-6.248029,"station_name":"Bekasi Timur","line":1,"i_long":107.016735,"transit":false,"is_transit":false,"time":2,"station_id":"BKST"},{"i_lat":-6.258864,"distance":4460,"transit":false,"station_id":"TB","i_long":107.055722,"line":1,"is_transit":false,"station_name":"Tambun","time":7},{"transit":false,"distance":3420,"time":3,"line":1,"i_long":107.083084,"station_id":"CIT","i_lat":-6.261877,"is_transit":false,"station_name":"Cibitung"}],[{"distance":0,"i_lat":-6.405256,"station_id":"DP","transit":false,"time":0,"line":2,"is_transit":false,"i_long":106.816926,"station_name":"Depok"},{"time":3,"transit":false,"station_id":"DPB","station_name":"Depokbaru","is_transit":false,"i_lat":-6.391065,"i_long":106.819451,"distance":1584,"line":2},{"station_name":"Pondok Cina","i_long":106.831114,"station_id":"POC","is_transit":false,"i_lat":-6.369073,"distance":2727,"line":2,"time":4,"transit":false},{"is_transit":false,"station_name":"Univ. Indonesia","distance":1109,"i_lat":-6.360749,"transit":false,"i_long":106.831474,"time":2,"line":2,"station_id":"UI"},{"distance":2264,"transit":false,"line":2,"station_id":"UP","station_name":"Univ. Pancasila","is_transit":false,"i_lat":-6.339291,"time":3,"i_long":106.834175},{"i_lat":-6.330363,"i_long":106.832616,"station_name":"Lenteng Agung","line":2,"transit":false,"time":2,"is_transit":false,"distance":1029,"station_id":"LNA"},{"time":3,"station_id":"TNT","is_transit":false,"transit":false,"i_long":106.838896,"i_lat":-6.3080680000000005,"distance":2671,"line":2,"station_name":"Tanjung Barat"},{"is_transit":false,"station_name":"Pasar Minggu","line":2,"time":4,"distance":2820,"i_long":106.843999,"transit":false,"station_id":"PSM","i_lat":-6.2842400000000005},{"i_long":106.851577,"station_name":"Pasar Minggu Baru","time":2,"station_id":"PSMB","i_lat":-6.263214,"line":2,"is_transit":false,"transit":false,"distance":2380},{"station_name":"Duren Kalibata","time":2,"distance":824,"i_lat":-6.255332,"is_transit":false,"transit":false,"line":2,"station_id":"DRN","i_long":106.85449},{"i_long":106.856607,"is_transit":false,"i_lat":-6.242512,"transit":false,"line":2,"distance":1546,"station_name":"Cawang","station_id":"CW","time":3},{"station_id":"TEB","i_long":106.857948,"distance":1230,"i_lat":-6.226659,"station_name":"Tebet","is_transit":false,"transit":false,"line":2,"time":2},{"is_transit":true,"line":2,"distance":2610,"i_long":106.84912,"transit":true,"i_lat":-6.209883,"station_name":"Manggarai","time":4,"station_id":"MRI"},{"is_transit":false,"i_long":106.822649,"time":4,"line":1,"distance":3186,"i_lat":-6.202263,"station_name":"Sudirman","transit":false,"station_id":"SUD"},{"line":1,"i_lat":-6.201433,"transit":false,"is_transit":false,"time":1,"distance":280,"i_long":106.819881,"station_id":"SUDB","station_name":"Sudirman Baru"},{"station_name":"Karet","i_long":106.816351,"is_transit":false,"line":1,"time":1,"distance":471,"transit":false,"i_lat":-6.20132,"station_id":"KAT"},{"is_transit":false,"distance":2029,"i_lat":-6.185545,"station_id":"THB","line":1,"transit":false,"i_long":106.811091,"time":5,"station_name":"Tanah Abang"},{"is_transit":false,"time":8,"station_id":"DU","distance":3632,"station_name":"Duri","i_lat":-6.155215,"i_long":106.800832,"line":1,"transit":false},{"station_id":"AK","time":4,"is_transit":false,"distance":1230,"line":1,"station_name":"Angke","transit":false,"i_long":106.79867,"i_lat":-6.144674},{"line":4,"time":9,"distance":4102,"station_id":"KPB","i_long":106.826365,"i_lat":-6.132549,"station_name":"Kampung Bandan","transit":true,"is_transit":true},{"i_lat":-6.14505,"time":3,"distance":1444,"is_transit":false,"station_name":"Rajawali","line":11,"i_long":106.836569,"station_id":"RJW","transit":false},{"i_long":106.839204,"i_lat":-6.161728,"station_name":"Kemayoran","transit":false,"station_id":"KMO","is_transit":false,"time":5,"distance":1901,"line":11},{"time":4,"distance":1436,"station_id":"PSE","station_name":"Pasar Senen","is_transit":false,"transit":false,"i_long":106.84368,"i_lat":-6.174784,"line":11},{"line":11,"time":8,"i_lat":-6.185975,"is_transit":false,"transit":false,"station_id":"GST","station_name":"Gang Sentiong","distance":1567,"i_long":106.850107},{"station_name":"Kramat","is_transit":false,"distance":973,"line":11,"transit":false,"station_id":"KMT","i_lat":-6.193792,"time":1,"i_long":106.855437},{"is_transit":false,"time":2,"i_long":106.861737,"line":11,"station_id":"POK","transit":false,"station_name":"Pondok Jati","distance":1829,"i_lat":-6.209188},{"i_lat":-6.215091,"line":1,"distance":1236,"i_long":106.86807400000001,"transit":true,"station_id":"JNG","is_transit":true,"station_name":"Jatinegara","time":9},{"station_id":"KLD","time":3,"transit":false,"is_transit":false,"i_lat":-6.2135,"i_long":106.899548,"line":1,"distance":3395,"station_name":"Klender"},{"i_long":106.922662,"transit":false,"i_lat":-6.215568,"is_transit":false,"line":1,"station_id":"BUA","station_name":"Buaran","distance":3100,"time":2},{"i_lat":-6.217455,"station_name":"Klenderbaru","transit":false,"line":1,"distance":1305,"i_long":106.939679,"station_id":"KLDB","time":1,"is_transit":false},{"is_transit":false,"i_long":106.951283,"transit":false,"i_lat":-6.219053,"station_name":"Cakung","line":1,"station_id":"CUK","time":8,"distance":1385},{"i_long":106.977657,"distance":3097,"i_lat":-6.224515,"is_transit":false,"transit":false,"line":1,"station_id":"KRI","station_name":"Kranji","time":3},{"time":4,"distance":2520,"transit":false,"is_transit":false,"i_lat":-6.236616,"station_id":"BKS","station_name":"Bekasi","i_long":106.997013,"line":1},{"time":2,"station_name":"Bekasi Timur","distance":2368,"line":1,"is_transit":false,"i_long":107.016735,"transit":false,"station_id":"BKST","i_lat":-6.248029},{"distance":4460,"line":1,"is_transit":false,"i_long":107.055722,"station_id":"TB","time":7,"i_lat":-6.258864,"transit":false,"station_name":"Tambun"},{"distance":3420,"i_lat":-6.261877,"is_transit":false,"i_long":107.083084,"line":1,"transit":false,"station_id":"CIT","time":3,"station_name":"Cibitung"}],[{"line":2,"transit":false,"station_id":"DP","time":0,"i_lat":-6.405256,"station_name":"Depok","is_transit":false,"i_long":106.816926,"distance":0},{"i_lat":-6.391065,"i_long":106.819451,"time":3,"line":2,"station_name":"Depokbaru","station_id":"DPB","is_transit":false,"distance":1584,"transit":false},{"i_long":106.831114,"station_id":"POC","distance":2727,"line":2,"station_name":"Pondok Cina","is_transit":false,"time":4,"i_lat":-6.369073,"transit":false},{"distance":1109,"line":2,"is_transit":false,"i_lat":-6.360749,"transit":false,"station_id":"UI","station_name":"Univ. Indonesia","time":2,"i_long":106.831474},{"i_long":106.834175,"line":2,"time":3,"distance":2264,"station_name":"Univ. Pancasila","transit":false,"i_lat":-6.339291,"is_transit":false,"station_id":"UP"},{"i_lat":-6.330363,"distance":1029,"station_id":"LNA","transit":false,"i_long":106.832616,"station_name":"Lenteng Agung","line":2,"time":2,"is_transit":false},{"distance":2671,"transit":false,"station_name":"Tanjung Barat","i_lat":-6.3080680000000005,"i_long":106.838896,"time":3,"line":2,"station_id":"TNT","is_transit":false},{"is_transit":false,"time":4,"i_long":106.843999,"station_id":"PSM","transit":false,"distance":2820,"i_lat":-6.2842400000000005,"station_name":"Pasar Minggu","line":2},{"i_lat":-6.263214,"distance":2380,"line":2,"station_name":"Pasar Minggu Baru","station_id":"PSMB","i_long":106.851577,"transit":false,"time":2,"is_transit":false},{"i_long":106.85449,"transit":false,"station_name":"Duren Kalibata","is_transit":false,"time":2,"distance":824,"line":2,"i_lat":-6.255332,"station_id":"DRN"},{"station_name":"Cawang","line":2,"transit":false,"time":3,"is_transit":false,"station_id":"CW","distance":1546,"i_lat":-6.242512,"i_long":106.856607},{"station_id":"TEB","distance":1230,"i_long":106.857948,"time":2,"is_transit":false,"line":2,"station_name":"Tebet","i_lat":-6.226659,"transit":false},{"distance":2610,"transit":false,"station_name":"Manggarai","is_transit":false,"time":4,"station_id":"MRI","i_lat":-6.209883,"i_long":106.84912,"line":2},{"station_id":"CKI","transit":false,"time":4,"i_long":106.840169,"i_lat":-6.198556,"station_name":"Cikini","line":2,"distance":1590,"is_transit":false},{"distance":1750,"is_transit":false,"station_name":"Gondangdia","transit":false,"i_lat":-6.186295,"station_id":"GDD","time":3,"line":2,"i_long":106.832183},{"i_long":106.828284,"transit":false,"line":2,"is_transit":false,"i_lat":-6.166716,"distance":2015,"station_name":"Juanda","time":4,"station_id":"JUA"},{"station_name":"Sawah Besar","line":2,"i_long":106.827103,"time":2,"station_id":"SW","is_transit":false,"distance":1149,"i_lat":-6.160725,"transit":false},{"station_name":"Manggabesar","i_lat":-6.149769,"station_id":"MGB","i_long":106.82482,"is_transit":false,"time":2,"transit":false,"distance":906,"line":2},{"i_lat":-6.141205,"time":2,"i_long":106.820901,"transit":false,"is_transit":false,"station_id":"JAY","distance":1080,"line":2,"station_name":"Jayakarta"},{"i_lat":-6.137569,"station_name":"Jakarta Kota","station_id":"JAKK","i_long":106.812439,"line":2,"transit":true,"is_transit":true,"distance":1264,"time":4},{"station_name":"Kampung Bandan","transit":true,"i_lat":-6.132549,"distance":1364,"time":3,"i_long":106.826365,"is_transit":true,"line":4,"station_id":"KPB"},{"station_name":"Rajawali","time":3,"station_id":"RJW","i_long":106.836569,"i_lat":-6.14505,"is_transit":false,"distance":1444,"line":11,"transit":false},{"transit":false,"station_name":"Kemayoran","station_id":"KMO","time":5,"distance":1901,"is_transit":false,"i_long":106.839204,"line":11,"i_lat":-6.161728},{"transit":false,"distance":1436,"line":11,"station_name":"Pasar Senen","i_lat":-6.174784,"station_id":"PSE","i_long":106.84368,"is_transit":false,"time":4},{"station_id":"GST","line":11,"is_transit":false,"distance":1567,"i_long":106.850107,"i_lat":-6.185975,"transit":false,"station_name":"Gang Sentiong","time":8},{"i_lat":-6.193792,"line":11,"time":1,"station_id":"KMT","transit":false,"is_transit":false,"distance":973,"station_name":"Kramat","i_long":106.855437},{"station_name":"Pondok Jati","distance":1829,"i_lat":-6.209188,"transit":false,"time":2,"is_transit":false,"i_long":106.861737,"station_id":"POK","line":11},{"is_transit":true,"distance":1236,"i_long":106.86807400000001,"line":1,"transit":true,"i_lat":-6.215091,"station_name":"Jatinegara","station_id":"JNG","time":9},{"station_name":"Klender","i_lat":-6.2135,"distance":3395,"station_id":"KLD","is_transit":false,"time":3,"i_long":106.899548,"transit":false,"line":1},{"station_name":"Buaran","time":2,"is_transit":false,"distance":3100,"transit":false,"line":1,"i_lat":-6.215568,"station_id":"BUA","i_long":106.922662},{"line":1,"i_lat":-6.217455,"time":1,"distance":1305,"i_long":106.939679,"station_name":"Klenderbaru","station_id":"KLDB","transit":false,"is_transit":false},{"distance":1385,"station_name":"Cakung","is_transit":false,"station_id":"CUK","time":8,"i_lat":-6.219053,"i_long":106.951283,"transit":false,"line":1},{"is_transit":false,"i_long":106.977657,"line":1,"station_name":"Kranji","station_id":"KRI","transit":false,"time":3,"i_lat":-6.224515,"distance":3097},{"i_lat":-6.236616,"time":4,"i_long":106.997013,"is_transit":false,"transit":false,"distance":2520,"line":1,"station_id":"BKS","station_name":"Bekasi"},{"line":1,"station_name":"Bekasi Timur","is_transit":false,"i_long":107.016735,"transit":false,"i_lat":-6.248029,"station_id":"BKST","time":2,"distance":2368},{"station_name":"Tambun","i_lat":-6.258864,"i_long":107.055722,"line":1,"station_id":"TB","is_transit":false,"distance":4460,"transit":false,"time":7},{"time":3,"station_name":"Cibitung","i_long":107.083084,"transit":false,"station_id":"CIT","distance":3420,"line":1,"i_lat":-6.261877,"is_transit":false}]]}