{"data":[[{"station_name":"Depok","is_transit":false,"distance":0,"i_long":106.816926,"station_id":"DP","transit":false,"i_lat":-6.405256,"time":0,"line":2},{"is_transit":false,"station_name":"Depokbaru","time":3,"i_long":106.819451,"station_id":"DPB","line":2,"distance":1584,"transit":false,"i_lat":-6.391065},{"i_lat":-6.369073,"is_transit":false,"time":4,"station_name":"Pondok Cina","line":2,"distance":2727,"i_long":106.831114,"transit":false,"station_id":"POC"},{"station_name":"Univ. Indonesia","time":2,"i_lat":-6.360749,"i_long":106.831474,"is_transit":false,"station_id":"UI","line":2,"transit":false,"distance":1109},{"station_name":"Univ. Pancasila","station_id":"UP","time":3,"distance":2264,"is_transit":false,"i_lat":-6.339291,"i_long":106.834175,"transit":false,"line":2},{"is_transit":false,"i_long":106.832616,"transit":false,"station_id":"LNA","line":2,"time":2,"i_lat":-6.330363,"distance":1029,"station_name":"Lenteng Agung"},{"station_name":"Tanjung Barat","line":2,"i_long":106.838896,"distance":2671,"transit":false,"station_id":"TNT","time":3,"is_transit":false,"i_lat":-6.3080680000000005},{"line":2,"i_lat":-6.2842400000000005,"is_transit":false,"time":4,"transit":false,"distance":2820,"station_name":"Pasar Minggu","i_long":106.843999,"station_id":"PSM"},{"i_lat":-6.263214,"time":2,"station_id":"PSMB","i_long":106.851577,"distance":2380,"line":2,"station_name":"Pasar Minggu Baru","transit":false,"is_transit":false},{"line":2,"station_name":"Duren Kalibata","station_id":"DRN","time":2,"distance":824,"is_transit":false,"i_lat":-6.255332,"i_long":106.85449,"transit":false},{"station_name":"Cawang","time":3,"i_lat":-6.242512,"station_id":"CW","transit":false,"i_long":106.856607,"distance":1546,"line":2,"is_transit":false},{"station_id":"TEB","station_name":"Tebet","i_long":106.857948,"transit":false,"line":2,"time":2,"distance":1230,"i_lat":-6.226659,"is_transit":false},{"is_transit":true,"station_id":"MRI","transit":true,"i_long":106.84912,"distance":2610,"time":4,"station_name":"Manggarai","i_lat":-6.209883,"line":2},{"time":4,"line":1,"distance":3186,"i_lat":-6.202263,"i_long":106.822649,"is_transit":false,"station_name":"Sudirman","station_id":"SUD","transit":false},{"time":1,"station_id":"SUDB","distance":280,"i_long":106.819881,"transit":false,"i_lat":-6.201433,"station_name":"Sudirman Baru","is_transit":false,"line":1},{"distance":471,"transit":false,"time":1,"station_id":"KAT","i_lat":-6.20132,"is_transit":false,"line":1,"i_long":106.816351,"station_name":"Karet"},{"time":5,"distance":2029,"line":1,"station_id":"THB","station_name":"Tanah Abang","transit":true,"i_lat":-6.185545,"i_long":106.811091,"is_transit":true},{"time":6,"transit":false,"station_id":"PLM","i_lat":-6.207404,"i_long":106.79689,"is_transit":false,"distance":3191,"station_name":"Palmerah","line":6},{"transit":false,"i_long":106.780334,"i_lat":-6.237242,"distance":3737,"time":7,"line":6,"station_name":"Kebayoran","is_transit":false,"station_id":"KBY"},{"time":8,"i_lat":-6.276362,"distance":6218,"line":6,"i_long":106.74273,"transit":false,"station_name":"Pondokranji","is_transit":false,"station_id":"PDJ"},{"transit":false,"i_lat":-6.288927,"distance":2179,"is_transit":false,"time":3,"line":6,"station_name":"Jurangmangu","station_id":"JMU","i_long":106.728916},{"station_id":"SDM","station_name":"Sudimara","line":6,"distance":1994,"is_transit":false,"transit":false,"time":4,"i_lat":-6.296963,"i_long":106.712277},{"time":6,"station_id":"RU","i_long":106.675475,"station_name":"Rawa Buntu","is_transit":false,"line":6,"i_lat":-6.314823,"transit":false,"distance":4566},{"station_name":"Serpong","line":6,"transit":false,"i_long":106.66566,"time":4,"distance":2413,"is_transit":false,"i_lat":-6.319871,"station_id":"SRP"},{"distance":1784,"i_lat":-6.32484,"i_long":106.640411,"station_name":"Cisauk","station_id":"CSK","line":3,"time":4,"is_transit":false,"transit":false},{"is_transit":false,"i_long":106.617853,"time":4,"transit":false,"distance":2519,"i_lat":-6.329547,"station_id":"CC","line":3,"station_name":"Cicayur"}],[{"distance":0,"line":2,"time":0,"transit":false,"is_transit":false,"i_lat":-6.405256,"station_id":"DP","i_long":106.816926,"station_name":"Depok"},{"station_name":"Depokbaru","i_long":106.819451,"line":2,"distance":1584,"station_id":"DPB","time":3,"transit":false,"i_lat":-6.391065,"is_transit":false},{"i_lat":-6.369073,"transit":false,"distance":2727,"station_id":"POC","i_long":106.831114,"line":2,"time":4,"is_transit":false,"station_name":"Pondok Cina"},{"transit":false,"is_transit":false,"time":2,"i_lat":-6.360749,"distance":1109,"station_id":"UI","i_long":106.831474,"line":2,"station_name":"Univ. Indonesia"},{"line":2,"station_id":"UP","distance":2264,"transit":false,"is_transit":false,"station_name":"Univ. Pancasila","i_lat":-6.339291,"i_long":106.834175,"time":3},{"is_transit":false,"station_name":"Lenteng Agung","time":2,"line":2,"transit":false,"i_lat":-6.330363,"distance":1029,"station_id":"LNA","i_long":106.832616},{"station_name":"Tanjung Barat","line":2,"station_id":"TNT","i_lat":-6.3080680000000005,"is_transit":false,"transit":false,"time":3,"distance":2671,"i_long":106.838896},{"line":2,"i_long":106.843999,"i_lat":-6.2842400000000005,"is_transit":false,"distance":2820,"station_name":"Pasar Minggu","station_id":"PSM","transit":false,"time":4},{"line":2,"time":2,"i_long":106.851577,"is_transit":false,"station_name":"Pasar Minggu Baru","distance":2380,"i_lat":-6.263214,"station_id":"PSMB","transit":false},{"transit":false,"line":2,"station_name":"Duren Kalibata","i_lat":-6.255332,"i_long":106.85449,"is_transit":false,"time":2,"distance":824,"station_id":"DRN"},{"i_long":106.856607,"station_name":"Cawang","distance":1546,"station_id":"CW","time":3,"line":2,"is_transit":false,"transit":false,"i_lat":-6.242512},{"distance":1230,"transit":false,"i_long":106.857948,"i_lat":-6.226659,"is_transit":false,"station_id":"TEB","line":2,"station_name":"Tebet","time":2},{"transit":false,"line":2,"time":4,"distance":2610,"i_lat":-6.209883,"i_long":106.84912,"station_name":"Manggarai","is_transit":false,"station_id":"MRI"},{"distance":1590,"time":4,"is_transit":false,"station_name":"Cikini","station_id":"CKI","i_long":106.840169,"i_lat":-6.198556,"line":2,"transit":false},{"is_transit":false,"i_lat":-6.186295,"line":2,"distance":1750,"station_id":"GDD","transit":false,"time":3,"station_name":"Gondangdia","i_long":106.832183},{"is_transit":false,"station_name":"Juanda","line":2,"i_lat":-6.166716,"distance":2015,"station_id":"JUA","transit":false,"i_long":106.828284,"time":4},{"i_lat":-6.160725,"station_name":"Sawah Besar","transit":false,"i_long":106.827103,"is_transit":false,"time":2,"station_id":"SW","line":2,"distance":1149},{"time":2,"line":2,"i_long":106.82482,"transit":false,"i_lat":-6.149769,"station_name":"Manggabesar","station_id":"MGB","distance":906,"is_transit":false},{"time":2,"i_long":106.820901,"line":2,"station_name":"Jayakarta","station_id":"JAY","is_transit":false,"transit":false,"i_lat":-6.141205,"distance":1080},{"i_lat":-6.137569,"time":4,"line":2,"is_transit":true,"station_id":"JAKK","i_long":106.812439,"distance":1264,"station_name":"Jakarta Kota","transit":true},{"distance":1364,"i_lat":-6.132549,"station_id":"KPB","line":4,"is_transit":true,"time":3,"transit":true,"i_long":106.826365,"station_name":"Kampung Bandan"},{"i_long":106.79867,"transit":false,"station_name":"Angke","is_transit":false,"time":9,"station_id":"AK","distance":4102,"i_lat":-6.144674,"line":1},{"time":4,"i_lat":-6.155215,"transit":false,"is_transit":false,"i_long":106.800832,"line":1,"station_name":"Duri","station_id":"DU","distance":1230},{"i_lat":-6.185545,"transit":true,"time":8,"i_long":106.811091,"distance":3632,"line":1,"station_name":"Tanah Abang","station_id":"THB","is_transit":true},{"transit":false,"is_transit":false,"station_name":"Palmerah","distance":3191,"line":6,"i_long":106.79689,"i_lat":-6.207404,"station_id":"PLM","time":6},{"i_lat":-6.237242,"is_transit":false,"station_id":"KBY","line":6,"i_long":106.780334,"transit":false,"distance":3737,"station_name":"Kebayoran","time":7},{"transit":false,"distance":6218,"station_id":"PDJ","i_long":106.74273,"time":8,"line":6,"is_transit":false,"station_name":"Pondokranji","i_lat":-6.276362},{"time":3,"distance":2179,"station_name":"Jurangmangu","is_transit":false,"transit":false,"station_id":"JMU","i_lat":-6.288927,"i_long":106.728916,"line":6},{"transit":false,"i_long":106.712277,"station_name":"Sudimara","time":4,"station_id":"SDM","i_lat":-6.296963,"is_transit":false,"line":6,"distance":1994},{"time":6,"transit":false,"station_id":"RU","line":6,"station_name":"Rawa Buntu","is_transit":false,"i_lat":-6.314823,"i_long":106.675475,"distance":4566},{"transit":false,"i_lat":-6.319871,"station_id":"SRP","station_name":"Serpong","line":6,"is_transit":false,"time":4,"i_long":106.66566,"distance":2413},{"time":4,"i_long":106.640411,"i_lat":-6.32484,"is_transit":false,"distance":1784,"station_name":"Cisauk","station_id":"CSK","line":3,"transit":false},{"time":4,"i_long":106.617853,"distance":2519,"station_id":"CC","line":3,"station_name":"Cicayur","transit":false,"is_transit":false,"i_lat":-6.329547}],[{"station_name":"Depok","distance":0,"is_transit":false,"station_id":"DP","i_long":106.816926,"line":2,"i_lat":-6.405256,"time":0,"transit":false},{"station_name":"Depokbaru","time":3,"line":2,"i_lat":-6.391065,"i_long":106.819451,"transit":false,"is_transit":false,"station_id":"DPB","distance":1584},{"distance":2727,"i_long":106.831114,"line":2,"station_name":"Pondok Cina","time":4,"station_id":"POC","transit":false,"i_lat":-6.369073,"is_transit":false},{"transit":false,"station_id":"UI","distance":1109,"i_long":106.831474,"i_lat":-6.360749,"station_name":"Univ. Indonesia","time":2,"line":2,"is_transit":false},{"distance":2264,"station_id":"UP","is_transit":false,"time":3,"transit":false,"i_lat":-6.339291,"station_name":"Univ. Pancasila","i_long":106.834175,"line":2},{"i_long":106.832616,"line":2,"time":2,"station_name":"Lenteng Agung","i_lat":-6.330363,"distance":1029,"is_transit":false,"transit":false,"station_id":"LNA"},{"i_lat":-6.3080680000000005,"i_long":106.838896,"is_transit":false,"time":3,"transit":false,"station_name":"Tanjung Barat","distance":2671,"station_id":"TNT","line":2},{"i_lat":-6.2842400000000005,"distance":2820,"station_id":"PSM","is_transit":false,"i_long":106.843999,"line":2,"time":4,"transit":false,"station_name":"Pasar Minggu"},{"i_lat":-6.263214,"time":2,"is_transit":false,"distance":2380,"i_long":106.851577,"transit":false,"station_name":"Pasar Minggu Baru","station_id":"PSMB","line":2},{"transit":false,"is_transit":false,"time":2,"distance":824,"i_lat":-6.255332,"i_long":106.85449,"station_id":"DRN","station_name":"Duren Kalibata","line":2},{"distance":1546,"i_lat":-6.242512,"i_long":106.856607,"line":2,"transit":false,"station_name":"Cawang","station_id":"CW","is_transit":false,"time":3},{"time":2,"transit":false,"is_transit":false,"station_id":"TEB","i_lat":-6.226659,"line":2,"station_name":"Tebet","distance":1230,"i_long":106.857948},{"distance":2610,"i_lat":-6.209883,"i_long":106.84912,"station_name":"Manggarai","station_id":"MRI","transit":true,"time":4,"line":2,"is_transit":true},{"station_id":"MTR","i_lat":-6.212485,"is_transit":false,"time":2,"i_long":106.858896,"transit":false,"distance":1275,"station_name":"Matraman","line":1},{"distance":1377,"is_transit":true,"station_id":"JNG","i_long":106.86807400000001,"station_name":"Jatinegara","time":8,"transit":true,"line":1,"i_lat":-6.215091},{"is_transit":false,"station_id":"POK","distance":1236,"i_lat":-6.209188,"station_name":"Pondok Jati","time":2,"line":11,"transit":false,"i_long":106.861737},{"time":2,"i_lat":-6.193792,"i_long":106.855437,"line":11,"station_name":"Kramat","is_transit":false,"distance":1829,"station_id":"KMT","transit":false},{"time":1,"i_lat":-6.185975,"distance":973,"line":11,"transit":false,"station_name":"Gang Sentiong","i_long":106.850107,"station_id":"GST","is_transit":false},{"line":11,"station_name":"Pasar Senen","station_id":"PSE","time":8,"is_transit":false,"distance":1567,"i_long":106.84368,"transit":false,"i_lat":-6.174784},{"transit":false,"station_id":"KMO","is_transit":false,"line":11,"i_lat":-6.161728,"distance":1436,"time":4,"i_long":106.839204,"station_name":"Kemayoran"},{"transit":false,"time":5,"distance":1901,"i_lat":-6.14505,"i_long":106.836569,"station_name":"Rajawali","is_transit":false,"line":11,"station_id":"RJW"},{"time":3,"transit":true,"is_transit":true,"distance":1444,"i_lat":-6.132549,"line":4,"station_name":"Kampung Bandan","i_long":106.826365,"station_id":"KPB"},{"time":9,"i_long":106.79867,"i_lat":-6.144674,"distance":4102,"is_transit":false,"station_name":"Angke","station_id":"AK","transit":false,"line":1},{"i_long":106.800832,"is_transit":false,"transit":false,"line":1,"distance":1230,"i_lat":-6.155215,"station_id":"DU","station_name":"Duri","time":4},{"is_transit":true,"i_long":106.811091,"distance":3632,"station_id":"THB","transit":true,"line":1,"i_lat":-6.185545,"time":8,"station_name":"Tanah Abang"},{"i_lat":-6.207404,"station_name":"Palmerah","transit":false,"line":6,"time":6,"distance":3191,"station_id":"PLM","i_long":106.79689,"is_transit":false},{"i_lat":-6.237242,"i_long":106.780334,"line":6,"time":7,"station_name":"Kebayoran","distance":3737,"transit":false,"station_id":"KBY","is_transit":false},{"time":8,"is_transit":false,"station_name":"Pondokranji","transit":false,"i_lat":-6.276362,"i_long":106.74273,"line":6,"station_id":"PDJ","distance":6218},{"station_id":"JMU","transit":false,"i_long":106.728916,"is_transit":false,"line":6,"distance":2179,"i_lat":-6.288927,"station_name":"Jurangmangu","time":3},{"distance":1994,"i_lat":-6.296963,"station_id":"SDM","transit":false,"i_long":106.712277,"station_name":"Sudimara","is_transit":false,"line":6,"time":4},{"is_transit":false,"i_long":106.675475,"line":6,"time":6,"station_name":"Rawa Buntu","transit":false,"distance":4566,"station_id":"RU","i_lat":-6.314823},{"line":6,"transit":false,"i_long":106.66566,"station_name":"Serpong","distance":2413,"is_transit":false,"time":4,"station_id":"SRP","i_lat":-6.319871},{"transit":false,"line":3,"station_name":"Cisauk","station_id":"CSK","time":4,"i_lat":-6.32484,"i_long":106.640411,"distance":1784,"is_transit":false},{"distance":2519,"line":3,"time":4,"transit":false,"i_lat":-6.329547,"i_long":106.617853,"is_transit":false,"station_name":"Cicayur","station_id":"CC"}]]}