{"data":[[{"is_transit":false,"transit":false,"distance":0,"time":0,"station_id":"DP","station_name":"Depok","i_lat":-6.405256,"i_long":106.816926,"line":2},{"distance":1584,"i_lat":-6.391065,"transit":false,"station_name":"Depokbaru","time":3,"is_transit":false,"line":2,"i_long":106.819451,"station_id":"DPB"},{"distance":2727,"is_transit":false,"time":4,"station_id":"POC","transit":false,"station_name":"Pondok Cina","i_long":106.831114,"line":2,"i_lat":-6.369073},{"i_long":106.831474,"distance":1109,"line":2,"station_id":"UI","is_transit":false,"transit":false,"time":2,"station_name":"Univ. Indonesia","i_lat":-6.360749},{"i_long":106.834175,"transit":false,"time":3,"i_lat":-6.339291,"station_name":"Univ. Pancasila","distance":2264,"line":2,"is_transit":false,"station_id":"UP"},{"distance":1029,"station_name":"Lenteng Agung","time":2,"is_transit":false,"station_id":"LNA","transit":false,"i_long":106.832616,"i_lat":-6.330363,"line":2},{"i_lat":-6.3080680000000005,"transit":false,"station_id":"TNT","time":3,"is_transit":false,"i_long":106.838896,"line":2,"station_name":"Tanjung Barat","distance":2671},{"time":4,"distance":2820,"station_name":"Pasar Minggu","transit":false,"i_long":106.843999,"is_transit":false,"station_id":"PSM","line":2,"i_lat":-6.2842400000000005},{"transit":false,"time":2,"distance":2380,"is_transit":false,"station_name":"Pasar Minggu Baru","station_id":"PSMB","i_lat":-6.263214,"i_long":106.851577,"line":2},{"time":2,"station_name":"Duren Kalibata","i_long":106.85449,"i_lat":-6.255332,"line":2,"is_transit":false,"transit":false,"distance":824,"station_id":"DRN"},{"i_long":106.856607,"line":2,"time":3,"station_name":"Cawang","is_transit":false,"distance":1546,"transit":false,"station_id":"CW","i_lat":-6.242512},{"line":2,"station_id":"TEB","is_transit":false,"time":2,"i_long":106.857948,"transit":false,"i_lat":-6.226659,"distance":1230,"station_name":"Tebet"},{"is_transit":true,"i_lat":-6.209883,"line":2,"transit":true,"station_id":"MRI","station_name":"Manggarai","distance":2610,"i_long":106.84912,"time":4},{"time":4,"is_transit":false,"i_long":106.822649,"transit":false,"station_name":"Sudirman","line":1,"station_id":"SUD","distance":3186,"i_lat":-6.202263},{"distance":280,"line":1,"i_long":106.819881,"transit":false,"time":1,"i_lat":-6.201433,"station_name":"Sudirman Baru","is_transit":false,"station_id":"SUDB"},{"time":1,"distance":471,"is_transit":false,"station_name":"Karet","transit":false,"i_long":106.816351,"line":1,"i_lat":-6.20132,"station_id":"KAT"},{"i_long":106.811091,"station_name":"Tanah Abang","time":5,"distance":2029,"station_id":"THB","i_lat":-6.185545,"line":1,"transit":true,"is_transit":true},{"transit":false,"station_name":"Palmerah","station_id":"PLM","distance":3191,"time":6,"i_lat":-6.207404,"line":6,"is_transit":false,"i_long":106.79689},{"station_name":"Kebayoran","is_transit":false,"time":7,"distance":3737,"i_lat":-6.237242,"i_long":106.780334,"transit":false,"station_id":"KBY","line":6},{"station_name":"Pondokranji","station_id":"PDJ","is_transit":false,"transit":false,"i_long":106.74273,"line":6,"distance":6218,"i_lat":-6.276362,"time":8},{"distance":2179,"line":6,"i_lat":-6.288927,"time":3,"station_name":"Jurangmangu","station_id":"JMU","transit":false,"is_transit":false,"i_long":106.728916},{"transit":false,"station_id":"SDM","i_long":106.712277,"line":6,"i_lat":-6.296963,"distance":1994,"is_transit":false,"station_name":"Sudimara","time":4},{"i_long":106.675475,"station_name":"Rawa Buntu","station_id":"RU","time":6,"line":6,"distance":4566,"transit":false,"i_lat":-6.314823,"is_transit":false},{"transit":false,"line":6,"station_id":"SRP","time":4,"station_name":"Serpong","is_transit":false,"distance":2413,"i_long":106.66566,"i_lat":-6.319871},{"line":3,"i_lat":-6.32484,"i_long":106.640411,"distance":1784,"station_id":"CSK","station_name":"Cisauk","is_transit":false,"time":4,"transit":false},{"transit":false,"line":3,"time":4,"is_transit":false,"i_lat":-6.329547,"station_id":"CC","i_long":106.617853,"distance":2519,"station_name":"Cicayur"},{"transit":false,"station_name":"Parung Panjang","station_id":"PRP","distance":5968,"i_lat":-6.3441410000000005,"is_transit":false,"line":6,"i_long":106.568863,"time":8},{"transit":false,"distance":7025,"station_name":"Cilejit","i_lat":-6.354349,"line":3,"is_transit":false,"i_long":106.508482,"time":9,"station_id":"CJT"},{"line":0,"is_transit":false,"transit":false,"station_name":"Daru","station_id":"DAR","time":6,"distance":2675,"i_lat":-6.338021,"i_long":106.491338},{"is_transit":false,"distance":3902,"i_long":106.460812,"station_name":"Tenjo","i_lat":-6.327251,"transit":false,"station_id":"TEJ","line":6,"time":5},{"is_transit":false,"distance":2974,"i_long":106.425991,"time":5,"transit":false,"i_lat":-6.328533,"line":6,"station_id":"TGS","station_name":"Tigaraksa"},{"station_name":"Cikoya","is_transit":false,"i_long":106.411216,"i_lat":-6.33561,"time":3,"transit":false,"line":3,"station_id":"CKY","distance":2651},{"is_transit":false,"transit":false,"time":4,"line":6,"station_id":"MJ","i_lat":-6.332307,"i_long":106.394373,"station_name":"Maja","distance":1853},{"distance":7293,"time":10,"is_transit":false,"i_lat":-6.334892,"line":3,"i_long":106.332092,"station_name":"Citeras","transit":false,"station_id":"CTR"}],[{"station_name":"Depok","time":0,"i_lat":-6.405256,"i_long":106.816926,"line":2,"station_id":"DP","transit":false,"is_transit":false,"distance":0},{"i_long":106.819451,"line":2,"station_id":"DPB","is_transit":false,"time":3,"station_name":"Depokbaru","transit":false,"distance":1584,"i_lat":-6.391065},{"i_long":106.831114,"time":4,"station_name":"Pondok Cina","transit":false,"station_id":"POC","is_transit":false,"distance":2727,"line":2,"i_lat":-6.369073},{"time":2,"station_name":"Univ. Indonesia","is_transit":false,"distance":1109,"i_long":106.831474,"transit":false,"i_lat":-6.360749,"line":2,"station_id":"UI"},{"distance":2264,"is_transit":false,"i_lat":-6.339291,"time":3,"station_name":"Univ. Pancasila","station_id":"UP","i_long":106.834175,"line":2,"transit":false},{"i_long":106.832616,"line":2,"is_transit":false,"station_id":"LNA","time":2,"i_lat":-6.330363,"transit":false,"distance":1029,"station_name":"Lenteng Agung"},{"distance":2671,"i_long":106.838896,"station_name":"Tanjung Barat","is_transit":false,"line":2,"i_lat":-6.3080680000000005,"time":3,"station_id":"TNT","transit":false},{"i_long":106.843999,"line":2,"station_id":"PSM","is_transit":false,"station_name":"Pasar Minggu","transit":false,"i_lat":-6.2842400000000005,"time":4,"distance":2820},{"distance":2380,"is_transit":false,"i_long":106.851577,"transit":false,"station_name":"Pasar Minggu Baru","line":2,"station_id":"PSMB","time":2,"i_lat":-6.263214},{"i_long":106.85449,"line":2,"distance":824,"time":2,"station_id":"DRN","is_transit":false,"i_lat":-6.255332,"transit":false,"station_name":"Duren Kalibata"},{"transit":false,"is_transit":false,"station_id":"CW","time":3,"station_name":"Cawang","distance":1546,"i_long":106.856607,"line":2,"i_lat":-6.242512},{"station_id":"TEB","i_long":106.857948,"transit":false,"distance":1230,"time":2,"i_lat":-6.226659,"line":2,"is_transit":false,"station_name":"Tebet"},{"station_name":"Manggarai","is_transit":false,"i_long":106.84912,"time":4,"station_id":"MRI","transit":false,"distance":2610,"i_lat":-6.209883,"line":2},{"time":4,"line":2,"distance":1590,"i_lat":-6.198556,"station_name":"Cikini","i_long":106.840169,"transit":false,"is_transit":false,"station_id":"CKI"},{"i_long":106.832183,"line":2,"time":3,"station_id":"GDD","is_transit":false,"station_name":"Gondangdia","distance":1750,"transit":false,"i_lat":-6.186295},{"line":2,"station_id":"JUA","station_name":"Juanda","i_lat":-6.166716,"transit":false,"i_long":106.828284,"distance":2015,"time":4,"is_transit":false},{"is_transit":false,"i_long":106.827103,"time":2,"line":2,"station_name":"Sawah Besar","i_lat":-6.160725,"transit":false,"station_id":"SW","distance":1149},{"distance":906,"is_transit":false,"time":2,"line":2,"i_lat":-6.149769,"i_long":106.82482,"station_name":"Manggabesar","transit":false,"station_id":"MGB"},{"station_id":"JAY","i_lat":-6.141205,"i_long":106.820901,"line":2,"station_name":"Jayakarta","time":2,"distance":1080,"is_transit":false,"transit":false},{"time":4,"transit":true,"line":2,"station_id":"JAKK","i_lat":-6.137569,"station_name":"Jakarta Kota","distance":1264,"i_long":106.812439,"is_transit":true},{"time":3,"line":4,"is_transit":true,"i_long":106.826365,"transit":true,"distance":1364,"i_lat":-6.132549,"station_name":"Kampung Bandan","station_id":"KPB"},{"time":9,"distance":4102,"i_lat":-6.144674,"station_name":"Angke","transit":false,"is_transit":false,"i_long":106.79867,"line":1,"station_id":"AK"},{"station_name":"Duri","line":1,"is_transit":false,"i_lat":-6.155215,"distance":1230,"transit":false,"station_id":"DU","time":4,"i_long":106.800832},{"time":8,"distance":3632,"line":1,"station_id":"THB","transit":true,"i_lat":-6.185545,"i_long":106.811091,"station_name":"Tanah Abang","is_transit":true},{"transit":false,"i_long":106.79689,"line":6,"station_id":"PLM","distance":3191,"i_lat":-6.207404,"time":6,"is_transit":false,"station_name":"Palmerah"},{"time":7,"i_lat":-6.237242,"station_name":"Kebayoran","transit":false,"is_transit":false,"distance":3737,"i_long":106.780334,"line":6,"station_id":"KBY"},{"i_long":106.74273,"station_id":"PDJ","station_name":"Pondokranji","is_transit":false,"i_lat":-6.276362,"transit":false,"time":8,"line":6,"distance":6218},{"time":3,"station_name":"Jurangmangu","is_transit":false,"distance":2179,"transit":false,"i_long":106.728916,"line":6,"station_id":"JMU","i_lat":-6.288927},{"time":4,"is_transit":false,"transit":false,"station_name":"Sudimara","station_id":"SDM","i_lat":-6.296963,"i_long":106.712277,"line":6,"distance":1994},{"i_lat":-6.314823,"is_transit":false,"station_name":"Rawa Buntu","transit":false,"time":6,"i_long":106.675475,"line":6,"distance":4566,"station_id":"RU"},{"station_id":"SRP","line":6,"is_transit":false,"time":4,"station_name":"Serpong","transit":false,"distance":2413,"i_long":106.66566,"i_lat":-6.319871},{"time":4,"i_lat":-6.32484,"distance":1784,"line":3,"transit":false,"is_transit":false,"station_id":"CSK","station_name":"Cisauk","i_long":106.640411},{"distance":2519,"i_long":106.617853,"station_name":"Cicayur","transit":false,"i_lat":-6.329547,"station_id":"CC","is_transit":false,"line":3,"time":4},{"distance":5968,"time":8,"is_transit":false,"i_lat":-6.3441410000000005,"transit":false,"i_long":106.568863,"station_name":"Parung Panjang","line":6,"station_id":"PRP"},{"distance":7025,"station_name":"Cilejit","is_transit":false,"transit":false,"line":3,"i_long":106.508482,"i_lat":-6.354349,"station_id":"CJT","time":9},{"transit":false,"is_transit":false,"station_name":"Daru","i_lat":-6.338021,"station_id":"DAR","time":6,"i_long":106.491338,"line":0,"distance":2675},{"i_long":106.460812,"station_name":"Tenjo","distance":3902,"i_lat":-6.327251,"transit":false,"station_id":"TEJ","is_transit":false,"time":5,"line":6},{"is_transit":false,"station_id":"TGS","station_name":"Tigaraksa","time":5,"i_lat":-6.328533,"transit":false,"i_long":106.425991,"line":6,"distance":2974},{"i_long":106.411216,"transit":false,"time":3,"distance":2651,"i_lat":-6.33561,"line":3,"station_id":"CKY","station_name":"Cikoya","is_transit":false},{"station_id":"MJ","i_lat":-6.332307,"is_transit":false,"transit":false,"time":4,"distance":1853,"line":6,"station_name":"Maja","i_long":106.394373},{"is_transit":false,"station_id":"CTR","distance":7293,"i_lat":-6.334892,"line":3,"station_name":"Citeras","time":10,"transit":false,"i_long":106.332092}],[{"i_long":106.816926,"is_transit":false,"i_lat":-6.405256,"time":0,"station_id":"DP","line":2,"station_name":"Depok","transit":false,"distance":0},{"transit":false,"is_transit":false,"station_id":"DPB","time":3,"i_long":106.819451,"i_lat":-6.391065,"station_name":"Depokbaru","line":2,"distance":1584},{"is_transit":false,"time":4,"distance":2727,"line":2,"station_name":"Pondok Cina","transit":false,"station_id":"POC","i_lat":-6.369073,"i_long":106.831114},{"station_name":"Univ. Indonesia","transit":false,"line":2,"time":2,"station_id":"UI","i_long":106.831474,"i_lat":-6.360749,"is_transit":false,"distance":1109},{"station_name":"Univ. Pancasila","transit":false,"i_lat":-6.339291,"i_long":106.834175,"station_id":"UP","distance":2264,"line":2,"time":3,"is_transit":false},{"time":2,"station_name":"Lenteng Agung","i_lat":-6.330363,"i_long":106.832616,"station_id":"LNA","line":2,"distance":1029,"transit":false,"is_transit":false},{"station_name":"Tanjung Barat","distance":2671,"station_id":"TNT","i_long":106.838896,"i_lat":-6.3080680000000005,"time":3,"is_transit":false,"transit":false,"line":2},{"distance":2820,"station_id":"PSM","i_long":106.843999,"time":4,"station_name":"Pasar Minggu","transit":false,"i_lat":-6.2842400000000005,"line":2,"is_transit":false},{"transit":false,"station_id":"PSMB","is_transit":false,"station_name":"Pasar Minggu Baru","i_long":106.851577,"line":2,"distance":2380,"time":2,"i_lat":-6.263214},{"transit":false,"is_transit":false,"time":2,"i_long":106.85449,"line":2,"station_name":"Duren Kalibata","station_id":"DRN","distance":824,"i_lat":-6.255332},{"time":3,"distance":1546,"is_transit":false,"transit":false,"station_id":"CW","i_long":106.856607,"line":2,"i_lat":-6.242512,"station_name":"Cawang"},{"distance":1230,"i_long":106.857948,"station_name":"Tebet","time":2,"i_lat":-6.226659,"is_transit":false,"line":2,"transit":false,"station_id":"TEB"},{"time":4,"station_name":"Manggarai","i_lat":-6.209883,"line":2,"station_id":"MRI","distance":2610,"i_long":106.84912,"transit":true,"is_transit":true},{"transit":false,"station_id":"MTR","station_name":"Matraman","is_transit":false,"distance":1275,"i_long":106.858896,"i_lat":-6.212485,"line":1,"time":2},{"station_name":"Jatinegara","transit":true,"is_transit":true,"i_long":106.86807400000001,"i_lat":-6.215091,"time":8,"distance":1377,"station_id":"JNG","line":1},{"time":2,"is_transit":false,"i_long":106.861737,"line":11,"distance":1236,"station_name":"Pondok Jati","station_id":"POK","i_lat":-6.209188,"transit":false},{"i_long":106.855437,"station_name":"Kramat","line":11,"is_transit":false,"transit":false,"time":2,"distance":1829,"i_lat":-6.193792,"station_id":"KMT"},{"time":1,"transit":false,"station_id":"GST","station_name":"Gang Sentiong","distance":973,"i_lat":-6.185975,"line":11,"is_transit":false,"i_long":106.850107},{"line":11,"time":8,"transit":false,"distance":1567,"station_name":"Pasar Senen","i_long":106.84368,"station_id":"PSE","is_transit":false,"i_lat":-6.174784},{"station_name":"Kemayoran","is_transit":false,"distance":1436,"transit":false,"i_lat":-6.161728,"i_long":106.839204,"station_id":"KMO","time":4,"line":11},{"distance":1901,"i_long":106.836569,"line":11,"transit":false,"station_id":"RJW","time":5,"is_transit":false,"i_lat":-6.14505,"station_name":"Rajawali"},{"time":3,"distance":1444,"i_long":106.826365,"is_transit":true,"station_id":"KPB","i_lat":-6.132549,"transit":true,"station_name":"Kampung Bandan","line":4},{"station_id":"AK","time":9,"is_transit":false,"distance":4102,"i_long":106.79867,"i_lat":-6.144674,"station_name":"Angke","transit":false,"line":1},{"transit":false,"i_long":106.800832,"is_transit":false,"time":4,"station_name":"Duri","line":1,"distance":1230,"station_id":"DU","i_lat":-6.155215},{"is_transit":true,"time":8,"i_lat":-6.185545,"station_name":"Tanah Abang","station_id":"THB","transit":true,"distance":3632,"line":1,"i_long":106.811091},{"station_id":"PLM","i_long":106.79689,"i_lat":-6.207404,"time":6,"transit":false,"station_name":"Palmerah","distance":3191,"line":6,"is_transit":false},{"time":7,"transit":false,"i_long":106.780334,"distance":3737,"is_transit":false,"station_id":"KBY","station_name":"Kebayoran","i_lat":-6.237242,"line":6},{"time":8,"station_name":"Pondokranji","station_id":"PDJ","transit":false,"i_lat":-6.276362,"i_long":106.74273,"is_transit":false,"line":6,"distance":6218},{"station_id":"JMU","i_long":106.728916,"station_name":"Jurangmangu","is_transit":false,"time":3,"line":6,"transit":false,"distance":2179,"i_lat":-6.288927},{"i_long":106.712277,"is_transit":false,"station_name":"Sudimara","i_lat":-6.296963,"distance":1994,"time":4,"line":6,"transit":false,"station_id":"SDM"},{"distance":4566,"i_long":106.675475,"is_transit":false,"transit":false,"station_name":"Rawa Buntu","i_lat":-6.314823,"line":6,"station_id":"RU","time":6},{"station_id":"SRP","i_lat":-6.319871,"line":6,"transit":false,"time":4,"distance":2413,"i_long":106.66566,"station_name":"Serpong","is_transit":false},{"is_transit":false,"station_id":"CSK","transit":false,"distance":1784,"line":3,"i_lat":-6.32484,"time":4,"i_long":106.640411,"station_name":"Cisauk"},{"distance":2519,"i_long":106.617853,"is_transit":false,"i_lat":-6.329547,"station_id":"CC","line":3,"station_name":"Cicayur","transit":false,"time":4},{"line":6,"is_transit":false,"time":8,"station_id":"PRP","transit":false,"distance":5968,"i_long":106.568863,"station_name":"Parung Panjang","i_lat":-6.3441410000000005},{"time":9,"i_long":106.508482,"is_transit":false,"station_name":"Cilejit","station_id":"CJT","distance":7025,"transit":false,"line":3,"i_lat":-6.354349},{"time":6,"line":0,"transit":false,"station_name":"Daru","i_long":106.491338,"is_transit":false,"station_id":"DAR","distance":2675,"i_lat":-6.338021},{"i_lat":-6.327251,"time":5,"line":6,"station_name":"Tenjo","is_transit":false,"distance":3902,"i_long":106.460812,"station_id":"TEJ","transit":false},{"i_long":106.425991,"distance":2974,"i_lat":-6.328533,"line":6,"is_transit":false,"station_id":"TGS","time":5,"transit":false,"station_name":"Tigaraksa"},{"time":3,"is_transit":false,"station_id":"CKY","station_name":"Cikoya","distance":2651,"transit":false,"i_long":106.411216,"i_lat":-6.33561,"line":3},{"distance":1853,"i_long":106.394373,"line":6,"station_id":"MJ","station_name":"Maja","is_transit":false,"i_lat":-6.332307,"time":4,"transit":false},{"line":3,"time":10,"i_lat":-6.334892,"distance":7293,"station_name":"Citeras","is_transit":false,"transit":false,"station_id":"CTR","i_long":106.332092}]]}