{"data":[[{"line":2,"i_long":106.816926,"station_name":"Depok","distance":0,"i_lat":-6.405256,"time":0,"is_transit":false,"station_id":"DP","transit":false},{"is_transit":false,"distance":1584,"i_lat":-6.391065,"station_id":"DPB","line":2,"time":3,"i_long":106.819451,"transit":false,"station_name":"Depokbaru"},{"station_name":"Pondok Cina","time":4,"i_long":106.831114,"line":2,"is_transit":false,"distance":2727,"station_id":"POC","i_lat":-6.369073,"transit":false},{"time":2,"transit":false,"line":2,"station_name":"Univ. Indonesia","is_transit":false,"station_id":"UI","i_lat":-6.360749,"distance":1109,"i_long":106.831474},{"time":3,"distance":2264,"line":2,"station_id":"UP","i_lat":-6.339291,"i_long":106.834175,"transit":false,"is_transit":false,"station_name":"Univ. Pancasila"},{"is_transit":false,"i_long":106.832616,"line":2,"i_lat":-6.330363,"station_id":"LNA","station_name":"Lenteng Agung","transit":false,"distance":1029,"time":2},{"time":3,"station_id":"TNT","transit":false,"is_transit":false,"distance":2671,"i_long":106.838896,"i_lat":-6.3080680000000005,"station_name":"Tanjung Barat","line":2},{"i_lat":-6.2842400000000005,"line":2,"i_long":106.843999,"time":4,"transit":false,"is_transit":false,"station_id":"PSM","distance":2820,"station_name":"Pasar Minggu"},{"station_name":"Pasar Minggu Baru","transit":false,"time":2,"i_lat":-6.263214,"distance":2380,"station_id":"PSMB","i_long":106.851577,"line":2,"is_transit":false},{"station_name":"Duren Kalibata","distance":824,"transit":false,"is_transit":false,"line":2,"i_lat":-6.255332,"i_long":106.85449,"time":2,"station_id":"DRN"},{"i_lat":-6.242512,"line":2,"station_name":"Cawang","is_transit":false,"distance":1546,"time":3,"i_long":106.856607,"station_id":"CW","transit":false},{"transit":false,"distance":1230,"station_name":"Tebet","is_transit":false,"line":2,"i_lat":-6.226659,"time":2,"i_long":106.857948,"station_id":"TEB"},{"is_transit":true,"line":2,"station_name":"Manggarai","transit":true,"i_lat":-6.209883,"station_id":"MRI","i_long":106.84912,"time":4,"distance":2610},{"station_id":"SUD","time":4,"i_lat":-6.202263,"line":1,"station_name":"Sudirman","is_transit":false,"distance":3186,"transit":false,"i_long":106.822649},{"transit":false,"is_transit":false,"i_lat":-6.201433,"station_name":"Sudirman Baru","line":1,"time":1,"station_id":"SUDB","distance":280,"i_long":106.819881},{"station_id":"KAT","transit":false,"time":1,"station_name":"Karet","i_lat":-6.20132,"line":1,"is_transit":false,"i_long":106.816351,"distance":471},{"station_name":"Tanah Abang","transit":true,"i_long":106.811091,"time":5,"is_transit":true,"distance":2029,"station_id":"THB","line":1,"i_lat":-6.185545},{"station_name":"Palmerah","station_id":"PLM","i_lat":-6.207404,"line":6,"is_transit":false,"distance":3191,"time":6,"transit":false,"i_long":106.79689},{"line":6,"is_transit":false,"station_name":"Kebayoran","time":7,"distance":3737,"i_long":106.780334,"transit":false,"i_lat":-6.237242,"station_id":"KBY"},{"i_long":106.74273,"transit":false,"station_id":"PDJ","time":8,"is_transit":false,"station_name":"Pondokranji","distance":6218,"i_lat":-6.276362,"line":6},{"i_lat":-6.288927,"transit":false,"time":3,"station_name":"Jurangmangu","is_transit":false,"station_id":"JMU","i_long":106.728916,"line":6,"distance":2179},{"time":4,"i_lat":-6.296963,"station_id":"SDM","i_long":106.712277,"station_name":"Sudimara","is_transit":false,"line":6,"distance":1994,"transit":false},{"transit":false,"line":6,"station_name":"Rawa Buntu","is_transit":false,"distance":4566,"i_lat":-6.314823,"i_long":106.675475,"time":6,"station_id":"RU"},{"distance":2413,"time":4,"station_id":"SRP","is_transit":false,"i_lat":-6.319871,"line":6,"transit":false,"i_long":106.66566,"station_name":"Serpong"},{"line":3,"time":4,"station_name":"Cisauk","transit":false,"is_transit":false,"distance":1784,"i_long":106.640411,"i_lat":-6.32484,"station_id":"CSK"},{"time":4,"is_transit":false,"station_name":"Cicayur","transit":false,"distance":2519,"i_long":106.617853,"station_id":"CC","line":3,"i_lat":-6.329547}],[{"distance":0,"time":0,"station_name":"Depok","transit":false,"i_lat":-6.405256,"line":2,"is_transit":false,"i_long":106.816926,"station_id":"DP"},{"station_name":"Depokbaru","distance":1584,"i_lat":-6.391065,"station_id":"DPB","is_transit":false,"i_long":106.819451,"transit":false,"time":3,"line":2},{"distance":2727,"transit":false,"station_name":"Pondok Cina","line":2,"time":4,"is_transit":false,"station_id":"POC","i_lat":-6.369073,"i_long":106.831114},{"i_long":106.831474,"line":2,"station_name":"Univ. Indonesia","time":2,"station_id":"UI","is_transit":false,"i_lat":-6.360749,"distance":1109,"transit":false},{"i_long":106.834175,"distance":2264,"station_id":"UP","time":3,"is_transit":false,"station_name":"Univ. Pancasila","transit":false,"i_lat":-6.339291,"line":2},{"is_transit":false,"transit":false,"i_long":106.832616,"distance":1029,"line":2,"i_lat":-6.330363,"time":2,"station_id":"LNA","station_name":"Lenteng Agung"},{"line":2,"time":3,"station_name":"Tanjung Barat","distance":2671,"i_lat":-6.3080680000000005,"transit":false,"is_transit":false,"station_id":"TNT","i_long":106.838896},{"i_long":106.843999,"distance":2820,"i_lat":-6.2842400000000005,"station_id":"PSM","is_transit":false,"transit":false,"time":4,"line":2,"station_name":"Pasar Minggu"},{"is_transit":false,"i_long":106.851577,"transit":false,"time":2,"station_id":"PSMB","i_lat":-6.263214,"distance":2380,"line":2,"station_name":"Pasar Minggu Baru"},{"station_name":"Duren Kalibata","i_lat":-6.255332,"station_id":"DRN","time":2,"line":2,"distance":824,"is_transit":false,"transit":false,"i_long":106.85449},{"transit":false,"i_long":106.856607,"station_name":"Cawang","line":2,"time":3,"is_transit":false,"i_lat":-6.242512,"distance":1546,"station_id":"CW"},{"i_lat":-6.226659,"time":2,"station_id":"TEB","station_name":"Tebet","i_long":106.857948,"is_transit":false,"transit":false,"distance":1230,"line":2},{"station_id":"MRI","is_transit":false,"i_lat":-6.209883,"transit":false,"station_name":"Manggarai","time":4,"i_long":106.84912,"line":2,"distance":2610},{"transit":false,"distance":1590,"is_transit":false,"i_long":106.840169,"station_id":"CKI","i_lat":-6.198556,"line":2,"time":4,"station_name":"Cikini"},{"distance":1750,"station_id":"GDD","i_lat":-6.186295,"station_name":"Gondangdia","time":3,"i_long":106.832183,"line":2,"is_transit":false,"transit":false},{"i_lat":-6.166716,"is_transit":false,"distance":2015,"station_name":"Juanda","transit":false,"i_long":106.828284,"time":4,"line":2,"station_id":"JUA"},{"i_long":106.827103,"i_lat":-6.160725,"station_id":"SW","time":2,"transit":false,"is_transit":false,"distance":1149,"station_name":"Sawah Besar","line":2},{"line":2,"is_transit":false,"distance":906,"time":2,"i_long":106.82482,"transit":false,"station_name":"Manggabesar","station_id":"MGB","i_lat":-6.149769},{"is_transit":false,"station_id":"JAY","transit":false,"station_name":"Jayakarta","time":2,"line":2,"i_lat":-6.141205,"i_long":106.820901,"distance":1080},{"time":4,"is_transit":true,"i_long":106.812439,"i_lat":-6.137569,"station_id":"JAKK","distance":1264,"station_name":"Jakarta Kota","transit":true,"line":2},{"distance":1364,"station_id":"KPB","transit":true,"line":4,"station_name":"Kampung Bandan","i_lat":-6.132549,"i_long":106.826365,"time":3,"is_transit":true},{"time":9,"distance":4102,"i_long":106.79867,"line":1,"station_id":"AK","is_transit":false,"station_name":"Angke","i_lat":-6.144674,"transit":false},{"i_lat":-6.155215,"i_long":106.800832,"line":1,"transit":false,"is_transit":false,"station_name":"Duri","station_id":"DU","time":4,"distance":1230},{"station_name":"Tanah Abang","i_lat":-6.185545,"transit":true,"time":8,"station_id":"THB","is_transit":true,"distance":3632,"i_long":106.811091,"line":1},{"time":6,"distance":3191,"i_long":106.79689,"i_lat":-6.207404,"station_id":"PLM","station_name":"Palmerah","transit":false,"is_transit":false,"line":6},{"distance":3737,"time":7,"transit":false,"i_lat":-6.237242,"station_name":"Kebayoran","station_id":"KBY","i_long":106.780334,"line":6,"is_transit":false},{"i_long":106.74273,"is_transit":false,"station_id":"PDJ","time":8,"transit":false,"i_lat":-6.276362,"line":6,"distance":6218,"station_name":"Pondokranji"},{"i_lat":-6.288927,"distance":2179,"line":6,"is_transit":false,"station_name":"Jurangmangu","station_id":"JMU","i_long":106.728916,"transit":false,"time":3},{"station_id":"SDM","is_transit":false,"line":6,"time":4,"transit":false,"i_lat":-6.296963,"distance":1994,"i_long":106.712277,"station_name":"Sudimara"},{"i_long":106.675475,"station_name":"Rawa Buntu","time":6,"station_id":"RU","transit":false,"is_transit":false,"line":6,"distance":4566,"i_lat":-6.314823},{"transit":false,"is_transit":false,"time":4,"station_id":"SRP","i_lat":-6.319871,"distance":2413,"station_name":"Serpong","line":6,"i_long":106.66566},{"i_long":106.640411,"distance":1784,"i_lat":-6.32484,"is_transit":false,"station_name":"Cisauk","line":3,"transit":false,"station_id":"CSK","time":4},{"i_lat":-6.329547,"i_long":106.617853,"distance":2519,"line":3,"transit":false,"is_transit":false,"station_id":"CC","time":4,"station_name":"Cicayur"}],[{"time":0,"station_name":"Depok","line":2,"is_transit":false,"i_long":106.816926,"distance":0,"station_id":"DP","i_lat":-6.405256,"transit":false},{"i_lat":-6.391065,"i_long":106.819451,"is_transit":false,"station_id":"DPB","line":2,"distance":1584,"time":3,"transit":false,"station_name":"Depokbaru"},{"station_name":"Pondok Cina","is_transit":false,"transit":false,"line":2,"distance":2727,"station_id":"POC","i_lat":-6.369073,"time":4,"i_long":106.831114},{"station_id":"UI","i_lat":-6.360749,"i_long":106.831474,"is_transit":false,"distance":1109,"time":2,"transit":false,"station_name":"Univ. Indonesia","line":2},{"distance":2264,"i_long":106.834175,"i_lat":-6.339291,"line":2,"transit":false,"is_transit":false,"station_name":"Univ. Pancasila","time":3,"station_id":"UP"},{"station_id":"LNA","i_lat":-6.330363,"transit":false,"distance":1029,"i_long":106.832616,"line":2,"time":2,"is_transit":false,"station_name":"Lenteng Agung"},{"station_id":"TNT","is_transit":false,"time":3,"station_name":"Tanjung Barat","line":2,"distance":2671,"i_long":106.838896,"i_lat":-6.3080680000000005,"transit":false},{"transit":false,"i_lat":-6.2842400000000005,"i_long":106.843999,"station_id":"PSM","station_name":"Pasar Minggu","line":2,"time":4,"is_transit":false,"distance":2820},{"i_lat":-6.263214,"station_name":"Pasar Minggu Baru","line":2,"i_long":106.851577,"is_transit":false,"time":2,"station_id":"PSMB","distance":2380,"transit":false},{"distance":824,"line":2,"i_lat":-6.255332,"station_name":"Duren Kalibata","is_transit":false,"station_id":"DRN","i_long":106.85449,"time":2,"transit":false},{"transit":false,"i_lat":-6.242512,"i_long":106.856607,"is_transit":false,"station_id":"CW","station_name":"Cawang","line":2,"time":3,"distance":1546},{"line":2,"transit":false,"i_long":106.857948,"is_transit":false,"station_id":"TEB","distance":1230,"i_lat":-6.226659,"station_name":"Tebet","time":2},{"distance":2610,"time":4,"station_name":"Manggarai","station_id":"MRI","transit":true,"is_transit":true,"i_lat":-6.209883,"i_long":106.84912,"line":2},{"time":2,"station_name":"Matraman","transit":false,"is_transit":false,"i_lat":-6.212485,"line":1,"station_id":"MTR","distance":1275,"i_long":106.858896},{"time":8,"distance":1377,"station_id":"JNG","i_lat":-6.215091,"line":1,"station_name":"Jatinegara","is_transit":true,"transit":true,"i_long":106.86807400000001},{"i_long":106.861737,"is_transit":false,"station_id":"POK","station_name":"Pondok Jati","transit":false,"distance":1236,"time":2,"i_lat":-6.209188,"line":11},{"line":11,"station_name":"Kramat","i_long":106.855437,"station_id":"KMT","is_transit":false,"time":2,"distance":1829,"transit":false,"i_lat":-6.193792},{"distance":973,"line":11,"station_name":"Gang Sentiong","time":1,"station_id":"GST","i_lat":-6.185975,"transit":false,"is_transit":false,"i_long":106.850107},{"line":11,"i_lat":-6.174784,"time":8,"distance":1567,"is_transit":false,"station_id":"PSE","station_name":"Pasar Senen","transit":false,"i_long":106.84368},{"i_long":106.839204,"distance":1436,"station_name":"Kemayoran","transit":false,"is_transit":false,"station_id":"KMO","i_lat":-6.161728,"line":11,"time":4},{"station_name":"Rajawali","transit":false,"line":11,"distance":1901,"is_transit":false,"station_id":"RJW","time":5,"i_long":106.836569,"i_lat":-6.14505},{"time":3,"station_name":"Kampung Bandan","i_long":106.826365,"is_transit":true,"transit":true,"i_lat":-6.132549,"line":4,"station_id":"KPB","distance":1444},{"i_long":106.79867,"i_lat":-6.144674,"is_transit":false,"distance":4102,"transit":false,"station_name":"Angke","station_id":"AK","time":9,"line":1},{"line":1,"transit":false,"is_transit":false,"time":4,"station_name":"Duri","distance":1230,"station_id":"DU","i_lat":-6.155215,"i_long":106.800832},{"line":1,"i_lat":-6.185545,"is_transit":true,"time":8,"distance":3632,"station_name":"Tanah Abang","station_id":"THB","transit":true,"i_long":106.811091},{"i_lat":-6.207404,"station_id":"PLM","distance":3191,"transit":false,"is_transit":false,"i_long":106.79689,"line":6,"station_name":"Palmerah","time":6},{"station_name":"Kebayoran","distance":3737,"i_long":106.780334,"time":7,"line":6,"i_lat":-6.237242,"transit":false,"station_id":"KBY","is_transit":false},{"is_transit":false,"station_name":"Pondokranji","i_lat":-6.276362,"i_long":106.74273,"line":6,"station_id":"PDJ","transit":false,"time":8,"distance":6218},{"time":3,"i_lat":-6.288927,"is_transit":false,"line":6,"transit":false,"station_name":"Jurangmangu","station_id":"JMU","i_long":106.728916,"distance":2179},{"distance":1994,"i_lat":-6.296963,"i_long":106.712277,"transit":false,"station_name":"Sudimara","line":6,"station_id":"SDM","time":4,"is_transit":false},{"station_id":"RU","time":6,"station_name":"Rawa Buntu","i_lat":-6.314823,"is_transit":false,"transit":false,"line":6,"i_long":106.675475,"distance":4566},{"distance":2413,"station_id":"SRP","transit":false,"i_lat":-6.319871,"time":4,"is_transit":false,"station_name":"Serpong","line":6,"i_long":106.66566},{"i_lat":-6.32484,"i_long":106.640411,"time":4,"is_transit":false,"distance":1784,"transit":false,"line":3,"station_id":"CSK","station_name":"Cisauk"},{"is_transit":false,"distance":2519,"station_id":"CC","i_long":106.617853,"i_lat":-6.329547,"station_name":"Cicayur","time":4,"line":3,"transit":false}]]}