{"data":[[{"station_name":"Depok","i_lat":-6.405256,"distance":0,"is_transit":false,"i_long":106.816926,"transit":false,"time":0,"station_id":"DP","line":2},{"time":3,"i_lat":-6.391065,"is_transit":false,"distance":1584,"i_long":106.819451,"transit":false,"station_name":"Depokbaru","line":2,"station_id":"DPB"},{"line":2,"time":4,"station_id":"POC","i_lat":-6.369073,"i_long":106.831114,"distance":2727,"station_name":"Pondok Cina","is_transit":false,"transit":false},{"distance":1109,"station_id":"UI","is_transit":false,"i_long":106.831474,"i_lat":-6.360749,"time":2,"transit":false,"line":2,"station_name":"Univ. Indonesia"},{"station_id":"UP","distance":2264,"station_name":"Univ. Pancasila","transit":false,"i_long":106.834175,"line":2,"is_transit":false,"time":3,"i_lat":-6.339291},{"station_id":"LNA","transit":false,"i_long":106.832616,"line":2,"station_name":"Lenteng Agung","time":2,"distance":1029,"is_transit":false,"i_lat":-6.330363},{"i_long":106.838896,"time":3,"station_id":"TNT","line":2,"i_lat":-6.3080680000000005,"distance":2671,"station_name":"Tanjung Barat","transit":false,"is_transit":false},{"line":2,"time":4,"distance":2820,"is_transit":false,"station_name":"Pasar Minggu","i_lat":-6.2842400000000005,"station_id":"PSM","transit":false,"i_long":106.843999},{"line":2,"i_long":106.851577,"station_id":"PSMB","time":2,"station_name":"Pasar Minggu Baru","i_lat":-6.263214,"transit":false,"is_transit":false,"distance":2380},{"station_name":"Duren Kalibata","is_transit":false,"transit":false,"distance":824,"i_lat":-6.255332,"station_id":"DRN","i_long":106.85449,"line":2,"time":2},{"distance":1546,"station_id":"CW","time":3,"i_lat":-6.242512,"transit":false,"i_long":106.856607,"line":2,"is_transit":false,"station_name":"Cawang"},{"line":2,"distance":1230,"is_transit":false,"i_long":106.857948,"time":2,"station_id":"TEB","station_name":"Tebet","transit":false,"i_lat":-6.226659},{"i_lat":-6.209883,"station_id":"MRI","station_name":"Manggarai","is_transit":true,"distance":2610,"transit":true,"time":4,"i_long":106.84912,"line":2},{"transit":false,"i_long":106.822649,"station_name":"Sudirman","station_id":"SUD","time":4,"i_lat":-6.202263,"line":1,"is_transit":false,"distance":3186},{"distance":280,"time":1,"transit":false,"is_transit":false,"i_lat":-6.201433,"i_long":106.819881,"station_id":"SUDB","station_name":"Sudirman Baru","line":1},{"time":1,"i_lat":-6.20132,"is_transit":false,"line":1,"distance":471,"transit":false,"station_id":"KAT","station_name":"Karet","i_long":106.816351},{"is_transit":true,"line":1,"distance":2029,"i_long":106.811091,"station_id":"THB","station_name":"Tanah Abang","i_lat":-6.185545,"time":5,"transit":true},{"is_transit":false,"time":6,"station_name":"Palmerah","transit":false,"station_id":"PLM","i_lat":-6.207404,"i_long":106.79689,"line":6,"distance":3191},{"i_lat":-6.237242,"transit":false,"station_id":"KBY","distance":3737,"station_name":"Kebayoran","time":7,"line":6,"is_transit":false,"i_long":106.780334},{"transit":false,"distance":6218,"is_transit":false,"i_lat":-6.276362,"i_long":106.74273,"line":6,"station_id":"PDJ","time":8,"station_name":"Pondokranji"},{"i_lat":-6.288927,"distance":2179,"i_long":106.728916,"line":6,"station_name":"Jurangmangu","transit":false,"time":3,"station_id":"JMU","is_transit":false},{"time":4,"transit":false,"distance":1994,"station_name":"Sudimara","is_transit":false,"i_long":106.712277,"station_id":"SDM","i_lat":-6.296963,"line":6},{"distance":4566,"i_lat":-6.314823,"transit":false,"line":6,"station_name":"Rawa Buntu","i_long":106.675475,"time":6,"is_transit":false,"station_id":"RU"},{"is_transit":false,"station_name":"Serpong","i_long":106.66566,"i_lat":-6.319871,"transit":false,"line":6,"time":4,"distance":2413,"station_id":"SRP"},{"distance":1784,"line":3,"is_transit":false,"time":4,"station_name":"Cisauk","i_long":106.640411,"station_id":"CSK","i_lat":-6.32484,"transit":false},{"i_long":106.617853,"station_name":"Cicayur","i_lat":-6.329547,"is_transit":false,"transit":false,"station_id":"CC","time":4,"distance":2519,"line":3},{"line":6,"i_lat":-6.3441410000000005,"i_long":106.568863,"is_transit":false,"station_name":"Parung Panjang","distance":5968,"station_id":"PRP","transit":false,"time":8},{"time":9,"is_transit":false,"station_name":"Cilejit","station_id":"CJT","transit":false,"i_long":106.508482,"line":3,"distance":7025,"i_lat":-6.354349},{"i_long":106.491338,"i_lat":-6.338021,"is_transit":false,"station_id":"DAR","time":6,"transit":false,"station_name":"Daru","line":0,"distance":2675},{"transit":false,"i_lat":-6.327251,"station_name":"Tenjo","is_transit":false,"time":5,"distance":3902,"line":6,"i_long":106.460812,"station_id":"TEJ"},{"station_id":"TGS","time":5,"i_lat":-6.328533,"transit":false,"distance":2974,"is_transit":false,"i_long":106.425991,"station_name":"Tigaraksa","line":6},{"is_transit":false,"station_name":"Cikoya","time":3,"transit":false,"i_lat":-6.33561,"i_long":106.411216,"line":3,"distance":2651,"station_id":"CKY"}],[{"line":2,"is_transit":false,"distance":0,"station_name":"Depok","i_lat":-6.405256,"time":0,"station_id":"DP","transit":false,"i_long":106.816926},{"i_long":106.819451,"line":2,"time":3,"distance":1584,"station_id":"DPB","is_transit":false,"transit":false,"i_lat":-6.391065,"station_name":"Depokbaru"},{"station_id":"POC","i_long":106.831114,"station_name":"Pondok Cina","i_lat":-6.369073,"line":2,"time":4,"is_transit":false,"distance":2727,"transit":false},{"time":2,"is_transit":false,"i_lat":-6.360749,"i_long":106.831474,"station_id":"UI","station_name":"Univ. Indonesia","transit":false,"distance":1109,"line":2},{"transit":false,"i_long":106.834175,"station_name":"Univ. Pancasila","station_id":"UP","time":3,"i_lat":-6.339291,"line":2,"distance":2264,"is_transit":false},{"time":2,"transit":false,"i_long":106.832616,"is_transit":false,"line":2,"distance":1029,"i_lat":-6.330363,"station_id":"LNA","station_name":"Lenteng Agung"},{"transit":false,"i_long":106.838896,"i_lat":-6.3080680000000005,"line":2,"distance":2671,"station_name":"Tanjung Barat","station_id":"TNT","time":3,"is_transit":false},{"distance":2820,"station_name":"Pasar Minggu","i_long":106.843999,"i_lat":-6.2842400000000005,"is_transit":false,"time":4,"line":2,"transit":false,"station_id":"PSM"},{"station_id":"PSMB","is_transit":false,"distance":2380,"i_long":106.851577,"i_lat":-6.263214,"time":2,"transit":false,"station_name":"Pasar Minggu Baru","line":2},{"station_name":"Duren Kalibata","distance":824,"transit":false,"i_long":106.85449,"line":2,"i_lat":-6.255332,"station_id":"DRN","time":2,"is_transit":false},{"is_transit":false,"transit":false,"time":3,"distance":1546,"i_long":106.856607,"i_lat":-6.242512,"station_id":"CW","station_name":"Cawang","line":2},{"i_lat":-6.226659,"station_name":"Tebet","line":2,"is_transit":false,"i_long":106.857948,"transit":false,"station_id":"TEB","distance":1230,"time":2},{"i_lat":-6.209883,"line":2,"station_id":"MRI","time":4,"transit":false,"i_long":106.84912,"is_transit":false,"station_name":"Manggarai","distance":2610},{"station_name":"Cikini","is_transit":false,"line":2,"distance":1590,"i_long":106.840169,"transit":false,"station_id":"CKI","time":4,"i_lat":-6.198556},{"is_transit":false,"time":3,"line":2,"transit":false,"station_name":"Gondangdia","i_long":106.832183,"distance":1750,"station_id":"GDD","i_lat":-6.186295},{"station_id":"JUA","i_lat":-6.166716,"i_long":106.828284,"time":4,"is_transit":false,"transit":false,"line":2,"station_name":"Juanda","distance":2015},{"time":2,"line":2,"is_transit":false,"transit":false,"station_id":"SW","i_long":106.827103,"station_name":"Sawah Besar","distance":1149,"i_lat":-6.160725},{"line":2,"time":2,"station_name":"Manggabesar","is_transit":false,"station_id":"MGB","i_long":106.82482,"distance":906,"transit":false,"i_lat":-6.149769},{"time":2,"i_long":106.820901,"station_id":"JAY","distance":1080,"is_transit":false,"station_name":"Jayakarta","transit":false,"i_lat":-6.141205,"line":2},{"line":2,"station_name":"Jakarta Kota","distance":1264,"time":4,"i_long":106.812439,"i_lat":-6.137569,"transit":true,"station_id":"JAKK","is_transit":true},{"distance":1364,"station_name":"Kampung Bandan","time":3,"line":4,"i_long":106.826365,"transit":true,"i_lat":-6.132549,"is_transit":true,"station_id":"KPB"},{"time":9,"distance":4102,"station_id":"AK","transit":false,"line":1,"i_lat":-6.144674,"i_long":106.79867,"is_transit":false,"station_name":"Angke"},{"station_id":"DU","line":1,"i_lat":-6.155215,"transit":false,"i_long":106.800832,"is_transit":false,"time":4,"distance":1230,"station_name":"Duri"},{"line":1,"transit":true,"i_long":106.811091,"station_name":"Tanah Abang","i_lat":-6.185545,"time":8,"station_id":"THB","distance":3632,"is_transit":true},{"time":6,"line":6,"i_long":106.79689,"i_lat":-6.207404,"station_id":"PLM","station_name":"Palmerah","transit":false,"is_transit":false,"distance":3191},{"distance":3737,"station_name":"Kebayoran","is_transit":false,"station_id":"KBY","time":7,"line":6,"transit":false,"i_lat":-6.237242,"i_long":106.780334},{"time":8,"transit":false,"station_id":"PDJ","i_lat":-6.276362,"line":6,"is_transit":false,"distance":6218,"station_name":"Pondokranji","i_long":106.74273},{"station_name":"Jurangmangu","line":6,"distance":2179,"i_lat":-6.288927,"transit":false,"is_transit":false,"i_long":106.728916,"station_id":"JMU","time":3},{"i_lat":-6.296963,"i_long":106.712277,"is_transit":false,"station_id":"SDM","distance":1994,"line":6,"station_name":"Sudimara","transit":false,"time":4},{"is_transit":false,"line":6,"i_long":106.675475,"distance":4566,"time":6,"station_id":"RU","station_name":"Rawa Buntu","transit":false,"i_lat":-6.314823},{"station_name":"Serpong","distance":2413,"i_long":106.66566,"line":6,"i_lat":-6.319871,"transit":false,"station_id":"SRP","time":4,"is_transit":false},{"line":3,"is_transit":false,"station_name":"Cisauk","transit":false,"distance":1784,"station_id":"CSK","i_long":106.640411,"i_lat":-6.32484,"time":4},{"i_lat":-6.329547,"is_transit":false,"station_id":"CC","i_long":106.617853,"station_name":"Cicayur","transit":false,"time":4,"distance":2519,"line":3},{"time":8,"transit":false,"is_transit":false,"line":6,"i_lat":-6.3441410000000005,"station_name":"Parung Panjang","station_id":"PRP","i_long":106.568863,"distance":5968},{"i_long":106.508482,"i_lat":-6.354349,"time":9,"transit":false,"station_name":"Cilejit","is_transit":false,"distance":7025,"station_id":"CJT","line":3},{"station_name":"Daru","i_lat":-6.338021,"transit":false,"time":6,"line":0,"i_long":106.491338,"distance":2675,"station_id":"DAR","is_transit":false},{"i_lat":-6.327251,"i_long":106.460812,"is_transit":false,"line":6,"station_id":"TEJ","station_name":"Tenjo","time":5,"distance":3902,"transit":false},{"station_name":"Tigaraksa","i_long":106.425991,"is_transit":false,"station_id":"TGS","distance":2974,"transit":false,"line":6,"time":5,"i_lat":-6.328533},{"i_long":106.411216,"distance":2651,"station_name":"Cikoya","line":3,"is_transit":false,"station_id":"CKY","time":3,"transit":false,"i_lat":-6.33561}],[{"is_transit":false,"station_name":"Depok","station_id":"DP","time":0,"i_lat":-6.405256,"i_long":106.816926,"distance":0,"line":2,"transit":false},{"transit":false,"time":3,"distance":1584,"i_long":106.819451,"station_id":"DPB","is_transit":false,"i_lat":-6.391065,"station_name":"Depokbaru","line":2},{"is_transit":false,"time":4,"i_long":106.831114,"distance":2727,"i_lat":-6.369073,"line":2,"station_id":"POC","transit":false,"station_name":"Pondok Cina"},{"transit":false,"is_transit":false,"station_name":"Univ. Indonesia","time":2,"i_long":106.831474,"i_lat":-6.360749,"line":2,"station_id":"UI","distance":1109},{"transit":false,"distance":2264,"i_long":106.834175,"station_id":"UP","is_transit":false,"time":3,"station_name":"Univ. Pancasila","i_lat":-6.339291,"line":2},{"distance":1029,"time":2,"i_long":106.832616,"station_name":"Lenteng Agung","is_transit":false,"transit":false,"line":2,"i_lat":-6.330363,"station_id":"LNA"},{"time":3,"i_long":106.838896,"station_id":"TNT","transit":false,"is_transit":false,"distance":2671,"station_name":"Tanjung Barat","i_lat":-6.3080680000000005,"line":2},{"is_transit":false,"time":4,"station_name":"Pasar Minggu","station_id":"PSM","i_lat":-6.2842400000000005,"distance":2820,"i_long":106.843999,"line":2,"transit":false},{"station_id":"PSMB","time":2,"transit":false,"distance":2380,"i_lat":-6.263214,"i_long":106.851577,"is_transit":false,"line":2,"station_name":"Pasar Minggu Baru"},{"i_long":106.85449,"line":2,"station_name":"Duren Kalibata","distance":824,"is_transit":false,"i_lat":-6.255332,"time":2,"transit":false,"station_id":"DRN"},{"line":2,"station_name":"Cawang","time":3,"transit":false,"distance":1546,"is_transit":false,"i_lat":-6.242512,"i_long":106.856607,"station_id":"CW"},{"i_long":106.857948,"time":2,"line":2,"distance":1230,"is_transit":false,"station_id":"TEB","transit":false,"station_name":"Tebet","i_lat":-6.226659},{"distance":2610,"i_long":106.84912,"line":2,"time":4,"is_transit":true,"transit":true,"station_id":"MRI","station_name":"Manggarai","i_lat":-6.209883},{"is_transit":false,"i_lat":-6.212485,"station_id":"MTR","transit":false,"distance":1275,"i_long":106.858896,"line":1,"station_name":"Matraman","time":2},{"time":8,"distance":1377,"station_id":"JNG","station_name":"Jatinegara","is_transit":true,"transit":true,"i_lat":-6.215091,"line":1,"i_long":106.86807400000001},{"station_id":"POK","is_transit":false,"i_lat":-6.209188,"station_name":"Pondok Jati","distance":1236,"line":11,"time":2,"i_long":106.861737,"transit":false},{"i_lat":-6.193792,"i_long":106.855437,"is_transit":false,"station_name":"Kramat","distance":1829,"line":11,"transit":false,"time":2,"station_id":"KMT"},{"i_long":106.850107,"station_id":"GST","time":1,"is_transit":false,"i_lat":-6.185975,"line":11,"transit":false,"station_name":"Gang Sentiong","distance":973},{"line":11,"i_long":106.84368,"station_name":"Pasar Senen","station_id":"PSE","time":8,"transit":false,"distance":1567,"is_transit":false,"i_lat":-6.174784},{"is_transit":false,"line":11,"station_name":"Kemayoran","transit":false,"station_id":"KMO","i_lat":-6.161728,"time":4,"distance":1436,"i_long":106.839204},{"i_lat":-6.14505,"transit":false,"time":5,"station_name":"Rajawali","station_id":"RJW","distance":1901,"i_long":106.836569,"line":11,"is_transit":false},{"time":3,"i_lat":-6.132549,"i_long":106.826365,"transit":true,"line":4,"station_name":"Kampung Bandan","is_transit":true,"distance":1444,"station_id":"KPB"},{"line":1,"time":9,"station_id":"AK","i_long":106.79867,"station_name":"Angke","is_transit":false,"transit":false,"distance":4102,"i_lat":-6.144674},{"transit":false,"i_lat":-6.155215,"i_long":106.800832,"line":1,"station_name":"Duri","distance":1230,"is_transit":false,"time":4,"station_id":"DU"},{"i_lat":-6.185545,"i_long":106.811091,"distance":3632,"transit":true,"line":1,"station_name":"Tanah Abang","time":8,"is_transit":true,"station_id":"THB"},{"time":6,"station_id":"PLM","i_long":106.79689,"station_name":"Palmerah","transit":false,"line":6,"is_transit":false,"distance":3191,"i_lat":-6.207404},{"distance":3737,"time":7,"station_name":"Kebayoran","line":6,"is_transit":false,"transit":false,"i_long":106.780334,"station_id":"KBY","i_lat":-6.237242},{"station_name":"Pondokranji","station_id":"PDJ","line":6,"time":8,"transit":false,"is_transit":false,"distance":6218,"i_lat":-6.276362,"i_long":106.74273},{"transit":false,"time":3,"station_id":"JMU","station_name":"Jurangmangu","distance":2179,"is_transit":false,"i_long":106.728916,"i_lat":-6.288927,"line":6},{"station_name":"Sudimara","time":4,"transit":false,"i_lat":-6.296963,"i_long":106.712277,"line":6,"station_id":"SDM","is_transit":false,"distance":1994},{"time":6,"distance":4566,"transit":false,"is_transit":false,"i_long":106.675475,"station_name":"Rawa Buntu","line":6,"station_id":"RU","i_lat":-6.314823},{"station_id":"SRP","station_name":"Serpong","distance":2413,"i_long":106.66566,"line":6,"transit":false,"is_transit":false,"i_lat":-6.319871,"time":4},{"time":4,"is_transit":false,"distance":1784,"station_name":"Cisauk","i_long":106.640411,"station_id":"CSK","i_lat":-6.32484,"line":3,"transit":false},{"i_lat":-6.329547,"distance":2519,"line":3,"is_transit":false,"station_id":"CC","time":4,"station_name":"Cicayur","i_long":106.617853,"transit":false},{"i_long":106.568863,"time":8,"station_name":"Parung Panjang","transit":false,"station_id":"PRP","i_lat":-6.3441410000000005,"line":6,"is_transit":false,"distance":5968},{"is_transit":false,"distance":7025,"transit":false,"station_id":"CJT","time":9,"station_name":"Cilejit","i_long":106.508482,"line":3,"i_lat":-6.354349},{"transit":false,"i_lat":-6.338021,"i_long":106.491338,"time":6,"line":0,"is_transit":false,"distance":2675,"station_id":"DAR","station_name":"Daru"},{"time":5,"i_lat":-6.327251,"line":6,"station_id":"TEJ","transit":false,"i_long":106.460812,"is_transit":false,"station_name":"Tenjo","distance":3902},{"transit":false,"station_id":"TGS","line":6,"time":5,"i_lat":-6.328533,"i_long":106.425991,"is_transit":false,"station_name":"Tigaraksa","distance":2974},{"station_name":"Cikoya","line":3,"transit":false,"i_lat":-6.33561,"is_transit":false,"i_long":106.411216,"station_id":"CKY","time":3,"distance":2651}]]}