{"data":[[{"station_name":"Depok","time":0,"transit":false,"is_transit":false,"distance":0,"station_id":"DP","i_lat":-6.405256,"i_long":106.816926,"line":0},{"line":0,"transit":false,"i_long":106.819451,"time":3,"distance":1584,"station_id":"DPB","station_name":"Depokbaru","is_transit":false,"i_lat":-6.391065},{"i_long":106.831114,"distance":2727,"time":4,"transit":false,"station_id":"POC","station_name":"Pondok Cina","i_lat":-6.369073,"is_transit":false,"line":2},{"line":2,"transit":false,"i_lat":-6.360749,"distance":1109,"time":2,"i_long":106.831474,"station_name":"Univ. Indonesia","station_id":"UI","is_transit":false},{"station_name":"Univ. Pancasila","time":3,"distance":2264,"transit":false,"line":2,"i_lat":-6.339291,"station_id":"UP","i_long":106.834175,"is_transit":false},{"i_long":106.832616,"is_transit":false,"station_id":"LNA","time":2,"i_lat":-6.330363,"line":2,"station_name":"Lenteng Agung","transit":false,"distance":1029},{"i_lat":-6.3080680000000005,"time":3,"station_name":"Tanjung Barat","station_id":"TNT","i_long":106.838896,"line":2,"transit":false,"distance":2671,"is_transit":false},{"i_long":106.843999,"line":2,"station_name":"Pasar Minggu","station_id":"PSM","time":4,"distance":2820,"transit":false,"is_transit":false,"i_lat":-6.2842400000000005},{"transit":false,"station_name":"Pasar Minggu Baru","line":2,"station_id":"PSMB","distance":2380,"i_lat":-6.263214,"i_long":106.851577,"is_transit":false,"time":2},{"distance":824,"time":2,"station_id":"DRN","is_transit":false,"line":0,"transit":false,"station_name":"Duren Kalibata","i_lat":-6.255332,"i_long":106.85449},{"transit":false,"distance":1546,"station_name":"Cawang","i_lat":-6.242512,"i_long":106.856607,"station_id":"CW","time":3,"line":0,"is_transit":false},{"station_name":"Tebet","transit":false,"is_transit":false,"i_long":106.857948,"line":2,"station_id":"TEB","time":2,"distance":1230,"i_lat":-6.226659},{"transit":true,"station_id":"MRI","station_name":"Manggarai","i_lat":-6.209883,"line":0,"is_transit":true,"distance":2610,"i_long":106.84912,"time":4},{"distance":3186,"i_long":106.822649,"is_transit":false,"time":4,"transit":false,"i_lat":-6.202263,"line":1,"station_id":"SUD","station_name":"Sudirman"},{"is_transit":false,"station_name":"Sudirman Baru","station_id":"SUDB","transit":false,"i_lat":-6.201433,"i_long":106.819881,"line":1,"time":1,"distance":280},{"station_id":"KAT","transit":false,"is_transit":false,"time":1,"distance":471,"station_name":"Karet","i_long":106.816351,"line":1,"i_lat":-6.20132},{"i_long":106.811091,"distance":2029,"is_transit":true,"transit":true,"station_name":"Tanah Abang","station_id":"THB","i_lat":-6.185545,"time":5,"line":1},{"line":6,"is_transit":false,"transit":false,"i_long":106.79689,"station_name":"Palmerah","time":6,"i_lat":-6.207404,"station_id":"PLM","distance":3191},{"station_name":"Kebayoran","i_lat":-6.237242,"station_id":"KBY","is_transit":false,"transit":false,"line":6,"distance":3737,"time":7,"i_long":106.780334},{"i_lat":-6.276362,"is_transit":false,"i_long":106.74273,"distance":6218,"transit":false,"time":8,"station_id":"PDJ","line":6,"station_name":"Pondokranji"},{"time":3,"distance":2179,"is_transit":false,"i_long":106.728916,"line":6,"station_id":"JMU","transit":false,"i_lat":-6.288927,"station_name":"Jurangmangu"},{"line":6,"transit":false,"is_transit":false,"distance":1994,"station_id":"SDM","i_lat":-6.296963,"station_name":"Sudimara","i_long":106.712277,"time":4},{"line":6,"i_long":106.675475,"station_name":"Rawa Buntu","distance":4566,"station_id":"RU","i_lat":-6.314823,"transit":false,"time":6,"is_transit":false},{"i_lat":-6.319871,"station_id":"SRP","station_name":"Serpong","transit":false,"time":4,"distance":2413,"i_long":106.66566,"line":6,"is_transit":false},{"is_transit":false,"i_lat":-6.32484,"i_long":106.640411,"station_name":"Cisauk","transit":false,"line":0,"station_id":"CSK","distance":1784,"time":4},{"station_id":"CC","time":4,"line":0,"i_lat":-6.329547,"i_long":106.617853,"is_transit":false,"distance":2519,"station_name":"Cicayur","transit":false}],[{"station_id":"DP","transit":false,"time":0,"line":0,"distance":0,"station_name":"Depok","i_lat":-6.405256,"i_long":106.816926,"is_transit":false},{"i_lat":-6.391065,"distance":1584,"transit":false,"station_id":"DPB","time":3,"i_long":106.819451,"line":0,"is_transit":false,"station_name":"Depokbaru"},{"distance":2727,"line":2,"i_long":106.831114,"time":4,"transit":false,"station_id":"POC","i_lat":-6.369073,"station_name":"Pondok Cina","is_transit":false},{"i_long":106.831474,"station_id":"UI","transit":false,"is_transit":false,"line":2,"distance":1109,"station_name":"Univ. Indonesia","time":2,"i_lat":-6.360749},{"line":2,"station_id":"UP","distance":2264,"station_name":"Univ. Pancasila","transit":false,"i_long":106.834175,"is_transit":false,"time":3,"i_lat":-6.339291},{"time":2,"i_long":106.832616,"line":2,"is_transit":false,"transit":false,"distance":1029,"station_id":"LNA","i_lat":-6.330363,"station_name":"Lenteng Agung"},{"i_long":106.838896,"station_name":"Tanjung Barat","line":2,"is_transit":false,"time":3,"transit":false,"distance":2671,"station_id":"TNT","i_lat":-6.3080680000000005},{"time":4,"transit":false,"line":2,"is_transit":false,"station_name":"Pasar Minggu","i_lat":-6.2842400000000005,"distance":2820,"i_long":106.843999,"station_id":"PSM"},{"station_name":"Pasar Minggu Baru","i_long":106.851577,"is_transit":false,"time":2,"line":2,"i_lat":-6.263214,"station_id":"PSMB","distance":2380,"transit":false},{"is_transit":false,"i_lat":-6.255332,"i_long":106.85449,"line":0,"time":2,"distance":824,"station_name":"Duren Kalibata","transit":false,"station_id":"DRN"},{"line":0,"is_transit":false,"distance":1546,"time":3,"i_lat":-6.242512,"station_id":"CW","station_name":"Cawang","transit":false,"i_long":106.856607},{"time":2,"i_lat":-6.226659,"line":2,"i_long":106.857948,"is_transit":false,"station_id":"TEB","transit":false,"distance":1230,"station_name":"Tebet"},{"station_id":"MRI","i_lat":-6.209883,"time":4,"i_long":106.84912,"station_name":"Manggarai","distance":2610,"line":0,"is_transit":true,"transit":true},{"station_id":"CKI","line":0,"distance":1590,"i_long":106.840169,"station_name":"Cikini","time":4,"is_transit":false,"i_lat":-6.198556,"transit":false},{"line":2,"station_name":"Gondangdia","i_long":106.832183,"transit":false,"time":3,"is_transit":false,"station_id":"GDD","distance":1750,"i_lat":-6.186295},{"station_name":"Juanda","distance":2015,"i_lat":-6.166716,"is_transit":false,"transit":false,"i_long":106.828284,"line":2,"time":4,"station_id":"JUA"},{"line":2,"transit":false,"distance":1149,"time":2,"station_id":"SW","station_name":"Sawah Besar","i_lat":-6.160725,"i_long":106.827103,"is_transit":false},{"distance":906,"station_name":"Manggabesar","i_lat":-6.149769,"i_long":106.82482,"is_transit":false,"station_id":"MGB","time":2,"transit":false,"line":2},{"i_lat":-6.141205,"i_long":106.820901,"line":7,"station_id":"JAY","station_name":"Jayakarta","distance":1080,"transit":false,"is_transit":false,"time":2},{"i_lat":-6.137569,"distance":1264,"station_id":"JAKK","transit":true,"line":0,"time":4,"station_name":"Jakarta Kota","is_transit":true,"i_long":106.812439},{"station_name":"Kampung Bandan","line":0,"transit":false,"is_transit":true,"time":3,"distance":1364,"i_long":106.826365,"i_lat":-6.132549,"station_id":"KPB"},{"line":0,"transit":false,"station_id":"AK","is_transit":false,"time":9,"i_long":106.79867,"distance":4102,"station_name":"Angke","i_lat":-6.144674},{"station_name":"Duri","time":4,"distance":1230,"transit":true,"line":1,"i_long":106.800832,"i_lat":-6.155215,"station_id":"DU","is_transit":true},{"transit":true,"distance":3632,"i_long":106.811091,"is_transit":true,"station_id":"THB","line":1,"i_lat":-6.185545,"time":8,"station_name":"Tanah Abang"},{"is_transit":false,"station_name":"Palmerah","time":6,"line":6,"distance":3191,"station_id":"PLM","transit":false,"i_lat":-6.207404,"i_long":106.79689},{"is_transit":false,"time":7,"line":6,"transit":false,"station_id":"KBY","i_lat":-6.237242,"i_long":106.780334,"station_name":"Kebayoran","distance":3737},{"station_name":"Pondokranji","line":6,"is_transit":false,"transit":false,"distance":6218,"i_long":106.74273,"station_id":"PDJ","time":8,"i_lat":-6.276362},{"transit":false,"time":3,"i_lat":-6.288927,"distance":2179,"station_id":"JMU","i_long":106.728916,"is_transit":false,"station_name":"Jurangmangu","line":6},{"transit":false,"station_id":"SDM","station_name":"Sudimara","time":4,"distance":1994,"is_transit":false,"line":6,"i_lat":-6.296963,"i_long":106.712277},{"i_long":106.675475,"station_id":"RU","i_lat":-6.314823,"station_name":"Rawa Buntu","distance":4566,"line":6,"is_transit":false,"time":6,"transit":false},{"is_transit":false,"i_lat":-6.319871,"line":6,"time":4,"transit":false,"station_id":"SRP","station_name":"Serpong","distance":2413,"i_long":106.66566},{"transit":false,"is_transit":false,"time":4,"distance":1784,"station_name":"Cisauk","station_id":"CSK","i_lat":-6.32484,"i_long":106.640411,"line":0},{"is_transit":false,"i_lat":-6.329547,"station_id":"CC","time":4,"distance":2519,"i_long":106.617853,"line":0,"transit":false,"station_name":"Cicayur"}],[{"i_lat":-6.405256,"i_long":106.816926,"station_id":"DP","transit":false,"station_name":"Depok","time":0,"line":0,"is_transit":false,"distance":0},{"is_transit":false,"i_lat":-6.391065,"station_name":"Depokbaru","distance":1584,"transit":false,"station_id":"DPB","time":3,"i_long":106.819451,"line":0},{"station_name":"Pondok Cina","i_lat":-6.369073,"distance":2727,"i_long":106.831114,"transit":false,"station_id":"POC","is_transit":false,"time":4,"line":2},{"i_lat":-6.360749,"station_id":"UI","distance":1109,"is_transit":false,"transit":false,"station_name":"Univ. Indonesia","time":2,"i_long":106.831474,"line":2},{"is_transit":false,"i_lat":-6.339291,"time":3,"station_id":"UP","i_long":106.834175,"distance":2264,"transit":false,"line":2,"station_name":"Univ. Pancasila"},{"distance":1029,"is_transit":false,"station_id":"LNA","line":2,"transit":false,"i_lat":-6.330363,"station_name":"Lenteng Agung","time":2,"i_long":106.832616},{"time":3,"transit":false,"line":2,"distance":2671,"station_name":"Tanjung Barat","is_transit":false,"station_id":"TNT","i_lat":-6.3080680000000005,"i_long":106.838896},{"distance":2820,"i_lat":-6.2842400000000005,"line":2,"station_id":"PSM","time":4,"station_name":"Pasar Minggu","transit":false,"is_transit":false,"i_long":106.843999},{"station_id":"PSMB","i_lat":-6.263214,"line":2,"station_name":"Pasar Minggu Baru","i_long":106.851577,"time":2,"distance":2380,"transit":false,"is_transit":false},{"station_name":"Duren Kalibata","i_lat":-6.255332,"distance":824,"transit":false,"station_id":"DRN","time":2,"i_long":106.85449,"is_transit":false,"line":0},{"i_lat":-6.242512,"is_transit":false,"transit":false,"station_id":"CW","distance":1546,"i_long":106.856607,"station_name":"Cawang","line":0,"time":3},{"i_lat":-6.226659,"station_id":"TEB","distance":1230,"i_long":106.857948,"station_name":"Tebet","line":2,"transit":false,"is_transit":false,"time":2},{"time":4,"is_transit":true,"i_lat":-6.209883,"station_id":"MRI","transit":true,"station_name":"Manggarai","i_long":106.84912,"distance":2610,"line":0},{"time":2,"i_lat":-6.212485,"station_name":"Matraman","is_transit":false,"distance":1275,"i_long":106.858896,"line":1,"transit":false,"station_id":"MTR"},{"time":8,"line":0,"is_transit":true,"i_lat":-6.215091,"station_name":"Jatinegara","station_id":"JNG","transit":true,"i_long":106.86807400000001,"distance":1377},{"i_long":106.861737,"is_transit":false,"transit":false,"distance":1236,"i_lat":-6.209188,"time":2,"station_id":"POK","station_name":"Pondok Jati","line":11},{"i_long":106.855437,"i_lat":-6.193792,"distance":1829,"transit":false,"station_name":"Kramat","time":2,"is_transit":false,"station_id":"KMT","line":11},{"distance":973,"station_id":"GST","is_transit":false,"time":1,"transit":false,"i_lat":-6.185975,"i_long":106.850107,"line":11,"station_name":"Gang Sentiong"},{"is_transit":false,"transit":false,"line":11,"station_name":"Pasar Senen","i_long":106.84368,"i_lat":-6.174784,"station_id":"PSE","time":8,"distance":1567},{"is_transit":false,"station_id":"KMO","time":4,"i_lat":-6.161728,"transit":false,"distance":1436,"line":11,"station_name":"Kemayoran","i_long":106.839204},{"is_transit":false,"distance":1901,"line":11,"time":5,"transit":false,"i_lat":-6.14505,"station_id":"RJW","i_long":106.836569,"station_name":"Rajawali"},{"i_lat":-6.132549,"distance":1444,"i_long":106.826365,"time":3,"transit":true,"station_name":"Kampung Bandan","line":0,"station_id":"KPB","is_transit":true},{"distance":4102,"station_id":"AK","is_transit":false,"i_long":106.79867,"station_name":"Angke","time":9,"i_lat":-6.144674,"transit":false,"line":0},{"station_name":"Duri","is_transit":true,"transit":true,"i_lat":-6.155215,"line":1,"time":4,"distance":1230,"i_long":106.800832,"station_id":"DU"},{"time":8,"line":1,"station_name":"Tanah Abang","is_transit":true,"i_long":106.811091,"station_id":"THB","distance":3632,"i_lat":-6.185545,"transit":true},{"is_transit":false,"transit":false,"i_long":106.79689,"distance":3191,"time":6,"i_lat":-6.207404,"line":6,"station_id":"PLM","station_name":"Palmerah"},{"station_id":"KBY","time":7,"i_lat":-6.237242,"station_name":"Kebayoran","distance":3737,"transit":false,"i_long":106.780334,"line":6,"is_transit":false},{"line":6,"is_transit":false,"station_id":"PDJ","transit":false,"i_lat":-6.276362,"time":8,"distance":6218,"i_long":106.74273,"station_name":"Pondokranji"},{"distance":2179,"station_name":"Jurangmangu","time":3,"transit":false,"i_lat":-6.288927,"station_id":"JMU","i_long":106.728916,"is_transit":false,"line":6},{"station_name":"Sudimara","line":6,"distance":1994,"transit":false,"i_long":106.712277,"is_transit":false,"i_lat":-6.296963,"time":4,"station_id":"SDM"},{"time":6,"is_transit":false,"i_long":106.675475,"station_id":"RU","line":6,"station_name":"Rawa Buntu","transit":false,"i_lat":-6.314823,"distance":4566},{"transit":false,"is_transit":false,"distance":2413,"station_id":"SRP","line":6,"time":4,"i_long":106.66566,"i_lat":-6.319871,"station_name":"Serpong"},{"time":4,"station_name":"Cisauk","is_transit":false,"i_long":106.640411,"distance":1784,"transit":false,"i_lat":-6.32484,"station_id":"CSK","line":0},{"i_long":106.617853,"time":4,"distance":2519,"transit":false,"i_lat":-6.329547,"station_id":"CC","is_transit":false,"station_name":"Cicayur","line":0}]]}