{"data":[[{"distance":0,"is_transit":false,"station_id":"DP","transit":false,"i_long":106.816926,"line":2,"station_name":"Depok","time":0,"i_lat":-6.405256},{"is_transit":false,"time":3,"station_id":"DPB","i_long":106.819451,"i_lat":-6.391065,"line":2,"distance":1584,"station_name":"Depokbaru","transit":false},{"i_lat":-6.369073,"distance":2727,"transit":false,"station_name":"Pondok Cina","station_id":"POC","i_long":106.831114,"time":4,"is_transit":false,"line":2},{"transit":false,"station_name":"Univ. Indonesia","is_transit":false,"distance":1109,"line":2,"time":2,"station_id":"UI","i_lat":-6.360749,"i_long":106.831474},{"station_name":"Univ. Pancasila","station_id":"UP","i_long":106.834175,"i_lat":-6.339291,"time":3,"is_transit":false,"distance":2264,"line":2,"transit":false},{"station_name":"Lenteng Agung","line":2,"transit":false,"distance":1029,"i_lat":-6.330363,"i_long":106.832616,"station_id":"LNA","is_transit":false,"time":2},{"i_long":106.838896,"line":2,"distance":2671,"is_transit":false,"i_lat":-6.3080680000000005,"station_name":"Tanjung Barat","station_id":"TNT","transit":false,"time":3},{"is_transit":false,"distance":2820,"station_id":"PSM","i_long":106.843999,"station_name":"Pasar Minggu","time":4,"line":2,"transit":false,"i_lat":-6.2842400000000005},{"station_name":"Pasar Minggu Baru","is_transit":false,"station_id":"PSMB","transit":false,"time":2,"distance":2380,"i_long":106.851577,"line":2,"i_lat":-6.263214},{"line":2,"time":2,"is_transit":false,"transit":false,"i_lat":-6.255332,"station_name":"Duren Kalibata","distance":824,"i_long":106.85449,"station_id":"DRN"},{"distance":1546,"transit":false,"i_lat":-6.242512,"time":3,"line":2,"is_transit":false,"station_name":"Cawang","station_id":"CW","i_long":106.856607},{"i_long":106.857948,"line":2,"station_id":"TEB","is_transit":false,"distance":1230,"i_lat":-6.226659,"station_name":"Tebet","transit":false,"time":2},{"line":2,"transit":true,"station_id":"MRI","distance":2610,"station_name":"Manggarai","is_transit":true,"i_long":106.84912,"time":4,"i_lat":-6.209883},{"time":4,"distance":3186,"is_transit":false,"i_lat":-6.202263,"line":1,"station_name":"Sudirman","station_id":"SUD","i_long":106.822649,"transit":false},{"time":1,"distance":280,"i_lat":-6.201433,"transit":false,"line":1,"station_id":"SUDB","station_name":"Sudirman Baru","i_long":106.819881,"is_transit":false},{"station_name":"Karet","i_lat":-6.20132,"time":1,"transit":false,"is_transit":false,"distance":471,"station_id":"KAT","line":1,"i_long":106.816351},{"line":1,"is_transit":true,"distance":2029,"transit":true,"time":5,"station_id":"THB","i_lat":-6.185545,"station_name":"Tanah Abang","i_long":106.811091},{"time":6,"distance":3191,"i_lat":-6.207404,"line":6,"transit":false,"station_id":"PLM","i_long":106.79689,"is_transit":false,"station_name":"Palmerah"},{"line":6,"distance":3737,"station_name":"Kebayoran","station_id":"KBY","transit":false,"is_transit":false,"time":7,"i_long":106.780334,"i_lat":-6.237242},{"i_lat":-6.276362,"distance":6218,"station_name":"Pondokranji","is_transit":false,"station_id":"PDJ","line":6,"time":8,"i_long":106.74273,"transit":false},{"transit":false,"time":3,"i_lat":-6.288927,"distance":2179,"station_id":"JMU","is_transit":false,"i_long":106.728916,"line":6,"station_name":"Jurangmangu"},{"i_lat":-6.296963,"transit":false,"i_long":106.712277,"station_name":"Sudimara","station_id":"SDM","time":4,"is_transit":false,"distance":1994,"line":6},{"i_long":106.675475,"station_name":"Rawa Buntu","time":6,"line":6,"station_id":"RU","transit":false,"i_lat":-6.314823,"is_transit":false,"distance":4566},{"line":6,"station_id":"SRP","transit":false,"is_transit":false,"station_name":"Serpong","i_long":106.66566,"time":4,"i_lat":-6.319871,"distance":2413},{"i_long":106.640411,"time":4,"i_lat":-6.32484,"transit":false,"station_name":"Cisauk","distance":1784,"line":3,"is_transit":false,"station_id":"CSK"},{"distance":2519,"transit":false,"i_lat":-6.329547,"i_long":106.617853,"is_transit":false,"line":3,"station_id":"CC","time":4,"station_name":"Cicayur"},{"i_lat":-6.3441410000000005,"distance":5968,"station_name":"Parung Panjang","station_id":"PRP","is_transit":false,"line":6,"i_long":106.568863,"transit":false,"time":8},{"station_name":"Cilejit","time":9,"transit":false,"i_long":106.508482,"line":3,"distance":7025,"is_transit":false,"i_lat":-6.354349,"station_id":"CJT"},{"is_transit":false,"station_id":"DAR","line":0,"station_name":"Daru","transit":false,"distance":2675,"i_long":106.491338,"time":6,"i_lat":-6.338021},{"transit":false,"distance":3902,"i_long":106.460812,"time":5,"i_lat":-6.327251,"is_transit":false,"station_id":"TEJ","line":6,"station_name":"Tenjo"},{"line":6,"distance":2974,"station_name":"Tigaraksa","i_long":106.425991,"is_transit":false,"station_id":"TGS","transit":false,"time":5,"i_lat":-6.328533},{"is_transit":false,"line":3,"distance":2651,"time":3,"transit":false,"station_id":"CKY","station_name":"Cikoya","i_lat":-6.33561,"i_long":106.411216},{"is_transit":false,"transit":false,"i_lat":-6.332307,"line":6,"i_long":106.394373,"time":4,"distance":1853,"station_name":"Maja","station_id":"MJ"},{"i_long":106.332092,"i_lat":-6.334892,"time":10,"distance":7293,"station_id":"CTR","line":3,"transit":false,"station_name":"Citeras","is_transit":false}],[{"station_id":"DP","distance":0,"i_long":106.816926,"is_transit":false,"line":2,"station_name":"Depok","transit":false,"i_lat":-6.405256,"time":0},{"distance":1584,"line":2,"time":3,"i_long":106.819451,"station_id":"DPB","i_lat":-6.391065,"station_name":"Depokbaru","is_transit":false,"transit":false},{"i_long":106.831114,"station_name":"Pondok Cina","is_transit":false,"time":4,"distance":2727,"transit":false,"i_lat":-6.369073,"line":2,"station_id":"POC"},{"transit":false,"i_lat":-6.360749,"is_transit":false,"station_id":"UI","i_long":106.831474,"time":2,"distance":1109,"line":2,"station_name":"Univ. Indonesia"},{"i_long":106.834175,"line":2,"transit":false,"station_name":"Univ. Pancasila","time":3,"is_transit":false,"station_id":"UP","distance":2264,"i_lat":-6.339291},{"distance":1029,"station_id":"LNA","i_lat":-6.330363,"time":2,"station_name":"Lenteng Agung","transit":false,"i_long":106.832616,"line":2,"is_transit":false},{"i_long":106.838896,"i_lat":-6.3080680000000005,"station_id":"TNT","transit":false,"distance":2671,"time":3,"line":2,"station_name":"Tanjung Barat","is_transit":false},{"i_lat":-6.2842400000000005,"i_long":106.843999,"line":2,"station_name":"Pasar Minggu","time":4,"is_transit":false,"station_id":"PSM","transit":false,"distance":2820},{"station_id":"PSMB","is_transit":false,"distance":2380,"i_lat":-6.263214,"transit":false,"i_long":106.851577,"station_name":"Pasar Minggu Baru","line":2,"time":2},{"is_transit":false,"line":2,"time":2,"i_lat":-6.255332,"distance":824,"transit":false,"i_long":106.85449,"station_id":"DRN","station_name":"Duren Kalibata"},{"i_long":106.856607,"distance":1546,"i_lat":-6.242512,"line":2,"is_transit":false,"station_id":"CW","station_name":"Cawang","transit":false,"time":3},{"i_long":106.857948,"is_transit":false,"line":2,"distance":1230,"transit":false,"station_name":"Tebet","station_id":"TEB","time":2,"i_lat":-6.226659},{"station_id":"MRI","line":2,"is_transit":false,"transit":false,"distance":2610,"i_long":106.84912,"station_name":"Manggarai","time":4,"i_lat":-6.209883},{"i_lat":-6.198556,"i_long":106.840169,"line":2,"transit":false,"is_transit":false,"station_name":"Cikini","station_id":"CKI","time":4,"distance":1590},{"distance":1750,"transit":false,"i_lat":-6.186295,"time":3,"i_long":106.832183,"station_name":"Gondangdia","station_id":"GDD","line":2,"is_transit":false},{"station_name":"Juanda","distance":2015,"transit":false,"i_lat":-6.166716,"time":4,"station_id":"JUA","is_transit":false,"line":2,"i_long":106.828284},{"i_lat":-6.160725,"i_long":106.827103,"station_name":"Sawah Besar","is_transit":false,"transit":false,"distance":1149,"line":2,"station_id":"SW","time":2},{"i_lat":-6.149769,"transit":false,"distance":906,"is_transit":false,"station_id":"MGB","line":2,"time":2,"station_name":"Manggabesar","i_long":106.82482},{"i_lat":-6.141205,"i_long":106.820901,"is_transit":false,"line":2,"distance":1080,"time":2,"station_id":"JAY","transit":false,"station_name":"Jayakarta"},{"transit":true,"line":2,"i_lat":-6.137569,"time":4,"station_name":"Jakarta Kota","is_transit":true,"station_id":"JAKK","distance":1264,"i_long":106.812439},{"station_id":"KPB","is_transit":true,"line":4,"station_name":"Kampung Bandan","i_lat":-6.132549,"time":3,"distance":1364,"i_long":106.826365,"transit":true},{"is_transit":false,"i_lat":-6.144674,"i_long":106.79867,"station_name":"Angke","time":9,"line":1,"transit":false,"distance":4102,"station_id":"AK"},{"station_name":"Duri","station_id":"DU","i_lat":-6.155215,"distance":1230,"line":1,"is_transit":false,"transit":false,"time":4,"i_long":106.800832},{"station_id":"THB","time":8,"distance":3632,"i_long":106.811091,"i_lat":-6.185545,"is_transit":true,"transit":true,"line":1,"station_name":"Tanah Abang"},{"i_lat":-6.207404,"distance":3191,"station_name":"Palmerah","line":6,"transit":false,"is_transit":false,"time":6,"i_long":106.79689,"station_id":"PLM"},{"is_transit":false,"transit":false,"i_long":106.780334,"station_id":"KBY","i_lat":-6.237242,"time":7,"station_name":"Kebayoran","distance":3737,"line":6},{"station_id":"PDJ","i_lat":-6.276362,"station_name":"Pondokranji","transit":false,"i_long":106.74273,"line":6,"distance":6218,"time":8,"is_transit":false},{"station_name":"Jurangmangu","line":6,"i_lat":-6.288927,"time":3,"transit":false,"is_transit":false,"station_id":"JMU","distance":2179,"i_long":106.728916},{"station_id":"SDM","transit":false,"line":6,"time":4,"station_name":"Sudimara","i_long":106.712277,"is_transit":false,"distance":1994,"i_lat":-6.296963},{"time":6,"i_lat":-6.314823,"is_transit":false,"transit":false,"station_name":"Rawa Buntu","distance":4566,"i_long":106.675475,"line":6,"station_id":"RU"},{"i_long":106.66566,"station_id":"SRP","is_transit":false,"station_name":"Serpong","distance":2413,"time":4,"i_lat":-6.319871,"line":6,"transit":false},{"i_long":106.640411,"transit":false,"line":3,"distance":1784,"is_transit":false,"station_id":"CSK","i_lat":-6.32484,"time":4,"station_name":"Cisauk"},{"i_long":106.617853,"station_name":"Cicayur","station_id":"CC","distance":2519,"is_transit":false,"line":3,"time":4,"i_lat":-6.329547,"transit":false},{"distance":5968,"i_lat":-6.3441410000000005,"station_name":"Parung Panjang","station_id":"PRP","i_long":106.568863,"is_transit":false,"time":8,"transit":false,"line":6},{"is_transit":false,"line":3,"station_name":"Cilejit","transit":false,"time":9,"i_lat":-6.354349,"distance":7025,"station_id":"CJT","i_long":106.508482},{"station_name":"Daru","station_id":"DAR","is_transit":false,"i_lat":-6.338021,"line":0,"time":6,"i_long":106.491338,"transit":false,"distance":2675},{"station_name":"Tenjo","transit":false,"time":5,"distance":3902,"station_id":"TEJ","is_transit":false,"i_lat":-6.327251,"line":6,"i_long":106.460812},{"transit":false,"station_id":"TGS","station_name":"Tigaraksa","distance":2974,"is_transit":false,"i_lat":-6.328533,"i_long":106.425991,"line":6,"time":5},{"distance":2651,"station_name":"Cikoya","i_lat":-6.33561,"transit":false,"time":3,"station_id":"CKY","line":3,"is_transit":false,"i_long":106.411216},{"i_lat":-6.332307,"line":6,"distance":1853,"transit":false,"time":4,"is_transit":false,"station_name":"Maja","station_id":"MJ","i_long":106.394373},{"station_id":"CTR","time":10,"station_name":"Citeras","line":3,"distance":7293,"transit":false,"is_transit":false,"i_long":106.332092,"i_lat":-6.334892}],[{"station_name":"Depok","line":2,"time":0,"distance":0,"station_id":"DP","transit":false,"i_long":106.816926,"is_transit":false,"i_lat":-6.405256},{"i_long":106.819451,"distance":1584,"line":2,"i_lat":-6.391065,"is_transit":false,"station_name":"Depokbaru","station_id":"DPB","time":3,"transit":false},{"i_long":106.831114,"station_name":"Pondok Cina","i_lat":-6.369073,"transit":false,"distance":2727,"line":2,"station_id":"POC","time":4,"is_transit":false},{"station_id":"UI","time":2,"distance":1109,"i_lat":-6.360749,"station_name":"Univ. Indonesia","is_transit":false,"i_long":106.831474,"line":2,"transit":false},{"distance":2264,"i_long":106.834175,"transit":false,"station_id":"UP","line":2,"time":3,"i_lat":-6.339291,"station_name":"Univ. Pancasila","is_transit":false},{"time":2,"i_long":106.832616,"line":2,"station_id":"LNA","i_lat":-6.330363,"transit":false,"station_name":"Lenteng Agung","distance":1029,"is_transit":false},{"line":2,"is_transit":false,"time":3,"distance":2671,"station_id":"TNT","i_long":106.838896,"station_name":"Tanjung Barat","transit":false,"i_lat":-6.3080680000000005},{"station_name":"Pasar Minggu","is_transit":false,"i_lat":-6.2842400000000005,"time":4,"line":2,"station_id":"PSM","i_long":106.843999,"transit":false,"distance":2820},{"i_lat":-6.263214,"line":2,"transit":false,"i_long":106.851577,"is_transit":false,"station_id":"PSMB","station_name":"Pasar Minggu Baru","distance":2380,"time":2},{"time":2,"is_transit":false,"station_id":"DRN","transit":false,"i_long":106.85449,"i_lat":-6.255332,"distance":824,"line":2,"station_name":"Duren Kalibata"},{"i_long":106.856607,"station_name":"Cawang","time":3,"distance":1546,"station_id":"CW","line":2,"is_transit":false,"transit":false,"i_lat":-6.242512},{"i_long":106.857948,"station_name":"Tebet","transit":false,"time":2,"station_id":"TEB","line":2,"i_lat":-6.226659,"is_transit":false,"distance":1230},{"time":4,"distance":2610,"is_transit":true,"station_name":"Manggarai","station_id":"MRI","i_lat":-6.209883,"line":2,"transit":true,"i_long":106.84912},{"distance":1275,"station_id":"MTR","time":2,"i_long":106.858896,"line":1,"i_lat":-6.212485,"is_transit":false,"station_name":"Matraman","transit":false},{"time":8,"line":1,"transit":true,"i_lat":-6.215091,"i_long":106.86807400000001,"distance":1377,"station_name":"Jatinegara","is_transit":true,"station_id":"JNG"},{"i_lat":-6.209188,"i_long":106.861737,"transit":false,"distance":1236,"station_name":"Pondok Jati","line":11,"time":2,"station_id":"POK","is_transit":false},{"is_transit":false,"distance":1829,"time":2,"station_name":"Kramat","station_id":"KMT","i_lat":-6.193792,"transit":false,"line":11,"i_long":106.855437},{"is_transit":false,"line":11,"transit":false,"distance":973,"station_name":"Gang Sentiong","time":1,"i_long":106.850107,"station_id":"GST","i_lat":-6.185975},{"transit":false,"station_name":"Pasar Senen","i_lat":-6.174784,"distance":1567,"time":8,"i_long":106.84368,"station_id":"PSE","is_transit":false,"line":11},{"i_long":106.839204,"distance":1436,"line":11,"station_id":"KMO","transit":false,"i_lat":-6.161728,"is_transit":false,"time":4,"station_name":"Kemayoran"},{"line":11,"is_transit":false,"transit":false,"i_lat":-6.14505,"time":5,"distance":1901,"i_long":106.836569,"station_id":"RJW","station_name":"Rajawali"},{"i_lat":-6.132549,"station_id":"KPB","i_long":106.826365,"time":3,"is_transit":true,"transit":true,"distance":1444,"line":4,"station_name":"Kampung Bandan"},{"distance":4102,"i_lat":-6.144674,"station_name":"Angke","station_id":"AK","i_long":106.79867,"time":9,"transit":false,"line":1,"is_transit":false},{"i_lat":-6.155215,"station_name":"Duri","i_long":106.800832,"line":1,"transit":false,"time":4,"is_transit":false,"station_id":"DU","distance":1230},{"line":1,"is_transit":true,"transit":true,"i_long":106.811091,"time":8,"station_id":"THB","i_lat":-6.185545,"station_name":"Tanah Abang","distance":3632},{"line":6,"station_name":"Palmerah","distance":3191,"time":6,"is_transit":false,"station_id":"PLM","transit":false,"i_lat":-6.207404,"i_long":106.79689},{"station_id":"KBY","transit":false,"time":7,"distance":3737,"line":6,"station_name":"Kebayoran","is_transit":false,"i_long":106.780334,"i_lat":-6.237242},{"station_id":"PDJ","line":6,"station_name":"Pondokranji","is_transit":false,"i_lat":-6.276362,"distance":6218,"transit":false,"time":8,"i_long":106.74273},{"station_id":"JMU","i_lat":-6.288927,"i_long":106.728916,"line":6,"distance":2179,"time":3,"is_transit":false,"station_name":"Jurangmangu","transit":false},{"i_lat":-6.296963,"station_id":"SDM","distance":1994,"i_long":106.712277,"time":4,"line":6,"is_transit":false,"station_name":"Sudimara","transit":false},{"i_lat":-6.314823,"station_name":"Rawa Buntu","is_transit":false,"time":6,"distance":4566,"station_id":"RU","line":6,"transit":false,"i_long":106.675475},{"time":4,"i_lat":-6.319871,"is_transit":false,"line":6,"station_name":"Serpong","i_long":106.66566,"station_id":"SRP","distance":2413,"transit":false},{"distance":1784,"i_long":106.640411,"line":3,"station_id":"CSK","is_transit":false,"transit":false,"i_lat":-6.32484,"station_name":"Cisauk","time":4},{"line":3,"time":4,"i_lat":-6.329547,"station_id":"CC","i_long":106.617853,"transit":false,"distance":2519,"is_transit":false,"station_name":"Cicayur"},{"i_lat":-6.3441410000000005,"i_long":106.568863,"station_name":"Parung Panjang","is_transit":false,"distance":5968,"station_id":"PRP","time":8,"line":6,"transit":false},{"station_name":"Cilejit","is_transit":false,"i_lat":-6.354349,"line":3,"transit":false,"station_id":"CJT","time":9,"i_long":106.508482,"distance":7025},{"distance":2675,"is_transit":false,"i_long":106.491338,"station_id":"DAR","time":6,"transit":false,"i_lat":-6.338021,"station_name":"Daru","line":0},{"i_lat":-6.327251,"station_name":"Tenjo","station_id":"TEJ","is_transit":false,"transit":false,"time":5,"i_long":106.460812,"distance":3902,"line":6},{"is_transit":false,"i_long":106.425991,"transit":false,"time":5,"station_id":"TGS","i_lat":-6.328533,"distance":2974,"station_name":"Tigaraksa","line":6},{"station_id":"CKY","transit":false,"distance":2651,"station_name":"Cikoya","time":3,"i_long":106.411216,"line":3,"i_lat":-6.33561,"is_transit":false},{"line":6,"station_id":"MJ","transit":false,"time":4,"i_long":106.394373,"station_name":"Maja","is_transit":false,"distance":1853,"i_lat":-6.332307},{"station_id":"CTR","i_long":106.332092,"time":10,"distance":7293,"line":3,"is_transit":false,"station_name":"Citeras","i_lat":-6.334892,"transit":false}]]}