{"data":[[{"time":0,"i_lat":-6.405256,"line":2,"station_id":"DP","distance":0,"station_name":"Depok","i_long":106.816926,"transit":false,"is_transit":false},{"distance":1584,"station_name":"Depokbaru","line":2,"station_id":"DPB","transit":false,"is_transit":false,"time":3,"i_long":106.819451,"i_lat":-6.391065},{"transit":false,"i_long":106.831114,"line":2,"time":4,"i_lat":-6.369073,"station_id":"POC","distance":2727,"station_name":"Pondok Cina","is_transit":false},{"line":2,"is_transit":false,"transit":false,"i_long":106.831474,"station_name":"Univ. Indonesia","i_lat":-6.360749,"time":2,"distance":1109,"station_id":"UI"},{"distance":2264,"i_long":106.834175,"is_transit":false,"i_lat":-6.339291,"transit":false,"station_id":"UP","station_name":"Univ. Pancasila","time":3,"line":2},{"distance":1029,"transit":false,"station_name":"Lenteng Agung","i_lat":-6.330363,"time":2,"station_id":"LNA","is_transit":false,"i_long":106.832616,"line":2},{"transit":false,"time":3,"line":2,"i_lat":-6.3080680000000005,"i_long":106.838896,"distance":2671,"is_transit":false,"station_id":"TNT","station_name":"Tanjung Barat"},{"station_name":"Pasar Minggu","transit":false,"i_long":106.843999,"time":4,"i_lat":-6.2842400000000005,"is_transit":false,"distance":2820,"station_id":"PSM","line":2},{"station_name":"Pasar Minggu Baru","distance":2380,"time":2,"line":2,"i_lat":-6.263214,"transit":false,"station_id":"PSMB","i_long":106.851577,"is_transit":false},{"transit":false,"time":2,"station_id":"DRN","distance":824,"station_name":"Duren Kalibata","is_transit":false,"i_lat":-6.255332,"i_long":106.85449,"line":2}]]}