{"data":[[{"station_id":"DP","transit":false,"i_long":106.816926,"line":2,"station_name":"Depok","is_transit":false,"time":0,"i_lat":-6.405256,"distance":0},{"is_transit":false,"station_name":"Depokbaru","transit":false,"time":3,"line":2,"station_id":"DPB","i_long":106.819451,"distance":1584,"i_lat":-6.391065},{"transit":false,"time":4,"i_long":106.831114,"distance":2727,"is_transit":false,"station_id":"POC","i_lat":-6.369073,"line":2,"station_name":"Pondok Cina"},{"station_name":"Univ. Indonesia","line":2,"is_transit":false,"transit":false,"time":2,"i_long":106.831474,"distance":1109,"station_id":"UI","i_lat":-6.360749},{"is_transit":false,"transit":false,"i_long":106.834175,"line":2,"station_id":"UP","time":3,"distance":2264,"station_name":"Univ. Pancasila","i_lat":-6.339291},{"transit":false,"i_lat":-6.330363,"station_id":"LNA","line":2,"is_transit":false,"station_name":"Lenteng Agung","time":2,"i_long":106.832616,"distance":1029},{"station_id":"TNT","station_name":"Tanjung Barat","is_transit":false,"i_lat":-6.3080680000000005,"distance":2671,"transit":false,"i_long":106.838896,"time":3,"line":2},{"station_name":"Pasar Minggu","line":2,"i_lat":-6.2842400000000005,"time":4,"station_id":"PSM","distance":2820,"i_long":106.843999,"is_transit":false,"transit":false},{"distance":2380,"transit":false,"is_transit":false,"station_name":"Pasar Minggu Baru","i_lat":-6.263214,"i_long":106.851577,"line":2,"time":2,"station_id":"PSMB"},{"i_lat":-6.255332,"station_id":"DRN","line":2,"transit":false,"distance":824,"i_long":106.85449,"is_transit":false,"station_name":"Duren Kalibata","time":2}]]}