{"data":[[{"line":2,"is_transit":false,"i_long":106.816926,"transit":false,"i_lat":-6.405256,"station_name":"Depok","distance":0,"station_id":"DP","time":0},{"time":3,"i_lat":-6.391065,"station_name":"Depokbaru","station_id":"DPB","is_transit":false,"i_long":106.819451,"line":2,"distance":1584,"transit":false},{"transit":false,"time":4,"i_lat":-6.369073,"distance":2727,"station_id":"POC","i_long":106.831114,"line":2,"is_transit":false,"station_name":"Pondok Cina"},{"distance":1109,"i_lat":-6.360749,"station_name":"Univ. Indonesia","line":2,"i_long":106.831474,"transit":false,"is_transit":false,"time":2,"station_id":"UI"},{"i_lat":-6.339291,"distance":2264,"transit":false,"station_id":"UP","i_long":106.834175,"line":2,"is_transit":false,"station_name":"Univ. Pancasila","time":3},{"transit":false,"distance":1029,"time":2,"line":2,"i_long":106.832616,"station_id":"LNA","i_lat":-6.330363,"is_transit":false,"station_name":"Lenteng Agung"},{"distance":2671,"i_lat":-6.3080680000000005,"station_id":"TNT","transit":false,"time":3,"line":2,"is_transit":false,"i_long":106.838896,"station_name":"Tanjung Barat"},{"time":4,"transit":false,"station_id":"PSM","station_name":"Pasar Minggu","is_transit":false,"i_lat":-6.2842400000000005,"i_long":106.843999,"distance":2820,"line":2},{"station_name":"Pasar Minggu Baru","i_long":106.851577,"station_id":"PSMB","is_transit":false,"i_lat":-6.263214,"distance":2380,"line":2,"time":2,"transit":false},{"is_transit":false,"station_name":"Duren Kalibata","distance":824,"i_lat":-6.255332,"transit":false,"i_long":106.85449,"time":2,"line":2,"station_id":"DRN"}]]}