{"data":[[{"station_name":"Depok","transit":false,"is_transit":false,"station_id":"DP","i_lat":-6.405256,"i_long":106.816926,"line":0,"distance":0,"time":0},{"distance":1584,"is_transit":false,"time":3,"i_lat":-6.391065,"i_long":106.819451,"transit":false,"station_id":"DPB","line":0,"station_name":"Depokbaru"},{"time":4,"i_lat":-6.369073,"transit":false,"i_long":106.831114,"is_transit":false,"station_name":"Pondok Cina","distance":2727,"station_id":"POC","line":2},{"is_transit":false,"transit":false,"station_id":"UI","i_long":106.831474,"line":2,"station_name":"Univ. Indonesia","time":2,"distance":1109,"i_lat":-6.360749},{"line":2,"station_id":"UP","station_name":"Univ. Pancasila","time":3,"i_long":106.834175,"is_transit":false,"distance":2264,"transit":false,"i_lat":-6.339291},{"is_transit":false,"transit":false,"distance":1029,"station_id":"LNA","time":2,"i_long":106.832616,"station_name":"Lenteng Agung","i_lat":-6.330363,"line":2},{"station_id":"TNT","time":3,"transit":false,"i_long":106.838896,"i_lat":-6.3080680000000005,"is_transit":false,"station_name":"Tanjung Barat","line":2,"distance":2671},{"i_lat":-6.2842400000000005,"line":2,"is_transit":false,"station_name":"Pasar Minggu","transit":false,"station_id":"PSM","time":4,"distance":2820,"i_long":106.843999},{"i_lat":-6.263214,"line":2,"station_name":"Pasar Minggu Baru","i_long":106.851577,"is_transit":false,"station_id":"PSMB","transit":false,"time":2,"distance":2380},{"station_name":"Duren Kalibata","time":2,"line":0,"transit":false,"i_lat":-6.255332,"distance":824,"is_transit":false,"i_long":106.85449,"station_id":"DRN"}]]}