{"data":[[{"station_name":"Depok","time":0,"i_lat":-6.405256,"i_long":106.816926,"is_transit":false,"line":2,"station_id":"DP","distance":0,"transit":false},{"station_name":"Depokbaru","station_id":"DPB","is_transit":false,"i_lat":-6.391065,"i_long":106.819451,"time":3,"distance":1584,"transit":false,"line":2},{"distance":2727,"station_id":"POC","transit":false,"station_name":"Pondok Cina","is_transit":false,"i_long":106.831114,"line":2,"time":4,"i_lat":-6.369073},{"distance":1109,"i_lat":-6.360749,"is_transit":false,"time":2,"i_long":106.831474,"transit":false,"station_name":"Univ. Indonesia","station_id":"UI","line":2},{"i_long":106.834175,"transit":false,"is_transit":false,"time":3,"station_name":"Univ. Pancasila","line":2,"distance":2264,"i_lat":-6.339291,"station_id":"UP"},{"line":2,"i_lat":-6.330363,"is_transit":false,"i_long":106.832616,"distance":1029,"time":2,"station_name":"Lenteng Agung","transit":false,"station_id":"LNA"},{"station_id":"TNT","distance":2671,"transit":false,"i_lat":-6.3080680000000005,"line":2,"station_name":"Tanjung Barat","is_transit":false,"i_long":106.838896,"time":3},{"i_long":106.843999,"distance":2820,"i_lat":-6.2842400000000005,"line":2,"station_name":"Pasar Minggu","time":4,"transit":false,"is_transit":false,"station_id":"PSM"},{"line":2,"i_long":106.851577,"transit":false,"station_name":"Pasar Minggu Baru","station_id":"PSMB","i_lat":-6.263214,"is_transit":false,"time":2,"distance":2380},{"line":2,"time":2,"transit":false,"i_long":106.85449,"is_transit":false,"distance":824,"station_id":"DRN","station_name":"Duren Kalibata","i_lat":-6.255332},{"station_name":"Cawang","line":2,"time":3,"distance":1546,"i_long":106.856607,"transit":false,"is_transit":false,"station_id":"CW","i_lat":-6.242512},{"is_transit":false,"time":2,"i_long":106.857948,"transit":false,"distance":1230,"station_id":"TEB","station_name":"Tebet","line":2,"i_lat":-6.226659},{"transit":false,"line":2,"time":4,"station_id":"MRI","station_name":"Manggarai","i_long":106.84912,"distance":2610,"is_transit":false,"i_lat":-6.209883},{"station_id":"CKI","i_lat":-6.198556,"station_name":"Cikini","transit":false,"time":4,"is_transit":false,"distance":1590,"line":2,"i_long":106.840169},{"line":2,"time":3,"is_transit":false,"station_id":"GDD","transit":false,"i_lat":-6.186295,"distance":1750,"i_long":106.832183,"station_name":"Gondangdia"},{"i_long":106.828284,"line":2,"station_id":"JUA","is_transit":false,"time":4,"station_name":"Juanda","i_lat":-6.166716,"transit":false,"distance":2015},{"transit":false,"i_long":106.827103,"distance":1149,"i_lat":-6.160725,"time":2,"is_transit":false,"line":2,"station_id":"SW","station_name":"Sawah Besar"},{"distance":906,"line":2,"station_id":"MGB","time":2,"station_name":"Manggabesar","i_long":106.82482,"is_transit":false,"transit":false,"i_lat":-6.149769},{"distance":1080,"station_name":"Jayakarta","station_id":"JAY","is_transit":false,"time":2,"transit":false,"i_long":106.820901,"i_lat":-6.141205,"line":2},{"transit":false,"station_id":"JAKK","line":2,"i_long":106.812439,"i_lat":-6.137569,"station_name":"Jakarta Kota","time":4,"is_transit":false,"distance":1264}],[{"station_name":"Depok","transit":false,"time":0,"i_long":106.816926,"distance":0,"station_id":"DP","line":2,"i_lat":-6.405256,"is_transit":false},{"station_name":"Depokbaru","station_id":"DPB","time":3,"distance":1584,"i_long":106.819451,"is_transit":false,"line":2,"transit":false,"i_lat":-6.391065},{"station_name":"Pondok Cina","i_lat":-6.369073,"i_long":106.831114,"transit":false,"distance":2727,"station_id":"POC","line":2,"time":4,"is_transit":false},{"is_transit":false,"line":2,"time":2,"distance":1109,"station_id":"UI","i_long":106.831474,"transit":false,"station_name":"Univ. Indonesia","i_lat":-6.360749},{"distance":2264,"i_lat":-6.339291,"station_name":"Univ. Pancasila","i_long":106.834175,"transit":false,"station_id":"UP","line":2,"is_transit":false,"time":3},{"transit":false,"station_name":"Lenteng Agung","i_lat":-6.330363,"station_id":"LNA","i_long":106.832616,"distance":1029,"time":2,"is_transit":false,"line":2},{"transit":false,"i_lat":-6.3080680000000005,"station_id":"TNT","distance":2671,"station_name":"Tanjung Barat","is_transit":false,"i_long":106.838896,"line":2,"time":3},{"time":4,"distance":2820,"station_name":"Pasar Minggu","transit":false,"station_id":"PSM","i_long":106.843999,"is_transit":false,"i_lat":-6.2842400000000005,"line":2},{"transit":false,"station_name":"Pasar Minggu Baru","i_lat":-6.263214,"i_long":106.851577,"distance":2380,"time":2,"line":2,"is_transit":false,"station_id":"PSMB"},{"distance":824,"i_lat":-6.255332,"station_id":"DRN","station_name":"Duren Kalibata","time":2,"transit":false,"i_long":106.85449,"is_transit":false,"line":2},{"station_id":"CW","transit":false,"line":2,"i_long":106.856607,"time":3,"is_transit":false,"station_name":"Cawang","i_lat":-6.242512,"distance":1546},{"i_long":106.857948,"transit":false,"station_name":"Tebet","is_transit":false,"time":2,"station_id":"TEB","i_lat":-6.226659,"line":2,"distance":1230},{"i_lat":-6.209883,"i_long":106.84912,"station_name":"Manggarai","time":4,"is_transit":true,"transit":true,"distance":2610,"station_id":"MRI","line":2},{"transit":false,"time":4,"station_name":"Sudirman","is_transit":false,"distance":3186,"i_lat":-6.202263,"station_id":"SUD","i_long":106.822649,"line":1},{"time":1,"station_id":"SUDB","i_long":106.819881,"i_lat":-6.201433,"station_name":"Sudirman Baru","transit":false,"distance":280,"line":1,"is_transit":false},{"station_name":"Karet","time":1,"distance":471,"transit":false,"i_lat":-6.20132,"line":1,"is_transit":false,"i_long":106.816351,"station_id":"KAT"},{"line":1,"is_transit":false,"distance":2029,"i_long":106.811091,"transit":false,"station_id":"THB","i_lat":-6.185545,"station_name":"Tanah Abang","time":5},{"station_id":"DU","transit":false,"i_long":106.800832,"distance":3632,"is_transit":false,"time":8,"i_lat":-6.155215,"station_name":"Duri","line":1},{"is_transit":false,"time":4,"station_name":"Angke","station_id":"AK","i_lat":-6.144674,"line":1,"i_long":106.79867,"distance":1230,"transit":false},{"is_transit":true,"line":4,"distance":4102,"station_name":"Kampung Bandan","transit":true,"i_long":106.826365,"time":9,"station_id":"KPB","i_lat":-6.132549},{"line":2,"is_transit":false,"time":3,"distance":1364,"transit":false,"station_id":"JAKK","i_lat":-6.137569,"station_name":"Jakarta Kota","i_long":106.812439}],[{"i_lat":-6.405256,"distance":0,"station_name":"Depok","station_id":"DP","time":0,"i_long":106.816926,"line":2,"transit":false,"is_transit":false},{"i_long":106.819451,"time":3,"is_transit":false,"distance":1584,"station_name":"Depokbaru","line":2,"station_id":"DPB","i_lat":-6.391065,"transit":false},{"transit":false,"time":4,"station_id":"POC","is_transit":false,"line":2,"distance":2727,"i_long":106.831114,"i_lat":-6.369073,"station_name":"Pondok Cina"},{"i_long":106.831474,"time":2,"station_id":"UI","transit":false,"distance":1109,"station_name":"Univ. Indonesia","is_transit":false,"i_lat":-6.360749,"line":2},{"transit":false,"is_transit":false,"distance":2264,"station_id":"UP","i_lat":-6.339291,"line":2,"i_long":106.834175,"time":3,"station_name":"Univ. Pancasila"},{"time":2,"distance":1029,"transit":false,"i_lat":-6.330363,"i_long":106.832616,"is_transit":false,"station_id":"LNA","line":2,"station_name":"Lenteng Agung"},{"is_transit":false,"time":3,"line":2,"distance":2671,"station_name":"Tanjung Barat","i_long":106.838896,"transit":false,"station_id":"TNT","i_lat":-6.3080680000000005},{"station_id":"PSM","distance":2820,"time":4,"i_lat":-6.2842400000000005,"station_name":"Pasar Minggu","i_long":106.843999,"transit":false,"line":2,"is_transit":false},{"i_long":106.851577,"station_name":"Pasar Minggu Baru","distance":2380,"transit":false,"is_transit":false,"time":2,"line":2,"station_id":"PSMB","i_lat":-6.263214},{"station_id":"DRN","is_transit":false,"time":2,"i_long":106.85449,"line":2,"i_lat":-6.255332,"distance":824,"transit":false,"station_name":"Duren Kalibata"},{"line":2,"i_lat":-6.242512,"is_transit":false,"i_long":106.856607,"transit":false,"station_id":"CW","time":3,"station_name":"Cawang","distance":1546},{"time":2,"distance":1230,"station_id":"TEB","is_transit":false,"station_name":"Tebet","transit":false,"line":2,"i_long":106.857948,"i_lat":-6.226659},{"distance":2610,"station_name":"Manggarai","line":2,"station_id":"MRI","i_lat":-6.209883,"i_long":106.84912,"transit":true,"is_transit":true,"time":4},{"time":2,"line":1,"is_transit":false,"distance":1275,"station_name":"Matraman","transit":false,"i_lat":-6.212485,"i_long":106.858896,"station_id":"MTR"},{"distance":1377,"transit":true,"station_name":"Jatinegara","line":1,"station_id":"JNG","i_lat":-6.215091,"is_transit":true,"time":8,"i_long":106.86807400000001},{"station_name":"Pondok Jati","time":2,"transit":false,"i_long":106.861737,"i_lat":-6.209188,"station_id":"POK","is_transit":false,"line":11,"distance":1236},{"is_transit":false,"i_lat":-6.193792,"transit":false,"line":11,"station_name":"Kramat","distance":1829,"i_long":106.855437,"time":2,"station_id":"KMT"},{"transit":false,"i_long":106.850107,"line":11,"i_lat":-6.185975,"time":1,"station_id":"GST","distance":973,"station_name":"Gang Sentiong","is_transit":false},{"line":11,"station_id":"PSE","i_lat":-6.174784,"i_long":106.84368,"is_transit":false,"time":8,"distance":1567,"transit":false,"station_name":"Pasar Senen"},{"distance":1436,"time":4,"station_id":"KMO","i_lat":-6.161728,"i_long":106.839204,"transit":false,"station_name":"Kemayoran","line":11,"is_transit":false},{"i_long":106.836569,"line":11,"station_id":"RJW","i_lat":-6.14505,"station_name":"Rajawali","time":5,"distance":1901,"is_transit":false,"transit":false},{"transit":true,"station_id":"KPB","line":4,"station_name":"Kampung Bandan","i_long":106.826365,"time":3,"distance":1444,"is_transit":true,"i_lat":-6.132549},{"station_name":"Jakarta Kota","transit":false,"distance":1364,"i_lat":-6.137569,"time":3,"i_long":106.812439,"is_transit":false,"line":2,"station_id":"JAKK"}]]}