{"data":[[{"i_lat":-6.405256,"time":0,"station_id":"DP","line":2,"is_transit":false,"i_long":106.816926,"distance":0,"transit":false,"station_name":"Depok"},{"station_name":"Depokbaru","station_id":"DPB","is_transit":false,"transit":false,"i_lat":-6.391065,"time":3,"i_long":106.819451,"line":2,"distance":1584},{"is_transit":false,"distance":2727,"station_id":"POC","line":2,"i_lat":-6.369073,"i_long":106.831114,"station_name":"Pondok Cina","time":4,"transit":false},{"is_transit":false,"time":2,"i_lat":-6.360749,"distance":1109,"transit":false,"i_long":106.831474,"line":2,"station_id":"UI","station_name":"Univ. Indonesia"},{"line":2,"transit":false,"station_name":"Univ. Pancasila","distance":2264,"is_transit":false,"time":3,"station_id":"UP","i_lat":-6.339291,"i_long":106.834175},{"station_name":"Lenteng Agung","transit":false,"station_id":"LNA","time":2,"is_transit":false,"i_long":106.832616,"line":2,"distance":1029,"i_lat":-6.330363},{"transit":false,"station_name":"Tanjung Barat","time":3,"distance":2671,"line":2,"i_lat":-6.3080680000000005,"is_transit":false,"i_long":106.838896,"station_id":"TNT"},{"line":2,"time":4,"distance":2820,"station_id":"PSM","transit":false,"station_name":"Pasar Minggu","i_lat":-6.2842400000000005,"is_transit":false,"i_long":106.843999},{"i_lat":-6.263214,"distance":2380,"line":2,"station_id":"PSMB","station_name":"Pasar Minggu Baru","is_transit":false,"time":2,"transit":false,"i_long":106.851577},{"transit":false,"time":2,"distance":824,"i_lat":-6.255332,"i_long":106.85449,"is_transit":false,"line":2,"station_id":"DRN","station_name":"Duren Kalibata"},{"station_name":"Cawang","i_long":106.856607,"transit":false,"distance":1546,"i_lat":-6.242512,"line":2,"is_transit":false,"time":3,"station_id":"CW"},{"line":2,"i_lat":-6.226659,"i_long":106.857948,"is_transit":false,"transit":false,"time":2,"station_name":"Tebet","station_id":"TEB","distance":1230},{"i_long":106.84912,"time":4,"station_name":"Manggarai","transit":false,"line":2,"is_transit":false,"distance":2610,"station_id":"MRI","i_lat":-6.209883},{"i_lat":-6.198556,"transit":false,"station_name":"Cikini","time":4,"station_id":"CKI","i_long":106.840169,"distance":1590,"is_transit":false,"line":2},{"station_id":"GDD","is_transit":false,"i_lat":-6.186295,"i_long":106.832183,"station_name":"Gondangdia","distance":1750,"time":3,"transit":false,"line":2},{"distance":2015,"station_id":"JUA","i_lat":-6.166716,"time":4,"line":2,"transit":false,"is_transit":false,"i_long":106.828284,"station_name":"Juanda"},{"i_lat":-6.160725,"station_name":"Sawah Besar","time":2,"is_transit":false,"i_long":106.827103,"station_id":"SW","line":2,"transit":false,"distance":1149},{"station_id":"MGB","station_name":"Manggabesar","transit":false,"time":2,"line":2,"i_long":106.82482,"is_transit":false,"i_lat":-6.149769,"distance":906},{"is_transit":false,"line":2,"transit":false,"station_name":"Jayakarta","i_lat":-6.141205,"i_long":106.820901,"time":2,"distance":1080,"station_id":"JAY"},{"i_long":106.812439,"line":2,"i_lat":-6.137569,"transit":false,"station_id":"JAKK","time":4,"station_name":"Jakarta Kota","is_transit":false,"distance":1264}],[{"is_transit":false,"station_name":"Depok","transit":false,"time":0,"i_long":106.816926,"station_id":"DP","line":2,"distance":0,"i_lat":-6.405256},{"i_long":106.819451,"station_id":"DPB","distance":1584,"line":2,"transit":false,"is_transit":false,"station_name":"Depokbaru","i_lat":-6.391065,"time":3},{"is_transit":false,"i_long":106.831114,"transit":false,"line":2,"time":4,"i_lat":-6.369073,"station_id":"POC","station_name":"Pondok Cina","distance":2727},{"i_long":106.831474,"time":2,"distance":1109,"station_id":"UI","line":2,"is_transit":false,"station_name":"Univ. Indonesia","transit":false,"i_lat":-6.360749},{"time":3,"distance":2264,"station_id":"UP","station_name":"Univ. Pancasila","transit":false,"is_transit":false,"i_lat":-6.339291,"i_long":106.834175,"line":2},{"station_id":"LNA","distance":1029,"is_transit":false,"transit":false,"line":2,"station_name":"Lenteng Agung","i_long":106.832616,"i_lat":-6.330363,"time":2},{"time":3,"transit":false,"is_transit":false,"line":2,"station_name":"Tanjung Barat","i_lat":-6.3080680000000005,"distance":2671,"station_id":"TNT","i_long":106.838896},{"i_lat":-6.2842400000000005,"line":2,"distance":2820,"station_id":"PSM","transit":false,"station_name":"Pasar Minggu","is_transit":false,"i_long":106.843999,"time":4},{"transit":false,"station_id":"PSMB","distance":2380,"station_name":"Pasar Minggu Baru","is_transit":false,"i_lat":-6.263214,"i_long":106.851577,"time":2,"line":2},{"transit":false,"is_transit":false,"line":2,"station_name":"Duren Kalibata","i_lat":-6.255332,"time":2,"i_long":106.85449,"distance":824,"station_id":"DRN"},{"distance":1546,"station_name":"Cawang","transit":false,"i_lat":-6.242512,"i_long":106.856607,"line":2,"station_id":"CW","time":3,"is_transit":false},{"i_long":106.857948,"distance":1230,"station_name":"Tebet","line":2,"time":2,"i_lat":-6.226659,"transit":false,"is_transit":false,"station_id":"TEB"},{"station_id":"MRI","time":4,"distance":2610,"is_transit":true,"transit":true,"station_name":"Manggarai","i_lat":-6.209883,"line":2,"i_long":106.84912},{"time":4,"station_id":"SUD","is_transit":false,"station_name":"Sudirman","line":1,"distance":3186,"i_long":106.822649,"transit":false,"i_lat":-6.202263},{"line":1,"i_lat":-6.201433,"i_long":106.819881,"station_id":"SUDB","time":1,"station_name":"Sudirman Baru","transit":false,"is_transit":false,"distance":280},{"distance":471,"transit":false,"i_lat":-6.20132,"line":1,"station_name":"Karet","station_id":"KAT","is_transit":false,"i_long":106.816351,"time":1},{"line":1,"is_transit":false,"i_lat":-6.185545,"station_id":"THB","transit":false,"station_name":"Tanah Abang","time":5,"distance":2029,"i_long":106.811091},{"distance":3632,"i_lat":-6.155215,"transit":false,"station_name":"Duri","line":1,"station_id":"DU","time":8,"is_transit":false,"i_long":106.800832},{"is_transit":false,"station_id":"AK","i_long":106.79867,"i_lat":-6.144674,"line":1,"station_name":"Angke","transit":false,"distance":1230,"time":4},{"station_id":"KPB","time":9,"line":4,"station_name":"Kampung Bandan","i_long":106.826365,"transit":true,"is_transit":true,"distance":4102,"i_lat":-6.132549},{"transit":false,"station_name":"Jakarta Kota","i_long":106.812439,"i_lat":-6.137569,"distance":1364,"line":2,"time":3,"is_transit":false,"station_id":"JAKK"}],[{"i_long":106.816926,"distance":0,"is_transit":false,"station_id":"DP","time":0,"i_lat":-6.405256,"transit":false,"line":2,"station_name":"Depok"},{"time":3,"is_transit":false,"station_name":"Depokbaru","transit":false,"station_id":"DPB","line":2,"i_lat":-6.391065,"distance":1584,"i_long":106.819451},{"station_name":"Pondok Cina","time":4,"station_id":"POC","transit":false,"is_transit":false,"i_lat":-6.369073,"distance":2727,"i_long":106.831114,"line":2},{"is_transit":false,"time":2,"station_id":"UI","station_name":"Univ. Indonesia","i_long":106.831474,"distance":1109,"transit":false,"i_lat":-6.360749,"line":2},{"i_lat":-6.339291,"is_transit":false,"i_long":106.834175,"station_id":"UP","time":3,"station_name":"Univ. Pancasila","line":2,"transit":false,"distance":2264},{"i_lat":-6.330363,"is_transit":false,"line":2,"distance":1029,"transit":false,"i_long":106.832616,"time":2,"station_id":"LNA","station_name":"Lenteng Agung"},{"station_name":"Tanjung Barat","transit":false,"time":3,"station_id":"TNT","i_lat":-6.3080680000000005,"i_long":106.838896,"is_transit":false,"line":2,"distance":2671},{"i_long":106.843999,"transit":false,"distance":2820,"station_id":"PSM","i_lat":-6.2842400000000005,"station_name":"Pasar Minggu","is_transit":false,"line":2,"time":4},{"station_name":"Pasar Minggu Baru","line":2,"distance":2380,"is_transit":false,"i_lat":-6.263214,"transit":false,"time":2,"i_long":106.851577,"station_id":"PSMB"},{"distance":824,"transit":false,"station_id":"DRN","station_name":"Duren Kalibata","line":2,"i_lat":-6.255332,"time":2,"is_transit":false,"i_long":106.85449},{"i_long":106.856607,"time":3,"line":2,"transit":false,"is_transit":false,"station_name":"Cawang","i_lat":-6.242512,"station_id":"CW","distance":1546},{"time":2,"line":2,"station_id":"TEB","is_transit":false,"distance":1230,"transit":false,"station_name":"Tebet","i_lat":-6.226659,"i_long":106.857948},{"time":4,"station_name":"Manggarai","i_lat":-6.209883,"i_long":106.84912,"station_id":"MRI","transit":true,"is_transit":true,"distance":2610,"line":2},{"i_lat":-6.212485,"station_id":"MTR","is_transit":false,"time":2,"distance":1275,"line":1,"transit":false,"station_name":"Matraman","i_long":106.858896},{"time":8,"i_long":106.86807400000001,"station_name":"Jatinegara","station_id":"JNG","i_lat":-6.215091,"transit":true,"line":1,"distance":1377,"is_transit":true},{"distance":1236,"station_id":"POK","is_transit":false,"station_name":"Pondok Jati","i_lat":-6.209188,"transit":false,"time":2,"i_long":106.861737,"line":11},{"distance":1829,"station_name":"Kramat","is_transit":false,"time":2,"i_lat":-6.193792,"line":11,"station_id":"KMT","transit":false,"i_long":106.855437},{"line":11,"station_name":"Gang Sentiong","station_id":"GST","i_long":106.850107,"transit":false,"i_lat":-6.185975,"distance":973,"is_transit":false,"time":1},{"distance":1567,"station_name":"Pasar Senen","i_long":106.84368,"line":11,"station_id":"PSE","i_lat":-6.174784,"transit":false,"time":8,"is_transit":false},{"distance":1436,"station_name":"Kemayoran","i_long":106.839204,"station_id":"KMO","is_transit":false,"i_lat":-6.161728,"line":11,"time":4,"transit":false},{"time":5,"distance":1901,"station_name":"Rajawali","transit":false,"i_lat":-6.14505,"line":11,"station_id":"RJW","is_transit":false,"i_long":106.836569},{"line":4,"time":3,"i_lat":-6.132549,"distance":1444,"station_id":"KPB","station_name":"Kampung Bandan","is_transit":true,"transit":true,"i_long":106.826365},{"station_id":"JAKK","time":3,"i_lat":-6.137569,"station_name":"Jakarta Kota","i_long":106.812439,"is_transit":false,"distance":1364,"transit":false,"line":2}]]}