{"data":[[{"distance":0,"i_long":106.816926,"station_id":"DP","i_lat":-6.405256,"is_transit":false,"station_name":"Depok","time":0,"line":2,"transit":false},{"station_name":"Depokbaru","i_lat":-6.391065,"distance":1584,"line":2,"transit":false,"station_id":"DPB","time":3,"is_transit":false,"i_long":106.819451},{"i_lat":-6.369073,"line":2,"station_name":"Pondok Cina","is_transit":false,"time":4,"station_id":"POC","transit":false,"distance":2727,"i_long":106.831114},{"transit":false,"distance":1109,"station_name":"Univ. Indonesia","is_transit":false,"line":2,"i_long":106.831474,"station_id":"UI","time":2,"i_lat":-6.360749},{"transit":false,"distance":2264,"i_long":106.834175,"time":3,"is_transit":false,"line":2,"station_name":"Univ. Pancasila","station_id":"UP","i_lat":-6.339291},{"i_lat":-6.330363,"line":2,"station_id":"LNA","distance":1029,"station_name":"Lenteng Agung","time":2,"is_transit":false,"transit":false,"i_long":106.832616},{"i_lat":-6.3080680000000005,"station_name":"Tanjung Barat","station_id":"TNT","time":3,"i_long":106.838896,"is_transit":false,"line":2,"transit":false,"distance":2671},{"station_id":"PSM","i_lat":-6.2842400000000005,"is_transit":false,"i_long":106.843999,"time":4,"station_name":"Pasar Minggu","transit":false,"line":2,"distance":2820},{"i_long":106.851577,"transit":false,"distance":2380,"station_name":"Pasar Minggu Baru","time":2,"is_transit":false,"station_id":"PSMB","i_lat":-6.263214,"line":2},{"distance":824,"i_long":106.85449,"transit":false,"i_lat":-6.255332,"station_name":"Duren Kalibata","line":2,"is_transit":false,"station_id":"DRN","time":2},{"transit":false,"i_long":106.856607,"distance":1546,"station_id":"CW","time":3,"i_lat":-6.242512,"station_name":"Cawang","is_transit":false,"line":2},{"line":2,"transit":false,"is_transit":false,"time":2,"station_name":"Tebet","station_id":"TEB","distance":1230,"i_lat":-6.226659,"i_long":106.857948},{"transit":false,"time":4,"distance":2610,"is_transit":false,"station_name":"Manggarai","line":2,"i_lat":-6.209883,"i_long":106.84912,"station_id":"MRI"},{"is_transit":false,"time":4,"i_long":106.840169,"transit":false,"station_id":"CKI","i_lat":-6.198556,"station_name":"Cikini","line":2,"distance":1590},{"station_id":"GDD","transit":false,"i_lat":-6.186295,"station_name":"Gondangdia","distance":1750,"i_long":106.832183,"line":2,"time":3,"is_transit":false},{"station_name":"Juanda","is_transit":false,"transit":false,"line":2,"station_id":"JUA","i_lat":-6.166716,"time":4,"distance":2015,"i_long":106.828284},{"line":2,"transit":false,"i_long":106.827103,"station_name":"Sawah Besar","distance":1149,"time":2,"i_lat":-6.160725,"station_id":"SW","is_transit":false},{"i_lat":-6.149769,"i_long":106.82482,"line":2,"transit":false,"station_name":"Manggabesar","is_transit":false,"time":2,"station_id":"MGB","distance":906},{"is_transit":false,"line":2,"station_name":"Jayakarta","distance":1080,"time":2,"i_lat":-6.141205,"transit":false,"i_long":106.820901,"station_id":"JAY"},{"is_transit":false,"time":4,"i_lat":-6.137569,"transit":false,"distance":1264,"i_long":106.812439,"line":2,"station_name":"Jakarta Kota","station_id":"JAKK"}],[{"line":2,"distance":0,"station_id":"DP","i_lat":-6.405256,"i_long":106.816926,"transit":false,"station_name":"Depok","is_transit":false,"time":0},{"line":2,"transit":false,"station_id":"DPB","i_lat":-6.391065,"is_transit":false,"station_name":"Depokbaru","time":3,"i_long":106.819451,"distance":1584},{"i_long":106.831114,"time":4,"line":2,"station_name":"Pondok Cina","station_id":"POC","distance":2727,"i_lat":-6.369073,"transit":false,"is_transit":false},{"i_lat":-6.360749,"time":2,"line":2,"transit":false,"station_name":"Univ. Indonesia","station_id":"UI","distance":1109,"is_transit":false,"i_long":106.831474},{"distance":2264,"station_id":"UP","station_name":"Univ. Pancasila","is_transit":false,"transit":false,"i_long":106.834175,"i_lat":-6.339291,"time":3,"line":2},{"station_id":"LNA","time":2,"i_lat":-6.330363,"is_transit":false,"station_name":"Lenteng Agung","distance":1029,"i_long":106.832616,"line":2,"transit":false},{"station_name":"Tanjung Barat","i_long":106.838896,"i_lat":-6.3080680000000005,"time":3,"line":2,"is_transit":false,"station_id":"TNT","distance":2671,"transit":false},{"i_long":106.843999,"station_id":"PSM","transit":false,"is_transit":false,"time":4,"station_name":"Pasar Minggu","i_lat":-6.2842400000000005,"line":2,"distance":2820},{"station_name":"Pasar Minggu Baru","i_long":106.851577,"transit":false,"line":2,"i_lat":-6.263214,"is_transit":false,"time":2,"station_id":"PSMB","distance":2380},{"i_lat":-6.255332,"i_long":106.85449,"station_id":"DRN","is_transit":false,"time":2,"line":2,"distance":824,"transit":false,"station_name":"Duren Kalibata"},{"station_name":"Cawang","transit":false,"line":2,"station_id":"CW","is_transit":false,"i_lat":-6.242512,"i_long":106.856607,"time":3,"distance":1546},{"station_id":"TEB","time":2,"is_transit":false,"i_long":106.857948,"i_lat":-6.226659,"distance":1230,"station_name":"Tebet","transit":false,"line":2},{"station_id":"MRI","is_transit":true,"time":4,"distance":2610,"i_long":106.84912,"i_lat":-6.209883,"line":2,"station_name":"Manggarai","transit":true},{"distance":3186,"i_long":106.822649,"station_name":"Sudirman","transit":false,"station_id":"SUD","is_transit":false,"i_lat":-6.202263,"line":1,"time":4},{"line":1,"i_long":106.819881,"station_id":"SUDB","is_transit":false,"distance":280,"i_lat":-6.201433,"station_name":"Sudirman Baru","time":1,"transit":false},{"i_lat":-6.20132,"station_id":"KAT","i_long":106.816351,"transit":false,"time":1,"line":1,"distance":471,"station_name":"Karet","is_transit":false},{"transit":false,"station_id":"THB","i_long":106.811091,"distance":2029,"is_transit":false,"station_name":"Tanah Abang","time":5,"line":1,"i_lat":-6.185545},{"transit":false,"station_id":"DU","distance":3632,"i_long":106.800832,"station_name":"Duri","is_transit":false,"i_lat":-6.155215,"line":1,"time":8},{"station_name":"Angke","distance":1230,"line":1,"station_id":"AK","transit":false,"i_lat":-6.144674,"i_long":106.79867,"time":4,"is_transit":false},{"station_id":"KPB","i_long":106.826365,"transit":true,"time":9,"i_lat":-6.132549,"line":4,"is_transit":true,"station_name":"Kampung Bandan","distance":4102},{"transit":false,"i_lat":-6.137569,"distance":1364,"time":3,"is_transit":false,"i_long":106.812439,"station_name":"Jakarta Kota","station_id":"JAKK","line":2}],[{"station_id":"DP","i_lat":-6.405256,"station_name":"Depok","i_long":106.816926,"is_transit":false,"time":0,"distance":0,"transit":false,"line":2},{"station_id":"DPB","time":3,"distance":1584,"transit":false,"i_lat":-6.391065,"i_long":106.819451,"line":2,"is_transit":false,"station_name":"Depokbaru"},{"distance":2727,"line":2,"time":4,"i_long":106.831114,"i_lat":-6.369073,"is_transit":false,"station_id":"POC","transit":false,"station_name":"Pondok Cina"},{"time":2,"i_lat":-6.360749,"distance":1109,"transit":false,"station_name":"Univ. Indonesia","is_transit":false,"station_id":"UI","i_long":106.831474,"line":2},{"transit":false,"is_transit":false,"i_long":106.834175,"line":2,"station_name":"Univ. Pancasila","distance":2264,"station_id":"UP","time":3,"i_lat":-6.339291},{"station_name":"Lenteng Agung","station_id":"LNA","is_transit":false,"time":2,"i_lat":-6.330363,"i_long":106.832616,"line":2,"distance":1029,"transit":false},{"i_long":106.838896,"transit":false,"line":2,"distance":2671,"i_lat":-6.3080680000000005,"station_name":"Tanjung Barat","is_transit":false,"time":3,"station_id":"TNT"},{"station_name":"Pasar Minggu","station_id":"PSM","time":4,"distance":2820,"transit":false,"i_long":106.843999,"is_transit":false,"line":2,"i_lat":-6.2842400000000005},{"station_name":"Pasar Minggu Baru","transit":false,"is_transit":false,"line":2,"station_id":"PSMB","i_lat":-6.263214,"time":2,"distance":2380,"i_long":106.851577},{"i_lat":-6.255332,"i_long":106.85449,"transit":false,"station_id":"DRN","line":2,"distance":824,"time":2,"is_transit":false,"station_name":"Duren Kalibata"},{"i_long":106.856607,"station_id":"CW","is_transit":false,"i_lat":-6.242512,"time":3,"distance":1546,"line":2,"station_name":"Cawang","transit":false},{"time":2,"i_lat":-6.226659,"line":2,"station_name":"Tebet","distance":1230,"transit":false,"station_id":"TEB","is_transit":false,"i_long":106.857948},{"is_transit":true,"distance":2610,"transit":true,"i_long":106.84912,"i_lat":-6.209883,"time":4,"line":2,"station_name":"Manggarai","station_id":"MRI"},{"i_long":106.858896,"transit":false,"station_id":"MTR","time":2,"station_name":"Matraman","distance":1275,"i_lat":-6.212485,"line":1,"is_transit":false},{"station_name":"Jatinegara","transit":true,"is_transit":true,"i_long":106.86807400000001,"line":1,"time":8,"station_id":"JNG","distance":1377,"i_lat":-6.215091},{"station_name":"Pondok Jati","transit":false,"i_long":106.861737,"i_lat":-6.209188,"is_transit":false,"time":2,"station_id":"POK","distance":1236,"line":11},{"i_long":106.855437,"is_transit":false,"station_id":"KMT","time":2,"distance":1829,"line":11,"transit":false,"station_name":"Kramat","i_lat":-6.193792},{"is_transit":false,"distance":973,"time":1,"transit":false,"i_lat":-6.185975,"i_long":106.850107,"line":11,"station_name":"Gang Sentiong","station_id":"GST"},{"transit":false,"time":8,"i_lat":-6.174784,"line":11,"distance":1567,"station_id":"PSE","station_name":"Pasar Senen","i_long":106.84368,"is_transit":false},{"i_lat":-6.161728,"transit":false,"line":11,"distance":1436,"time":4,"station_name":"Kemayoran","station_id":"KMO","i_long":106.839204,"is_transit":false},{"station_name":"Rajawali","line":11,"i_lat":-6.14505,"station_id":"RJW","is_transit":false,"transit":false,"distance":1901,"i_long":106.836569,"time":5},{"i_long":106.826365,"transit":true,"station_id":"KPB","is_transit":true,"distance":1444,"station_name":"Kampung Bandan","time":3,"i_lat":-6.132549,"line":4},{"i_long":106.812439,"time":3,"distance":1364,"transit":false,"station_name":"Jakarta Kota","line":2,"i_lat":-6.137569,"is_transit":false,"station_id":"JAKK"}]]}