{"data":[[{"is_transit":false,"time":0,"i_lat":-6.405256,"station_name":"Depok","transit":false,"i_long":106.816926,"distance":0,"line":0,"station_id":"DP"},{"is_transit":false,"time":3,"distance":1584,"line":0,"station_id":"DPB","station_name":"Depokbaru","i_long":106.819451,"transit":false,"i_lat":-6.391065},{"distance":2727,"transit":false,"i_lat":-6.369073,"station_name":"Pondok Cina","time":4,"line":2,"is_transit":false,"i_long":106.831114,"station_id":"POC"},{"station_id":"UI","transit":false,"station_name":"Univ. Indonesia","i_long":106.831474,"distance":1109,"time":2,"line":2,"i_lat":-6.360749,"is_transit":false},{"line":2,"station_name":"Univ. Pancasila","time":3,"distance":2264,"is_transit":false,"transit":false,"i_long":106.834175,"station_id":"UP","i_lat":-6.339291},{"i_lat":-6.330363,"line":2,"transit":false,"station_name":"Lenteng Agung","is_transit":false,"time":2,"station_id":"LNA","distance":1029,"i_long":106.832616},{"station_id":"TNT","is_transit":false,"i_lat":-6.3080680000000005,"station_name":"Tanjung Barat","transit":false,"distance":2671,"time":3,"i_long":106.838896,"line":2},{"i_lat":-6.2842400000000005,"time":4,"line":2,"transit":false,"station_id":"PSM","station_name":"Pasar Minggu","i_long":106.843999,"is_transit":false,"distance":2820},{"time":2,"transit":false,"i_lat":-6.263214,"is_transit":false,"i_long":106.851577,"station_id":"PSMB","station_name":"Pasar Minggu Baru","distance":2380,"line":2},{"is_transit":false,"time":2,"station_id":"DRN","line":0,"distance":824,"i_long":106.85449,"station_name":"Duren Kalibata","transit":false,"i_lat":-6.255332},{"transit":false,"station_name":"Cawang","i_long":106.856607,"station_id":"CW","time":3,"distance":1546,"i_lat":-6.242512,"is_transit":false,"line":0},{"time":2,"line":2,"transit":false,"station_id":"TEB","is_transit":false,"distance":1230,"i_lat":-6.226659,"i_long":106.857948,"station_name":"Tebet"},{"station_name":"Manggarai","distance":2610,"i_lat":-6.209883,"station_id":"MRI","time":4,"is_transit":true,"transit":true,"line":0,"i_long":106.84912},{"is_transit":false,"station_name":"Cikini","time":4,"line":0,"distance":1590,"i_lat":-6.198556,"i_long":106.840169,"station_id":"CKI","transit":false},{"line":2,"is_transit":false,"station_name":"Gondangdia","time":3,"distance":1750,"transit":false,"i_lat":-6.186295,"station_id":"GDD","i_long":106.832183},{"distance":2015,"station_id":"JUA","is_transit":false,"transit":false,"i_lat":-6.166716,"line":2,"station_name":"Juanda","time":4,"i_long":106.828284},{"i_long":106.827103,"line":2,"time":2,"distance":1149,"i_lat":-6.160725,"station_name":"Sawah Besar","is_transit":false,"station_id":"SW","transit":false},{"distance":906,"i_long":106.82482,"line":2,"station_id":"MGB","transit":false,"is_transit":false,"time":2,"station_name":"Manggabesar","i_lat":-6.149769},{"i_lat":-6.141205,"distance":1080,"i_long":106.820901,"time":2,"station_id":"JAY","station_name":"Jayakarta","is_transit":false,"transit":false,"line":7},{"station_id":"JAKK","i_lat":-6.137569,"distance":1264,"transit":false,"i_long":106.812439,"is_transit":true,"time":4,"station_name":"Jakarta Kota","line":0}],[{"station_id":"DP","time":0,"is_transit":false,"distance":0,"station_name":"Depok","transit":false,"i_lat":-6.405256,"i_long":106.816926,"line":0},{"station_name":"Depokbaru","i_long":106.819451,"station_id":"DPB","i_lat":-6.391065,"time":3,"distance":1584,"transit":false,"line":0,"is_transit":false},{"i_long":106.831114,"line":2,"time":4,"distance":2727,"is_transit":false,"transit":false,"i_lat":-6.369073,"station_name":"Pondok Cina","station_id":"POC"},{"transit":false,"i_long":106.831474,"line":2,"is_transit":false,"distance":1109,"station_id":"UI","i_lat":-6.360749,"station_name":"Univ. Indonesia","time":2},{"time":3,"station_name":"Univ. Pancasila","line":2,"is_transit":false,"station_id":"UP","transit":false,"distance":2264,"i_long":106.834175,"i_lat":-6.339291},{"transit":false,"time":2,"i_lat":-6.330363,"line":2,"distance":1029,"i_long":106.832616,"station_name":"Lenteng Agung","station_id":"LNA","is_transit":false},{"station_id":"TNT","i_long":106.838896,"station_name":"Tanjung Barat","time":3,"line":2,"distance":2671,"i_lat":-6.3080680000000005,"is_transit":false,"transit":false},{"i_lat":-6.2842400000000005,"station_name":"Pasar Minggu","transit":false,"station_id":"PSM","time":4,"line":2,"is_transit":false,"distance":2820,"i_long":106.843999},{"station_name":"Pasar Minggu Baru","time":2,"distance":2380,"i_lat":-6.263214,"is_transit":false,"transit":false,"i_long":106.851577,"station_id":"PSMB","line":2},{"i_lat":-6.255332,"distance":824,"i_long":106.85449,"time":2,"line":0,"station_name":"Duren Kalibata","station_id":"DRN","transit":false,"is_transit":false},{"i_lat":-6.242512,"time":3,"station_name":"Cawang","distance":1546,"station_id":"CW","transit":false,"line":0,"is_transit":false,"i_long":106.856607},{"line":2,"is_transit":false,"station_name":"Tebet","distance":1230,"i_long":106.857948,"station_id":"TEB","transit":false,"time":2,"i_lat":-6.226659},{"line":0,"time":4,"station_id":"MRI","transit":true,"i_lat":-6.209883,"is_transit":true,"station_name":"Manggarai","distance":2610,"i_long":106.84912},{"is_transit":false,"time":4,"i_lat":-6.202263,"station_name":"Sudirman","station_id":"SUD","distance":3186,"i_long":106.822649,"transit":false,"line":1},{"is_transit":false,"station_id":"SUDB","station_name":"Sudirman Baru","transit":false,"distance":280,"time":1,"i_long":106.819881,"line":1,"i_lat":-6.201433},{"is_transit":false,"station_id":"KAT","i_lat":-6.20132,"time":1,"i_long":106.816351,"line":1,"transit":false,"station_name":"Karet","distance":471},{"distance":2029,"time":5,"i_lat":-6.185545,"i_long":106.811091,"line":1,"is_transit":true,"station_id":"THB","transit":false,"station_name":"Tanah Abang"},{"time":8,"station_id":"DU","i_lat":-6.155215,"i_long":106.800832,"distance":3632,"transit":true,"line":1,"is_transit":true,"station_name":"Duri"},{"distance":1230,"line":0,"time":4,"station_name":"Angke","transit":false,"i_lat":-6.144674,"is_transit":false,"station_id":"AK","i_long":106.79867},{"line":0,"station_id":"KPB","i_long":106.826365,"is_transit":true,"i_lat":-6.132549,"station_name":"Kampung Bandan","distance":4102,"time":9,"transit":false},{"station_name":"Jakarta Kota","time":3,"line":0,"i_lat":-6.137569,"i_long":106.812439,"is_transit":true,"station_id":"JAKK","distance":1364,"transit":false}],[{"station_name":"Depok","transit":false,"line":0,"i_lat":-6.405256,"i_long":106.816926,"distance":0,"time":0,"station_id":"DP","is_transit":false},{"is_transit":false,"i_long":106.819451,"time":3,"transit":false,"i_lat":-6.391065,"line":0,"station_name":"Depokbaru","distance":1584,"station_id":"DPB"},{"distance":2727,"station_id":"POC","station_name":"Pondok Cina","transit":false,"i_long":106.831114,"time":4,"line":2,"is_transit":false,"i_lat":-6.369073},{"i_long":106.831474,"station_id":"UI","is_transit":false,"i_lat":-6.360749,"time":2,"transit":false,"line":2,"distance":1109,"station_name":"Univ. Indonesia"},{"transit":false,"i_lat":-6.339291,"i_long":106.834175,"station_name":"Univ. Pancasila","station_id":"UP","time":3,"distance":2264,"line":2,"is_transit":false},{"station_id":"LNA","transit":false,"station_name":"Lenteng Agung","time":2,"i_lat":-6.330363,"distance":1029,"is_transit":false,"i_long":106.832616,"line":2},{"station_name":"Tanjung Barat","time":3,"station_id":"TNT","is_transit":false,"distance":2671,"i_lat":-6.3080680000000005,"transit":false,"i_long":106.838896,"line":2},{"transit":false,"station_id":"PSM","station_name":"Pasar Minggu","i_lat":-6.2842400000000005,"i_long":106.843999,"is_transit":false,"distance":2820,"line":2,"time":4},{"time":2,"station_name":"Pasar Minggu Baru","i_lat":-6.263214,"station_id":"PSMB","distance":2380,"i_long":106.851577,"transit":false,"line":2,"is_transit":false},{"line":0,"i_long":106.85449,"time":2,"distance":824,"station_id":"DRN","transit":false,"i_lat":-6.255332,"is_transit":false,"station_name":"Duren Kalibata"},{"station_id":"CW","distance":1546,"time":3,"i_long":106.856607,"transit":false,"i_lat":-6.242512,"line":0,"station_name":"Cawang","is_transit":false},{"is_transit":false,"i_long":106.857948,"time":2,"distance":1230,"i_lat":-6.226659,"line":2,"station_id":"TEB","station_name":"Tebet","transit":false},{"time":4,"distance":2610,"is_transit":true,"i_long":106.84912,"transit":true,"i_lat":-6.209883,"line":0,"station_name":"Manggarai","station_id":"MRI"},{"is_transit":false,"time":2,"i_lat":-6.212485,"line":1,"station_name":"Matraman","distance":1275,"i_long":106.858896,"station_id":"MTR","transit":false},{"distance":1377,"time":8,"transit":true,"line":0,"i_long":106.86807400000001,"station_name":"Jatinegara","station_id":"JNG","is_transit":true,"i_lat":-6.215091},{"line":11,"distance":1236,"transit":false,"i_lat":-6.209188,"is_transit":false,"station_id":"POK","time":2,"station_name":"Pondok Jati","i_long":106.861737},{"i_long":106.855437,"station_name":"Kramat","transit":false,"line":11,"station_id":"KMT","is_transit":false,"distance":1829,"i_lat":-6.193792,"time":2},{"station_name":"Gang Sentiong","time":1,"i_long":106.850107,"transit":false,"is_transit":false,"i_lat":-6.185975,"distance":973,"line":11,"station_id":"GST"},{"transit":false,"is_transit":false,"station_id":"PSE","station_name":"Pasar Senen","time":8,"i_long":106.84368,"line":11,"i_lat":-6.174784,"distance":1567},{"is_transit":false,"station_name":"Kemayoran","i_long":106.839204,"station_id":"KMO","i_lat":-6.161728,"line":11,"distance":1436,"time":4,"transit":false},{"distance":1901,"line":11,"time":5,"station_id":"RJW","station_name":"Rajawali","i_long":106.836569,"transit":false,"is_transit":false,"i_lat":-6.14505},{"i_lat":-6.132549,"time":3,"transit":true,"i_long":106.826365,"line":0,"is_transit":true,"station_name":"Kampung Bandan","station_id":"KPB","distance":1444},{"i_long":106.812439,"i_lat":-6.137569,"is_transit":true,"time":3,"station_name":"Jakarta Kota","transit":false,"station_id":"JAKK","distance":1364,"line":0}]]}