{"data":[[{"distance":0,"i_long":106.816926,"time":0,"is_transit":false,"transit":false,"station_name":"Depok","i_lat":-6.405256,"station_id":"DP","line":0},{"transit":false,"distance":1584,"i_lat":-6.391065,"line":0,"station_name":"Depokbaru","time":3,"station_id":"DPB","i_long":106.819451,"is_transit":false},{"transit":false,"i_long":106.831114,"line":2,"i_lat":-6.369073,"time":4,"station_name":"Pondok Cina","station_id":"POC","is_transit":false,"distance":2727},{"station_id":"UI","distance":1109,"line":2,"is_transit":false,"station_name":"Univ. Indonesia","time":2,"transit":false,"i_long":106.831474,"i_lat":-6.360749},{"i_lat":-6.339291,"transit":false,"is_transit":false,"distance":2264,"i_long":106.834175,"line":2,"time":3,"station_name":"Univ. Pancasila","station_id":"UP"},{"distance":1029,"is_transit":false,"line":2,"station_name":"Lenteng Agung","transit":false,"i_lat":-6.330363,"i_long":106.832616,"time":2,"station_id":"LNA"}]]}