{"data":[[{"station_id":"DP","is_transit":false,"line":2,"transit":false,"i_lat":-6.405256,"station_name":"Depok","distance":0,"time":0,"i_long":106.816926},{"transit":false,"station_id":"DPB","distance":1584,"is_transit":false,"time":3,"i_lat":-6.391065,"line":2,"station_name":"Depokbaru","i_long":106.819451},{"distance":2727,"is_transit":false,"i_lat":-6.369073,"station_id":"POC","station_name":"Pondok Cina","time":4,"i_long":106.831114,"line":2,"transit":false},{"distance":1109,"station_name":"Univ. Indonesia","line":2,"is_transit":false,"transit":false,"i_long":106.831474,"time":2,"station_id":"UI","i_lat":-6.360749},{"i_long":106.834175,"line":2,"transit":false,"is_transit":false,"time":3,"station_name":"Univ. Pancasila","distance":2264,"station_id":"UP","i_lat":-6.339291},{"i_long":106.832616,"i_lat":-6.330363,"station_id":"LNA","distance":1029,"station_name":"Lenteng Agung","transit":false,"line":2,"time":2,"is_transit":false}]]}