{"data":[[{"transit":false,"is_transit":false,"station_name":"Depok","distance":0,"line":2,"i_long":106.816926,"i_lat":-6.405256,"station_id":"DP","time":0},{"i_lat":-6.391065,"is_transit":false,"station_id":"DPB","line":2,"i_long":106.819451,"transit":false,"distance":1584,"station_name":"Depokbaru","time":3},{"transit":false,"distance":2727,"station_id":"POC","i_long":106.831114,"time":4,"line":2,"is_transit":false,"station_name":"Pondok Cina","i_lat":-6.369073},{"time":2,"distance":1109,"station_name":"Univ. Indonesia","is_transit":false,"transit":false,"station_id":"UI","i_lat":-6.360749,"i_long":106.831474,"line":2},{"transit":false,"i_long":106.834175,"time":3,"station_id":"UP","station_name":"Univ. Pancasila","i_lat":-6.339291,"is_transit":false,"line":2,"distance":2264},{"time":2,"transit":false,"station_id":"LNA","line":2,"station_name":"Lenteng Agung","is_transit":false,"i_lat":-6.330363,"i_long":106.832616,"distance":1029}]]}