{"data":[[{"is_transit":false,"distance":0,"line":2,"station_id":"DP","transit":false,"i_lat":-6.405256,"i_long":106.816926,"station_name":"Depok","time":0},{"i_long":106.819451,"station_name":"Depokbaru","i_lat":-6.391065,"distance":1584,"is_transit":false,"time":3,"station_id":"DPB","line":2,"transit":false},{"distance":2727,"line":2,"station_id":"POC","i_lat":-6.369073,"i_long":106.831114,"transit":false,"station_name":"Pondok Cina","is_transit":false,"time":4},{"station_name":"Univ. Indonesia","station_id":"UI","is_transit":false,"distance":1109,"i_long":106.831474,"i_lat":-6.360749,"line":2,"time":2,"transit":false},{"distance":2264,"i_long":106.834175,"is_transit":false,"station_id":"UP","line":2,"transit":false,"station_name":"Univ. Pancasila","i_lat":-6.339291,"time":3},{"time":2,"distance":1029,"i_lat":-6.330363,"i_long":106.832616,"station_name":"Lenteng Agung","station_id":"LNA","transit":false,"line":2,"is_transit":false}]]}