{"data":[[{"station_name":"Depok","i_long":106.816926,"i_lat":-6.405256,"line":2,"station_id":"DP","distance":0,"time":0,"transit":false,"is_transit":false},{"i_lat":-6.391065,"i_long":106.819451,"is_transit":false,"time":3,"line":2,"station_name":"Depokbaru","station_id":"DPB","transit":false,"distance":1584},{"station_name":"Pondok Cina","is_transit":false,"distance":2727,"i_long":106.831114,"station_id":"POC","transit":false,"line":2,"time":4,"i_lat":-6.369073},{"station_id":"UI","transit":false,"station_name":"Univ. Indonesia","time":2,"i_lat":-6.360749,"i_long":106.831474,"line":2,"distance":1109,"is_transit":false},{"time":3,"i_long":106.834175,"transit":false,"distance":2264,"i_lat":-6.339291,"line":2,"station_id":"UP","is_transit":false,"station_name":"Univ. Pancasila"},{"is_transit":false,"line":2,"transit":false,"station_id":"LNA","i_lat":-6.330363,"time":2,"station_name":"Lenteng Agung","distance":1029,"i_long":106.832616},{"transit":false,"distance":2671,"station_id":"TNT","time":3,"i_lat":-6.3080680000000005,"i_long":106.838896,"is_transit":false,"station_name":"Tanjung Barat","line":2},{"is_transit":false,"i_long":106.843999,"line":2,"station_name":"Pasar Minggu","transit":false,"distance":2820,"station_id":"PSM","time":4,"i_lat":-6.2842400000000005},{"line":2,"transit":false,"station_id":"PSMB","i_lat":-6.263214,"distance":2380,"station_name":"Pasar Minggu Baru","time":2,"i_long":106.851577,"is_transit":false},{"station_id":"DRN","time":2,"transit":false,"i_lat":-6.255332,"distance":824,"station_name":"Duren Kalibata","is_transit":false,"i_long":106.85449,"line":2},{"i_long":106.856607,"is_transit":false,"line":2,"time":3,"distance":1546,"station_name":"Cawang","station_id":"CW","i_lat":-6.242512,"transit":false},{"is_transit":false,"time":2,"line":2,"transit":false,"distance":1230,"station_name":"Tebet","station_id":"TEB","i_lat":-6.226659,"i_long":106.857948},{"line":2,"time":4,"station_name":"Manggarai","i_long":106.84912,"i_lat":-6.209883,"is_transit":false,"transit":false,"station_id":"MRI","distance":2610}]]}