{"data":[[{"transit":false,"is_transit":false,"distance":0,"i_lat":-6.405256,"line":2,"time":0,"station_name":"Depok","station_id":"DP","i_long":106.816926},{"time":3,"i_lat":-6.391065,"station_name":"Depokbaru","transit":false,"station_id":"DPB","is_transit":false,"i_long":106.819451,"distance":1584,"line":2},{"transit":false,"line":2,"time":4,"station_name":"Pondok Cina","is_transit":false,"distance":2727,"i_long":106.831114,"i_lat":-6.369073,"station_id":"POC"},{"i_lat":-6.360749,"line":2,"station_name":"Univ. Indonesia","station_id":"UI","distance":1109,"is_transit":false,"i_long":106.831474,"time":2,"transit":false},{"transit":false,"i_lat":-6.339291,"line":2,"is_transit":false,"distance":2264,"station_id":"UP","station_name":"Univ. Pancasila","i_long":106.834175,"time":3},{"is_transit":false,"time":2,"transit":false,"station_id":"LNA","distance":1029,"i_lat":-6.330363,"i_long":106.832616,"line":2,"station_name":"Lenteng Agung"},{"station_name":"Tanjung Barat","is_transit":false,"distance":2671,"i_lat":-6.3080680000000005,"line":2,"transit":false,"station_id":"TNT","i_long":106.838896,"time":3},{"is_transit":false,"i_lat":-6.2842400000000005,"distance":2820,"line":2,"transit":false,"station_id":"PSM","time":4,"i_long":106.843999,"station_name":"Pasar Minggu"},{"i_lat":-6.263214,"is_transit":false,"station_name":"Pasar Minggu Baru","time":2,"distance":2380,"i_long":106.851577,"line":2,"transit":false,"station_id":"PSMB"},{"time":2,"is_transit":false,"distance":824,"i_lat":-6.255332,"line":2,"station_name":"Duren Kalibata","station_id":"DRN","i_long":106.85449,"transit":false},{"distance":1546,"transit":false,"time":3,"i_long":106.856607,"station_name":"Cawang","is_transit":false,"line":2,"i_lat":-6.242512,"station_id":"CW"},{"station_name":"Tebet","is_transit":false,"transit":false,"station_id":"TEB","distance":1230,"i_lat":-6.226659,"i_long":106.857948,"line":2,"time":2},{"distance":2610,"station_id":"MRI","is_transit":false,"i_lat":-6.209883,"i_long":106.84912,"line":2,"station_name":"Manggarai","time":4,"transit":false},{"is_transit":false,"station_id":"CKI","transit":false,"time":4,"distance":1590,"line":2,"i_long":106.840169,"station_name":"Cikini","i_lat":-6.198556},{"is_transit":false,"line":2,"transit":false,"station_id":"GDD","i_lat":-6.186295,"station_name":"Gondangdia","distance":1750,"i_long":106.832183,"time":3},{"station_id":"JUA","i_long":106.828284,"line":2,"distance":2015,"station_name":"Juanda","i_lat":-6.166716,"time":4,"is_transit":false,"transit":false},{"station_name":"Sawah Besar","transit":false,"distance":1149,"line":2,"i_lat":-6.160725,"time":2,"is_transit":false,"station_id":"SW","i_long":106.827103},{"is_transit":false,"line":2,"transit":false,"i_lat":-6.149769,"station_id":"MGB","i_long":106.82482,"time":2,"distance":906,"station_name":"Manggabesar"}],[{"time":0,"is_transit":false,"station_id":"DP","transit":false,"distance":0,"i_lat":-6.405256,"i_long":106.816926,"line":2,"station_name":"Depok"},{"distance":1584,"transit":false,"station_id":"DPB","line":2,"time":3,"i_lat":-6.391065,"station_name":"Depokbaru","is_transit":false,"i_long":106.819451},{"distance":2727,"i_lat":-6.369073,"time":4,"is_transit":false,"station_id":"POC","station_name":"Pondok Cina","transit":false,"i_long":106.831114,"line":2},{"station_id":"UI","station_name":"Univ. Indonesia","i_long":106.831474,"time":2,"is_transit":false,"i_lat":-6.360749,"line":2,"transit":false,"distance":1109},{"i_lat":-6.339291,"transit":false,"station_id":"UP","i_long":106.834175,"time":3,"distance":2264,"station_name":"Univ. Pancasila","is_transit":false,"line":2},{"distance":1029,"station_name":"Lenteng Agung","time":2,"station_id":"LNA","i_long":106.832616,"line":2,"i_lat":-6.330363,"transit":false,"is_transit":false},{"time":3,"is_transit":false,"distance":2671,"line":2,"i_long":106.838896,"station_name":"Tanjung Barat","station_id":"TNT","transit":false,"i_lat":-6.3080680000000005},{"is_transit":false,"time":4,"station_name":"Pasar Minggu","transit":false,"line":2,"i_lat":-6.2842400000000005,"i_long":106.843999,"station_id":"PSM","distance":2820},{"station_name":"Pasar Minggu Baru","time":2,"is_transit":false,"i_long":106.851577,"transit":false,"i_lat":-6.263214,"line":2,"station_id":"PSMB","distance":2380},{"i_lat":-6.255332,"i_long":106.85449,"line":2,"distance":824,"time":2,"station_id":"DRN","station_name":"Duren Kalibata","transit":false,"is_transit":false},{"time":3,"transit":false,"line":2,"is_transit":false,"i_long":106.856607,"station_id":"CW","distance":1546,"i_lat":-6.242512,"station_name":"Cawang"},{"i_lat":-6.226659,"station_name":"Tebet","transit":false,"i_long":106.857948,"station_id":"TEB","distance":1230,"is_transit":false,"line":2,"time":2},{"distance":2610,"station_id":"MRI","is_transit":true,"time":4,"station_name":"Manggarai","line":2,"i_lat":-6.209883,"i_long":106.84912,"transit":true},{"station_id":"SUD","is_transit":false,"time":4,"line":1,"transit":false,"distance":3186,"i_long":106.822649,"station_name":"Sudirman","i_lat":-6.202263},{"line":1,"i_long":106.819881,"i_lat":-6.201433,"time":1,"station_name":"Sudirman Baru","station_id":"SUDB","transit":false,"distance":280,"is_transit":false},{"line":1,"transit":false,"station_id":"KAT","time":1,"is_transit":false,"distance":471,"i_long":106.816351,"i_lat":-6.20132,"station_name":"Karet"},{"time":5,"is_transit":false,"i_long":106.811091,"line":1,"station_id":"THB","distance":2029,"transit":false,"station_name":"Tanah Abang","i_lat":-6.185545},{"i_lat":-6.155215,"time":8,"station_id":"DU","station_name":"Duri","line":1,"transit":false,"is_transit":false,"distance":3632,"i_long":106.800832},{"distance":1230,"station_name":"Angke","transit":false,"is_transit":false,"i_lat":-6.144674,"i_long":106.79867,"line":1,"time":4,"station_id":"AK"},{"distance":4102,"i_long":106.826365,"time":9,"station_id":"KPB","line":4,"i_lat":-6.132549,"transit":true,"is_transit":true,"station_name":"Kampung Bandan"},{"is_transit":true,"i_long":106.812439,"station_name":"Jakarta Kota","transit":true,"station_id":"JAKK","line":2,"i_lat":-6.137569,"distance":1364,"time":3},{"station_id":"JAY","is_transit":false,"time":4,"station_name":"Jayakarta","distance":1264,"i_lat":-6.141205,"transit":false,"i_long":106.820901,"line":2},{"i_lat":-6.149769,"is_transit":false,"time":2,"station_id":"MGB","line":2,"i_long":106.82482,"station_name":"Manggabesar","transit":false,"distance":1080}],[{"i_long":106.816926,"line":2,"station_id":"DP","is_transit":false,"distance":0,"i_lat":-6.405256,"station_name":"Depok","transit":false,"time":0},{"station_id":"DPB","line":2,"is_transit":false,"i_long":106.819451,"transit":false,"i_lat":-6.391065,"distance":1584,"time":3,"station_name":"Depokbaru"},{"time":4,"transit":false,"is_transit":false,"station_name":"Pondok Cina","distance":2727,"i_long":106.831114,"line":2,"station_id":"POC","i_lat":-6.369073},{"transit":false,"time":2,"station_id":"UI","is_transit":false,"distance":1109,"line":2,"i_long":106.831474,"station_name":"Univ. Indonesia","i_lat":-6.360749},{"time":3,"i_long":106.834175,"transit":false,"station_name":"Univ. Pancasila","distance":2264,"station_id":"UP","line":2,"i_lat":-6.339291,"is_transit":false},{"i_long":106.832616,"transit":false,"is_transit":false,"station_id":"LNA","line":2,"time":2,"station_name":"Lenteng Agung","distance":1029,"i_lat":-6.330363},{"transit":false,"station_name":"Tanjung Barat","i_long":106.838896,"line":2,"distance":2671,"time":3,"is_transit":false,"station_id":"TNT","i_lat":-6.3080680000000005},{"transit":false,"line":2,"i_lat":-6.2842400000000005,"distance":2820,"time":4,"station_name":"Pasar Minggu","is_transit":false,"station_id":"PSM","i_long":106.843999},{"transit":false,"station_name":"Pasar Minggu Baru","time":2,"line":2,"station_id":"PSMB","is_transit":false,"distance":2380,"i_lat":-6.263214,"i_long":106.851577},{"is_transit":false,"i_lat":-6.255332,"distance":824,"line":2,"station_name":"Duren Kalibata","station_id":"DRN","transit":false,"i_long":106.85449,"time":2},{"i_long":106.856607,"line":2,"station_name":"Cawang","distance":1546,"time":3,"station_id":"CW","i_lat":-6.242512,"transit":false,"is_transit":false},{"is_transit":false,"distance":1230,"i_lat":-6.226659,"time":2,"station_name":"Tebet","line":2,"transit":false,"station_id":"TEB","i_long":106.857948},{"i_long":106.84912,"line":2,"time":4,"transit":true,"is_transit":true,"station_name":"Manggarai","station_id":"MRI","distance":2610,"i_lat":-6.209883},{"i_lat":-6.212485,"time":2,"is_transit":false,"transit":false,"station_id":"MTR","distance":1275,"station_name":"Matraman","i_long":106.858896,"line":1},{"station_id":"JNG","line":1,"transit":true,"distance":1377,"time":8,"station_name":"Jatinegara","is_transit":true,"i_long":106.86807400000001,"i_lat":-6.215091},{"station_id":"POK","i_long":106.861737,"station_name":"Pondok Jati","is_transit":false,"distance":1236,"line":11,"time":2,"transit":false,"i_lat":-6.209188},{"i_long":106.855437,"time":2,"transit":false,"station_id":"KMT","is_transit":false,"distance":1829,"line":11,"station_name":"Kramat","i_lat":-6.193792},{"station_name":"Gang Sentiong","i_lat":-6.185975,"distance":973,"station_id":"GST","i_long":106.850107,"line":11,"transit":false,"is_transit":false,"time":1},{"station_name":"Pasar Senen","i_lat":-6.174784,"transit":false,"distance":1567,"time":8,"i_long":106.84368,"is_transit":false,"line":11,"station_id":"PSE"},{"station_name":"Kemayoran","is_transit":false,"transit":false,"distance":1436,"line":11,"i_lat":-6.161728,"station_id":"KMO","time":4,"i_long":106.839204},{"time":5,"station_name":"Rajawali","is_transit":false,"transit":false,"i_lat":-6.14505,"line":11,"i_long":106.836569,"station_id":"RJW","distance":1901},{"is_transit":true,"i_lat":-6.132549,"station_name":"Kampung Bandan","transit":true,"station_id":"KPB","line":4,"time":3,"distance":1444,"i_long":106.826365},{"time":3,"is_transit":true,"station_name":"Jakarta Kota","station_id":"JAKK","transit":true,"distance":1364,"line":2,"i_lat":-6.137569,"i_long":106.812439},{"i_lat":-6.141205,"station_name":"Jayakarta","transit":false,"is_transit":false,"station_id":"JAY","time":4,"distance":1264,"i_long":106.820901,"line":2},{"i_long":106.82482,"distance":1080,"transit":false,"station_name":"Manggabesar","i_lat":-6.149769,"line":2,"station_id":"MGB","time":2,"is_transit":false}]]}