{"data":[[{"time":0,"line":2,"distance":0,"is_transit":false,"station_name":"Depok","i_lat":-6.405256,"station_id":"DP","i_long":106.816926,"transit":false},{"station_name":"Depokbaru","is_transit":false,"transit":false,"i_lat":-6.391065,"station_id":"DPB","distance":1584,"i_long":106.819451,"line":2,"time":3},{"is_transit":false,"transit":false,"i_lat":-6.369073,"i_long":106.831114,"line":2,"station_id":"POC","distance":2727,"station_name":"Pondok Cina","time":4},{"distance":1109,"i_long":106.831474,"station_name":"Univ. Indonesia","time":2,"is_transit":false,"line":2,"transit":false,"station_id":"UI","i_lat":-6.360749},{"time":3,"i_long":106.834175,"station_name":"Univ. Pancasila","transit":false,"is_transit":false,"station_id":"UP","line":2,"distance":2264,"i_lat":-6.339291},{"distance":1029,"i_long":106.832616,"is_transit":false,"station_id":"LNA","transit":false,"line":2,"i_lat":-6.330363,"station_name":"Lenteng Agung","time":2},{"transit":false,"is_transit":false,"i_lat":-6.3080680000000005,"time":3,"line":2,"distance":2671,"i_long":106.838896,"station_id":"TNT","station_name":"Tanjung Barat"},{"time":4,"distance":2820,"i_lat":-6.2842400000000005,"station_id":"PSM","line":2,"is_transit":false,"transit":false,"station_name":"Pasar Minggu","i_long":106.843999},{"transit":false,"line":2,"i_long":106.851577,"station_id":"PSMB","i_lat":-6.263214,"distance":2380,"station_name":"Pasar Minggu Baru","time":2,"is_transit":false},{"is_transit":false,"i_lat":-6.255332,"time":2,"transit":false,"station_id":"DRN","station_name":"Duren Kalibata","line":2,"distance":824,"i_long":106.85449},{"i_lat":-6.242512,"time":3,"distance":1546,"i_long":106.856607,"line":2,"transit":false,"station_name":"Cawang","station_id":"CW","is_transit":false},{"station_id":"TEB","station_name":"Tebet","i_lat":-6.226659,"transit":false,"i_long":106.857948,"distance":1230,"is_transit":false,"line":2,"time":2},{"is_transit":false,"i_long":106.84912,"station_id":"MRI","station_name":"Manggarai","distance":2610,"time":4,"i_lat":-6.209883,"line":2,"transit":false},{"transit":false,"time":4,"is_transit":false,"line":2,"station_name":"Cikini","i_lat":-6.198556,"i_long":106.840169,"station_id":"CKI","distance":1590},{"line":2,"station_id":"GDD","i_long":106.832183,"station_name":"Gondangdia","is_transit":false,"time":3,"distance":1750,"i_lat":-6.186295,"transit":false},{"station_name":"Juanda","transit":false,"station_id":"JUA","i_lat":-6.166716,"is_transit":false,"distance":2015,"time":4,"line":2,"i_long":106.828284},{"station_name":"Sawah Besar","i_lat":-6.160725,"line":2,"station_id":"SW","i_long":106.827103,"time":2,"is_transit":false,"distance":1149,"transit":false},{"is_transit":false,"transit":false,"line":2,"station_id":"MGB","distance":906,"station_name":"Manggabesar","i_long":106.82482,"i_lat":-6.149769,"time":2}],[{"transit":false,"i_long":106.816926,"distance":0,"station_name":"Depok","line":2,"is_transit":false,"i_lat":-6.405256,"time":0,"station_id":"DP"},{"distance":1584,"is_transit":false,"station_id":"DPB","transit":false,"time":3,"station_name":"Depokbaru","i_lat":-6.391065,"i_long":106.819451,"line":2},{"is_transit":false,"transit":false,"station_name":"Pondok Cina","time":4,"i_long":106.831114,"i_lat":-6.369073,"line":2,"station_id":"POC","distance":2727},{"distance":1109,"station_id":"UI","i_lat":-6.360749,"i_long":106.831474,"line":2,"transit":false,"is_transit":false,"station_name":"Univ. Indonesia","time":2},{"i_long":106.834175,"distance":2264,"station_id":"UP","time":3,"station_name":"Univ. Pancasila","i_lat":-6.339291,"line":2,"is_transit":false,"transit":false},{"time":2,"line":2,"station_id":"LNA","transit":false,"station_name":"Lenteng Agung","i_long":106.832616,"distance":1029,"i_lat":-6.330363,"is_transit":false},{"station_id":"TNT","station_name":"Tanjung Barat","transit":false,"time":3,"i_long":106.838896,"line":2,"distance":2671,"is_transit":false,"i_lat":-6.3080680000000005},{"station_name":"Pasar Minggu","is_transit":false,"transit":false,"distance":2820,"i_lat":-6.2842400000000005,"line":2,"i_long":106.843999,"station_id":"PSM","time":4},{"station_name":"Pasar Minggu Baru","i_long":106.851577,"is_transit":false,"i_lat":-6.263214,"distance":2380,"transit":false,"time":2,"line":2,"station_id":"PSMB"},{"is_transit":false,"transit":false,"distance":824,"i_lat":-6.255332,"time":2,"station_id":"DRN","line":2,"i_long":106.85449,"station_name":"Duren Kalibata"},{"i_lat":-6.242512,"transit":false,"station_name":"Cawang","distance":1546,"station_id":"CW","time":3,"is_transit":false,"line":2,"i_long":106.856607},{"time":2,"i_lat":-6.226659,"transit":false,"is_transit":false,"i_long":106.857948,"line":2,"station_name":"Tebet","distance":1230,"station_id":"TEB"},{"station_name":"Manggarai","is_transit":true,"line":2,"i_long":106.84912,"time":4,"i_lat":-6.209883,"station_id":"MRI","transit":true,"distance":2610},{"station_name":"Sudirman","transit":false,"is_transit":false,"time":4,"distance":3186,"i_long":106.822649,"station_id":"SUD","line":1,"i_lat":-6.202263},{"is_transit":false,"i_long":106.819881,"transit":false,"distance":280,"i_lat":-6.201433,"station_name":"Sudirman Baru","line":1,"station_id":"SUDB","time":1},{"station_name":"Karet","i_lat":-6.20132,"line":1,"station_id":"KAT","distance":471,"i_long":106.816351,"is_transit":false,"time":1,"transit":false},{"i_long":106.811091,"transit":false,"distance":2029,"i_lat":-6.185545,"station_id":"THB","is_transit":false,"line":1,"station_name":"Tanah Abang","time":5},{"transit":false,"distance":3632,"line":1,"is_transit":false,"i_lat":-6.155215,"station_id":"DU","station_name":"Duri","time":8,"i_long":106.800832},{"is_transit":false,"distance":1230,"line":1,"time":4,"transit":false,"station_id":"AK","station_name":"Angke","i_lat":-6.144674,"i_long":106.79867},{"station_name":"Kampung Bandan","i_long":106.826365,"line":4,"transit":true,"i_lat":-6.132549,"time":9,"is_transit":true,"distance":4102,"station_id":"KPB"},{"is_transit":true,"transit":true,"line":2,"time":3,"i_lat":-6.137569,"station_id":"JAKK","i_long":106.812439,"distance":1364,"station_name":"Jakarta Kota"},{"i_lat":-6.141205,"transit":false,"station_name":"Jayakarta","is_transit":false,"station_id":"JAY","i_long":106.820901,"line":2,"distance":1264,"time":4},{"distance":1080,"i_lat":-6.149769,"transit":false,"i_long":106.82482,"line":2,"is_transit":false,"time":2,"station_name":"Manggabesar","station_id":"MGB"}],[{"station_name":"Depok","time":0,"station_id":"DP","is_transit":false,"i_long":106.816926,"transit":false,"i_lat":-6.405256,"distance":0,"line":2},{"i_long":106.819451,"is_transit":false,"transit":false,"station_id":"DPB","distance":1584,"time":3,"station_name":"Depokbaru","i_lat":-6.391065,"line":2},{"station_id":"POC","i_long":106.831114,"transit":false,"distance":2727,"station_name":"Pondok Cina","line":2,"i_lat":-6.369073,"time":4,"is_transit":false},{"i_lat":-6.360749,"line":2,"station_id":"UI","station_name":"Univ. Indonesia","i_long":106.831474,"is_transit":false,"transit":false,"distance":1109,"time":2},{"station_id":"UP","transit":false,"i_long":106.834175,"line":2,"i_lat":-6.339291,"time":3,"station_name":"Univ. Pancasila","is_transit":false,"distance":2264},{"distance":1029,"station_name":"Lenteng Agung","transit":false,"station_id":"LNA","i_lat":-6.330363,"time":2,"is_transit":false,"i_long":106.832616,"line":2},{"station_name":"Tanjung Barat","transit":false,"line":2,"i_lat":-6.3080680000000005,"is_transit":false,"i_long":106.838896,"distance":2671,"time":3,"station_id":"TNT"},{"transit":false,"distance":2820,"i_lat":-6.2842400000000005,"i_long":106.843999,"time":4,"station_name":"Pasar Minggu","station_id":"PSM","line":2,"is_transit":false},{"time":2,"distance":2380,"station_name":"Pasar Minggu Baru","i_lat":-6.263214,"is_transit":false,"station_id":"PSMB","transit":false,"i_long":106.851577,"line":2},{"is_transit":false,"transit":false,"distance":824,"time":2,"i_long":106.85449,"i_lat":-6.255332,"station_name":"Duren Kalibata","line":2,"station_id":"DRN"},{"i_lat":-6.242512,"i_long":106.856607,"station_name":"Cawang","is_transit":false,"transit":false,"distance":1546,"time":3,"station_id":"CW","line":2},{"time":2,"station_name":"Tebet","is_transit":false,"transit":false,"distance":1230,"station_id":"TEB","i_long":106.857948,"line":2,"i_lat":-6.226659},{"station_name":"Manggarai","time":4,"transit":true,"distance":2610,"line":2,"i_long":106.84912,"station_id":"MRI","is_transit":true,"i_lat":-6.209883},{"transit":false,"i_lat":-6.212485,"distance":1275,"station_name":"Matraman","i_long":106.858896,"station_id":"MTR","line":1,"is_transit":false,"time":2},{"line":1,"i_long":106.86807400000001,"time":8,"transit":true,"i_lat":-6.215091,"distance":1377,"is_transit":true,"station_id":"JNG","station_name":"Jatinegara"},{"distance":1236,"line":11,"time":2,"station_name":"Pondok Jati","i_lat":-6.209188,"i_long":106.861737,"is_transit":false,"station_id":"POK","transit":false},{"line":11,"is_transit":false,"station_id":"KMT","i_lat":-6.193792,"time":2,"i_long":106.855437,"station_name":"Kramat","distance":1829,"transit":false},{"station_id":"GST","time":1,"i_long":106.850107,"line":11,"station_name":"Gang Sentiong","i_lat":-6.185975,"is_transit":false,"distance":973,"transit":false},{"is_transit":false,"i_lat":-6.174784,"station_name":"Pasar Senen","line":11,"distance":1567,"station_id":"PSE","i_long":106.84368,"transit":false,"time":8},{"i_lat":-6.161728,"distance":1436,"station_name":"Kemayoran","is_transit":false,"transit":false,"time":4,"i_long":106.839204,"line":11,"station_id":"KMO"},{"line":11,"is_transit":false,"station_name":"Rajawali","station_id":"RJW","transit":false,"time":5,"i_lat":-6.14505,"i_long":106.836569,"distance":1901},{"line":4,"time":3,"i_lat":-6.132549,"station_name":"Kampung Bandan","station_id":"KPB","i_long":106.826365,"is_transit":true,"transit":true,"distance":1444},{"is_transit":true,"station_name":"Jakarta Kota","i_lat":-6.137569,"transit":true,"i_long":106.812439,"time":3,"station_id":"JAKK","distance":1364,"line":2},{"station_name":"Jayakarta","line":2,"i_lat":-6.141205,"is_transit":false,"i_long":106.820901,"distance":1264,"time":4,"transit":false,"station_id":"JAY"},{"distance":1080,"i_long":106.82482,"time":2,"station_id":"MGB","station_name":"Manggabesar","transit":false,"is_transit":false,"i_lat":-6.149769,"line":2}]]}