{"data":[[{"station_id":"DP","station_name":"Depok","i_long":106.816926,"line":2,"distance":0,"is_transit":false,"i_lat":-6.405256,"transit":false,"time":0},{"distance":1584,"is_transit":false,"station_id":"DPB","i_lat":-6.391065,"i_long":106.819451,"time":3,"station_name":"Depokbaru","line":2,"transit":false},{"is_transit":false,"line":2,"distance":2727,"station_name":"Pondok Cina","i_lat":-6.369073,"transit":false,"i_long":106.831114,"time":4,"station_id":"POC"},{"transit":false,"distance":1109,"is_transit":false,"i_long":106.831474,"line":2,"station_id":"UI","i_lat":-6.360749,"station_name":"Univ. Indonesia","time":2},{"line":2,"i_lat":-6.339291,"i_long":106.834175,"distance":2264,"time":3,"transit":false,"station_name":"Univ. Pancasila","is_transit":false,"station_id":"UP"},{"station_name":"Lenteng Agung","time":2,"distance":1029,"i_long":106.832616,"transit":false,"station_id":"LNA","line":2,"is_transit":false,"i_lat":-6.330363},{"is_transit":false,"transit":false,"station_id":"TNT","i_long":106.838896,"i_lat":-6.3080680000000005,"distance":2671,"line":2,"station_name":"Tanjung Barat","time":3},{"distance":2820,"station_name":"Pasar Minggu","i_long":106.843999,"is_transit":false,"line":2,"i_lat":-6.2842400000000005,"transit":false,"station_id":"PSM","time":4},{"time":2,"station_name":"Pasar Minggu Baru","is_transit":false,"line":2,"distance":2380,"transit":false,"station_id":"PSMB","i_lat":-6.263214,"i_long":106.851577},{"i_lat":-6.255332,"time":2,"distance":824,"i_long":106.85449,"transit":false,"station_name":"Duren Kalibata","station_id":"DRN","is_transit":false,"line":2},{"distance":1546,"line":2,"station_id":"CW","station_name":"Cawang","time":3,"transit":false,"i_lat":-6.242512,"i_long":106.856607,"is_transit":false},{"station_name":"Tebet","is_transit":false,"station_id":"TEB","i_lat":-6.226659,"transit":false,"i_long":106.857948,"time":2,"distance":1230,"line":2},{"i_lat":-6.209883,"station_id":"MRI","is_transit":true,"distance":2610,"time":4,"i_long":106.84912,"line":2,"transit":true,"station_name":"Manggarai"},{"line":1,"i_lat":-6.212485,"station_name":"Matraman","station_id":"MTR","i_long":106.858896,"distance":1275,"is_transit":false,"transit":false,"time":2}],[{"distance":0,"i_long":106.816926,"line":2,"station_id":"DP","time":0,"i_lat":-6.405256,"transit":false,"station_name":"Depok","is_transit":false},{"transit":false,"distance":1584,"line":2,"time":3,"is_transit":false,"station_name":"Depokbaru","i_lat":-6.391065,"station_id":"DPB","i_long":106.819451},{"station_name":"Pondok Cina","line":2,"transit":false,"distance":2727,"station_id":"POC","i_lat":-6.369073,"is_transit":false,"i_long":106.831114,"time":4},{"time":2,"is_transit":false,"station_name":"Univ. Indonesia","station_id":"UI","distance":1109,"i_lat":-6.360749,"transit":false,"i_long":106.831474,"line":2},{"i_lat":-6.339291,"is_transit":false,"i_long":106.834175,"line":2,"station_id":"UP","distance":2264,"transit":false,"station_name":"Univ. Pancasila","time":3},{"time":2,"transit":false,"station_name":"Lenteng Agung","i_lat":-6.330363,"line":2,"distance":1029,"i_long":106.832616,"station_id":"LNA","is_transit":false},{"time":3,"i_lat":-6.3080680000000005,"transit":false,"is_transit":false,"i_long":106.838896,"line":2,"station_name":"Tanjung Barat","station_id":"TNT","distance":2671},{"distance":2820,"i_long":106.843999,"station_name":"Pasar Minggu","transit":false,"i_lat":-6.2842400000000005,"is_transit":false,"time":4,"line":2,"station_id":"PSM"},{"transit":false,"station_id":"PSMB","i_lat":-6.263214,"line":2,"distance":2380,"station_name":"Pasar Minggu Baru","i_long":106.851577,"is_transit":false,"time":2},{"station_name":"Duren Kalibata","is_transit":false,"time":2,"distance":824,"i_lat":-6.255332,"i_long":106.85449,"line":2,"station_id":"DRN","transit":false},{"time":3,"i_long":106.856607,"distance":1546,"transit":false,"line":2,"station_id":"CW","station_name":"Cawang","i_lat":-6.242512,"is_transit":false},{"transit":false,"distance":1230,"i_long":106.857948,"is_transit":false,"station_id":"TEB","station_name":"Tebet","line":2,"time":2,"i_lat":-6.226659},{"i_lat":-6.209883,"distance":2610,"is_transit":true,"i_long":106.84912,"station_id":"MRI","time":4,"line":2,"transit":true,"station_name":"Manggarai"},{"line":1,"i_long":106.822649,"transit":false,"station_id":"SUD","distance":3186,"i_lat":-6.202263,"station_name":"Sudirman","is_transit":false,"time":4},{"time":1,"i_lat":-6.201433,"i_long":106.819881,"station_id":"SUDB","is_transit":false,"transit":false,"station_name":"Sudirman Baru","distance":280,"line":1},{"i_lat":-6.20132,"i_long":106.816351,"line":1,"station_name":"Karet","station_id":"KAT","transit":false,"time":1,"is_transit":false,"distance":471},{"i_lat":-6.185545,"station_id":"THB","time":5,"distance":2029,"station_name":"Tanah Abang","line":1,"i_long":106.811091,"transit":false,"is_transit":false},{"is_transit":false,"time":8,"i_long":106.800832,"distance":3632,"station_id":"DU","i_lat":-6.155215,"station_name":"Duri","transit":false,"line":1},{"transit":false,"is_transit":false,"i_lat":-6.144674,"i_long":106.79867,"line":1,"distance":1230,"time":4,"station_name":"Angke","station_id":"AK"},{"line":4,"transit":true,"station_name":"Kampung Bandan","time":9,"is_transit":true,"i_lat":-6.132549,"i_long":106.826365,"distance":4102,"station_id":"KPB"},{"i_long":106.836569,"is_transit":false,"distance":1444,"i_lat":-6.14505,"station_name":"Rajawali","time":3,"transit":false,"line":11,"station_id":"RJW"},{"line":11,"distance":1901,"station_name":"Kemayoran","time":5,"station_id":"KMO","transit":false,"is_transit":false,"i_lat":-6.161728,"i_long":106.839204},{"i_long":106.84368,"is_transit":false,"station_id":"PSE","line":11,"transit":false,"distance":1436,"i_lat":-6.174784,"station_name":"Pasar Senen","time":4},{"distance":1567,"time":8,"line":11,"station_id":"GST","i_lat":-6.185975,"transit":false,"station_name":"Gang Sentiong","i_long":106.850107,"is_transit":false},{"distance":973,"transit":false,"i_long":106.855437,"station_id":"KMT","time":1,"i_lat":-6.193792,"line":11,"station_name":"Kramat","is_transit":false},{"distance":1829,"i_long":106.861737,"line":11,"transit":false,"station_id":"POK","is_transit":false,"time":2,"i_lat":-6.209188,"station_name":"Pondok Jati"},{"station_id":"JNG","i_long":106.86807400000001,"station_name":"Jatinegara","i_lat":-6.215091,"is_transit":true,"time":9,"line":1,"distance":1236,"transit":true},{"is_transit":false,"time":2,"distance":1377,"station_id":"MTR","i_lat":-6.212485,"i_long":106.858896,"station_name":"Matraman","line":1,"transit":false}],[{"station_name":"Depok","time":0,"line":2,"i_long":106.816926,"station_id":"DP","i_lat":-6.405256,"transit":false,"is_transit":false,"distance":0},{"i_long":106.819451,"line":2,"time":3,"station_name":"Depokbaru","transit":false,"station_id":"DPB","is_transit":false,"distance":1584,"i_lat":-6.391065},{"transit":false,"station_id":"POC","i_lat":-6.369073,"is_transit":false,"i_long":106.831114,"line":2,"time":4,"station_name":"Pondok Cina","distance":2727},{"distance":1109,"line":2,"transit":false,"time":2,"i_lat":-6.360749,"i_long":106.831474,"station_name":"Univ. Indonesia","station_id":"UI","is_transit":false},{"transit":false,"line":2,"is_transit":false,"time":3,"distance":2264,"station_id":"UP","station_name":"Univ. Pancasila","i_long":106.834175,"i_lat":-6.339291},{"time":2,"station_name":"Lenteng Agung","station_id":"LNA","i_lat":-6.330363,"transit":false,"is_transit":false,"distance":1029,"i_long":106.832616,"line":2},{"distance":2671,"i_lat":-6.3080680000000005,"i_long":106.838896,"is_transit":false,"time":3,"line":2,"station_name":"Tanjung Barat","transit":false,"station_id":"TNT"},{"station_name":"Pasar Minggu","i_long":106.843999,"is_transit":false,"station_id":"PSM","time":4,"transit":false,"i_lat":-6.2842400000000005,"line":2,"distance":2820},{"i_long":106.851577,"time":2,"station_name":"Pasar Minggu Baru","transit":false,"is_transit":false,"line":2,"station_id":"PSMB","i_lat":-6.263214,"distance":2380},{"i_lat":-6.255332,"is_transit":false,"transit":false,"distance":824,"i_long":106.85449,"line":2,"station_id":"DRN","station_name":"Duren Kalibata","time":2},{"time":3,"station_id":"CW","i_lat":-6.242512,"distance":1546,"station_name":"Cawang","i_long":106.856607,"line":2,"is_transit":false,"transit":false},{"station_id":"TEB","is_transit":false,"distance":1230,"i_lat":-6.226659,"line":2,"station_name":"Tebet","i_long":106.857948,"transit":false,"time":2},{"i_long":106.84912,"line":2,"station_name":"Manggarai","time":4,"i_lat":-6.209883,"transit":false,"is_transit":false,"distance":2610,"station_id":"MRI"},{"station_id":"CKI","line":2,"transit":false,"i_lat":-6.198556,"station_name":"Cikini","is_transit":false,"i_long":106.840169,"distance":1590,"time":4},{"distance":1750,"station_name":"Gondangdia","transit":false,"time":3,"is_transit":false,"i_lat":-6.186295,"line":2,"station_id":"GDD","i_long":106.832183},{"i_lat":-6.166716,"transit":false,"line":2,"is_transit":false,"time":4,"station_id":"JUA","distance":2015,"i_long":106.828284,"station_name":"Juanda"},{"i_lat":-6.160725,"is_transit":false,"i_long":106.827103,"line":2,"transit":false,"time":2,"distance":1149,"station_id":"SW","station_name":"Sawah Besar"},{"time":2,"transit":false,"i_long":106.82482,"distance":906,"i_lat":-6.149769,"line":2,"station_name":"Manggabesar","station_id":"MGB","is_transit":false},{"line":2,"is_transit":false,"time":2,"i_lat":-6.141205,"station_name":"Jayakarta","station_id":"JAY","distance":1080,"i_long":106.820901,"transit":false},{"time":4,"transit":true,"station_id":"JAKK","distance":1264,"is_transit":true,"line":2,"station_name":"Jakarta Kota","i_long":106.812439,"i_lat":-6.137569},{"line":4,"transit":true,"station_id":"KPB","is_transit":true,"station_name":"Kampung Bandan","time":3,"distance":1364,"i_lat":-6.132549,"i_long":106.826365},{"i_long":106.836569,"transit":false,"is_transit":false,"distance":1444,"time":3,"i_lat":-6.14505,"line":11,"station_name":"Rajawali","station_id":"RJW"},{"i_long":106.839204,"time":5,"station_id":"KMO","station_name":"Kemayoran","is_transit":false,"i_lat":-6.161728,"transit":false,"line":11,"distance":1901},{"i_lat":-6.174784,"station_name":"Pasar Senen","distance":1436,"station_id":"PSE","i_long":106.84368,"transit":false,"is_transit":false,"time":4,"line":11},{"i_lat":-6.185975,"distance":1567,"i_long":106.850107,"station_id":"GST","line":11,"transit":false,"is_transit":false,"station_name":"Gang Sentiong","time":8},{"time":1,"station_name":"Kramat","distance":973,"i_lat":-6.193792,"i_long":106.855437,"is_transit":false,"station_id":"KMT","transit":false,"line":11},{"distance":1829,"i_lat":-6.209188,"station_name":"Pondok Jati","station_id":"POK","is_transit":false,"time":2,"line":11,"transit":false,"i_long":106.861737},{"i_lat":-6.215091,"transit":true,"line":1,"time":9,"i_long":106.86807400000001,"is_transit":true,"station_id":"JNG","station_name":"Jatinegara","distance":1236},{"transit":false,"is_transit":false,"station_name":"Matraman","distance":1377,"time":2,"i_long":106.858896,"station_id":"MTR","line":1,"i_lat":-6.212485}]]}