{"data":[[{"distance":0,"station_id":"DP","is_transit":false,"i_lat":-6.405256,"station_name":"Depok","time":0,"transit":false,"i_long":106.816926,"line":2},{"line":2,"distance":1584,"transit":false,"time":3,"i_lat":-6.391065,"is_transit":false,"station_name":"Depokbaru","i_long":106.819451,"station_id":"DPB"},{"station_name":"Pondok Cina","station_id":"POC","time":4,"is_transit":false,"i_long":106.831114,"i_lat":-6.369073,"line":2,"distance":2727,"transit":false},{"station_id":"UI","i_lat":-6.360749,"time":2,"i_long":106.831474,"distance":1109,"is_transit":false,"station_name":"Univ. Indonesia","transit":false,"line":2},{"station_id":"UP","is_transit":false,"line":2,"i_lat":-6.339291,"distance":2264,"i_long":106.834175,"time":3,"transit":false,"station_name":"Univ. Pancasila"},{"station_name":"Lenteng Agung","time":2,"i_long":106.832616,"station_id":"LNA","distance":1029,"i_lat":-6.330363,"line":2,"transit":false,"is_transit":false},{"line":2,"station_id":"TNT","distance":2671,"is_transit":false,"time":3,"transit":false,"i_lat":-6.3080680000000005,"station_name":"Tanjung Barat","i_long":106.838896},{"station_name":"Pasar Minggu","i_long":106.843999,"time":4,"station_id":"PSM","line":2,"is_transit":false,"distance":2820,"i_lat":-6.2842400000000005,"transit":false},{"station_name":"Pasar Minggu Baru","station_id":"PSMB","i_long":106.851577,"time":2,"transit":false,"i_lat":-6.263214,"distance":2380,"is_transit":false,"line":2},{"line":2,"is_transit":false,"transit":false,"i_lat":-6.255332,"i_long":106.85449,"station_name":"Duren Kalibata","time":2,"station_id":"DRN","distance":824},{"station_name":"Cawang","i_long":106.856607,"transit":false,"station_id":"CW","time":3,"line":2,"is_transit":false,"i_lat":-6.242512,"distance":1546},{"transit":false,"time":2,"i_lat":-6.226659,"is_transit":false,"line":2,"i_long":106.857948,"distance":1230,"station_name":"Tebet","station_id":"TEB"},{"i_long":106.84912,"line":2,"time":4,"distance":2610,"station_id":"MRI","is_transit":false,"transit":false,"i_lat":-6.209883,"station_name":"Manggarai"}]]}