{"data":[[{"transit":false,"i_lat":-6.405256,"line":2,"distance":0,"station_id":"DP","station_name":"Depok","is_transit":false,"time":0,"i_long":106.816926},{"station_id":"DPB","transit":false,"is_transit":false,"i_long":106.819451,"distance":1584,"i_lat":-6.391065,"line":2,"station_name":"Depokbaru","time":3},{"station_name":"Pondok Cina","i_long":106.831114,"station_id":"POC","transit":false,"time":4,"line":2,"is_transit":false,"i_lat":-6.369073,"distance":2727},{"line":2,"i_long":106.831474,"time":2,"transit":false,"station_name":"Univ. Indonesia","i_lat":-6.360749,"distance":1109,"station_id":"UI","is_transit":false},{"is_transit":false,"time":3,"line":2,"i_lat":-6.339291,"station_id":"UP","transit":false,"station_name":"Univ. Pancasila","distance":2264,"i_long":106.834175},{"transit":false,"station_id":"LNA","i_lat":-6.330363,"i_long":106.832616,"is_transit":false,"station_name":"Lenteng Agung","distance":1029,"line":2,"time":2},{"transit":false,"line":2,"distance":2671,"station_name":"Tanjung Barat","i_long":106.838896,"is_transit":false,"station_id":"TNT","i_lat":-6.3080680000000005,"time":3},{"i_long":106.843999,"station_name":"Pasar Minggu","station_id":"PSM","transit":false,"distance":2820,"is_transit":false,"line":2,"i_lat":-6.2842400000000005,"time":4},{"is_transit":false,"station_id":"PSMB","distance":2380,"i_lat":-6.263214,"transit":false,"i_long":106.851577,"line":2,"time":2,"station_name":"Pasar Minggu Baru"},{"transit":false,"distance":824,"station_id":"DRN","is_transit":false,"line":2,"i_lat":-6.255332,"station_name":"Duren Kalibata","i_long":106.85449,"time":2},{"i_long":106.856607,"distance":1546,"station_id":"CW","i_lat":-6.242512,"station_name":"Cawang","line":2,"time":3,"transit":false,"is_transit":false},{"i_lat":-6.226659,"station_name":"Tebet","transit":false,"is_transit":false,"station_id":"TEB","i_long":106.857948,"distance":1230,"time":2,"line":2},{"i_lat":-6.209883,"time":4,"distance":2610,"station_id":"MRI","i_long":106.84912,"station_name":"Manggarai","line":2,"transit":true,"is_transit":true},{"transit":false,"station_name":"Matraman","station_id":"MTR","time":2,"i_lat":-6.212485,"is_transit":false,"distance":1275,"i_long":106.858896,"line":1}],[{"is_transit":false,"line":2,"distance":0,"time":0,"transit":false,"i_lat":-6.405256,"station_id":"DP","i_long":106.816926,"station_name":"Depok"},{"time":3,"station_name":"Depokbaru","transit":false,"is_transit":false,"line":2,"station_id":"DPB","i_long":106.819451,"distance":1584,"i_lat":-6.391065},{"time":4,"line":2,"distance":2727,"station_name":"Pondok Cina","transit":false,"station_id":"POC","i_lat":-6.369073,"i_long":106.831114,"is_transit":false},{"i_lat":-6.360749,"time":2,"transit":false,"is_transit":false,"i_long":106.831474,"station_name":"Univ. Indonesia","line":2,"distance":1109,"station_id":"UI"},{"time":3,"station_id":"UP","line":2,"transit":false,"station_name":"Univ. Pancasila","is_transit":false,"distance":2264,"i_long":106.834175,"i_lat":-6.339291},{"station_name":"Lenteng Agung","time":2,"line":2,"station_id":"LNA","distance":1029,"transit":false,"is_transit":false,"i_long":106.832616,"i_lat":-6.330363},{"i_lat":-6.3080680000000005,"time":3,"transit":false,"station_id":"TNT","distance":2671,"station_name":"Tanjung Barat","is_transit":false,"i_long":106.838896,"line":2},{"time":4,"station_name":"Pasar Minggu","transit":false,"line":2,"station_id":"PSM","distance":2820,"is_transit":false,"i_lat":-6.2842400000000005,"i_long":106.843999},{"i_lat":-6.263214,"is_transit":false,"transit":false,"station_id":"PSMB","time":2,"i_long":106.851577,"line":2,"distance":2380,"station_name":"Pasar Minggu Baru"},{"i_lat":-6.255332,"station_id":"DRN","time":2,"transit":false,"distance":824,"line":2,"i_long":106.85449,"station_name":"Duren Kalibata","is_transit":false},{"station_id":"CW","station_name":"Cawang","line":2,"i_long":106.856607,"i_lat":-6.242512,"is_transit":false,"transit":false,"distance":1546,"time":3},{"station_name":"Tebet","time":2,"transit":false,"is_transit":false,"line":2,"i_lat":-6.226659,"distance":1230,"station_id":"TEB","i_long":106.857948},{"i_lat":-6.209883,"is_transit":true,"i_long":106.84912,"distance":2610,"line":2,"transit":true,"station_id":"MRI","time":4,"station_name":"Manggarai"},{"line":1,"transit":false,"station_id":"SUD","time":4,"distance":3186,"station_name":"Sudirman","is_transit":false,"i_lat":-6.202263,"i_long":106.822649},{"transit":false,"i_long":106.819881,"station_id":"SUDB","time":1,"i_lat":-6.201433,"is_transit":false,"station_name":"Sudirman Baru","distance":280,"line":1},{"distance":471,"station_name":"Karet","time":1,"i_long":106.816351,"transit":false,"is_transit":false,"i_lat":-6.20132,"station_id":"KAT","line":1},{"line":1,"transit":false,"time":5,"station_name":"Tanah Abang","station_id":"THB","is_transit":false,"i_long":106.811091,"i_lat":-6.185545,"distance":2029},{"time":8,"station_id":"DU","i_lat":-6.155215,"line":1,"transit":false,"i_long":106.800832,"station_name":"Duri","distance":3632,"is_transit":false},{"i_long":106.79867,"line":1,"transit":false,"is_transit":false,"time":4,"station_id":"AK","i_lat":-6.144674,"distance":1230,"station_name":"Angke"},{"line":4,"transit":true,"station_name":"Kampung Bandan","distance":4102,"station_id":"KPB","is_transit":true,"i_lat":-6.132549,"i_long":106.826365,"time":9},{"i_lat":-6.14505,"line":11,"station_id":"RJW","is_transit":false,"station_name":"Rajawali","i_long":106.836569,"distance":1444,"transit":false,"time":3},{"time":5,"station_id":"KMO","i_lat":-6.161728,"i_long":106.839204,"line":11,"transit":false,"station_name":"Kemayoran","is_transit":false,"distance":1901},{"distance":1436,"station_name":"Pasar Senen","transit":false,"i_lat":-6.174784,"i_long":106.84368,"line":11,"is_transit":false,"time":4,"station_id":"PSE"},{"i_lat":-6.185975,"time":8,"transit":false,"line":11,"is_transit":false,"i_long":106.850107,"distance":1567,"station_id":"GST","station_name":"Gang Sentiong"},{"i_lat":-6.193792,"transit":false,"station_name":"Kramat","is_transit":false,"station_id":"KMT","i_long":106.855437,"distance":973,"time":1,"line":11},{"station_name":"Pondok Jati","is_transit":false,"i_lat":-6.209188,"i_long":106.861737,"line":11,"time":2,"transit":false,"distance":1829,"station_id":"POK"},{"i_lat":-6.215091,"distance":1236,"transit":true,"is_transit":true,"i_long":106.86807400000001,"station_id":"JNG","line":1,"station_name":"Jatinegara","time":9},{"is_transit":false,"station_name":"Matraman","distance":1377,"time":2,"transit":false,"i_lat":-6.212485,"station_id":"MTR","i_long":106.858896,"line":1}],[{"line":2,"is_transit":false,"station_id":"DP","station_name":"Depok","distance":0,"transit":false,"i_lat":-6.405256,"time":0,"i_long":106.816926},{"distance":1584,"i_long":106.819451,"line":2,"transit":false,"is_transit":false,"station_name":"Depokbaru","i_lat":-6.391065,"time":3,"station_id":"DPB"},{"station_name":"Pondok Cina","i_long":106.831114,"is_transit":false,"time":4,"distance":2727,"station_id":"POC","i_lat":-6.369073,"transit":false,"line":2},{"transit":false,"line":2,"station_id":"UI","is_transit":false,"time":2,"station_name":"Univ. Indonesia","i_long":106.831474,"distance":1109,"i_lat":-6.360749},{"line":2,"is_transit":false,"station_id":"UP","transit":false,"station_name":"Univ. Pancasila","i_lat":-6.339291,"i_long":106.834175,"distance":2264,"time":3},{"transit":false,"i_lat":-6.330363,"time":2,"line":2,"station_id":"LNA","station_name":"Lenteng Agung","distance":1029,"is_transit":false,"i_long":106.832616},{"transit":false,"station_id":"TNT","time":3,"i_long":106.838896,"line":2,"distance":2671,"station_name":"Tanjung Barat","is_transit":false,"i_lat":-6.3080680000000005},{"time":4,"station_name":"Pasar Minggu","station_id":"PSM","distance":2820,"transit":false,"i_lat":-6.2842400000000005,"line":2,"i_long":106.843999,"is_transit":false},{"i_lat":-6.263214,"is_transit":false,"station_id":"PSMB","time":2,"transit":false,"line":2,"distance":2380,"i_long":106.851577,"station_name":"Pasar Minggu Baru"},{"line":2,"transit":false,"time":2,"i_lat":-6.255332,"station_id":"DRN","distance":824,"is_transit":false,"i_long":106.85449,"station_name":"Duren Kalibata"},{"transit":false,"i_long":106.856607,"station_id":"CW","is_transit":false,"time":3,"line":2,"distance":1546,"station_name":"Cawang","i_lat":-6.242512},{"is_transit":false,"i_long":106.857948,"line":2,"station_name":"Tebet","station_id":"TEB","i_lat":-6.226659,"transit":false,"time":2,"distance":1230},{"line":2,"time":4,"station_name":"Manggarai","distance":2610,"i_lat":-6.209883,"is_transit":false,"transit":false,"station_id":"MRI","i_long":106.84912},{"distance":1590,"time":4,"i_lat":-6.198556,"line":2,"transit":false,"station_id":"CKI","station_name":"Cikini","is_transit":false,"i_long":106.840169},{"station_id":"GDD","i_lat":-6.186295,"transit":false,"is_transit":false,"i_long":106.832183,"line":2,"time":3,"station_name":"Gondangdia","distance":1750},{"transit":false,"i_long":106.828284,"distance":2015,"station_id":"JUA","i_lat":-6.166716,"line":2,"station_name":"Juanda","time":4,"is_transit":false},{"is_transit":false,"transit":false,"distance":1149,"station_id":"SW","time":2,"i_lat":-6.160725,"station_name":"Sawah Besar","i_long":106.827103,"line":2},{"line":2,"station_id":"MGB","i_long":106.82482,"transit":false,"distance":906,"time":2,"station_name":"Manggabesar","is_transit":false,"i_lat":-6.149769},{"i_lat":-6.141205,"transit":false,"line":2,"station_name":"Jayakarta","is_transit":false,"i_long":106.820901,"distance":1080,"station_id":"JAY","time":2},{"i_long":106.812439,"i_lat":-6.137569,"station_id":"JAKK","distance":1264,"line":2,"is_transit":true,"time":4,"station_name":"Jakarta Kota","transit":true},{"time":3,"line":4,"distance":1364,"station_id":"KPB","station_name":"Kampung Bandan","is_transit":true,"i_lat":-6.132549,"i_long":106.826365,"transit":true},{"is_transit":false,"i_lat":-6.14505,"line":11,"time":3,"distance":1444,"transit":false,"station_name":"Rajawali","i_long":106.836569,"station_id":"RJW"},{"distance":1901,"i_long":106.839204,"is_transit":false,"station_id":"KMO","i_lat":-6.161728,"line":11,"time":5,"station_name":"Kemayoran","transit":false},{"transit":false,"i_long":106.84368,"station_name":"Pasar Senen","distance":1436,"line":11,"station_id":"PSE","time":4,"is_transit":false,"i_lat":-6.174784},{"i_lat":-6.185975,"line":11,"transit":false,"is_transit":false,"station_name":"Gang Sentiong","distance":1567,"station_id":"GST","time":8,"i_long":106.850107},{"distance":973,"time":1,"transit":false,"station_name":"Kramat","is_transit":false,"i_lat":-6.193792,"line":11,"i_long":106.855437,"station_id":"KMT"},{"station_name":"Pondok Jati","transit":false,"station_id":"POK","distance":1829,"i_lat":-6.209188,"time":2,"i_long":106.861737,"is_transit":false,"line":11},{"distance":1236,"i_long":106.86807400000001,"time":9,"station_id":"JNG","transit":true,"i_lat":-6.215091,"line":1,"is_transit":true,"station_name":"Jatinegara"},{"distance":1377,"i_long":106.858896,"line":1,"is_transit":false,"station_name":"Matraman","station_id":"MTR","time":2,"transit":false,"i_lat":-6.212485}]]}