{"data":[[{"is_transit":false,"line":0,"i_long":106.816926,"station_name":"Depok","station_id":"DP","distance":0,"transit":false,"i_lat":-6.405256,"time":0},{"line":0,"transit":false,"distance":1584,"i_long":106.819451,"is_transit":false,"time":3,"station_id":"DPB","i_lat":-6.391065,"station_name":"Depokbaru"},{"station_name":"Pondok Cina","transit":false,"is_transit":false,"time":4,"i_lat":-6.369073,"line":2,"station_id":"POC","i_long":106.831114,"distance":2727},{"i_lat":-6.360749,"line":2,"i_long":106.831474,"time":2,"distance":1109,"transit":false,"station_id":"UI","is_transit":false,"station_name":"Univ. Indonesia"},{"time":3,"i_long":106.834175,"station_id":"UP","station_name":"Univ. Pancasila","line":2,"is_transit":false,"transit":false,"i_lat":-6.339291,"distance":2264},{"is_transit":false,"line":2,"station_name":"Lenteng Agung","station_id":"LNA","time":2,"transit":false,"i_lat":-6.330363,"distance":1029,"i_long":106.832616},{"time":3,"station_id":"TNT","is_transit":false,"i_long":106.838896,"transit":false,"station_name":"Tanjung Barat","distance":2671,"i_lat":-6.3080680000000005,"line":2},{"distance":2820,"station_name":"Pasar Minggu","transit":false,"line":2,"station_id":"PSM","i_lat":-6.2842400000000005,"i_long":106.843999,"is_transit":false,"time":4},{"time":2,"station_id":"PSMB","station_name":"Pasar Minggu Baru","i_lat":-6.263214,"transit":false,"distance":2380,"is_transit":false,"line":2,"i_long":106.851577},{"i_lat":-6.255332,"i_long":106.85449,"line":0,"station_name":"Duren Kalibata","is_transit":false,"time":2,"distance":824,"station_id":"DRN","transit":false},{"i_long":106.856607,"line":0,"time":3,"distance":1546,"i_lat":-6.242512,"station_name":"Cawang","station_id":"CW","transit":false,"is_transit":false},{"station_name":"Tebet","transit":false,"distance":1230,"time":2,"station_id":"TEB","is_transit":false,"i_lat":-6.226659,"i_long":106.857948,"line":2},{"is_transit":true,"station_id":"MRI","distance":2610,"transit":true,"i_lat":-6.209883,"i_long":106.84912,"line":0,"time":4,"station_name":"Manggarai"},{"transit":false,"time":2,"i_long":106.858896,"is_transit":false,"distance":1275,"line":1,"station_id":"MTR","station_name":"Matraman","i_lat":-6.212485}],[{"i_lat":-6.405256,"station_id":"DP","distance":0,"station_name":"Depok","transit":false,"line":0,"time":0,"i_long":106.816926,"is_transit":false},{"station_id":"DPB","line":0,"distance":1584,"time":3,"i_lat":-6.391065,"station_name":"Depokbaru","i_long":106.819451,"is_transit":false,"transit":false},{"i_lat":-6.369073,"time":4,"distance":2727,"station_id":"POC","is_transit":false,"station_name":"Pondok Cina","line":2,"transit":false,"i_long":106.831114},{"time":2,"is_transit":false,"i_lat":-6.360749,"line":2,"transit":false,"station_id":"UI","i_long":106.831474,"station_name":"Univ. Indonesia","distance":1109},{"i_long":106.834175,"i_lat":-6.339291,"transit":false,"time":3,"line":2,"station_id":"UP","station_name":"Univ. Pancasila","is_transit":false,"distance":2264},{"distance":1029,"time":2,"i_long":106.832616,"station_id":"LNA","station_name":"Lenteng Agung","is_transit":false,"line":2,"i_lat":-6.330363,"transit":false},{"transit":false,"line":2,"is_transit":false,"i_long":106.838896,"distance":2671,"i_lat":-6.3080680000000005,"station_name":"Tanjung Barat","station_id":"TNT","time":3},{"station_name":"Pasar Minggu","distance":2820,"line":2,"i_lat":-6.2842400000000005,"time":4,"i_long":106.843999,"is_transit":false,"station_id":"PSM","transit":false},{"transit":false,"time":2,"i_long":106.851577,"station_id":"PSMB","distance":2380,"i_lat":-6.263214,"is_transit":false,"line":2,"station_name":"Pasar Minggu Baru"},{"station_name":"Duren Kalibata","distance":824,"transit":false,"is_transit":false,"i_lat":-6.255332,"i_long":106.85449,"time":2,"line":0,"station_id":"DRN"},{"is_transit":false,"distance":1546,"transit":false,"line":0,"time":3,"station_id":"CW","station_name":"Cawang","i_long":106.856607,"i_lat":-6.242512},{"time":2,"station_id":"TEB","station_name":"Tebet","transit":false,"i_long":106.857948,"line":2,"is_transit":false,"distance":1230,"i_lat":-6.226659},{"i_lat":-6.209883,"time":4,"distance":2610,"station_id":"MRI","transit":true,"i_long":106.84912,"is_transit":true,"station_name":"Manggarai","line":0},{"time":4,"transit":false,"i_lat":-6.202263,"is_transit":false,"distance":3186,"i_long":106.822649,"station_id":"SUD","station_name":"Sudirman","line":1},{"line":1,"i_lat":-6.201433,"station_name":"Sudirman Baru","is_transit":false,"time":1,"distance":280,"transit":false,"i_long":106.819881,"station_id":"SUDB"},{"distance":471,"station_name":"Karet","line":1,"time":1,"is_transit":false,"transit":false,"i_lat":-6.20132,"i_long":106.816351,"station_id":"KAT"},{"station_id":"THB","is_transit":true,"time":5,"transit":false,"i_lat":-6.185545,"distance":2029,"station_name":"Tanah Abang","i_long":106.811091,"line":1},{"station_name":"Duri","time":8,"transit":true,"i_long":106.800832,"i_lat":-6.155215,"station_id":"DU","distance":3632,"line":1,"is_transit":true},{"time":4,"transit":false,"i_long":106.79867,"station_name":"Angke","line":0,"i_lat":-6.144674,"distance":1230,"station_id":"AK","is_transit":false},{"line":0,"i_long":106.826365,"i_lat":-6.132549,"transit":true,"station_name":"Kampung Bandan","station_id":"KPB","distance":4102,"time":9,"is_transit":true},{"transit":false,"distance":1444,"is_transit":false,"time":3,"i_lat":-6.14505,"station_id":"RJW","i_long":106.836569,"line":11,"station_name":"Rajawali"},{"distance":1901,"i_lat":-6.161728,"line":11,"is_transit":false,"transit":false,"station_name":"Kemayoran","station_id":"KMO","time":5,"i_long":106.839204},{"i_lat":-6.174784,"distance":1436,"i_long":106.84368,"time":4,"station_name":"Pasar Senen","transit":false,"station_id":"PSE","line":11,"is_transit":false},{"station_id":"GST","distance":1567,"transit":false,"time":8,"i_lat":-6.185975,"station_name":"Gang Sentiong","line":11,"is_transit":false,"i_long":106.850107},{"station_id":"KMT","distance":973,"station_name":"Kramat","transit":false,"is_transit":false,"i_lat":-6.193792,"i_long":106.855437,"time":1,"line":11},{"time":2,"line":11,"distance":1829,"transit":false,"i_lat":-6.209188,"i_long":106.861737,"station_name":"Pondok Jati","is_transit":false,"station_id":"POK"},{"distance":1236,"station_id":"JNG","i_long":106.86807400000001,"line":0,"i_lat":-6.215091,"is_transit":true,"station_name":"Jatinegara","transit":true,"time":9},{"time":2,"station_id":"MTR","transit":false,"i_long":106.858896,"is_transit":false,"line":1,"distance":1377,"station_name":"Matraman","i_lat":-6.212485}],[{"i_long":106.816926,"distance":0,"is_transit":false,"i_lat":-6.405256,"station_name":"Depok","station_id":"DP","transit":false,"line":0,"time":0},{"time":3,"distance":1584,"is_transit":false,"i_lat":-6.391065,"station_id":"DPB","station_name":"Depokbaru","transit":false,"i_long":106.819451,"line":0},{"i_lat":-6.369073,"time":4,"distance":2727,"transit":false,"station_name":"Pondok Cina","is_transit":false,"i_long":106.831114,"line":2,"station_id":"POC"},{"station_name":"Univ. Indonesia","is_transit":false,"station_id":"UI","time":2,"transit":false,"i_lat":-6.360749,"i_long":106.831474,"line":2,"distance":1109},{"time":3,"station_id":"UP","i_long":106.834175,"distance":2264,"is_transit":false,"transit":false,"i_lat":-6.339291,"line":2,"station_name":"Univ. Pancasila"},{"distance":1029,"station_name":"Lenteng Agung","transit":false,"line":2,"station_id":"LNA","is_transit":false,"time":2,"i_lat":-6.330363,"i_long":106.832616},{"station_id":"TNT","distance":2671,"i_long":106.838896,"line":2,"transit":false,"is_transit":false,"station_name":"Tanjung Barat","time":3,"i_lat":-6.3080680000000005},{"time":4,"i_long":106.843999,"line":2,"station_id":"PSM","i_lat":-6.2842400000000005,"distance":2820,"station_name":"Pasar Minggu","is_transit":false,"transit":false},{"i_lat":-6.263214,"distance":2380,"transit":false,"i_long":106.851577,"line":2,"is_transit":false,"time":2,"station_name":"Pasar Minggu Baru","station_id":"PSMB"},{"i_long":106.85449,"station_name":"Duren Kalibata","transit":false,"station_id":"DRN","distance":824,"line":0,"i_lat":-6.255332,"is_transit":false,"time":2},{"station_name":"Cawang","i_lat":-6.242512,"line":0,"station_id":"CW","time":3,"transit":false,"distance":1546,"is_transit":false,"i_long":106.856607},{"transit":false,"station_id":"TEB","distance":1230,"is_transit":false,"i_lat":-6.226659,"i_long":106.857948,"time":2,"line":2,"station_name":"Tebet"},{"is_transit":true,"station_name":"Manggarai","i_lat":-6.209883,"distance":2610,"line":0,"time":4,"transit":true,"station_id":"MRI","i_long":106.84912},{"i_long":106.840169,"transit":false,"station_name":"Cikini","line":0,"distance":1590,"i_lat":-6.198556,"station_id":"CKI","is_transit":false,"time":4},{"time":3,"station_id":"GDD","transit":false,"line":2,"is_transit":false,"distance":1750,"i_lat":-6.186295,"i_long":106.832183,"station_name":"Gondangdia"},{"station_name":"Juanda","i_long":106.828284,"i_lat":-6.166716,"line":2,"transit":false,"station_id":"JUA","distance":2015,"is_transit":false,"time":4},{"distance":1149,"is_transit":false,"station_id":"SW","station_name":"Sawah Besar","transit":false,"i_lat":-6.160725,"time":2,"i_long":106.827103,"line":2},{"station_name":"Manggabesar","transit":false,"distance":906,"line":2,"is_transit":false,"i_lat":-6.149769,"station_id":"MGB","i_long":106.82482,"time":2},{"is_transit":false,"line":7,"station_name":"Jayakarta","station_id":"JAY","i_long":106.820901,"i_lat":-6.141205,"transit":false,"time":2,"distance":1080},{"station_name":"Jakarta Kota","time":4,"i_lat":-6.137569,"station_id":"JAKK","i_long":106.812439,"line":0,"transit":true,"is_transit":true,"distance":1264},{"transit":true,"i_lat":-6.132549,"station_id":"KPB","i_long":106.826365,"line":0,"station_name":"Kampung Bandan","is_transit":true,"time":3,"distance":1364},{"i_lat":-6.14505,"line":11,"station_id":"RJW","transit":false,"i_long":106.836569,"time":3,"station_name":"Rajawali","distance":1444,"is_transit":false},{"is_transit":false,"transit":false,"time":5,"station_id":"KMO","distance":1901,"i_lat":-6.161728,"i_long":106.839204,"station_name":"Kemayoran","line":11},{"station_id":"PSE","is_transit":false,"i_lat":-6.174784,"transit":false,"distance":1436,"station_name":"Pasar Senen","time":4,"i_long":106.84368,"line":11},{"time":8,"line":11,"station_id":"GST","i_lat":-6.185975,"station_name":"Gang Sentiong","distance":1567,"transit":false,"i_long":106.850107,"is_transit":false},{"station_id":"KMT","is_transit":false,"transit":false,"distance":973,"i_lat":-6.193792,"station_name":"Kramat","i_long":106.855437,"time":1,"line":11},{"distance":1829,"station_id":"POK","is_transit":false,"line":11,"station_name":"Pondok Jati","time":2,"i_long":106.861737,"i_lat":-6.209188,"transit":false},{"transit":true,"distance":1236,"station_name":"Jatinegara","i_long":106.86807400000001,"line":0,"station_id":"JNG","time":9,"is_transit":true,"i_lat":-6.215091},{"time":2,"station_id":"MTR","i_long":106.858896,"line":1,"distance":1377,"transit":false,"station_name":"Matraman","is_transit":false,"i_lat":-6.212485}]]}