{"data":[[{"i_lat":-6.405256,"i_long":106.816926,"time":0,"line":2,"station_name":"Depok","transit":false,"is_transit":false,"station_id":"DP","distance":0},{"station_id":"DPB","is_transit":false,"time":3,"station_name":"Depokbaru","i_lat":-6.391065,"i_long":106.819451,"line":2,"transit":false,"distance":1584},{"station_id":"POC","is_transit":false,"time":4,"distance":2727,"line":2,"station_name":"Pondok Cina","transit":false,"i_lat":-6.369073,"i_long":106.831114},{"is_transit":false,"station_id":"UI","station_name":"Univ. Indonesia","time":2,"i_long":106.831474,"transit":false,"distance":1109,"line":2,"i_lat":-6.360749},{"is_transit":false,"distance":2264,"station_id":"UP","i_lat":-6.339291,"station_name":"Univ. Pancasila","i_long":106.834175,"time":3,"line":2,"transit":false},{"is_transit":false,"distance":1029,"time":2,"i_long":106.832616,"line":2,"transit":false,"station_id":"LNA","i_lat":-6.330363,"station_name":"Lenteng Agung"},{"i_long":106.838896,"station_name":"Tanjung Barat","line":2,"station_id":"TNT","time":3,"transit":false,"distance":2671,"i_lat":-6.3080680000000005,"is_transit":false},{"i_lat":-6.2842400000000005,"i_long":106.843999,"transit":false,"station_name":"Pasar Minggu","time":4,"line":2,"is_transit":false,"distance":2820,"station_id":"PSM"},{"i_lat":-6.263214,"distance":2380,"transit":false,"i_long":106.851577,"line":2,"station_name":"Pasar Minggu Baru","station_id":"PSMB","is_transit":false,"time":2},{"i_long":106.85449,"time":2,"station_id":"DRN","transit":false,"i_lat":-6.255332,"distance":824,"line":2,"station_name":"Duren Kalibata","is_transit":false},{"station_id":"CW","is_transit":false,"line":2,"time":3,"distance":1546,"transit":false,"i_lat":-6.242512,"i_long":106.856607,"station_name":"Cawang"},{"i_lat":-6.226659,"is_transit":false,"station_name":"Tebet","station_id":"TEB","line":2,"transit":false,"time":2,"distance":1230,"i_long":106.857948},{"i_long":106.84912,"is_transit":false,"transit":false,"station_name":"Manggarai","distance":2610,"line":2,"station_id":"MRI","time":4,"i_lat":-6.209883},{"transit":false,"station_name":"Cikini","is_transit":false,"distance":1590,"i_long":106.840169,"line":2,"time":4,"station_id":"CKI","i_lat":-6.198556},{"transit":false,"station_id":"GDD","station_name":"Gondangdia","time":3,"is_transit":false,"i_long":106.832183,"i_lat":-6.186295,"line":2,"distance":1750},{"is_transit":false,"i_lat":-6.166716,"line":2,"time":4,"station_name":"Juanda","station_id":"JUA","distance":2015,"transit":false,"i_long":106.828284},{"station_name":"Sawah Besar","distance":1149,"time":2,"station_id":"SW","transit":false,"line":2,"is_transit":false,"i_lat":-6.160725,"i_long":106.827103},{"transit":false,"i_lat":-6.149769,"line":2,"distance":906,"station_name":"Manggabesar","is_transit":false,"station_id":"MGB","time":2,"i_long":106.82482}],[{"transit":false,"is_transit":false,"line":2,"station_id":"DP","station_name":"Depok","time":0,"i_long":106.816926,"i_lat":-6.405256,"distance":0},{"i_lat":-6.391065,"i_long":106.819451,"station_id":"DPB","time":3,"line":2,"transit":false,"distance":1584,"station_name":"Depokbaru","is_transit":false},{"time":4,"distance":2727,"transit":false,"i_long":106.831114,"line":2,"is_transit":false,"station_id":"POC","i_lat":-6.369073,"station_name":"Pondok Cina"},{"line":2,"i_lat":-6.360749,"distance":1109,"transit":false,"is_transit":false,"station_name":"Univ. Indonesia","station_id":"UI","time":2,"i_long":106.831474},{"station_name":"Univ. Pancasila","i_long":106.834175,"station_id":"UP","time":3,"is_transit":false,"distance":2264,"line":2,"transit":false,"i_lat":-6.339291},{"i_long":106.832616,"distance":1029,"is_transit":false,"transit":false,"i_lat":-6.330363,"station_name":"Lenteng Agung","station_id":"LNA","line":2,"time":2},{"is_transit":false,"time":3,"station_name":"Tanjung Barat","i_long":106.838896,"distance":2671,"line":2,"station_id":"TNT","i_lat":-6.3080680000000005,"transit":false},{"i_long":106.843999,"i_lat":-6.2842400000000005,"station_name":"Pasar Minggu","station_id":"PSM","distance":2820,"is_transit":false,"line":2,"time":4,"transit":false},{"station_id":"PSMB","i_lat":-6.263214,"distance":2380,"transit":false,"is_transit":false,"time":2,"i_long":106.851577,"station_name":"Pasar Minggu Baru","line":2},{"line":2,"station_name":"Duren Kalibata","i_lat":-6.255332,"i_long":106.85449,"time":2,"distance":824,"transit":false,"station_id":"DRN","is_transit":false},{"station_name":"Cawang","distance":1546,"transit":false,"i_long":106.856607,"station_id":"CW","time":3,"is_transit":false,"i_lat":-6.242512,"line":2},{"transit":false,"time":2,"station_name":"Tebet","i_long":106.857948,"distance":1230,"is_transit":false,"i_lat":-6.226659,"station_id":"TEB","line":2},{"time":4,"is_transit":true,"line":2,"transit":true,"distance":2610,"station_name":"Manggarai","station_id":"MRI","i_long":106.84912,"i_lat":-6.209883},{"i_long":106.822649,"time":4,"distance":3186,"line":1,"transit":false,"station_id":"SUD","i_lat":-6.202263,"is_transit":false,"station_name":"Sudirman"},{"is_transit":false,"station_name":"Sudirman Baru","station_id":"SUDB","line":1,"transit":false,"time":1,"distance":280,"i_lat":-6.201433,"i_long":106.819881},{"is_transit":false,"distance":471,"i_lat":-6.20132,"transit":false,"i_long":106.816351,"time":1,"line":1,"station_id":"KAT","station_name":"Karet"},{"station_name":"Tanah Abang","is_transit":false,"station_id":"THB","time":5,"distance":2029,"i_lat":-6.185545,"i_long":106.811091,"line":1,"transit":false},{"transit":false,"station_id":"DU","distance":3632,"i_lat":-6.155215,"i_long":106.800832,"line":1,"is_transit":false,"station_name":"Duri","time":8},{"line":1,"time":4,"station_id":"AK","i_long":106.79867,"transit":false,"station_name":"Angke","i_lat":-6.144674,"is_transit":false,"distance":1230},{"transit":true,"is_transit":true,"time":9,"i_long":106.826365,"i_lat":-6.132549,"line":4,"station_name":"Kampung Bandan","station_id":"KPB","distance":4102},{"is_transit":true,"i_long":106.812439,"line":2,"i_lat":-6.137569,"station_name":"Jakarta Kota","time":3,"transit":true,"station_id":"JAKK","distance":1364},{"is_transit":false,"distance":1264,"station_name":"Jayakarta","station_id":"JAY","time":4,"i_long":106.820901,"transit":false,"i_lat":-6.141205,"line":2},{"station_name":"Manggabesar","time":2,"station_id":"MGB","is_transit":false,"transit":false,"distance":1080,"i_lat":-6.149769,"i_long":106.82482,"line":2}],[{"i_long":106.816926,"transit":false,"distance":0,"time":0,"is_transit":false,"station_id":"DP","station_name":"Depok","i_lat":-6.405256,"line":2},{"distance":1584,"station_id":"DPB","i_long":106.819451,"station_name":"Depokbaru","time":3,"line":2,"transit":false,"is_transit":false,"i_lat":-6.391065},{"distance":2727,"time":4,"transit":false,"is_transit":false,"i_long":106.831114,"i_lat":-6.369073,"station_name":"Pondok Cina","line":2,"station_id":"POC"},{"i_lat":-6.360749,"i_long":106.831474,"distance":1109,"transit":false,"line":2,"station_id":"UI","station_name":"Univ. Indonesia","time":2,"is_transit":false},{"line":2,"i_lat":-6.339291,"station_name":"Univ. Pancasila","is_transit":false,"time":3,"station_id":"UP","transit":false,"distance":2264,"i_long":106.834175},{"station_id":"LNA","line":2,"i_lat":-6.330363,"transit":false,"is_transit":false,"time":2,"i_long":106.832616,"station_name":"Lenteng Agung","distance":1029},{"line":2,"is_transit":false,"distance":2671,"station_name":"Tanjung Barat","station_id":"TNT","i_lat":-6.3080680000000005,"transit":false,"time":3,"i_long":106.838896},{"time":4,"station_id":"PSM","line":2,"is_transit":false,"i_lat":-6.2842400000000005,"transit":false,"station_name":"Pasar Minggu","i_long":106.843999,"distance":2820},{"line":2,"time":2,"i_long":106.851577,"i_lat":-6.263214,"transit":false,"station_name":"Pasar Minggu Baru","station_id":"PSMB","is_transit":false,"distance":2380},{"transit":false,"is_transit":false,"distance":824,"station_id":"DRN","i_lat":-6.255332,"station_name":"Duren Kalibata","line":2,"i_long":106.85449,"time":2},{"distance":1546,"is_transit":false,"time":3,"line":2,"station_id":"CW","station_name":"Cawang","i_lat":-6.242512,"transit":false,"i_long":106.856607},{"line":2,"transit":false,"distance":1230,"i_lat":-6.226659,"time":2,"station_name":"Tebet","is_transit":false,"station_id":"TEB","i_long":106.857948},{"time":4,"distance":2610,"i_lat":-6.209883,"transit":true,"station_name":"Manggarai","i_long":106.84912,"station_id":"MRI","line":2,"is_transit":true},{"station_id":"MTR","time":2,"station_name":"Matraman","transit":false,"i_long":106.858896,"is_transit":false,"distance":1275,"i_lat":-6.212485,"line":1},{"transit":true,"i_lat":-6.215091,"line":1,"distance":1377,"time":8,"station_id":"JNG","i_long":106.86807400000001,"station_name":"Jatinegara","is_transit":true},{"transit":false,"station_id":"POK","time":2,"i_lat":-6.209188,"line":11,"distance":1236,"is_transit":false,"i_long":106.861737,"station_name":"Pondok Jati"},{"is_transit":false,"transit":false,"station_name":"Kramat","i_long":106.855437,"station_id":"KMT","time":2,"i_lat":-6.193792,"distance":1829,"line":11},{"line":11,"time":1,"i_long":106.850107,"is_transit":false,"station_id":"GST","distance":973,"transit":false,"station_name":"Gang Sentiong","i_lat":-6.185975},{"station_id":"PSE","i_lat":-6.174784,"station_name":"Pasar Senen","is_transit":false,"distance":1567,"i_long":106.84368,"transit":false,"line":11,"time":8},{"i_long":106.839204,"distance":1436,"i_lat":-6.161728,"station_name":"Kemayoran","time":4,"is_transit":false,"station_id":"KMO","transit":false,"line":11},{"station_name":"Rajawali","i_long":106.836569,"transit":false,"distance":1901,"i_lat":-6.14505,"line":11,"time":5,"station_id":"RJW","is_transit":false},{"time":3,"distance":1444,"station_id":"KPB","transit":true,"i_lat":-6.132549,"line":4,"station_name":"Kampung Bandan","is_transit":true,"i_long":106.826365},{"time":3,"distance":1364,"line":2,"is_transit":true,"station_id":"JAKK","i_lat":-6.137569,"station_name":"Jakarta Kota","transit":true,"i_long":106.812439},{"distance":1264,"is_transit":false,"i_long":106.820901,"station_id":"JAY","i_lat":-6.141205,"time":4,"transit":false,"line":2,"station_name":"Jayakarta"},{"i_long":106.82482,"time":2,"transit":false,"station_name":"Manggabesar","line":2,"i_lat":-6.149769,"station_id":"MGB","is_transit":false,"distance":1080}]]}