{"data":[[{"i_long":106.816926,"transit":false,"distance":0,"station_id":"DP","time":0,"is_transit":false,"line":0,"i_lat":-6.405256,"station_name":"Depok"},{"time":3,"i_long":106.819451,"distance":1584,"is_transit":false,"station_id":"DPB","i_lat":-6.391065,"line":0,"station_name":"Depokbaru","transit":false},{"distance":2727,"i_long":106.831114,"transit":false,"station_id":"POC","line":2,"i_lat":-6.369073,"station_name":"Pondok Cina","is_transit":false,"time":4},{"line":2,"is_transit":false,"i_lat":-6.360749,"station_id":"UI","station_name":"Univ. Indonesia","time":2,"distance":1109,"i_long":106.831474,"transit":false},{"station_name":"Univ. Pancasila","is_transit":false,"line":2,"transit":false,"time":3,"distance":2264,"i_lat":-6.339291,"station_id":"UP","i_long":106.834175},{"i_long":106.832616,"time":2,"transit":false,"distance":1029,"station_name":"Lenteng Agung","i_lat":-6.330363,"is_transit":false,"line":2,"station_id":"LNA"},{"time":3,"transit":false,"i_lat":-6.3080680000000005,"distance":2671,"station_name":"Tanjung Barat","station_id":"TNT","line":2,"is_transit":false,"i_long":106.838896},{"is_transit":false,"transit":false,"i_lat":-6.2842400000000005,"i_long":106.843999,"station_name":"Pasar Minggu","line":2,"time":4,"distance":2820,"station_id":"PSM"},{"time":2,"i_lat":-6.263214,"station_name":"Pasar Minggu Baru","transit":false,"is_transit":false,"distance":2380,"line":2,"i_long":106.851577,"station_id":"PSMB"},{"is_transit":false,"station_name":"Duren Kalibata","station_id":"DRN","i_long":106.85449,"distance":824,"i_lat":-6.255332,"time":2,"line":0,"transit":false},{"station_id":"CW","time":3,"distance":1546,"transit":false,"is_transit":false,"i_long":106.856607,"i_lat":-6.242512,"line":0,"station_name":"Cawang"},{"is_transit":false,"station_name":"Tebet","line":2,"i_long":106.857948,"transit":false,"i_lat":-6.226659,"station_id":"TEB","distance":1230,"time":2},{"transit":true,"station_name":"Manggarai","is_transit":true,"line":0,"i_long":106.84912,"i_lat":-6.209883,"time":4,"distance":2610,"station_id":"MRI"},{"station_name":"Cikini","i_lat":-6.198556,"is_transit":false,"line":0,"i_long":106.840169,"station_id":"CKI","transit":false,"distance":1590,"time":4},{"i_long":106.832183,"time":3,"station_id":"GDD","transit":false,"i_lat":-6.186295,"is_transit":false,"station_name":"Gondangdia","distance":1750,"line":2},{"line":2,"is_transit":false,"transit":false,"time":4,"i_lat":-6.166716,"i_long":106.828284,"station_name":"Juanda","distance":2015,"station_id":"JUA"},{"is_transit":false,"i_long":106.827103,"transit":false,"station_name":"Sawah Besar","line":2,"i_lat":-6.160725,"time":2,"station_id":"SW","distance":1149},{"station_id":"MGB","time":2,"distance":906,"i_long":106.82482,"i_lat":-6.149769,"station_name":"Manggabesar","is_transit":false,"line":2,"transit":false}],[{"is_transit":false,"station_name":"Depok","station_id":"DP","i_long":106.816926,"transit":false,"time":0,"i_lat":-6.405256,"line":0,"distance":0},{"time":3,"transit":false,"is_transit":false,"line":0,"i_long":106.819451,"station_name":"Depokbaru","station_id":"DPB","distance":1584,"i_lat":-6.391065},{"distance":2727,"i_lat":-6.369073,"station_id":"POC","transit":false,"is_transit":false,"line":2,"station_name":"Pondok Cina","i_long":106.831114,"time":4},{"i_lat":-6.360749,"station_name":"Univ. Indonesia","distance":1109,"is_transit":false,"line":2,"transit":false,"time":2,"station_id":"UI","i_long":106.831474},{"station_id":"UP","line":2,"transit":false,"station_name":"Univ. Pancasila","i_lat":-6.339291,"time":3,"i_long":106.834175,"is_transit":false,"distance":2264},{"time":2,"line":2,"transit":false,"distance":1029,"station_id":"LNA","i_lat":-6.330363,"is_transit":false,"i_long":106.832616,"station_name":"Lenteng Agung"},{"is_transit":false,"station_name":"Tanjung Barat","i_lat":-6.3080680000000005,"i_long":106.838896,"line":2,"station_id":"TNT","distance":2671,"time":3,"transit":false},{"transit":false,"line":2,"station_name":"Pasar Minggu","distance":2820,"i_lat":-6.2842400000000005,"i_long":106.843999,"station_id":"PSM","time":4,"is_transit":false},{"line":2,"station_id":"PSMB","time":2,"distance":2380,"is_transit":false,"i_lat":-6.263214,"i_long":106.851577,"station_name":"Pasar Minggu Baru","transit":false},{"time":2,"is_transit":false,"station_name":"Duren Kalibata","i_long":106.85449,"i_lat":-6.255332,"station_id":"DRN","transit":false,"line":0,"distance":824},{"distance":1546,"time":3,"transit":false,"i_lat":-6.242512,"i_long":106.856607,"station_name":"Cawang","station_id":"CW","line":0,"is_transit":false},{"i_long":106.857948,"line":2,"i_lat":-6.226659,"station_name":"Tebet","transit":false,"time":2,"distance":1230,"is_transit":false,"station_id":"TEB"},{"station_id":"MRI","i_long":106.84912,"station_name":"Manggarai","i_lat":-6.209883,"line":0,"is_transit":true,"time":4,"transit":true,"distance":2610},{"station_name":"Sudirman","transit":false,"is_transit":false,"time":4,"i_lat":-6.202263,"line":1,"station_id":"SUD","i_long":106.822649,"distance":3186},{"line":1,"distance":280,"is_transit":false,"station_id":"SUDB","i_long":106.819881,"station_name":"Sudirman Baru","transit":false,"time":1,"i_lat":-6.201433},{"is_transit":false,"station_name":"Karet","time":1,"i_long":106.816351,"i_lat":-6.20132,"transit":false,"line":1,"distance":471,"station_id":"KAT"},{"is_transit":true,"time":5,"i_lat":-6.185545,"i_long":106.811091,"line":1,"station_id":"THB","distance":2029,"transit":false,"station_name":"Tanah Abang"},{"transit":true,"line":1,"is_transit":true,"station_name":"Duri","i_lat":-6.155215,"i_long":106.800832,"time":8,"distance":3632,"station_id":"DU"},{"time":4,"i_long":106.79867,"line":0,"transit":false,"distance":1230,"station_id":"AK","station_name":"Angke","is_transit":false,"i_lat":-6.144674},{"station_name":"Kampung Bandan","time":9,"station_id":"KPB","distance":4102,"i_lat":-6.132549,"transit":false,"is_transit":true,"line":0,"i_long":106.826365},{"line":0,"i_lat":-6.137569,"transit":true,"station_id":"JAKK","distance":1364,"i_long":106.812439,"station_name":"Jakarta Kota","time":3,"is_transit":true},{"station_name":"Jayakarta","is_transit":false,"line":7,"time":4,"distance":1264,"i_lat":-6.141205,"i_long":106.820901,"station_id":"JAY","transit":false},{"transit":false,"station_id":"MGB","is_transit":false,"i_lat":-6.149769,"line":2,"time":2,"distance":1080,"i_long":106.82482,"station_name":"Manggabesar"}],[{"i_lat":-6.405256,"station_name":"Depok","i_long":106.816926,"transit":false,"time":0,"line":0,"station_id":"DP","distance":0,"is_transit":false},{"i_lat":-6.391065,"station_id":"DPB","station_name":"Depokbaru","transit":false,"distance":1584,"is_transit":false,"i_long":106.819451,"line":0,"time":3},{"station_name":"Pondok Cina","transit":false,"time":4,"line":2,"station_id":"POC","is_transit":false,"i_lat":-6.369073,"distance":2727,"i_long":106.831114},{"station_name":"Univ. Indonesia","i_long":106.831474,"time":2,"station_id":"UI","transit":false,"distance":1109,"i_lat":-6.360749,"line":2,"is_transit":false},{"station_name":"Univ. Pancasila","is_transit":false,"station_id":"UP","transit":false,"i_lat":-6.339291,"i_long":106.834175,"line":2,"distance":2264,"time":3},{"transit":false,"i_lat":-6.330363,"distance":1029,"time":2,"station_name":"Lenteng Agung","station_id":"LNA","i_long":106.832616,"is_transit":false,"line":2},{"station_id":"TNT","distance":2671,"station_name":"Tanjung Barat","i_lat":-6.3080680000000005,"transit":false,"time":3,"is_transit":false,"i_long":106.838896,"line":2},{"distance":2820,"i_lat":-6.2842400000000005,"station_id":"PSM","transit":false,"i_long":106.843999,"station_name":"Pasar Minggu","time":4,"is_transit":false,"line":2},{"station_name":"Pasar Minggu Baru","time":2,"transit":false,"line":2,"i_lat":-6.263214,"i_long":106.851577,"station_id":"PSMB","distance":2380,"is_transit":false},{"i_long":106.85449,"distance":824,"i_lat":-6.255332,"station_name":"Duren Kalibata","line":0,"is_transit":false,"transit":false,"time":2,"station_id":"DRN"},{"i_lat":-6.242512,"station_name":"Cawang","transit":false,"i_long":106.856607,"station_id":"CW","time":3,"distance":1546,"is_transit":false,"line":0},{"distance":1230,"is_transit":false,"transit":false,"station_id":"TEB","i_long":106.857948,"line":2,"station_name":"Tebet","time":2,"i_lat":-6.226659},{"transit":true,"i_lat":-6.209883,"time":4,"i_long":106.84912,"line":0,"distance":2610,"station_id":"MRI","station_name":"Manggarai","is_transit":true},{"station_id":"MTR","time":2,"i_long":106.858896,"line":1,"station_name":"Matraman","is_transit":false,"transit":false,"distance":1275,"i_lat":-6.212485},{"distance":1377,"i_lat":-6.215091,"station_name":"Jatinegara","i_long":106.86807400000001,"time":8,"is_transit":true,"line":0,"station_id":"JNG","transit":true},{"is_transit":false,"time":2,"station_name":"Pondok Jati","i_long":106.861737,"distance":1236,"i_lat":-6.209188,"transit":false,"station_id":"POK","line":11},{"station_id":"KMT","station_name":"Kramat","transit":false,"i_long":106.855437,"distance":1829,"i_lat":-6.193792,"is_transit":false,"line":11,"time":2},{"line":11,"station_id":"GST","is_transit":false,"transit":false,"distance":973,"i_long":106.850107,"time":1,"i_lat":-6.185975,"station_name":"Gang Sentiong"},{"i_long":106.84368,"time":8,"is_transit":false,"i_lat":-6.174784,"line":11,"station_name":"Pasar Senen","distance":1567,"station_id":"PSE","transit":false},{"i_lat":-6.161728,"distance":1436,"i_long":106.839204,"station_name":"Kemayoran","line":11,"is_transit":false,"transit":false,"station_id":"KMO","time":4},{"transit":false,"station_id":"RJW","station_name":"Rajawali","i_lat":-6.14505,"time":5,"distance":1901,"is_transit":false,"line":11,"i_long":106.836569},{"station_id":"KPB","time":3,"distance":1444,"transit":true,"is_transit":true,"i_long":106.826365,"line":0,"station_name":"Kampung Bandan","i_lat":-6.132549},{"distance":1364,"station_id":"JAKK","station_name":"Jakarta Kota","is_transit":true,"i_long":106.812439,"transit":true,"time":3,"i_lat":-6.137569,"line":0},{"time":4,"station_name":"Jayakarta","is_transit":false,"i_lat":-6.141205,"distance":1264,"i_long":106.820901,"transit":false,"station_id":"JAY","line":7},{"i_long":106.82482,"station_id":"MGB","line":2,"distance":1080,"transit":false,"time":2,"is_transit":false,"station_name":"Manggabesar","i_lat":-6.149769}]]}