{"data":[[{"i_lat":-6.405256,"is_transit":false,"station_id":"DP","time":0,"station_name":"Depok","transit":false,"distance":0,"line":2,"i_long":106.816926},{"line":2,"distance":1584,"transit":false,"i_long":106.819451,"is_transit":false,"station_name":"Depokbaru","time":3,"station_id":"DPB","i_lat":-6.391065},{"transit":false,"line":2,"station_id":"POC","station_name":"Pondok Cina","i_long":106.831114,"time":4,"i_lat":-6.369073,"distance":2727,"is_transit":false},{"line":2,"is_transit":false,"i_long":106.831474,"station_name":"Univ. Indonesia","transit":false,"i_lat":-6.360749,"station_id":"UI","time":2,"distance":1109},{"station_name":"Univ. Pancasila","station_id":"UP","distance":2264,"time":3,"i_long":106.834175,"transit":false,"line":2,"i_lat":-6.339291,"is_transit":false},{"distance":1029,"i_lat":-6.330363,"line":2,"time":2,"i_long":106.832616,"station_id":"LNA","station_name":"Lenteng Agung","transit":false,"is_transit":false},{"time":3,"is_transit":false,"distance":2671,"station_id":"TNT","line":2,"i_lat":-6.3080680000000005,"station_name":"Tanjung Barat","i_long":106.838896,"transit":false},{"transit":false,"time":4,"station_name":"Pasar Minggu","distance":2820,"i_lat":-6.2842400000000005,"station_id":"PSM","i_long":106.843999,"line":2,"is_transit":false},{"transit":false,"i_lat":-6.263214,"i_long":106.851577,"line":2,"station_id":"PSMB","time":2,"station_name":"Pasar Minggu Baru","distance":2380,"is_transit":false},{"transit":false,"station_id":"DRN","i_lat":-6.255332,"time":2,"is_transit":false,"line":2,"i_long":106.85449,"station_name":"Duren Kalibata","distance":824},{"is_transit":false,"station_id":"CW","time":3,"station_name":"Cawang","i_lat":-6.242512,"distance":1546,"i_long":106.856607,"line":2,"transit":false},{"i_lat":-6.226659,"i_long":106.857948,"line":2,"is_transit":false,"station_id":"TEB","distance":1230,"station_name":"Tebet","transit":false,"time":2},{"i_lat":-6.209883,"line":2,"distance":2610,"station_id":"MRI","i_long":106.84912,"time":4,"is_transit":false,"transit":false,"station_name":"Manggarai"}]]}