{"data":[[{"i_lat":-6.405256,"station_name":"Depok","transit":false,"i_long":106.816926,"time":0,"line":0,"station_id":"DP","distance":0,"is_transit":false},{"i_long":106.819451,"i_lat":-6.391065,"is_transit":false,"line":0,"time":3,"station_name":"Depokbaru","transit":false,"station_id":"DPB","distance":1584},{"time":4,"line":2,"station_name":"Pondok Cina","distance":2727,"i_long":106.831114,"is_transit":false,"transit":false,"station_id":"POC","i_lat":-6.369073},{"distance":1109,"station_name":"Univ. Indonesia","line":2,"i_long":106.831474,"is_transit":false,"time":2,"transit":false,"i_lat":-6.360749,"station_id":"UI"},{"i_long":106.834175,"line":2,"is_transit":false,"transit":false,"station_name":"Univ. Pancasila","i_lat":-6.339291,"station_id":"UP","time":3,"distance":2264},{"distance":1029,"i_long":106.832616,"station_id":"LNA","transit":false,"line":2,"station_name":"Lenteng Agung","i_lat":-6.330363,"is_transit":false,"time":2},{"i_long":106.838896,"station_name":"Tanjung Barat","station_id":"TNT","transit":false,"time":3,"line":2,"is_transit":false,"i_lat":-6.3080680000000005,"distance":2671},{"i_long":106.843999,"line":2,"station_name":"Pasar Minggu","station_id":"PSM","time":4,"transit":false,"is_transit":false,"i_lat":-6.2842400000000005,"distance":2820},{"i_lat":-6.263214,"station_name":"Pasar Minggu Baru","line":2,"distance":2380,"is_transit":false,"time":2,"transit":false,"station_id":"PSMB","i_long":106.851577},{"time":2,"i_lat":-6.255332,"line":0,"station_id":"DRN","station_name":"Duren Kalibata","is_transit":false,"i_long":106.85449,"distance":824,"transit":false},{"distance":1546,"time":3,"transit":false,"i_lat":-6.242512,"station_id":"CW","i_long":106.856607,"is_transit":false,"station_name":"Cawang","line":0},{"station_id":"TEB","station_name":"Tebet","line":2,"transit":false,"is_transit":false,"time":2,"i_lat":-6.226659,"distance":1230,"i_long":106.857948},{"i_lat":-6.209883,"station_id":"MRI","distance":2610,"is_transit":true,"line":0,"transit":false,"station_name":"Manggarai","i_long":106.84912,"time":4}]]}