{"data":[[{"station_id":"DP","station_name":"Depok","i_lat":-6.405256,"distance":0,"i_long":106.816926,"time":0,"is_transit":false,"line":0,"transit":false},{"station_name":"Depokbaru","transit":false,"is_transit":false,"distance":1584,"time":3,"i_long":106.819451,"station_id":"DPB","line":0,"i_lat":-6.391065},{"i_lat":-6.369073,"time":4,"transit":false,"i_long":106.831114,"is_transit":false,"line":2,"station_id":"POC","station_name":"Pondok Cina","distance":2727},{"i_lat":-6.360749,"i_long":106.831474,"is_transit":false,"transit":false,"station_id":"UI","distance":1109,"time":2,"line":2,"station_name":"Univ. Indonesia"},{"i_lat":-6.339291,"distance":2264,"station_name":"Univ. Pancasila","transit":false,"station_id":"UP","is_transit":false,"time":3,"line":2,"i_long":106.834175},{"station_id":"LNA","i_long":106.832616,"transit":false,"line":2,"station_name":"Lenteng Agung","is_transit":false,"distance":1029,"i_lat":-6.330363,"time":2},{"line":2,"i_long":106.838896,"time":3,"i_lat":-6.3080680000000005,"transit":false,"is_transit":false,"station_name":"Tanjung Barat","station_id":"TNT","distance":2671},{"is_transit":false,"i_lat":-6.2842400000000005,"distance":2820,"line":2,"i_long":106.843999,"station_name":"Pasar Minggu","time":4,"transit":false,"station_id":"PSM"},{"transit":false,"i_long":106.851577,"is_transit":false,"station_name":"Pasar Minggu Baru","station_id":"PSMB","time":2,"i_lat":-6.263214,"line":2,"distance":2380},{"i_lat":-6.255332,"station_id":"DRN","line":0,"is_transit":false,"distance":824,"time":2,"transit":false,"i_long":106.85449,"station_name":"Duren Kalibata"},{"time":3,"distance":1546,"i_lat":-6.242512,"line":0,"station_id":"CW","transit":false,"station_name":"Cawang","is_transit":false,"i_long":106.856607},{"time":2,"is_transit":false,"i_long":106.857948,"line":2,"i_lat":-6.226659,"transit":false,"distance":1230,"station_name":"Tebet","station_id":"TEB"},{"time":4,"is_transit":true,"line":0,"i_lat":-6.209883,"transit":true,"station_name":"Manggarai","i_long":106.84912,"distance":2610,"station_id":"MRI"},{"distance":3186,"time":4,"i_lat":-6.202263,"is_transit":false,"transit":false,"station_id":"SUD","i_long":106.822649,"line":1,"station_name":"Sudirman"},{"distance":280,"station_id":"SUDB","line":1,"is_transit":false,"time":1,"i_lat":-6.201433,"transit":false,"i_long":106.819881,"station_name":"Sudirman Baru"},{"time":1,"distance":471,"line":1,"station_name":"Karet","i_long":106.816351,"transit":false,"i_lat":-6.20132,"station_id":"KAT","is_transit":false},{"line":1,"i_lat":-6.185545,"station_name":"Tanah Abang","distance":2029,"is_transit":true,"station_id":"THB","time":5,"i_long":106.811091,"transit":false},{"line":1,"i_long":106.800832,"is_transit":true,"station_id":"DU","time":8,"station_name":"Duri","i_lat":-6.155215,"transit":true,"distance":3632},{"transit":false,"time":3,"i_long":106.788277,"distance":1700,"station_id":"GGL","is_transit":false,"station_name":"Grogol","i_lat":-6.162021,"line":5},{"i_long":106.771379,"time":2,"station_id":"PSG","station_name":"Pesing","distance":2036,"is_transit":false,"transit":false,"i_lat":-6.161433,"line":5},{"station_name":"Taman Kota","i_long":106.756522,"line":5,"station_id":"TKO","transit":false,"i_lat":-6.1587309999999995,"time":2,"distance":1614,"is_transit":false},{"distance":2334,"transit":false,"i_long":106.737035,"line":0,"i_lat":-6.159876,"station_name":"Bojongindah","station_id":"BOI","time":2,"is_transit":false},{"distance":1152,"transit":false,"station_id":"RW","i_lat":-6.162758,"is_transit":false,"time":4,"line":5,"station_name":"Rawa Buaya","i_long":106.723064},{"line":5,"time":3,"i_lat":-6.166068,"station_name":"Kalideres","distance":2504,"transit":false,"i_long":106.701612,"is_transit":false,"station_id":"KDS"},{"station_name":"Poris","transit":false,"distance":2548,"time":3,"is_transit":false,"i_long":106.679458,"station_id":"PI","i_lat":-6.169933,"line":5}],[{"time":0,"distance":0,"i_lat":-6.405256,"is_transit":false,"station_id":"DP","i_long":106.816926,"station_name":"Depok","transit":false,"line":0},{"station_name":"Depokbaru","i_lat":-6.391065,"distance":1584,"time":3,"is_transit":false,"station_id":"DPB","line":0,"i_long":106.819451,"transit":false},{"station_name":"Pondok Cina","time":4,"i_lat":-6.369073,"is_transit":false,"i_long":106.831114,"line":2,"transit":false,"station_id":"POC","distance":2727},{"transit":false,"station_id":"UI","i_long":106.831474,"is_transit":false,"i_lat":-6.360749,"station_name":"Univ. Indonesia","line":2,"distance":1109,"time":2},{"time":3,"i_lat":-6.339291,"station_id":"UP","i_long":106.834175,"transit":false,"station_name":"Univ. Pancasila","distance":2264,"line":2,"is_transit":false},{"distance":1029,"time":2,"is_transit":false,"i_lat":-6.330363,"station_name":"Lenteng Agung","i_long":106.832616,"station_id":"LNA","line":2,"transit":false},{"distance":2671,"station_name":"Tanjung Barat","i_long":106.838896,"line":2,"time":3,"is_transit":false,"transit":false,"station_id":"TNT","i_lat":-6.3080680000000005},{"i_long":106.843999,"time":4,"i_lat":-6.2842400000000005,"line":2,"station_name":"Pasar Minggu","station_id":"PSM","transit":false,"distance":2820,"is_transit":false},{"i_long":106.851577,"i_lat":-6.263214,"station_name":"Pasar Minggu Baru","time":2,"line":2,"station_id":"PSMB","transit":false,"distance":2380,"is_transit":false},{"station_id":"DRN","line":0,"station_name":"Duren Kalibata","is_transit":false,"transit":false,"distance":824,"time":2,"i_lat":-6.255332,"i_long":106.85449},{"is_transit":false,"time":3,"transit":false,"distance":1546,"station_name":"Cawang","i_long":106.856607,"i_lat":-6.242512,"station_id":"CW","line":0},{"time":2,"station_name":"Tebet","transit":false,"is_transit":false,"i_lat":-6.226659,"i_long":106.857948,"station_id":"TEB","line":2,"distance":1230},{"i_long":106.84912,"line":0,"time":4,"station_id":"MRI","i_lat":-6.209883,"is_transit":true,"transit":true,"station_name":"Manggarai","distance":2610},{"i_long":106.840169,"line":0,"station_id":"CKI","is_transit":false,"transit":false,"station_name":"Cikini","distance":1590,"time":4,"i_lat":-6.198556},{"time":3,"i_lat":-6.186295,"line":2,"distance":1750,"station_id":"GDD","i_long":106.832183,"transit":false,"station_name":"Gondangdia","is_transit":false},{"i_long":106.828284,"distance":2015,"station_id":"JUA","time":4,"transit":false,"is_transit":false,"station_name":"Juanda","line":2,"i_lat":-6.166716},{"i_lat":-6.160725,"distance":1149,"transit":false,"station_name":"Sawah Besar","station_id":"SW","is_transit":false,"time":2,"i_long":106.827103,"line":2},{"i_long":106.82482,"transit":false,"station_id":"MGB","time":2,"distance":906,"i_lat":-6.149769,"is_transit":false,"station_name":"Manggabesar","line":2},{"station_name":"Jayakarta","time":2,"station_id":"JAY","is_transit":false,"distance":1080,"i_lat":-6.141205,"i_long":106.820901,"transit":false,"line":7},{"i_lat":-6.137569,"i_long":106.812439,"time":4,"line":0,"station_name":"Jakarta Kota","station_id":"JAKK","distance":1264,"transit":true,"is_transit":true},{"station_id":"KPB","line":0,"distance":1364,"i_lat":-6.132549,"i_long":106.826365,"time":3,"is_transit":true,"transit":false,"station_name":"Kampung Bandan"},{"transit":false,"distance":4102,"time":9,"i_lat":-6.144674,"i_long":106.79867,"line":0,"is_transit":false,"station_name":"Angke","station_id":"AK"},{"line":1,"i_lat":-6.155215,"time":4,"station_id":"DU","i_long":106.800832,"station_name":"Duri","is_transit":true,"transit":true,"distance":1230},{"transit":false,"i_lat":-6.162021,"is_transit":false,"station_id":"GGL","line":5,"distance":1700,"station_name":"Grogol","i_long":106.788277,"time":3},{"is_transit":false,"station_id":"PSG","i_long":106.771379,"line":5,"transit":false,"station_name":"Pesing","i_lat":-6.161433,"time":2,"distance":2036},{"i_long":106.756522,"station_id":"TKO","distance":1614,"is_transit":false,"i_lat":-6.1587309999999995,"transit":false,"time":2,"station_name":"Taman Kota","line":5},{"station_id":"BOI","is_transit":false,"time":2,"distance":2334,"line":0,"i_lat":-6.159876,"transit":false,"i_long":106.737035,"station_name":"Bojongindah"},{"station_id":"RW","distance":1152,"transit":false,"time":4,"i_lat":-6.162758,"is_transit":false,"i_long":106.723064,"line":5,"station_name":"Rawa Buaya"},{"transit":false,"i_lat":-6.166068,"station_id":"KDS","is_transit":false,"i_long":106.701612,"line":5,"station_name":"Kalideres","distance":2504,"time":3},{"time":3,"is_transit":false,"line":5,"distance":2548,"station_name":"Poris","i_lat":-6.169933,"transit":false,"i_long":106.679458,"station_id":"PI"}],[{"is_transit":false,"distance":0,"station_id":"DP","time":0,"i_long":106.816926,"station_name":"Depok","i_lat":-6.405256,"line":0,"transit":false},{"is_transit":false,"time":3,"transit":false,"i_lat":-6.391065,"line":0,"station_id":"DPB","i_long":106.819451,"station_name":"Depokbaru","distance":1584},{"i_lat":-6.369073,"station_name":"Pondok Cina","is_transit":false,"line":2,"i_long":106.831114,"transit":false,"time":4,"station_id":"POC","distance":2727},{"transit":false,"distance":1109,"line":2,"station_name":"Univ. Indonesia","station_id":"UI","i_long":106.831474,"is_transit":false,"time":2,"i_lat":-6.360749},{"is_transit":false,"distance":2264,"transit":false,"i_lat":-6.339291,"i_long":106.834175,"time":3,"station_id":"UP","line":2,"station_name":"Univ. Pancasila"},{"time":2,"distance":1029,"station_id":"LNA","i_long":106.832616,"is_transit":false,"line":2,"station_name":"Lenteng Agung","i_lat":-6.330363,"transit":false},{"time":3,"is_transit":false,"i_long":106.838896,"distance":2671,"station_id":"TNT","i_lat":-6.3080680000000005,"line":2,"transit":false,"station_name":"Tanjung Barat"},{"is_transit":false,"distance":2820,"time":4,"station_name":"Pasar Minggu","line":2,"station_id":"PSM","transit":false,"i_lat":-6.2842400000000005,"i_long":106.843999},{"station_id":"PSMB","time":2,"transit":false,"i_lat":-6.263214,"i_long":106.851577,"is_transit":false,"station_name":"Pasar Minggu Baru","line":2,"distance":2380},{"time":2,"distance":824,"transit":false,"station_id":"DRN","i_long":106.85449,"i_lat":-6.255332,"line":0,"station_name":"Duren Kalibata","is_transit":false},{"line":0,"station_name":"Cawang","i_lat":-6.242512,"is_transit":false,"distance":1546,"station_id":"CW","transit":false,"time":3,"i_long":106.856607},{"transit":false,"distance":1230,"i_lat":-6.226659,"line":2,"station_name":"Tebet","station_id":"TEB","time":2,"is_transit":false,"i_long":106.857948},{"i_long":106.84912,"distance":2610,"i_lat":-6.209883,"time":4,"line":0,"transit":true,"station_name":"Manggarai","station_id":"MRI","is_transit":true},{"station_id":"MTR","distance":1275,"transit":false,"time":2,"i_lat":-6.212485,"is_transit":false,"line":1,"i_long":106.858896,"station_name":"Matraman"},{"is_transit":true,"transit":true,"station_name":"Jatinegara","time":8,"i_lat":-6.215091,"i_long":106.86807400000001,"station_id":"JNG","distance":1377,"line":0},{"station_name":"Pondok Jati","time":2,"i_lat":-6.209188,"transit":false,"station_id":"POK","i_long":106.861737,"distance":1236,"line":11,"is_transit":false},{"station_id":"KMT","is_transit":false,"distance":1829,"station_name":"Kramat","i_long":106.855437,"line":11,"i_lat":-6.193792,"time":2,"transit":false},{"i_lat":-6.185975,"line":11,"distance":973,"is_transit":false,"station_id":"GST","time":1,"station_name":"Gang Sentiong","i_long":106.850107,"transit":false},{"time":8,"line":11,"i_long":106.84368,"station_id":"PSE","is_transit":false,"i_lat":-6.174784,"transit":false,"station_name":"Pasar Senen","distance":1567},{"i_long":106.839204,"is_transit":false,"time":4,"distance":1436,"station_id":"KMO","line":11,"station_name":"Kemayoran","transit":false,"i_lat":-6.161728},{"transit":false,"station_name":"Rajawali","line":11,"station_id":"RJW","distance":1901,"is_transit":false,"i_long":106.836569,"time":5,"i_lat":-6.14505},{"time":3,"transit":true,"is_transit":true,"station_name":"Kampung Bandan","i_long":106.826365,"station_id":"KPB","distance":1444,"i_lat":-6.132549,"line":0},{"line":0,"transit":false,"is_transit":false,"i_lat":-6.144674,"station_id":"AK","distance":4102,"i_long":106.79867,"time":9,"station_name":"Angke"},{"i_long":106.800832,"transit":true,"station_id":"DU","is_transit":true,"time":4,"station_name":"Duri","i_lat":-6.155215,"line":1,"distance":1230},{"i_lat":-6.162021,"line":5,"station_name":"Grogol","transit":false,"station_id":"GGL","is_transit":false,"i_long":106.788277,"time":3,"distance":1700},{"distance":2036,"is_transit":false,"i_long":106.771379,"transit":false,"station_id":"PSG","time":2,"i_lat":-6.161433,"line":5,"station_name":"Pesing"},{"transit":false,"station_id":"TKO","is_transit":false,"time":2,"i_long":106.756522,"distance":1614,"station_name":"Taman Kota","line":5,"i_lat":-6.1587309999999995},{"i_lat":-6.159876,"time":2,"i_long":106.737035,"station_name":"Bojongindah","distance":2334,"transit":false,"line":0,"is_transit":false,"station_id":"BOI"},{"i_long":106.723064,"station_id":"RW","i_lat":-6.162758,"transit":false,"station_name":"Rawa Buaya","line":5,"time":4,"is_transit":false,"distance":1152},{"line":5,"time":3,"i_long":106.701612,"station_id":"KDS","is_transit":false,"i_lat":-6.166068,"transit":false,"station_name":"Kalideres","distance":2504},{"transit":false,"station_name":"Poris","is_transit":false,"i_long":106.679458,"line":5,"i_lat":-6.169933,"station_id":"PI","distance":2548,"time":3}]]}