{"data":[[{"line":2,"station_id":"DP","i_lat":-6.405256,"time":0,"is_transit":false,"station_name":"Depok","i_long":106.816926,"distance":0,"transit":false},{"station_id":"DPB","is_transit":false,"time":3,"line":2,"distance":1584,"station_name":"Depokbaru","i_lat":-6.391065,"i_long":106.819451,"transit":false},{"transit":false,"station_name":"Pondok Cina","i_long":106.831114,"line":2,"station_id":"POC","time":4,"i_lat":-6.369073,"is_transit":false,"distance":2727},{"station_name":"Univ. Indonesia","station_id":"UI","time":2,"transit":false,"distance":1109,"i_lat":-6.360749,"i_long":106.831474,"line":2,"is_transit":false},{"station_name":"Univ. Pancasila","distance":2264,"station_id":"UP","line":2,"transit":false,"time":3,"is_transit":false,"i_lat":-6.339291,"i_long":106.834175},{"distance":1029,"station_id":"LNA","station_name":"Lenteng Agung","i_long":106.832616,"transit":false,"is_transit":false,"i_lat":-6.330363,"time":2,"line":2},{"distance":2671,"transit":false,"line":2,"station_id":"TNT","station_name":"Tanjung Barat","i_lat":-6.3080680000000005,"i_long":106.838896,"time":3,"is_transit":false},{"distance":2820,"i_long":106.843999,"station_id":"PSM","is_transit":false,"station_name":"Pasar Minggu","transit":false,"line":2,"time":4,"i_lat":-6.2842400000000005},{"i_long":106.851577,"distance":2380,"station_id":"PSMB","is_transit":false,"transit":false,"i_lat":-6.263214,"line":2,"time":2,"station_name":"Pasar Minggu Baru"},{"i_lat":-6.255332,"line":2,"station_id":"DRN","station_name":"Duren Kalibata","time":2,"distance":824,"transit":false,"is_transit":false,"i_long":106.85449},{"transit":false,"distance":1546,"station_name":"Cawang","is_transit":false,"line":2,"i_lat":-6.242512,"i_long":106.856607,"station_id":"CW","time":3},{"is_transit":false,"line":2,"i_long":106.857948,"station_id":"TEB","distance":1230,"time":2,"station_name":"Tebet","i_lat":-6.226659,"transit":false},{"distance":2610,"time":4,"station_id":"MRI","i_long":106.84912,"transit":true,"is_transit":true,"i_lat":-6.209883,"line":2,"station_name":"Manggarai"},{"station_id":"SUD","i_lat":-6.202263,"time":4,"distance":3186,"station_name":"Sudirman","line":1,"is_transit":false,"i_long":106.822649,"transit":false},{"i_lat":-6.201433,"i_long":106.819881,"transit":false,"distance":280,"station_id":"SUDB","station_name":"Sudirman Baru","is_transit":false,"time":1,"line":1},{"i_lat":-6.20132,"i_long":106.816351,"distance":471,"is_transit":false,"line":1,"time":1,"station_name":"Karet","station_id":"KAT","transit":false},{"station_id":"THB","station_name":"Tanah Abang","line":1,"i_long":106.811091,"is_transit":true,"time":5,"i_lat":-6.185545,"distance":2029,"transit":true},{"line":6,"station_id":"PLM","is_transit":false,"i_lat":-6.207404,"time":6,"distance":3191,"transit":false,"i_long":106.79689,"station_name":"Palmerah"},{"distance":3737,"transit":false,"time":7,"station_name":"Kebayoran","i_lat":-6.237242,"line":6,"is_transit":false,"station_id":"KBY","i_long":106.780334},{"station_id":"PDJ","i_long":106.74273,"distance":6218,"time":8,"is_transit":false,"i_lat":-6.276362,"transit":false,"station_name":"Pondokranji","line":6},{"transit":false,"line":6,"distance":2179,"i_long":106.728916,"i_lat":-6.288927,"is_transit":false,"station_name":"Jurangmangu","time":3,"station_id":"JMU"},{"is_transit":false,"station_name":"Sudimara","distance":1994,"time":4,"station_id":"SDM","line":6,"transit":false,"i_long":106.712277,"i_lat":-6.296963},{"transit":false,"station_name":"Rawa Buntu","line":6,"station_id":"RU","i_long":106.675475,"distance":4566,"time":6,"is_transit":false,"i_lat":-6.314823},{"time":4,"line":6,"distance":2413,"station_name":"Serpong","i_long":106.66566,"transit":false,"station_id":"SRP","i_lat":-6.319871,"is_transit":false},{"is_transit":false,"line":3,"i_long":106.640411,"station_id":"CSK","i_lat":-6.32484,"time":4,"transit":false,"distance":1784,"station_name":"Cisauk"},{"i_lat":-6.329547,"distance":2519,"is_transit":false,"i_long":106.617853,"time":4,"station_id":"CC","station_name":"Cicayur","transit":false,"line":3},{"i_long":106.568863,"station_id":"PRP","distance":5968,"i_lat":-6.3441410000000005,"time":8,"line":6,"transit":false,"is_transit":false,"station_name":"Parung Panjang"}],[{"time":0,"is_transit":false,"transit":false,"i_long":106.816926,"i_lat":-6.405256,"line":2,"distance":0,"station_id":"DP","station_name":"Depok"},{"station_id":"DPB","line":2,"distance":1584,"transit":false,"i_lat":-6.391065,"station_name":"Depokbaru","i_long":106.819451,"time":3,"is_transit":false},{"distance":2727,"transit":false,"time":4,"station_id":"POC","station_name":"Pondok Cina","line":2,"i_lat":-6.369073,"i_long":106.831114,"is_transit":false},{"time":2,"i_long":106.831474,"i_lat":-6.360749,"is_transit":false,"distance":1109,"station_id":"UI","transit":false,"station_name":"Univ. Indonesia","line":2},{"station_name":"Univ. Pancasila","distance":2264,"line":2,"i_lat":-6.339291,"time":3,"station_id":"UP","transit":false,"i_long":106.834175,"is_transit":false},{"station_name":"Lenteng Agung","i_lat":-6.330363,"distance":1029,"transit":false,"line":2,"time":2,"is_transit":false,"i_long":106.832616,"station_id":"LNA"},{"distance":2671,"time":3,"i_lat":-6.3080680000000005,"transit":false,"station_id":"TNT","is_transit":false,"i_long":106.838896,"line":2,"station_name":"Tanjung Barat"},{"time":4,"i_lat":-6.2842400000000005,"line":2,"is_transit":false,"station_id":"PSM","transit":false,"station_name":"Pasar Minggu","i_long":106.843999,"distance":2820},{"line":2,"distance":2380,"station_id":"PSMB","time":2,"i_lat":-6.263214,"transit":false,"station_name":"Pasar Minggu Baru","is_transit":false,"i_long":106.851577},{"time":2,"transit":false,"station_name":"Duren Kalibata","station_id":"DRN","line":2,"i_lat":-6.255332,"i_long":106.85449,"distance":824,"is_transit":false},{"is_transit":false,"station_id":"CW","transit":false,"line":2,"time":3,"distance":1546,"station_name":"Cawang","i_long":106.856607,"i_lat":-6.242512},{"station_name":"Tebet","station_id":"TEB","is_transit":false,"transit":false,"i_lat":-6.226659,"line":2,"time":2,"distance":1230,"i_long":106.857948},{"transit":false,"station_id":"MRI","i_long":106.84912,"distance":2610,"i_lat":-6.209883,"is_transit":false,"time":4,"station_name":"Manggarai","line":2},{"i_long":106.840169,"is_transit":false,"station_name":"Cikini","line":2,"i_lat":-6.198556,"time":4,"distance":1590,"transit":false,"station_id":"CKI"},{"station_name":"Gondangdia","distance":1750,"line":2,"station_id":"GDD","time":3,"transit":false,"is_transit":false,"i_lat":-6.186295,"i_long":106.832183},{"distance":2015,"station_name":"Juanda","is_transit":false,"i_lat":-6.166716,"line":2,"time":4,"transit":false,"station_id":"JUA","i_long":106.828284},{"station_name":"Sawah Besar","time":2,"i_long":106.827103,"station_id":"SW","line":2,"is_transit":false,"transit":false,"distance":1149,"i_lat":-6.160725},{"station_name":"Manggabesar","line":2,"i_long":106.82482,"i_lat":-6.149769,"is_transit":false,"distance":906,"transit":false,"station_id":"MGB","time":2},{"is_transit":false,"station_id":"JAY","i_long":106.820901,"station_name":"Jayakarta","distance":1080,"i_lat":-6.141205,"transit":false,"time":2,"line":2},{"line":2,"time":4,"transit":true,"station_id":"JAKK","distance":1264,"station_name":"Jakarta Kota","i_long":106.812439,"is_transit":true,"i_lat":-6.137569},{"transit":true,"line":4,"station_name":"Kampung Bandan","time":3,"i_lat":-6.132549,"i_long":106.826365,"distance":1364,"station_id":"KPB","is_transit":true},{"i_long":106.79867,"station_name":"Angke","is_transit":false,"station_id":"AK","time":9,"distance":4102,"transit":false,"i_lat":-6.144674,"line":1},{"distance":1230,"transit":false,"is_transit":false,"i_long":106.800832,"i_lat":-6.155215,"station_name":"Duri","station_id":"DU","line":1,"time":4},{"station_id":"THB","station_name":"Tanah Abang","i_long":106.811091,"time":8,"line":1,"i_lat":-6.185545,"distance":3632,"transit":true,"is_transit":true},{"line":6,"transit":false,"station_name":"Palmerah","i_long":106.79689,"station_id":"PLM","time":6,"distance":3191,"is_transit":false,"i_lat":-6.207404},{"station_id":"KBY","station_name":"Kebayoran","line":6,"i_long":106.780334,"distance":3737,"is_transit":false,"i_lat":-6.237242,"transit":false,"time":7},{"is_transit":false,"station_name":"Pondokranji","i_lat":-6.276362,"time":8,"transit":false,"i_long":106.74273,"line":6,"distance":6218,"station_id":"PDJ"},{"transit":false,"time":3,"line":6,"station_name":"Jurangmangu","station_id":"JMU","is_transit":false,"i_lat":-6.288927,"i_long":106.728916,"distance":2179},{"is_transit":false,"time":4,"distance":1994,"station_id":"SDM","i_long":106.712277,"transit":false,"line":6,"i_lat":-6.296963,"station_name":"Sudimara"},{"is_transit":false,"time":6,"transit":false,"station_id":"RU","station_name":"Rawa Buntu","distance":4566,"i_lat":-6.314823,"i_long":106.675475,"line":6},{"is_transit":false,"i_long":106.66566,"distance":2413,"transit":false,"time":4,"station_id":"SRP","station_name":"Serpong","i_lat":-6.319871,"line":6},{"station_name":"Cisauk","i_lat":-6.32484,"time":4,"distance":1784,"transit":false,"station_id":"CSK","i_long":106.640411,"line":3,"is_transit":false},{"is_transit":false,"i_long":106.617853,"line":3,"station_id":"CC","distance":2519,"time":4,"transit":false,"station_name":"Cicayur","i_lat":-6.329547},{"distance":5968,"time":8,"station_id":"PRP","i_lat":-6.3441410000000005,"is_transit":false,"i_long":106.568863,"transit":false,"station_name":"Parung Panjang","line":6}],[{"i_lat":-6.405256,"station_id":"DP","station_name":"Depok","is_transit":false,"i_long":106.816926,"transit":false,"time":0,"line":2,"distance":0},{"time":3,"distance":1584,"line":2,"transit":false,"station_id":"DPB","is_transit":false,"station_name":"Depokbaru","i_long":106.819451,"i_lat":-6.391065},{"distance":2727,"time":4,"is_transit":false,"i_long":106.831114,"station_id":"POC","station_name":"Pondok Cina","i_lat":-6.369073,"transit":false,"line":2},{"station_id":"UI","transit":false,"is_transit":false,"i_lat":-6.360749,"i_long":106.831474,"distance":1109,"time":2,"station_name":"Univ. Indonesia","line":2},{"distance":2264,"is_transit":false,"i_lat":-6.339291,"transit":false,"station_name":"Univ. Pancasila","i_long":106.834175,"line":2,"time":3,"station_id":"UP"},{"i_lat":-6.330363,"station_id":"LNA","time":2,"i_long":106.832616,"is_transit":false,"distance":1029,"station_name":"Lenteng Agung","transit":false,"line":2},{"i_long":106.838896,"station_name":"Tanjung Barat","transit":false,"line":2,"distance":2671,"time":3,"station_id":"TNT","is_transit":false,"i_lat":-6.3080680000000005},{"is_transit":false,"line":2,"time":4,"station_name":"Pasar Minggu","transit":false,"station_id":"PSM","distance":2820,"i_lat":-6.2842400000000005,"i_long":106.843999},{"line":2,"transit":false,"time":2,"distance":2380,"i_lat":-6.263214,"station_name":"Pasar Minggu Baru","station_id":"PSMB","is_transit":false,"i_long":106.851577},{"station_name":"Duren Kalibata","is_transit":false,"i_long":106.85449,"line":2,"station_id":"DRN","transit":false,"time":2,"distance":824,"i_lat":-6.255332},{"i_long":106.856607,"distance":1546,"station_id":"CW","i_lat":-6.242512,"transit":false,"line":2,"time":3,"is_transit":false,"station_name":"Cawang"},{"transit":false,"is_transit":false,"i_long":106.857948,"time":2,"i_lat":-6.226659,"distance":1230,"station_id":"TEB","station_name":"Tebet","line":2},{"distance":2610,"transit":true,"station_name":"Manggarai","time":4,"line":2,"i_lat":-6.209883,"i_long":106.84912,"station_id":"MRI","is_transit":true},{"transit":false,"is_transit":false,"i_long":106.858896,"i_lat":-6.212485,"distance":1275,"station_name":"Matraman","station_id":"MTR","time":2,"line":1},{"line":1,"distance":1377,"station_name":"Jatinegara","time":8,"is_transit":true,"i_lat":-6.215091,"transit":true,"station_id":"JNG","i_long":106.86807400000001},{"i_long":106.861737,"line":11,"transit":false,"is_transit":false,"distance":1236,"time":2,"station_id":"POK","station_name":"Pondok Jati","i_lat":-6.209188},{"station_name":"Kramat","i_long":106.855437,"line":11,"transit":false,"i_lat":-6.193792,"distance":1829,"time":2,"is_transit":false,"station_id":"KMT"},{"station_id":"GST","i_lat":-6.185975,"distance":973,"time":1,"station_name":"Gang Sentiong","line":11,"is_transit":false,"i_long":106.850107,"transit":false},{"is_transit":false,"line":11,"i_lat":-6.174784,"time":8,"station_name":"Pasar Senen","i_long":106.84368,"transit":false,"station_id":"PSE","distance":1567},{"time":4,"i_lat":-6.161728,"i_long":106.839204,"line":11,"station_id":"KMO","transit":false,"station_name":"Kemayoran","distance":1436,"is_transit":false},{"distance":1901,"station_id":"RJW","line":11,"i_lat":-6.14505,"time":5,"transit":false,"i_long":106.836569,"is_transit":false,"station_name":"Rajawali"},{"distance":1444,"transit":true,"time":3,"station_id":"KPB","is_transit":true,"station_name":"Kampung Bandan","i_lat":-6.132549,"i_long":106.826365,"line":4},{"is_transit":false,"line":1,"transit":false,"i_lat":-6.144674,"station_name":"Angke","i_long":106.79867,"distance":4102,"time":9,"station_id":"AK"},{"line":1,"i_lat":-6.155215,"i_long":106.800832,"is_transit":false,"transit":false,"station_id":"DU","station_name":"Duri","distance":1230,"time":4},{"transit":true,"station_id":"THB","i_long":106.811091,"distance":3632,"line":1,"station_name":"Tanah Abang","is_transit":true,"i_lat":-6.185545,"time":8},{"i_long":106.79689,"distance":3191,"transit":false,"i_lat":-6.207404,"line":6,"station_name":"Palmerah","time":6,"is_transit":false,"station_id":"PLM"},{"distance":3737,"time":7,"station_id":"KBY","station_name":"Kebayoran","i_lat":-6.237242,"line":6,"i_long":106.780334,"transit":false,"is_transit":false},{"time":8,"i_lat":-6.276362,"transit":false,"station_name":"Pondokranji","line":6,"distance":6218,"is_transit":false,"i_long":106.74273,"station_id":"PDJ"},{"time":3,"station_id":"JMU","station_name":"Jurangmangu","i_long":106.728916,"is_transit":false,"i_lat":-6.288927,"line":6,"distance":2179,"transit":false},{"station_name":"Sudimara","distance":1994,"i_long":106.712277,"line":6,"time":4,"transit":false,"is_transit":false,"station_id":"SDM","i_lat":-6.296963},{"distance":4566,"transit":false,"is_transit":false,"time":6,"station_id":"RU","station_name":"Rawa Buntu","i_long":106.675475,"line":6,"i_lat":-6.314823},{"line":6,"distance":2413,"time":4,"station_id":"SRP","i_lat":-6.319871,"transit":false,"is_transit":false,"station_name":"Serpong","i_long":106.66566},{"i_lat":-6.32484,"distance":1784,"time":4,"transit":false,"i_long":106.640411,"station_name":"Cisauk","is_transit":false,"station_id":"CSK","line":3},{"i_long":106.617853,"time":4,"is_transit":false,"distance":2519,"transit":false,"station_name":"Cicayur","i_lat":-6.329547,"station_id":"CC","line":3},{"station_id":"PRP","distance":5968,"transit":false,"is_transit":false,"time":8,"i_long":106.568863,"line":6,"station_name":"Parung Panjang","i_lat":-6.3441410000000005}]]}