{"data":[[{"i_lat":-6.405256,"i_long":106.816926,"station_name":"Depok","time":0,"is_transit":false,"transit":false,"distance":0,"station_id":"DP","line":2},{"transit":false,"time":3,"station_name":"Depokbaru","distance":1584,"is_transit":false,"i_lat":-6.391065,"station_id":"DPB","i_long":106.819451,"line":2},{"time":4,"station_id":"POC","i_long":106.831114,"i_lat":-6.369073,"station_name":"Pondok Cina","transit":false,"distance":2727,"line":2,"is_transit":false},{"station_name":"Univ. Indonesia","time":2,"distance":1109,"transit":false,"i_lat":-6.360749,"line":2,"is_transit":false,"i_long":106.831474,"station_id":"UI"},{"line":2,"is_transit":false,"distance":2264,"i_long":106.834175,"station_id":"UP","transit":false,"i_lat":-6.339291,"station_name":"Univ. Pancasila","time":3},{"station_name":"Lenteng Agung","time":2,"station_id":"LNA","distance":1029,"line":2,"is_transit":false,"transit":false,"i_lat":-6.330363,"i_long":106.832616},{"line":2,"station_id":"TNT","i_long":106.838896,"station_name":"Tanjung Barat","is_transit":false,"distance":2671,"time":3,"transit":false,"i_lat":-6.3080680000000005},{"line":2,"distance":2820,"transit":false,"station_id":"PSM","is_transit":false,"i_lat":-6.2842400000000005,"time":4,"station_name":"Pasar Minggu","i_long":106.843999},{"i_long":106.851577,"transit":false,"i_lat":-6.263214,"station_name":"Pasar Minggu Baru","is_transit":false,"time":2,"distance":2380,"station_id":"PSMB","line":2},{"station_name":"Duren Kalibata","distance":824,"time":2,"station_id":"DRN","is_transit":false,"transit":false,"i_lat":-6.255332,"i_long":106.85449,"line":2},{"time":3,"station_id":"CW","i_lat":-6.242512,"is_transit":false,"transit":false,"i_long":106.856607,"station_name":"Cawang","line":2,"distance":1546},{"is_transit":false,"i_lat":-6.226659,"transit":false,"i_long":106.857948,"distance":1230,"line":2,"station_id":"TEB","station_name":"Tebet","time":2},{"station_name":"Manggarai","is_transit":true,"line":2,"transit":true,"time":4,"distance":2610,"i_long":106.84912,"station_id":"MRI","i_lat":-6.209883},{"i_long":106.822649,"is_transit":false,"station_name":"Sudirman","time":4,"transit":false,"station_id":"SUD","i_lat":-6.202263,"line":1,"distance":3186},{"i_long":106.819881,"station_id":"SUDB","transit":false,"is_transit":false,"time":1,"station_name":"Sudirman Baru","i_lat":-6.201433,"line":1,"distance":280},{"i_long":106.816351,"i_lat":-6.20132,"line":1,"time":1,"distance":471,"is_transit":false,"station_id":"KAT","station_name":"Karet","transit":false},{"station_name":"Tanah Abang","is_transit":false,"station_id":"THB","i_lat":-6.185545,"i_long":106.811091,"transit":false,"time":5,"distance":2029,"line":1},{"i_long":106.800832,"station_name":"Duri","is_transit":true,"distance":3632,"line":1,"transit":true,"i_lat":-6.155215,"station_id":"DU","time":8},{"station_name":"Grogol","time":3,"line":5,"distance":1700,"station_id":"GRG","i_long":106.788277,"is_transit":false,"i_lat":-6.162021,"transit":false},{"is_transit":false,"time":2,"i_lat":-6.161433,"i_long":106.771379,"line":5,"distance":2036,"transit":false,"station_name":"Pesing","station_id":"PSG"},{"distance":1614,"transit":false,"time":2,"is_transit":false,"line":5,"i_lat":-6.1587309999999995,"station_id":"TKO","i_long":106.756522,"station_name":"Taman Kota"},{"line":5,"distance":2334,"time":2,"station_name":"Bojongindah","i_lat":-6.159876,"i_long":106.737035,"is_transit":false,"transit":false,"station_id":"BOI"},{"line":5,"is_transit":false,"transit":false,"i_lat":-6.162758,"station_name":"Rawa Buaya","distance":1152,"station_id":"RW","time":4,"i_long":106.723064},{"is_transit":false,"i_long":106.701612,"station_id":"KDS","time":3,"transit":false,"station_name":"Kalideres","i_lat":-6.166068,"distance":2504,"line":5},{"time":3,"i_long":106.679458,"line":5,"station_id":"PI","transit":false,"station_name":"Poris","distance":2548,"is_transit":false,"i_lat":-6.169933}],[{"distance":0,"i_long":106.816926,"transit":false,"is_transit":false,"station_name":"Depok","i_lat":-6.405256,"station_id":"DP","time":0,"line":2},{"distance":1584,"i_lat":-6.391065,"station_id":"DPB","i_long":106.819451,"line":2,"station_name":"Depokbaru","is_transit":false,"transit":false,"time":3},{"distance":2727,"transit":false,"is_transit":false,"time":4,"line":2,"i_lat":-6.369073,"i_long":106.831114,"station_id":"POC","station_name":"Pondok Cina"},{"station_id":"UI","line":2,"distance":1109,"transit":false,"i_lat":-6.360749,"station_name":"Univ. Indonesia","i_long":106.831474,"time":2,"is_transit":false},{"is_transit":false,"distance":2264,"i_lat":-6.339291,"station_id":"UP","time":3,"transit":false,"station_name":"Univ. Pancasila","i_long":106.834175,"line":2},{"i_long":106.832616,"distance":1029,"line":2,"time":2,"transit":false,"station_name":"Lenteng Agung","i_lat":-6.330363,"station_id":"LNA","is_transit":false},{"i_long":106.838896,"station_name":"Tanjung Barat","time":3,"line":2,"station_id":"TNT","distance":2671,"i_lat":-6.3080680000000005,"is_transit":false,"transit":false},{"line":2,"station_id":"PSM","is_transit":false,"i_lat":-6.2842400000000005,"distance":2820,"i_long":106.843999,"transit":false,"station_name":"Pasar Minggu","time":4},{"time":2,"distance":2380,"transit":false,"station_name":"Pasar Minggu Baru","i_long":106.851577,"is_transit":false,"line":2,"i_lat":-6.263214,"station_id":"PSMB"},{"is_transit":false,"line":2,"time":2,"distance":824,"station_id":"DRN","i_lat":-6.255332,"transit":false,"i_long":106.85449,"station_name":"Duren Kalibata"},{"transit":false,"is_transit":false,"line":2,"i_lat":-6.242512,"distance":1546,"i_long":106.856607,"time":3,"station_name":"Cawang","station_id":"CW"},{"line":2,"station_name":"Tebet","time":2,"i_lat":-6.226659,"i_long":106.857948,"distance":1230,"is_transit":false,"transit":false,"station_id":"TEB"},{"i_long":106.84912,"station_id":"MRI","time":4,"i_lat":-6.209883,"is_transit":false,"station_name":"Manggarai","line":2,"distance":2610,"transit":false},{"distance":1590,"station_id":"CKI","i_long":106.840169,"station_name":"Cikini","time":4,"i_lat":-6.198556,"transit":false,"is_transit":false,"line":2},{"i_long":106.832183,"station_name":"Gondangdia","time":3,"line":2,"is_transit":false,"station_id":"GDD","distance":1750,"transit":false,"i_lat":-6.186295},{"station_id":"JUA","i_lat":-6.166716,"i_long":106.828284,"transit":false,"line":2,"is_transit":false,"station_name":"Juanda","time":4,"distance":2015},{"is_transit":false,"station_name":"Sawah Besar","transit":false,"time":2,"i_lat":-6.160725,"i_long":106.827103,"line":2,"distance":1149,"station_id":"SW"},{"i_long":106.82482,"station_id":"MGB","time":2,"is_transit":false,"transit":false,"line":2,"distance":906,"station_name":"Manggabesar","i_lat":-6.149769},{"i_long":106.820901,"distance":1080,"time":2,"is_transit":false,"station_id":"JAY","line":2,"station_name":"Jayakarta","transit":false,"i_lat":-6.141205},{"station_id":"JAKK","is_transit":true,"station_name":"Jakarta Kota","time":4,"i_lat":-6.137569,"i_long":106.812439,"distance":1264,"transit":true,"line":2},{"station_name":"Kampung Bandan","line":4,"i_long":106.826365,"is_transit":true,"time":3,"station_id":"KPB","distance":1364,"transit":true,"i_lat":-6.132549},{"distance":4102,"line":1,"station_id":"AK","is_transit":false,"time":9,"i_long":106.79867,"station_name":"Angke","i_lat":-6.144674,"transit":false},{"line":1,"distance":1230,"station_name":"Duri","transit":true,"time":4,"i_lat":-6.155215,"is_transit":true,"i_long":106.800832,"station_id":"DU"},{"transit":false,"i_lat":-6.162021,"line":5,"station_id":"GRG","station_name":"Grogol","distance":1700,"time":3,"is_transit":false,"i_long":106.788277},{"i_long":106.771379,"line":5,"station_id":"PSG","is_transit":false,"i_lat":-6.161433,"station_name":"Pesing","distance":2036,"time":2,"transit":false},{"station_name":"Taman Kota","time":2,"is_transit":false,"i_long":106.756522,"station_id":"TKO","line":5,"i_lat":-6.1587309999999995,"distance":1614,"transit":false},{"station_name":"Bojongindah","station_id":"BOI","is_transit":false,"i_long":106.737035,"line":5,"i_lat":-6.159876,"distance":2334,"time":2,"transit":false},{"station_name":"Rawa Buaya","is_transit":false,"i_lat":-6.162758,"line":5,"station_id":"RW","i_long":106.723064,"distance":1152,"transit":false,"time":4},{"time":3,"station_id":"KDS","line":5,"i_long":106.701612,"station_name":"Kalideres","is_transit":false,"transit":false,"i_lat":-6.166068,"distance":2504},{"line":5,"is_transit":false,"i_lat":-6.169933,"distance":2548,"transit":false,"time":3,"station_name":"Poris","station_id":"PI","i_long":106.679458}],[{"station_id":"DP","transit":false,"i_lat":-6.405256,"station_name":"Depok","is_transit":false,"distance":0,"time":0,"i_long":106.816926,"line":2},{"i_long":106.819451,"transit":false,"station_id":"DPB","time":3,"i_lat":-6.391065,"line":2,"distance":1584,"is_transit":false,"station_name":"Depokbaru"},{"i_long":106.831114,"station_id":"POC","transit":false,"line":2,"time":4,"distance":2727,"is_transit":false,"i_lat":-6.369073,"station_name":"Pondok Cina"},{"station_name":"Univ. Indonesia","time":2,"i_lat":-6.360749,"line":2,"i_long":106.831474,"distance":1109,"is_transit":false,"transit":false,"station_id":"UI"},{"i_lat":-6.339291,"line":2,"time":3,"distance":2264,"station_id":"UP","transit":false,"station_name":"Univ. Pancasila","is_transit":false,"i_long":106.834175},{"transit":false,"is_transit":false,"line":2,"i_long":106.832616,"time":2,"station_id":"LNA","station_name":"Lenteng Agung","distance":1029,"i_lat":-6.330363},{"transit":false,"time":3,"i_lat":-6.3080680000000005,"station_name":"Tanjung Barat","i_long":106.838896,"distance":2671,"station_id":"TNT","line":2,"is_transit":false},{"distance":2820,"station_id":"PSM","i_long":106.843999,"time":4,"i_lat":-6.2842400000000005,"station_name":"Pasar Minggu","is_transit":false,"line":2,"transit":false},{"line":2,"station_id":"PSMB","distance":2380,"time":2,"i_lat":-6.263214,"station_name":"Pasar Minggu Baru","transit":false,"is_transit":false,"i_long":106.851577},{"station_id":"DRN","i_long":106.85449,"time":2,"is_transit":false,"line":2,"transit":false,"distance":824,"i_lat":-6.255332,"station_name":"Duren Kalibata"},{"distance":1546,"i_long":106.856607,"i_lat":-6.242512,"station_id":"CW","line":2,"is_transit":false,"station_name":"Cawang","time":3,"transit":false},{"station_id":"TEB","time":2,"i_long":106.857948,"transit":false,"distance":1230,"is_transit":false,"station_name":"Tebet","i_lat":-6.226659,"line":2},{"i_lat":-6.209883,"station_id":"MRI","i_long":106.84912,"line":2,"transit":true,"station_name":"Manggarai","distance":2610,"time":4,"is_transit":true},{"transit":false,"station_name":"Matraman","is_transit":false,"station_id":"MTR","i_long":106.858896,"i_lat":-6.212485,"time":2,"line":1,"distance":1275},{"i_lat":-6.215091,"station_id":"JNG","transit":true,"station_name":"Jatinegara","time":8,"i_long":106.86807400000001,"line":1,"distance":1377,"is_transit":true},{"line":11,"i_lat":-6.209188,"distance":1236,"station_name":"Pondok Jati","i_long":106.861737,"transit":false,"station_id":"POK","is_transit":false,"time":2},{"distance":1829,"is_transit":false,"station_name":"Kramat","transit":false,"i_lat":-6.193792,"line":11,"time":2,"station_id":"KMT","i_long":106.855437},{"station_id":"GST","time":1,"is_transit":false,"i_lat":-6.185975,"line":11,"transit":false,"i_long":106.850107,"distance":973,"station_name":"Gang Sentiong"},{"i_long":106.84368,"distance":1567,"station_id":"PSE","time":8,"station_name":"Pasar Senen","is_transit":false,"line":11,"transit":false,"i_lat":-6.174784},{"i_long":106.839204,"time":4,"station_id":"KMO","transit":false,"station_name":"Kemayoran","line":11,"distance":1436,"i_lat":-6.161728,"is_transit":false},{"distance":1901,"is_transit":false,"line":11,"station_id":"RJW","transit":false,"station_name":"Rajawali","time":5,"i_lat":-6.14505,"i_long":106.836569},{"transit":true,"station_name":"Kampung Bandan","i_long":106.826365,"time":3,"is_transit":true,"station_id":"KPB","line":4,"i_lat":-6.132549,"distance":1444},{"distance":4102,"line":1,"i_lat":-6.144674,"station_id":"AK","i_long":106.79867,"station_name":"Angke","time":9,"transit":false,"is_transit":false},{"station_name":"Duri","time":4,"is_transit":true,"i_long":106.800832,"i_lat":-6.155215,"station_id":"DU","line":1,"distance":1230,"transit":true},{"station_id":"GRG","time":3,"i_lat":-6.162021,"transit":false,"distance":1700,"is_transit":false,"station_name":"Grogol","i_long":106.788277,"line":5},{"transit":false,"is_transit":false,"time":2,"station_id":"PSG","line":5,"i_long":106.771379,"distance":2036,"i_lat":-6.161433,"station_name":"Pesing"},{"line":5,"time":2,"distance":1614,"i_lat":-6.1587309999999995,"i_long":106.756522,"transit":false,"station_name":"Taman Kota","is_transit":false,"station_id":"TKO"},{"distance":2334,"is_transit":false,"i_lat":-6.159876,"i_long":106.737035,"station_name":"Bojongindah","transit":false,"station_id":"BOI","time":2,"line":5},{"distance":1152,"i_lat":-6.162758,"i_long":106.723064,"station_name":"Rawa Buaya","transit":false,"time":4,"is_transit":false,"line":5,"station_id":"RW"},{"i_long":106.701612,"is_transit":false,"station_id":"KDS","transit":false,"station_name":"Kalideres","distance":2504,"time":3,"i_lat":-6.166068,"line":5},{"distance":2548,"i_long":106.679458,"station_name":"Poris","i_lat":-6.169933,"line":5,"transit":false,"station_id":"PI","is_transit":false,"time":3}]]}