{"data":[[{"transit":false,"station_name":"Depok","station_id":"DP","i_lat":-6.405256,"time":0,"is_transit":false,"i_long":106.816926,"line":2,"distance":0},{"i_lat":-6.391065,"station_name":"Depokbaru","distance":1584,"is_transit":false,"i_long":106.819451,"station_id":"DPB","line":2,"time":3,"transit":false},{"i_lat":-6.369073,"i_long":106.831114,"station_id":"POC","transit":false,"line":2,"distance":2727,"station_name":"Pondok Cina","is_transit":false,"time":4},{"time":2,"station_id":"UI","distance":1109,"i_lat":-6.360749,"is_transit":false,"i_long":106.831474,"station_name":"Univ. Indonesia","line":2,"transit":false},{"line":2,"i_lat":-6.339291,"station_id":"UP","time":3,"station_name":"Univ. Pancasila","i_long":106.834175,"distance":2264,"transit":false,"is_transit":false},{"transit":false,"is_transit":false,"distance":1029,"time":2,"station_id":"LNA","i_lat":-6.330363,"i_long":106.832616,"station_name":"Lenteng Agung","line":2},{"i_lat":-6.3080680000000005,"line":2,"is_transit":false,"transit":false,"distance":2671,"station_id":"TNT","i_long":106.838896,"station_name":"Tanjung Barat","time":3},{"station_name":"Pasar Minggu","line":2,"is_transit":false,"station_id":"PSM","i_lat":-6.2842400000000005,"transit":false,"time":4,"i_long":106.843999,"distance":2820},{"i_long":106.851577,"station_name":"Pasar Minggu Baru","transit":false,"station_id":"PSMB","line":2,"is_transit":false,"time":2,"distance":2380,"i_lat":-6.263214},{"station_id":"DRN","station_name":"Duren Kalibata","time":2,"i_long":106.85449,"is_transit":false,"transit":false,"distance":824,"line":2,"i_lat":-6.255332},{"i_lat":-6.242512,"station_name":"Cawang","station_id":"CW","distance":1546,"is_transit":false,"time":3,"i_long":106.856607,"transit":false,"line":2},{"distance":1230,"station_name":"Tebet","is_transit":false,"station_id":"TEB","i_lat":-6.226659,"i_long":106.857948,"line":2,"transit":false,"time":2},{"i_lat":-6.209883,"distance":2610,"is_transit":true,"transit":true,"station_id":"MRI","time":4,"line":2,"station_name":"Manggarai","i_long":106.84912},{"i_long":106.822649,"i_lat":-6.202263,"station_id":"SUD","distance":3186,"station_name":"Sudirman","is_transit":false,"transit":false,"time":4,"line":1},{"station_name":"Sudirman Baru","i_long":106.819881,"time":1,"line":1,"transit":false,"station_id":"SUDB","i_lat":-6.201433,"is_transit":false,"distance":280},{"station_id":"KAT","station_name":"Karet","transit":false,"i_lat":-6.20132,"i_long":106.816351,"time":1,"distance":471,"line":1,"is_transit":false},{"distance":2029,"transit":false,"time":5,"station_name":"Tanah Abang","line":1,"i_lat":-6.185545,"station_id":"THB","i_long":106.811091,"is_transit":false},{"station_id":"DU","transit":true,"station_name":"Duri","i_lat":-6.155215,"line":1,"time":8,"is_transit":true,"i_long":106.800832,"distance":3632},{"line":5,"time":3,"distance":1700,"i_lat":-6.162021,"station_name":"Grogol","transit":false,"is_transit":false,"station_id":"GGL","i_long":106.788277},{"distance":2036,"station_id":"PSG","i_lat":-6.161433,"transit":false,"station_name":"Pesing","time":2,"is_transit":false,"i_long":106.771379,"line":5},{"is_transit":false,"station_id":"TKO","station_name":"Taman Kota","time":2,"line":5,"distance":1614,"transit":false,"i_lat":-6.1587309999999995,"i_long":106.756522},{"i_lat":-6.159876,"line":5,"is_transit":false,"i_long":106.737035,"distance":2334,"transit":false,"station_name":"Bojongindah","station_id":"BOI","time":2},{"transit":false,"line":5,"time":4,"is_transit":false,"station_id":"RW","i_long":106.723064,"station_name":"Rawa Buaya","distance":1152,"i_lat":-6.162758},{"i_long":106.701612,"is_transit":false,"line":5,"station_name":"Kalideres","transit":false,"time":3,"i_lat":-6.166068,"distance":2504,"station_id":"KDS"},{"transit":false,"is_transit":false,"station_id":"PI","distance":2548,"i_lat":-6.169933,"time":3,"line":5,"i_long":106.679458,"station_name":"Poris"}],[{"transit":false,"is_transit":false,"line":2,"time":0,"station_id":"DP","i_long":106.816926,"i_lat":-6.405256,"distance":0,"station_name":"Depok"},{"transit":false,"is_transit":false,"i_lat":-6.391065,"line":2,"distance":1584,"station_name":"Depokbaru","station_id":"DPB","i_long":106.819451,"time":3},{"station_name":"Pondok Cina","transit":false,"time":4,"line":2,"i_lat":-6.369073,"i_long":106.831114,"station_id":"POC","distance":2727,"is_transit":false},{"i_lat":-6.360749,"time":2,"station_id":"UI","station_name":"Univ. Indonesia","distance":1109,"is_transit":false,"line":2,"transit":false,"i_long":106.831474},{"distance":2264,"station_name":"Univ. Pancasila","is_transit":false,"time":3,"i_long":106.834175,"line":2,"transit":false,"station_id":"UP","i_lat":-6.339291},{"station_id":"LNA","is_transit":false,"i_lat":-6.330363,"i_long":106.832616,"station_name":"Lenteng Agung","line":2,"time":2,"transit":false,"distance":1029},{"station_id":"TNT","station_name":"Tanjung Barat","i_lat":-6.3080680000000005,"i_long":106.838896,"time":3,"line":2,"transit":false,"is_transit":false,"distance":2671},{"i_lat":-6.2842400000000005,"station_id":"PSM","transit":false,"is_transit":false,"time":4,"line":2,"station_name":"Pasar Minggu","i_long":106.843999,"distance":2820},{"distance":2380,"station_name":"Pasar Minggu Baru","transit":false,"is_transit":false,"i_lat":-6.263214,"time":2,"station_id":"PSMB","i_long":106.851577,"line":2},{"distance":824,"time":2,"line":2,"transit":false,"i_lat":-6.255332,"station_name":"Duren Kalibata","is_transit":false,"i_long":106.85449,"station_id":"DRN"},{"station_name":"Cawang","is_transit":false,"transit":false,"i_long":106.856607,"line":2,"time":3,"i_lat":-6.242512,"distance":1546,"station_id":"CW"},{"line":2,"i_long":106.857948,"station_name":"Tebet","distance":1230,"is_transit":false,"time":2,"station_id":"TEB","i_lat":-6.226659,"transit":false},{"distance":2610,"line":2,"time":4,"station_name":"Manggarai","transit":false,"station_id":"MRI","i_long":106.84912,"i_lat":-6.209883,"is_transit":false},{"transit":false,"time":4,"i_long":106.840169,"is_transit":false,"station_name":"Cikini","station_id":"CKI","distance":1590,"line":2,"i_lat":-6.198556},{"station_name":"Gondangdia","i_lat":-6.186295,"i_long":106.832183,"distance":1750,"station_id":"GDD","line":2,"transit":false,"time":3,"is_transit":false},{"is_transit":false,"station_name":"Juanda","station_id":"JUA","time":4,"transit":false,"i_long":106.828284,"line":2,"i_lat":-6.166716,"distance":2015},{"transit":false,"time":2,"line":2,"station_id":"SW","i_lat":-6.160725,"distance":1149,"station_name":"Sawah Besar","is_transit":false,"i_long":106.827103},{"i_long":106.82482,"is_transit":false,"transit":false,"distance":906,"station_id":"MGB","station_name":"Manggabesar","i_lat":-6.149769,"line":2,"time":2},{"is_transit":false,"i_long":106.820901,"distance":1080,"station_name":"Jayakarta","time":2,"line":2,"i_lat":-6.141205,"transit":false,"station_id":"JAY"},{"is_transit":true,"line":2,"station_name":"Jakarta Kota","distance":1264,"i_lat":-6.137569,"transit":true,"station_id":"JAKK","time":4,"i_long":106.812439},{"line":4,"distance":1364,"is_transit":true,"station_id":"KPB","i_lat":-6.132549,"transit":true,"time":3,"station_name":"Kampung Bandan","i_long":106.826365},{"transit":false,"i_lat":-6.144674,"is_transit":false,"time":9,"line":1,"i_long":106.79867,"station_id":"AK","distance":4102,"station_name":"Angke"},{"i_lat":-6.155215,"distance":1230,"station_name":"Duri","is_transit":true,"transit":true,"station_id":"DU","time":4,"i_long":106.800832,"line":1},{"time":3,"station_name":"Grogol","i_long":106.788277,"line":5,"transit":false,"station_id":"GGL","i_lat":-6.162021,"distance":1700,"is_transit":false},{"station_name":"Pesing","is_transit":false,"i_long":106.771379,"transit":false,"station_id":"PSG","time":2,"i_lat":-6.161433,"line":5,"distance":2036},{"distance":1614,"is_transit":false,"transit":false,"station_name":"Taman Kota","i_lat":-6.1587309999999995,"line":5,"station_id":"TKO","i_long":106.756522,"time":2},{"transit":false,"time":2,"station_name":"Bojongindah","station_id":"BOI","i_long":106.737035,"line":5,"is_transit":false,"i_lat":-6.159876,"distance":2334},{"time":4,"is_transit":false,"line":5,"i_long":106.723064,"station_name":"Rawa Buaya","transit":false,"i_lat":-6.162758,"station_id":"RW","distance":1152},{"transit":false,"station_id":"KDS","i_long":106.701612,"i_lat":-6.166068,"time":3,"line":5,"station_name":"Kalideres","distance":2504,"is_transit":false},{"line":5,"station_id":"PI","distance":2548,"i_lat":-6.169933,"i_long":106.679458,"station_name":"Poris","is_transit":false,"transit":false,"time":3}],[{"distance":0,"time":0,"station_name":"Depok","i_long":106.816926,"line":2,"i_lat":-6.405256,"transit":false,"station_id":"DP","is_transit":false},{"distance":1584,"station_name":"Depokbaru","time":3,"is_transit":false,"station_id":"DPB","i_lat":-6.391065,"transit":false,"i_long":106.819451,"line":2},{"station_name":"Pondok Cina","distance":2727,"is_transit":false,"time":4,"transit":false,"station_id":"POC","i_long":106.831114,"i_lat":-6.369073,"line":2},{"line":2,"distance":1109,"i_lat":-6.360749,"station_name":"Univ. Indonesia","time":2,"i_long":106.831474,"transit":false,"is_transit":false,"station_id":"UI"},{"transit":false,"distance":2264,"i_lat":-6.339291,"station_name":"Univ. Pancasila","line":2,"is_transit":false,"station_id":"UP","time":3,"i_long":106.834175},{"line":2,"distance":1029,"station_name":"Lenteng Agung","station_id":"LNA","time":2,"i_long":106.832616,"is_transit":false,"i_lat":-6.330363,"transit":false},{"station_name":"Tanjung Barat","station_id":"TNT","time":3,"line":2,"is_transit":false,"i_lat":-6.3080680000000005,"i_long":106.838896,"transit":false,"distance":2671},{"i_long":106.843999,"is_transit":false,"distance":2820,"time":4,"line":2,"station_name":"Pasar Minggu","transit":false,"station_id":"PSM","i_lat":-6.2842400000000005},{"station_name":"Pasar Minggu Baru","is_transit":false,"i_lat":-6.263214,"distance":2380,"line":2,"transit":false,"i_long":106.851577,"station_id":"PSMB","time":2},{"i_lat":-6.255332,"station_name":"Duren Kalibata","distance":824,"time":2,"line":2,"is_transit":false,"transit":false,"station_id":"DRN","i_long":106.85449},{"transit":false,"time":3,"i_long":106.856607,"distance":1546,"station_name":"Cawang","is_transit":false,"line":2,"station_id":"CW","i_lat":-6.242512},{"line":2,"distance":1230,"time":2,"transit":false,"i_lat":-6.226659,"i_long":106.857948,"station_id":"TEB","is_transit":false,"station_name":"Tebet"},{"i_lat":-6.209883,"distance":2610,"transit":true,"station_id":"MRI","station_name":"Manggarai","time":4,"line":2,"i_long":106.84912,"is_transit":true},{"i_long":106.858896,"is_transit":false,"distance":1275,"time":2,"station_name":"Matraman","transit":false,"station_id":"MTR","line":1,"i_lat":-6.212485},{"line":1,"distance":1377,"is_transit":true,"i_lat":-6.215091,"i_long":106.86807400000001,"station_id":"JNG","transit":true,"time":8,"station_name":"Jatinegara"},{"distance":1236,"is_transit":false,"transit":false,"time":2,"i_long":106.861737,"i_lat":-6.209188,"station_id":"POK","station_name":"Pondok Jati","line":11},{"i_long":106.855437,"i_lat":-6.193792,"time":2,"distance":1829,"station_name":"Kramat","station_id":"KMT","transit":false,"line":11,"is_transit":false},{"station_id":"GST","i_long":106.850107,"station_name":"Gang Sentiong","is_transit":false,"distance":973,"transit":false,"line":11,"time":1,"i_lat":-6.185975},{"i_lat":-6.174784,"line":11,"transit":false,"station_name":"Pasar Senen","is_transit":false,"station_id":"PSE","time":8,"i_long":106.84368,"distance":1567},{"i_long":106.839204,"is_transit":false,"station_name":"Kemayoran","i_lat":-6.161728,"distance":1436,"transit":false,"station_id":"KMO","line":11,"time":4},{"station_id":"RJW","transit":false,"time":5,"station_name":"Rajawali","i_long":106.836569,"is_transit":false,"i_lat":-6.14505,"line":11,"distance":1901},{"station_name":"Kampung Bandan","station_id":"KPB","transit":true,"time":3,"is_transit":true,"i_long":106.826365,"distance":1444,"i_lat":-6.132549,"line":4},{"station_name":"Angke","is_transit":false,"transit":false,"i_lat":-6.144674,"i_long":106.79867,"line":1,"distance":4102,"station_id":"AK","time":9},{"time":4,"distance":1230,"i_lat":-6.155215,"station_name":"Duri","transit":true,"i_long":106.800832,"is_transit":true,"line":1,"station_id":"DU"},{"is_transit":false,"distance":1700,"station_id":"GGL","time":3,"station_name":"Grogol","line":5,"i_long":106.788277,"transit":false,"i_lat":-6.162021},{"line":5,"station_id":"PSG","i_long":106.771379,"is_transit":false,"i_lat":-6.161433,"transit":false,"distance":2036,"time":2,"station_name":"Pesing"},{"is_transit":false,"transit":false,"i_lat":-6.1587309999999995,"station_name":"Taman Kota","station_id":"TKO","line":5,"distance":1614,"i_long":106.756522,"time":2},{"line":5,"station_name":"Bojongindah","is_transit":false,"time":2,"transit":false,"distance":2334,"station_id":"BOI","i_long":106.737035,"i_lat":-6.159876},{"transit":false,"line":5,"station_name":"Rawa Buaya","station_id":"RW","time":4,"distance":1152,"is_transit":false,"i_lat":-6.162758,"i_long":106.723064},{"distance":2504,"time":3,"station_id":"KDS","is_transit":false,"transit":false,"i_lat":-6.166068,"station_name":"Kalideres","i_long":106.701612,"line":5},{"transit":false,"distance":2548,"time":3,"line":5,"is_transit":false,"station_id":"PI","i_lat":-6.169933,"i_long":106.679458,"station_name":"Poris"}]]}