{"data":[[{"line":0,"station_name":"Depok","time":0,"station_id":"DP","transit":false,"i_lat":-6.405256,"distance":0,"i_long":106.816926,"is_transit":false},{"time":3,"station_id":"DPB","distance":1584,"i_long":106.819451,"transit":false,"is_transit":false,"i_lat":-6.391065,"line":0,"station_name":"Depokbaru"},{"line":2,"station_id":"POC","distance":2727,"i_lat":-6.369073,"transit":false,"i_long":106.831114,"is_transit":false,"station_name":"Pondok Cina","time":4},{"i_lat":-6.360749,"transit":false,"line":2,"station_id":"UI","station_name":"Univ. Indonesia","i_long":106.831474,"is_transit":false,"time":2,"distance":1109},{"distance":2264,"i_lat":-6.339291,"transit":false,"is_transit":false,"i_long":106.834175,"station_id":"UP","station_name":"Univ. Pancasila","line":2,"time":3},{"distance":1029,"station_id":"LNA","station_name":"Lenteng Agung","time":2,"i_long":106.832616,"i_lat":-6.330363,"is_transit":false,"transit":false,"line":2},{"transit":false,"station_id":"TNT","is_transit":false,"distance":2671,"i_lat":-6.3080680000000005,"station_name":"Tanjung Barat","i_long":106.838896,"time":3,"line":2},{"station_name":"Pasar Minggu","i_long":106.843999,"time":4,"station_id":"PSM","transit":false,"i_lat":-6.2842400000000005,"distance":2820,"line":2,"is_transit":false},{"transit":false,"i_long":106.851577,"i_lat":-6.263214,"distance":2380,"station_name":"Pasar Minggu Baru","line":2,"is_transit":false,"station_id":"PSMB","time":2},{"station_id":"DRN","station_name":"Duren Kalibata","time":2,"transit":false,"i_lat":-6.255332,"is_transit":false,"line":0,"i_long":106.85449,"distance":824},{"distance":1546,"is_transit":false,"station_id":"CW","time":3,"i_long":106.856607,"line":0,"transit":false,"station_name":"Cawang","i_lat":-6.242512},{"is_transit":false,"time":2,"station_name":"Tebet","distance":1230,"transit":false,"i_lat":-6.226659,"i_long":106.857948,"line":2,"station_id":"TEB"},{"station_name":"Manggarai","i_long":106.84912,"transit":true,"i_lat":-6.209883,"distance":2610,"station_id":"MRI","is_transit":true,"line":0,"time":4},{"line":1,"i_lat":-6.202263,"station_id":"SUD","station_name":"Sudirman","is_transit":false,"distance":3186,"transit":false,"time":4,"i_long":106.822649},{"time":1,"i_lat":-6.201433,"station_id":"SUDB","transit":false,"station_name":"Sudirman Baru","distance":280,"is_transit":false,"i_long":106.819881,"line":1},{"is_transit":false,"station_name":"Karet","distance":471,"i_long":106.816351,"station_id":"KAT","time":1,"i_lat":-6.20132,"line":1,"transit":false},{"station_id":"THB","i_long":106.811091,"station_name":"Tanah Abang","time":5,"i_lat":-6.185545,"line":1,"transit":true,"distance":2029,"is_transit":true},{"station_name":"Palmerah","i_lat":-6.207404,"distance":3191,"time":6,"is_transit":false,"i_long":106.79689,"line":6,"station_id":"PLM","transit":false},{"station_name":"Kebayoran","station_id":"KBY","time":7,"transit":false,"is_transit":false,"distance":3737,"i_lat":-6.237242,"i_long":106.780334,"line":6},{"station_name":"Pondokranji","station_id":"PDJ","time":8,"distance":6218,"transit":false,"i_lat":-6.276362,"line":6,"i_long":106.74273,"is_transit":false},{"i_long":106.728916,"is_transit":false,"time":3,"i_lat":-6.288927,"distance":2179,"station_name":"Jurangmangu","station_id":"JMU","line":6,"transit":false},{"i_lat":-6.296963,"line":6,"is_transit":false,"i_long":106.712277,"station_name":"Sudimara","time":4,"transit":false,"station_id":"SDM","distance":1994},{"distance":4566,"transit":false,"station_name":"Rawa Buntu","i_long":106.675475,"line":6,"time":6,"station_id":"RU","i_lat":-6.314823,"is_transit":false},{"station_id":"SRP","station_name":"Serpong","i_lat":-6.319871,"i_long":106.66566,"distance":2413,"transit":false,"time":4,"is_transit":false,"line":6},{"station_id":"CSK","transit":false,"line":0,"distance":1784,"station_name":"Cisauk","is_transit":false,"time":4,"i_long":106.640411,"i_lat":-6.32484},{"line":0,"time":4,"i_long":106.617853,"distance":2519,"i_lat":-6.329547,"station_name":"Cicayur","station_id":"CC","is_transit":false,"transit":false},{"station_id":"PRP","station_name":"Parung Panjang","distance":5968,"time":8,"is_transit":false,"transit":false,"i_lat":-6.3441410000000005,"i_long":106.568863,"line":6}],[{"i_lat":-6.405256,"line":0,"i_long":106.816926,"is_transit":false,"station_id":"DP","time":0,"distance":0,"station_name":"Depok","transit":false},{"line":0,"i_lat":-6.391065,"i_long":106.819451,"station_id":"DPB","is_transit":false,"time":3,"station_name":"Depokbaru","transit":false,"distance":1584},{"i_long":106.831114,"is_transit":false,"distance":2727,"station_id":"POC","line":2,"transit":false,"time":4,"i_lat":-6.369073,"station_name":"Pondok Cina"},{"station_name":"Univ. Indonesia","i_lat":-6.360749,"time":2,"line":2,"station_id":"UI","distance":1109,"transit":false,"is_transit":false,"i_long":106.831474},{"is_transit":false,"i_lat":-6.339291,"line":2,"distance":2264,"time":3,"station_id":"UP","station_name":"Univ. Pancasila","transit":false,"i_long":106.834175},{"station_id":"LNA","time":2,"transit":false,"i_long":106.832616,"line":2,"i_lat":-6.330363,"station_name":"Lenteng Agung","is_transit":false,"distance":1029},{"transit":false,"time":3,"i_lat":-6.3080680000000005,"station_id":"TNT","station_name":"Tanjung Barat","line":2,"is_transit":false,"distance":2671,"i_long":106.838896},{"is_transit":false,"station_name":"Pasar Minggu","i_lat":-6.2842400000000005,"line":2,"distance":2820,"time":4,"transit":false,"i_long":106.843999,"station_id":"PSM"},{"transit":false,"distance":2380,"i_lat":-6.263214,"i_long":106.851577,"is_transit":false,"station_name":"Pasar Minggu Baru","time":2,"station_id":"PSMB","line":2},{"transit":false,"time":2,"i_long":106.85449,"i_lat":-6.255332,"is_transit":false,"line":0,"distance":824,"station_id":"DRN","station_name":"Duren Kalibata"},{"is_transit":false,"time":3,"transit":false,"i_lat":-6.242512,"i_long":106.856607,"distance":1546,"line":0,"station_id":"CW","station_name":"Cawang"},{"i_long":106.857948,"transit":false,"station_id":"TEB","is_transit":false,"distance":1230,"time":2,"i_lat":-6.226659,"station_name":"Tebet","line":2},{"distance":2610,"station_name":"Manggarai","transit":true,"is_transit":true,"i_lat":-6.209883,"time":4,"line":0,"i_long":106.84912,"station_id":"MRI"},{"distance":1590,"is_transit":false,"i_lat":-6.198556,"station_id":"CKI","station_name":"Cikini","line":0,"transit":false,"time":4,"i_long":106.840169},{"transit":false,"i_lat":-6.186295,"station_name":"Gondangdia","station_id":"GDD","i_long":106.832183,"is_transit":false,"time":3,"distance":1750,"line":2},{"transit":false,"station_name":"Juanda","is_transit":false,"distance":2015,"i_long":106.828284,"line":2,"station_id":"JUA","time":4,"i_lat":-6.166716},{"time":2,"transit":false,"line":2,"station_name":"Sawah Besar","i_long":106.827103,"i_lat":-6.160725,"is_transit":false,"station_id":"SW","distance":1149},{"is_transit":false,"i_lat":-6.149769,"time":2,"station_id":"MGB","i_long":106.82482,"distance":906,"transit":false,"line":2,"station_name":"Manggabesar"},{"distance":1080,"is_transit":false,"station_id":"JAY","line":7,"transit":false,"i_lat":-6.141205,"station_name":"Jayakarta","time":2,"i_long":106.820901},{"time":4,"transit":true,"line":0,"distance":1264,"station_name":"Jakarta Kota","is_transit":true,"station_id":"JAKK","i_lat":-6.137569,"i_long":106.812439},{"distance":1364,"i_lat":-6.132549,"line":0,"station_id":"KPB","time":3,"station_name":"Kampung Bandan","transit":false,"is_transit":true,"i_long":106.826365},{"station_id":"AK","i_lat":-6.144674,"line":0,"station_name":"Angke","i_long":106.79867,"time":9,"distance":4102,"transit":false,"is_transit":false},{"station_name":"Duri","i_lat":-6.155215,"distance":1230,"transit":true,"station_id":"DU","time":4,"i_long":106.800832,"is_transit":true,"line":1},{"i_lat":-6.185545,"is_transit":true,"transit":true,"station_id":"THB","distance":3632,"i_long":106.811091,"station_name":"Tanah Abang","line":1,"time":8},{"i_lat":-6.207404,"station_id":"PLM","distance":3191,"i_long":106.79689,"station_name":"Palmerah","line":6,"transit":false,"is_transit":false,"time":6},{"time":7,"i_lat":-6.237242,"station_name":"Kebayoran","is_transit":false,"distance":3737,"i_long":106.780334,"line":6,"transit":false,"station_id":"KBY"},{"time":8,"line":6,"is_transit":false,"i_lat":-6.276362,"station_name":"Pondokranji","station_id":"PDJ","transit":false,"i_long":106.74273,"distance":6218},{"i_long":106.728916,"is_transit":false,"transit":false,"distance":2179,"i_lat":-6.288927,"time":3,"station_id":"JMU","station_name":"Jurangmangu","line":6},{"i_long":106.712277,"i_lat":-6.296963,"distance":1994,"transit":false,"station_name":"Sudimara","time":4,"is_transit":false,"station_id":"SDM","line":6},{"distance":4566,"station_id":"RU","is_transit":false,"time":6,"transit":false,"i_lat":-6.314823,"i_long":106.675475,"line":6,"station_name":"Rawa Buntu"},{"is_transit":false,"transit":false,"line":6,"station_name":"Serpong","i_long":106.66566,"i_lat":-6.319871,"station_id":"SRP","time":4,"distance":2413},{"is_transit":false,"station_id":"CSK","time":4,"i_lat":-6.32484,"transit":false,"distance":1784,"line":0,"station_name":"Cisauk","i_long":106.640411},{"is_transit":false,"distance":2519,"line":0,"time":4,"transit":false,"i_lat":-6.329547,"station_id":"CC","i_long":106.617853,"station_name":"Cicayur"},{"station_id":"PRP","time":8,"station_name":"Parung Panjang","is_transit":false,"transit":false,"i_lat":-6.3441410000000005,"line":6,"distance":5968,"i_long":106.568863}],[{"is_transit":false,"station_id":"DP","station_name":"Depok","distance":0,"i_lat":-6.405256,"line":0,"transit":false,"i_long":106.816926,"time":0},{"i_lat":-6.391065,"is_transit":false,"time":3,"i_long":106.819451,"transit":false,"distance":1584,"station_name":"Depokbaru","station_id":"DPB","line":0},{"i_long":106.831114,"station_id":"POC","distance":2727,"i_lat":-6.369073,"transit":false,"is_transit":false,"time":4,"station_name":"Pondok Cina","line":2},{"transit":false,"line":2,"distance":1109,"station_id":"UI","time":2,"i_long":106.831474,"is_transit":false,"station_name":"Univ. Indonesia","i_lat":-6.360749},{"line":2,"time":3,"i_long":106.834175,"i_lat":-6.339291,"station_id":"UP","distance":2264,"station_name":"Univ. Pancasila","is_transit":false,"transit":false},{"i_lat":-6.330363,"station_id":"LNA","is_transit":false,"time":2,"transit":false,"station_name":"Lenteng Agung","distance":1029,"line":2,"i_long":106.832616},{"is_transit":false,"station_name":"Tanjung Barat","distance":2671,"i_lat":-6.3080680000000005,"transit":false,"line":2,"i_long":106.838896,"station_id":"TNT","time":3},{"station_name":"Pasar Minggu","distance":2820,"i_lat":-6.2842400000000005,"transit":false,"i_long":106.843999,"station_id":"PSM","is_transit":false,"line":2,"time":4},{"distance":2380,"station_name":"Pasar Minggu Baru","transit":false,"time":2,"station_id":"PSMB","i_lat":-6.263214,"i_long":106.851577,"is_transit":false,"line":2},{"distance":824,"station_name":"Duren Kalibata","i_long":106.85449,"transit":false,"i_lat":-6.255332,"line":0,"time":2,"station_id":"DRN","is_transit":false},{"i_lat":-6.242512,"transit":false,"is_transit":false,"i_long":106.856607,"station_name":"Cawang","station_id":"CW","distance":1546,"time":3,"line":0},{"i_long":106.857948,"time":2,"distance":1230,"transit":false,"i_lat":-6.226659,"station_id":"TEB","is_transit":false,"station_name":"Tebet","line":2},{"i_lat":-6.209883,"line":0,"distance":2610,"station_name":"Manggarai","is_transit":true,"station_id":"MRI","transit":true,"i_long":106.84912,"time":4},{"time":2,"transit":false,"is_transit":false,"station_name":"Matraman","i_lat":-6.212485,"i_long":106.858896,"distance":1275,"line":1,"station_id":"MTR"},{"transit":true,"time":8,"line":0,"i_lat":-6.215091,"station_id":"JNG","station_name":"Jatinegara","i_long":106.86807400000001,"is_transit":true,"distance":1377},{"is_transit":false,"time":2,"distance":1236,"transit":false,"i_long":106.861737,"line":11,"station_id":"POK","station_name":"Pondok Jati","i_lat":-6.209188},{"is_transit":false,"distance":1829,"i_long":106.855437,"line":11,"i_lat":-6.193792,"transit":false,"station_name":"Kramat","time":2,"station_id":"KMT"},{"i_long":106.850107,"line":11,"station_name":"Gang Sentiong","station_id":"GST","is_transit":false,"time":1,"distance":973,"i_lat":-6.185975,"transit":false},{"station_id":"PSE","i_long":106.84368,"time":8,"transit":false,"station_name":"Pasar Senen","is_transit":false,"distance":1567,"i_lat":-6.174784,"line":11},{"i_long":106.839204,"line":11,"distance":1436,"is_transit":false,"station_id":"KMO","transit":false,"time":4,"station_name":"Kemayoran","i_lat":-6.161728},{"station_id":"RJW","time":5,"station_name":"Rajawali","i_long":106.836569,"i_lat":-6.14505,"is_transit":false,"distance":1901,"transit":false,"line":11},{"transit":true,"i_lat":-6.132549,"station_name":"Kampung Bandan","i_long":106.826365,"time":3,"station_id":"KPB","is_transit":true,"distance":1444,"line":0},{"is_transit":false,"line":0,"station_id":"AK","distance":4102,"transit":false,"i_lat":-6.144674,"i_long":106.79867,"station_name":"Angke","time":9},{"time":4,"i_lat":-6.155215,"i_long":106.800832,"station_name":"Duri","station_id":"DU","is_transit":true,"transit":true,"line":1,"distance":1230},{"line":1,"transit":true,"i_lat":-6.185545,"time":8,"distance":3632,"station_name":"Tanah Abang","is_transit":true,"station_id":"THB","i_long":106.811091},{"time":6,"distance":3191,"station_name":"Palmerah","is_transit":false,"transit":false,"line":6,"i_long":106.79689,"station_id":"PLM","i_lat":-6.207404},{"transit":false,"is_transit":false,"i_lat":-6.237242,"time":7,"i_long":106.780334,"line":6,"station_name":"Kebayoran","station_id":"KBY","distance":3737},{"is_transit":false,"line":6,"station_id":"PDJ","distance":6218,"transit":false,"i_lat":-6.276362,"time":8,"i_long":106.74273,"station_name":"Pondokranji"},{"i_lat":-6.288927,"i_long":106.728916,"transit":false,"time":3,"distance":2179,"line":6,"station_id":"JMU","is_transit":false,"station_name":"Jurangmangu"},{"time":4,"distance":1994,"transit":false,"station_name":"Sudimara","is_transit":false,"i_long":106.712277,"i_lat":-6.296963,"station_id":"SDM","line":6},{"line":6,"station_name":"Rawa Buntu","is_transit":false,"distance":4566,"time":6,"i_lat":-6.314823,"station_id":"RU","i_long":106.675475,"transit":false},{"i_lat":-6.319871,"station_name":"Serpong","distance":2413,"time":4,"transit":false,"i_long":106.66566,"line":6,"station_id":"SRP","is_transit":false},{"is_transit":false,"distance":1784,"line":0,"transit":false,"station_name":"Cisauk","i_long":106.640411,"station_id":"CSK","i_lat":-6.32484,"time":4},{"i_lat":-6.329547,"time":4,"distance":2519,"transit":false,"station_name":"Cicayur","i_long":106.617853,"line":0,"is_transit":false,"station_id":"CC"},{"is_transit":false,"line":6,"i_long":106.568863,"distance":5968,"i_lat":-6.3441410000000005,"station_id":"PRP","time":8,"station_name":"Parung Panjang","transit":false}]]}