{"data":[[{"station_name":"Depok","station_id":"DP","i_long":106.816926,"transit":false,"distance":0,"line":2,"time":0,"i_lat":-6.405256,"is_transit":false},{"time":3,"i_lat":-6.391065,"distance":1584,"station_name":"Depokbaru","is_transit":false,"i_long":106.819451,"station_id":"DPB","transit":false,"line":2},{"i_lat":-6.369073,"distance":2727,"time":4,"station_name":"Pondok Cina","line":2,"transit":false,"i_long":106.831114,"is_transit":false,"station_id":"POC"},{"is_transit":false,"distance":1109,"station_name":"Univ. Indonesia","i_lat":-6.360749,"transit":false,"station_id":"UI","time":2,"i_long":106.831474,"line":2},{"i_long":106.834175,"i_lat":-6.339291,"transit":false,"distance":2264,"station_name":"Univ. Pancasila","line":2,"time":3,"is_transit":false,"station_id":"UP"},{"is_transit":false,"time":2,"i_lat":-6.330363,"distance":1029,"station_name":"Lenteng Agung","station_id":"LNA","transit":false,"i_long":106.832616,"line":2},{"time":3,"i_long":106.838896,"station_id":"TNT","station_name":"Tanjung Barat","distance":2671,"is_transit":false,"transit":false,"line":2,"i_lat":-6.3080680000000005},{"station_name":"Pasar Minggu","i_lat":-6.2842400000000005,"time":4,"transit":false,"is_transit":false,"station_id":"PSM","i_long":106.843999,"line":2,"distance":2820},{"distance":2380,"i_long":106.851577,"transit":false,"line":2,"time":2,"station_name":"Pasar Minggu Baru","is_transit":false,"i_lat":-6.263214,"station_id":"PSMB"},{"time":2,"station_name":"Duren Kalibata","i_long":106.85449,"line":2,"is_transit":false,"transit":false,"station_id":"DRN","distance":824,"i_lat":-6.255332},{"i_lat":-6.242512,"time":3,"is_transit":false,"i_long":106.856607,"line":2,"distance":1546,"station_name":"Cawang","station_id":"CW","transit":false},{"station_name":"Tebet","i_long":106.857948,"time":2,"distance":1230,"station_id":"TEB","transit":false,"is_transit":false,"line":2,"i_lat":-6.226659},{"station_name":"Manggarai","time":4,"distance":2610,"i_lat":-6.209883,"line":2,"is_transit":true,"station_id":"MRI","transit":true,"i_long":106.84912},{"distance":3186,"transit":false,"time":4,"i_long":106.822649,"station_name":"Sudirman","is_transit":false,"station_id":"SUD","i_lat":-6.202263,"line":1},{"time":1,"line":1,"is_transit":false,"i_long":106.819881,"transit":false,"distance":280,"station_id":"SUDB","i_lat":-6.201433,"station_name":"Sudirman Baru"},{"i_lat":-6.20132,"station_id":"KAT","transit":false,"i_long":106.816351,"distance":471,"is_transit":false,"line":1,"station_name":"Karet","time":1},{"line":1,"i_lat":-6.185545,"time":5,"transit":false,"distance":2029,"station_name":"Tanah Abang","station_id":"THB","i_long":106.811091,"is_transit":false},{"i_long":106.800832,"station_id":"DU","station_name":"Duri","distance":3632,"i_lat":-6.155215,"line":1,"is_transit":true,"time":8,"transit":true},{"distance":1700,"is_transit":false,"i_lat":-6.162021,"time":3,"i_long":106.788277,"station_name":"Grogol","line":5,"transit":false,"station_id":"GGL"},{"i_lat":-6.161433,"i_long":106.771379,"distance":2036,"line":5,"is_transit":false,"station_name":"Pesing","station_id":"PSG","transit":false,"time":2},{"i_long":106.756522,"line":5,"station_id":"TKO","is_transit":false,"transit":false,"distance":1614,"station_name":"Taman Kota","time":2,"i_lat":-6.1587309999999995},{"distance":2334,"time":2,"station_id":"BOI","i_lat":-6.159876,"line":5,"is_transit":false,"i_long":106.737035,"transit":false,"station_name":"Bojongindah"},{"station_id":"RW","i_long":106.723064,"distance":1152,"time":4,"line":5,"transit":false,"i_lat":-6.162758,"is_transit":false,"station_name":"Rawa Buaya"},{"transit":false,"station_id":"KDS","i_long":106.701612,"line":5,"distance":2504,"is_transit":false,"i_lat":-6.166068,"station_name":"Kalideres","time":3},{"i_lat":-6.169933,"i_long":106.679458,"line":5,"is_transit":false,"distance":2548,"station_id":"PI","transit":false,"station_name":"Poris","time":3}],[{"distance":0,"i_long":106.816926,"transit":false,"station_id":"DP","time":0,"station_name":"Depok","is_transit":false,"line":2,"i_lat":-6.405256},{"is_transit":false,"distance":1584,"station_id":"DPB","time":3,"i_long":106.819451,"line":2,"station_name":"Depokbaru","i_lat":-6.391065,"transit":false},{"is_transit":false,"station_name":"Pondok Cina","time":4,"distance":2727,"station_id":"POC","transit":false,"i_lat":-6.369073,"line":2,"i_long":106.831114},{"station_name":"Univ. Indonesia","time":2,"station_id":"UI","i_lat":-6.360749,"is_transit":false,"i_long":106.831474,"line":2,"transit":false,"distance":1109},{"i_long":106.834175,"transit":false,"is_transit":false,"i_lat":-6.339291,"station_name":"Univ. Pancasila","line":2,"time":3,"distance":2264,"station_id":"UP"},{"transit":false,"is_transit":false,"distance":1029,"i_long":106.832616,"station_name":"Lenteng Agung","station_id":"LNA","line":2,"time":2,"i_lat":-6.330363},{"time":3,"distance":2671,"is_transit":false,"i_lat":-6.3080680000000005,"transit":false,"i_long":106.838896,"line":2,"station_id":"TNT","station_name":"Tanjung Barat"},{"is_transit":false,"i_lat":-6.2842400000000005,"transit":false,"station_name":"Pasar Minggu","i_long":106.843999,"distance":2820,"time":4,"line":2,"station_id":"PSM"},{"time":2,"station_name":"Pasar Minggu Baru","is_transit":false,"station_id":"PSMB","i_long":106.851577,"transit":false,"distance":2380,"i_lat":-6.263214,"line":2},{"transit":false,"i_lat":-6.255332,"station_id":"DRN","time":2,"is_transit":false,"station_name":"Duren Kalibata","distance":824,"line":2,"i_long":106.85449},{"i_lat":-6.242512,"time":3,"i_long":106.856607,"station_name":"Cawang","transit":false,"distance":1546,"is_transit":false,"station_id":"CW","line":2},{"i_lat":-6.226659,"transit":false,"station_id":"TEB","distance":1230,"time":2,"station_name":"Tebet","line":2,"i_long":106.857948,"is_transit":false},{"i_long":106.84912,"time":4,"i_lat":-6.209883,"is_transit":false,"line":2,"distance":2610,"station_id":"MRI","transit":false,"station_name":"Manggarai"},{"station_name":"Cikini","i_lat":-6.198556,"i_long":106.840169,"distance":1590,"is_transit":false,"time":4,"station_id":"CKI","line":2,"transit":false},{"i_long":106.832183,"station_id":"GDD","time":3,"transit":false,"distance":1750,"i_lat":-6.186295,"is_transit":false,"station_name":"Gondangdia","line":2},{"distance":2015,"station_name":"Juanda","is_transit":false,"i_long":106.828284,"i_lat":-6.166716,"line":2,"station_id":"JUA","transit":false,"time":4},{"station_id":"SW","line":2,"distance":1149,"transit":false,"is_transit":false,"station_name":"Sawah Besar","i_lat":-6.160725,"time":2,"i_long":106.827103},{"station_name":"Manggabesar","time":2,"transit":false,"is_transit":false,"line":2,"station_id":"MGB","i_long":106.82482,"distance":906,"i_lat":-6.149769},{"time":2,"line":2,"distance":1080,"station_name":"Jayakarta","transit":false,"station_id":"JAY","i_lat":-6.141205,"i_long":106.820901,"is_transit":false},{"i_lat":-6.137569,"transit":true,"time":4,"is_transit":true,"i_long":106.812439,"station_name":"Jakarta Kota","line":2,"distance":1264,"station_id":"JAKK"},{"time":3,"station_id":"KPB","line":4,"transit":true,"station_name":"Kampung Bandan","is_transit":true,"distance":1364,"i_long":106.826365,"i_lat":-6.132549},{"station_name":"Angke","time":9,"line":1,"station_id":"AK","distance":4102,"transit":false,"is_transit":false,"i_long":106.79867,"i_lat":-6.144674},{"i_lat":-6.155215,"time":4,"transit":true,"station_id":"DU","distance":1230,"station_name":"Duri","is_transit":true,"i_long":106.800832,"line":1},{"time":3,"station_name":"Grogol","transit":false,"line":5,"station_id":"GGL","distance":1700,"is_transit":false,"i_lat":-6.162021,"i_long":106.788277},{"i_lat":-6.161433,"is_transit":false,"transit":false,"station_id":"PSG","time":2,"i_long":106.771379,"line":5,"distance":2036,"station_name":"Pesing"},{"i_lat":-6.1587309999999995,"station_id":"TKO","time":2,"transit":false,"distance":1614,"line":5,"i_long":106.756522,"station_name":"Taman Kota","is_transit":false},{"station_id":"BOI","station_name":"Bojongindah","line":5,"i_long":106.737035,"i_lat":-6.159876,"is_transit":false,"transit":false,"distance":2334,"time":2},{"station_name":"Rawa Buaya","time":4,"transit":false,"is_transit":false,"line":5,"i_lat":-6.162758,"distance":1152,"station_id":"RW","i_long":106.723064},{"i_lat":-6.166068,"is_transit":false,"i_long":106.701612,"distance":2504,"line":5,"transit":false,"station_id":"KDS","time":3,"station_name":"Kalideres"},{"line":5,"transit":false,"is_transit":false,"time":3,"distance":2548,"station_name":"Poris","station_id":"PI","i_lat":-6.169933,"i_long":106.679458}],[{"transit":false,"i_long":106.816926,"station_id":"DP","time":0,"i_lat":-6.405256,"is_transit":false,"station_name":"Depok","distance":0,"line":2},{"distance":1584,"station_name":"Depokbaru","time":3,"i_long":106.819451,"transit":false,"is_transit":false,"i_lat":-6.391065,"station_id":"DPB","line":2},{"line":2,"transit":false,"time":4,"station_name":"Pondok Cina","is_transit":false,"station_id":"POC","i_long":106.831114,"i_lat":-6.369073,"distance":2727},{"is_transit":false,"station_id":"UI","distance":1109,"station_name":"Univ. Indonesia","line":2,"i_long":106.831474,"time":2,"transit":false,"i_lat":-6.360749},{"station_name":"Univ. Pancasila","i_long":106.834175,"distance":2264,"time":3,"station_id":"UP","is_transit":false,"i_lat":-6.339291,"line":2,"transit":false},{"i_lat":-6.330363,"line":2,"distance":1029,"is_transit":false,"transit":false,"station_name":"Lenteng Agung","time":2,"station_id":"LNA","i_long":106.832616},{"is_transit":false,"line":2,"transit":false,"i_long":106.838896,"i_lat":-6.3080680000000005,"distance":2671,"time":3,"station_id":"TNT","station_name":"Tanjung Barat"},{"transit":false,"station_name":"Pasar Minggu","station_id":"PSM","i_lat":-6.2842400000000005,"time":4,"i_long":106.843999,"line":2,"is_transit":false,"distance":2820},{"transit":false,"station_name":"Pasar Minggu Baru","station_id":"PSMB","line":2,"distance":2380,"is_transit":false,"i_long":106.851577,"i_lat":-6.263214,"time":2},{"transit":false,"is_transit":false,"station_id":"DRN","i_lat":-6.255332,"line":2,"station_name":"Duren Kalibata","i_long":106.85449,"distance":824,"time":2},{"station_name":"Cawang","station_id":"CW","line":2,"distance":1546,"i_long":106.856607,"transit":false,"time":3,"i_lat":-6.242512,"is_transit":false},{"station_id":"TEB","i_long":106.857948,"i_lat":-6.226659,"time":2,"transit":false,"station_name":"Tebet","is_transit":false,"distance":1230,"line":2},{"is_transit":true,"station_name":"Manggarai","time":4,"i_long":106.84912,"i_lat":-6.209883,"transit":true,"distance":2610,"station_id":"MRI","line":2},{"line":1,"transit":false,"time":2,"station_id":"MTR","is_transit":false,"i_long":106.858896,"distance":1275,"station_name":"Matraman","i_lat":-6.212485},{"transit":true,"line":1,"i_lat":-6.215091,"is_transit":true,"time":8,"distance":1377,"i_long":106.86807400000001,"station_name":"Jatinegara","station_id":"JNG"},{"line":11,"distance":1236,"transit":false,"station_name":"Pondok Jati","time":2,"i_lat":-6.209188,"is_transit":false,"i_long":106.861737,"station_id":"POK"},{"distance":1829,"is_transit":false,"time":2,"i_long":106.855437,"station_name":"Kramat","station_id":"KMT","i_lat":-6.193792,"line":11,"transit":false},{"transit":false,"line":11,"station_id":"GST","is_transit":false,"time":1,"station_name":"Gang Sentiong","i_long":106.850107,"distance":973,"i_lat":-6.185975},{"line":11,"is_transit":false,"station_id":"PSE","transit":false,"station_name":"Pasar Senen","i_lat":-6.174784,"i_long":106.84368,"distance":1567,"time":8},{"transit":false,"i_lat":-6.161728,"time":4,"line":11,"station_name":"Kemayoran","station_id":"KMO","distance":1436,"is_transit":false,"i_long":106.839204},{"transit":false,"station_id":"RJW","time":5,"i_long":106.836569,"line":11,"distance":1901,"station_name":"Rajawali","is_transit":false,"i_lat":-6.14505},{"time":3,"station_name":"Kampung Bandan","station_id":"KPB","transit":true,"distance":1444,"i_lat":-6.132549,"line":4,"i_long":106.826365,"is_transit":true},{"i_lat":-6.144674,"is_transit":false,"station_id":"AK","time":9,"transit":false,"line":1,"distance":4102,"i_long":106.79867,"station_name":"Angke"},{"line":1,"transit":true,"time":4,"i_lat":-6.155215,"station_id":"DU","distance":1230,"is_transit":true,"i_long":106.800832,"station_name":"Duri"},{"transit":false,"i_long":106.788277,"station_id":"GGL","is_transit":false,"time":3,"line":5,"distance":1700,"station_name":"Grogol","i_lat":-6.162021},{"is_transit":false,"i_long":106.771379,"line":5,"station_name":"Pesing","station_id":"PSG","i_lat":-6.161433,"transit":false,"time":2,"distance":2036},{"line":5,"station_name":"Taman Kota","time":2,"distance":1614,"i_lat":-6.1587309999999995,"is_transit":false,"transit":false,"station_id":"TKO","i_long":106.756522},{"distance":2334,"time":2,"i_lat":-6.159876,"line":5,"transit":false,"station_name":"Bojongindah","is_transit":false,"station_id":"BOI","i_long":106.737035},{"station_id":"RW","i_lat":-6.162758,"transit":false,"is_transit":false,"i_long":106.723064,"line":5,"time":4,"station_name":"Rawa Buaya","distance":1152},{"transit":false,"i_long":106.701612,"distance":2504,"station_id":"KDS","i_lat":-6.166068,"line":5,"station_name":"Kalideres","time":3,"is_transit":false},{"is_transit":false,"transit":false,"distance":2548,"station_id":"PI","time":3,"i_lat":-6.169933,"station_name":"Poris","i_long":106.679458,"line":5}]]}