{"data":[[{"station_name":"Depok","is_transit":false,"time":0,"transit":false,"i_long":106.816926,"line":2,"i_lat":-6.405256,"station_id":"DP","distance":0},{"distance":1584,"station_id":"DPB","transit":false,"time":3,"is_transit":false,"station_name":"Depokbaru","i_long":106.819451,"i_lat":-6.391065,"line":2},{"time":4,"line":2,"is_transit":false,"station_id":"POC","distance":2727,"transit":false,"i_long":106.831114,"station_name":"Pondok Cina","i_lat":-6.369073},{"i_lat":-6.360749,"station_id":"UI","line":2,"time":2,"transit":false,"distance":1109,"is_transit":false,"station_name":"Univ. Indonesia","i_long":106.831474},{"line":2,"time":3,"transit":false,"station_name":"Univ. Pancasila","distance":2264,"station_id":"UP","is_transit":false,"i_long":106.834175,"i_lat":-6.339291},{"station_id":"LNA","i_lat":-6.330363,"distance":1029,"is_transit":false,"time":2,"transit":false,"line":2,"i_long":106.832616,"station_name":"Lenteng Agung"},{"distance":2671,"station_name":"Tanjung Barat","i_lat":-6.3080680000000005,"i_long":106.838896,"transit":false,"is_transit":false,"station_id":"TNT","time":3,"line":2},{"i_lat":-6.2842400000000005,"station_id":"PSM","line":2,"time":4,"is_transit":false,"distance":2820,"transit":false,"station_name":"Pasar Minggu","i_long":106.843999},{"transit":false,"i_long":106.851577,"station_name":"Pasar Minggu Baru","distance":2380,"station_id":"PSMB","is_transit":false,"i_lat":-6.263214,"line":2,"time":2},{"distance":824,"station_name":"Duren Kalibata","is_transit":false,"i_lat":-6.255332,"i_long":106.85449,"line":2,"station_id":"DRN","transit":false,"time":2},{"station_id":"CW","i_long":106.856607,"i_lat":-6.242512,"distance":1546,"line":2,"transit":false,"time":3,"station_name":"Cawang","is_transit":false},{"is_transit":false,"i_long":106.857948,"i_lat":-6.226659,"distance":1230,"time":2,"station_name":"Tebet","transit":false,"station_id":"TEB","line":2},{"distance":2610,"station_name":"Manggarai","is_transit":true,"i_long":106.84912,"i_lat":-6.209883,"line":2,"station_id":"MRI","transit":true,"time":4},{"i_long":106.822649,"line":1,"station_name":"Sudirman","i_lat":-6.202263,"distance":3186,"station_id":"SUD","is_transit":false,"transit":false,"time":4},{"time":1,"distance":280,"i_long":106.819881,"transit":false,"is_transit":false,"station_id":"SUDB","i_lat":-6.201433,"line":1,"station_name":"Sudirman Baru"},{"is_transit":false,"distance":471,"station_id":"KAT","i_long":106.816351,"station_name":"Karet","transit":false,"time":1,"i_lat":-6.20132,"line":1},{"distance":2029,"station_name":"Tanah Abang","i_long":106.811091,"transit":true,"time":5,"i_lat":-6.185545,"is_transit":true,"line":1,"station_id":"THB"},{"transit":false,"i_long":106.79689,"line":6,"station_id":"PLM","is_transit":false,"station_name":"Palmerah","distance":3191,"time":6,"i_lat":-6.207404},{"is_transit":false,"distance":3737,"transit":false,"station_id":"KBY","i_lat":-6.237242,"i_long":106.780334,"line":6,"station_name":"Kebayoran","time":7},{"i_long":106.74273,"line":6,"i_lat":-6.276362,"time":8,"transit":false,"station_id":"PDJ","is_transit":false,"distance":6218,"station_name":"Pondokranji"},{"time":3,"i_lat":-6.288927,"station_name":"Jurangmangu","station_id":"JMU","transit":false,"distance":2179,"i_long":106.728916,"is_transit":false,"line":6},{"station_name":"Sudimara","is_transit":false,"time":4,"distance":1994,"i_lat":-6.296963,"i_long":106.712277,"station_id":"SDM","transit":false,"line":6},{"distance":4566,"line":6,"time":6,"transit":false,"i_lat":-6.314823,"station_id":"RU","i_long":106.675475,"station_name":"Rawa Buntu","is_transit":false},{"transit":false,"i_long":106.66566,"station_id":"SRP","is_transit":false,"distance":2413,"time":4,"station_name":"Serpong","i_lat":-6.319871,"line":6},{"i_long":106.640411,"distance":1784,"line":3,"station_id":"CSK","station_name":"Cisauk","time":4,"i_lat":-6.32484,"transit":false,"is_transit":false},{"time":4,"transit":false,"station_name":"Cicayur","i_lat":-6.329547,"line":3,"station_id":"CC","distance":2519,"i_long":106.617853,"is_transit":false},{"line":6,"is_transit":false,"distance":5968,"station_name":"Parung Panjang","time":8,"i_long":106.568863,"transit":false,"station_id":"PRP","i_lat":-6.3441410000000005}],[{"i_lat":-6.405256,"is_transit":false,"i_long":106.816926,"station_id":"DP","station_name":"Depok","transit":false,"line":2,"distance":0,"time":0},{"station_id":"DPB","distance":1584,"i_lat":-6.391065,"time":3,"is_transit":false,"station_name":"Depokbaru","i_long":106.819451,"line":2,"transit":false},{"transit":false,"time":4,"station_id":"POC","is_transit":false,"distance":2727,"station_name":"Pondok Cina","i_long":106.831114,"i_lat":-6.369073,"line":2},{"distance":1109,"station_id":"UI","station_name":"Univ. Indonesia","i_lat":-6.360749,"is_transit":false,"i_long":106.831474,"transit":false,"line":2,"time":2},{"i_lat":-6.339291,"time":3,"transit":false,"station_name":"Univ. Pancasila","is_transit":false,"distance":2264,"station_id":"UP","line":2,"i_long":106.834175},{"is_transit":false,"station_id":"LNA","i_long":106.832616,"line":2,"distance":1029,"station_name":"Lenteng Agung","i_lat":-6.330363,"time":2,"transit":false},{"station_name":"Tanjung Barat","i_lat":-6.3080680000000005,"line":2,"transit":false,"is_transit":false,"i_long":106.838896,"distance":2671,"station_id":"TNT","time":3},{"i_lat":-6.2842400000000005,"station_id":"PSM","line":2,"station_name":"Pasar Minggu","transit":false,"is_transit":false,"distance":2820,"i_long":106.843999,"time":4},{"i_lat":-6.263214,"line":2,"i_long":106.851577,"time":2,"is_transit":false,"distance":2380,"transit":false,"station_name":"Pasar Minggu Baru","station_id":"PSMB"},{"i_long":106.85449,"distance":824,"transit":false,"station_name":"Duren Kalibata","line":2,"is_transit":false,"time":2,"i_lat":-6.255332,"station_id":"DRN"},{"is_transit":false,"transit":false,"i_lat":-6.242512,"time":3,"station_id":"CW","station_name":"Cawang","distance":1546,"i_long":106.856607,"line":2},{"station_id":"TEB","i_long":106.857948,"station_name":"Tebet","time":2,"distance":1230,"i_lat":-6.226659,"line":2,"transit":false,"is_transit":false},{"transit":false,"station_id":"MRI","distance":2610,"i_lat":-6.209883,"line":2,"station_name":"Manggarai","i_long":106.84912,"is_transit":false,"time":4},{"i_long":106.840169,"distance":1590,"line":2,"station_name":"Cikini","time":4,"station_id":"CKI","transit":false,"is_transit":false,"i_lat":-6.198556},{"is_transit":false,"distance":1750,"line":2,"time":3,"transit":false,"i_lat":-6.186295,"i_long":106.832183,"station_id":"GDD","station_name":"Gondangdia"},{"is_transit":false,"distance":2015,"i_long":106.828284,"station_id":"JUA","station_name":"Juanda","i_lat":-6.166716,"line":2,"time":4,"transit":false},{"is_transit":false,"i_long":106.827103,"station_name":"Sawah Besar","line":2,"distance":1149,"i_lat":-6.160725,"station_id":"SW","transit":false,"time":2},{"distance":906,"i_lat":-6.149769,"i_long":106.82482,"is_transit":false,"line":2,"time":2,"station_name":"Manggabesar","station_id":"MGB","transit":false},{"is_transit":false,"line":2,"time":2,"transit":false,"station_id":"JAY","station_name":"Jayakarta","i_lat":-6.141205,"i_long":106.820901,"distance":1080},{"i_long":106.812439,"station_name":"Jakarta Kota","i_lat":-6.137569,"line":2,"transit":true,"is_transit":true,"station_id":"JAKK","time":4,"distance":1264},{"line":4,"station_id":"KPB","transit":true,"is_transit":true,"time":3,"distance":1364,"station_name":"Kampung Bandan","i_lat":-6.132549,"i_long":106.826365},{"station_id":"AK","is_transit":false,"transit":false,"station_name":"Angke","distance":4102,"i_lat":-6.144674,"time":9,"i_long":106.79867,"line":1},{"i_long":106.800832,"line":1,"time":4,"is_transit":false,"distance":1230,"transit":false,"i_lat":-6.155215,"station_name":"Duri","station_id":"DU"},{"station_id":"THB","i_long":106.811091,"time":8,"transit":true,"station_name":"Tanah Abang","i_lat":-6.185545,"is_transit":true,"distance":3632,"line":1},{"transit":false,"i_long":106.79689,"distance":3191,"time":6,"station_id":"PLM","station_name":"Palmerah","i_lat":-6.207404,"line":6,"is_transit":false},{"i_lat":-6.237242,"line":6,"station_id":"KBY","station_name":"Kebayoran","distance":3737,"i_long":106.780334,"transit":false,"is_transit":false,"time":7},{"station_name":"Pondokranji","time":8,"i_long":106.74273,"i_lat":-6.276362,"is_transit":false,"transit":false,"distance":6218,"station_id":"PDJ","line":6},{"i_long":106.728916,"line":6,"time":3,"station_name":"Jurangmangu","is_transit":false,"station_id":"JMU","distance":2179,"i_lat":-6.288927,"transit":false},{"station_name":"Sudimara","i_long":106.712277,"distance":1994,"transit":false,"station_id":"SDM","i_lat":-6.296963,"line":6,"time":4,"is_transit":false},{"distance":4566,"station_id":"RU","time":6,"transit":false,"station_name":"Rawa Buntu","i_long":106.675475,"is_transit":false,"i_lat":-6.314823,"line":6},{"time":4,"distance":2413,"station_id":"SRP","i_long":106.66566,"transit":false,"i_lat":-6.319871,"line":6,"is_transit":false,"station_name":"Serpong"},{"transit":false,"distance":1784,"i_lat":-6.32484,"station_name":"Cisauk","line":3,"i_long":106.640411,"is_transit":false,"time":4,"station_id":"CSK"},{"time":4,"station_id":"CC","station_name":"Cicayur","distance":2519,"line":3,"is_transit":false,"i_lat":-6.329547,"i_long":106.617853,"transit":false},{"time":8,"i_long":106.568863,"line":6,"transit":false,"i_lat":-6.3441410000000005,"station_id":"PRP","is_transit":false,"station_name":"Parung Panjang","distance":5968}],[{"is_transit":false,"i_long":106.816926,"line":2,"time":0,"station_id":"DP","transit":false,"station_name":"Depok","distance":0,"i_lat":-6.405256},{"line":2,"station_name":"Depokbaru","transit":false,"distance":1584,"station_id":"DPB","is_transit":false,"i_long":106.819451,"i_lat":-6.391065,"time":3},{"distance":2727,"station_name":"Pondok Cina","transit":false,"station_id":"POC","line":2,"is_transit":false,"i_long":106.831114,"i_lat":-6.369073,"time":4},{"i_long":106.831474,"time":2,"station_id":"UI","transit":false,"is_transit":false,"i_lat":-6.360749,"station_name":"Univ. Indonesia","line":2,"distance":1109},{"time":3,"distance":2264,"i_lat":-6.339291,"transit":false,"i_long":106.834175,"line":2,"station_id":"UP","station_name":"Univ. Pancasila","is_transit":false},{"station_id":"LNA","transit":false,"station_name":"Lenteng Agung","is_transit":false,"i_lat":-6.330363,"line":2,"distance":1029,"time":2,"i_long":106.832616},{"time":3,"is_transit":false,"transit":false,"i_lat":-6.3080680000000005,"line":2,"station_name":"Tanjung Barat","station_id":"TNT","i_long":106.838896,"distance":2671},{"station_id":"PSM","is_transit":false,"distance":2820,"line":2,"transit":false,"time":4,"i_long":106.843999,"i_lat":-6.2842400000000005,"station_name":"Pasar Minggu"},{"time":2,"is_transit":false,"transit":false,"distance":2380,"station_id":"PSMB","station_name":"Pasar Minggu Baru","i_lat":-6.263214,"line":2,"i_long":106.851577},{"distance":824,"time":2,"station_id":"DRN","i_long":106.85449,"line":2,"station_name":"Duren Kalibata","transit":false,"is_transit":false,"i_lat":-6.255332},{"transit":false,"station_name":"Cawang","distance":1546,"i_long":106.856607,"line":2,"time":3,"station_id":"CW","i_lat":-6.242512,"is_transit":false},{"is_transit":false,"transit":false,"time":2,"station_name":"Tebet","line":2,"i_long":106.857948,"distance":1230,"station_id":"TEB","i_lat":-6.226659},{"station_name":"Manggarai","time":4,"is_transit":true,"line":2,"transit":true,"i_lat":-6.209883,"i_long":106.84912,"station_id":"MRI","distance":2610},{"station_id":"MTR","transit":false,"time":2,"is_transit":false,"i_long":106.858896,"i_lat":-6.212485,"line":1,"station_name":"Matraman","distance":1275},{"station_name":"Jatinegara","i_lat":-6.215091,"line":1,"is_transit":true,"transit":true,"station_id":"JNG","distance":1377,"i_long":106.86807400000001,"time":8},{"is_transit":false,"distance":1236,"station_id":"POK","time":2,"station_name":"Pondok Jati","transit":false,"i_lat":-6.209188,"i_long":106.861737,"line":11},{"transit":false,"is_transit":false,"station_id":"KMT","distance":1829,"i_lat":-6.193792,"station_name":"Kramat","i_long":106.855437,"line":11,"time":2},{"station_name":"Gang Sentiong","time":1,"is_transit":false,"transit":false,"i_lat":-6.185975,"station_id":"GST","i_long":106.850107,"distance":973,"line":11},{"station_id":"PSE","i_lat":-6.174784,"transit":false,"station_name":"Pasar Senen","is_transit":false,"distance":1567,"i_long":106.84368,"line":11,"time":8},{"station_id":"KMO","station_name":"Kemayoran","time":4,"i_lat":-6.161728,"transit":false,"is_transit":false,"distance":1436,"line":11,"i_long":106.839204},{"time":5,"station_id":"RJW","station_name":"Rajawali","transit":false,"i_lat":-6.14505,"distance":1901,"i_long":106.836569,"is_transit":false,"line":11},{"station_id":"KPB","line":4,"station_name":"Kampung Bandan","transit":true,"time":3,"is_transit":true,"i_lat":-6.132549,"distance":1444,"i_long":106.826365},{"i_lat":-6.144674,"i_long":106.79867,"station_name":"Angke","transit":false,"is_transit":false,"distance":4102,"station_id":"AK","line":1,"time":9},{"transit":false,"is_transit":false,"distance":1230,"i_lat":-6.155215,"i_long":106.800832,"line":1,"time":4,"station_name":"Duri","station_id":"DU"},{"station_id":"THB","distance":3632,"i_long":106.811091,"line":1,"i_lat":-6.185545,"time":8,"transit":true,"station_name":"Tanah Abang","is_transit":true},{"station_id":"PLM","line":6,"distance":3191,"i_lat":-6.207404,"transit":false,"i_long":106.79689,"is_transit":false,"time":6,"station_name":"Palmerah"},{"is_transit":false,"station_id":"KBY","line":6,"time":7,"i_lat":-6.237242,"transit":false,"distance":3737,"i_long":106.780334,"station_name":"Kebayoran"},{"transit":false,"i_long":106.74273,"line":6,"is_transit":false,"distance":6218,"station_name":"Pondokranji","i_lat":-6.276362,"station_id":"PDJ","time":8},{"distance":2179,"transit":false,"station_id":"JMU","i_lat":-6.288927,"line":6,"is_transit":false,"time":3,"station_name":"Jurangmangu","i_long":106.728916},{"i_long":106.712277,"station_id":"SDM","line":6,"transit":false,"station_name":"Sudimara","is_transit":false,"i_lat":-6.296963,"distance":1994,"time":4},{"time":6,"station_id":"RU","is_transit":false,"line":6,"station_name":"Rawa Buntu","transit":false,"distance":4566,"i_long":106.675475,"i_lat":-6.314823},{"station_id":"SRP","i_long":106.66566,"transit":false,"station_name":"Serpong","distance":2413,"is_transit":false,"time":4,"line":6,"i_lat":-6.319871},{"transit":false,"distance":1784,"i_lat":-6.32484,"is_transit":false,"station_id":"CSK","time":4,"line":3,"i_long":106.640411,"station_name":"Cisauk"},{"line":3,"time":4,"distance":2519,"station_name":"Cicayur","i_lat":-6.329547,"i_long":106.617853,"station_id":"CC","transit":false,"is_transit":false},{"station_id":"PRP","is_transit":false,"transit":false,"station_name":"Parung Panjang","distance":5968,"i_long":106.568863,"i_lat":-6.3441410000000005,"line":6,"time":8}]]}