{"data":[[{"transit":false,"station_id":"DP","i_long":106.816926,"line":0,"station_name":"Depok","time":0,"is_transit":false,"distance":0,"i_lat":-6.405256},{"time":3,"line":0,"i_long":106.819451,"is_transit":false,"station_id":"DPB","distance":1584,"station_name":"Depokbaru","transit":false,"i_lat":-6.391065},{"i_lat":-6.369073,"distance":2727,"station_id":"POC","station_name":"Pondok Cina","is_transit":false,"time":4,"transit":false,"i_long":106.831114,"line":2},{"line":2,"distance":1109,"is_transit":false,"station_name":"Univ. Indonesia","station_id":"UI","transit":false,"i_lat":-6.360749,"time":2,"i_long":106.831474},{"station_name":"Univ. Pancasila","i_lat":-6.339291,"line":2,"station_id":"UP","i_long":106.834175,"time":3,"is_transit":false,"distance":2264,"transit":false},{"distance":1029,"station_name":"Lenteng Agung","i_long":106.832616,"transit":false,"is_transit":false,"time":2,"line":2,"station_id":"LNA","i_lat":-6.330363},{"distance":2671,"time":3,"i_long":106.838896,"station_id":"TNT","station_name":"Tanjung Barat","transit":false,"line":2,"is_transit":false,"i_lat":-6.3080680000000005},{"i_long":106.843999,"line":2,"station_name":"Pasar Minggu","distance":2820,"i_lat":-6.2842400000000005,"transit":false,"is_transit":false,"time":4,"station_id":"PSM"},{"station_id":"PSMB","station_name":"Pasar Minggu Baru","is_transit":false,"time":2,"i_lat":-6.263214,"distance":2380,"transit":false,"i_long":106.851577,"line":2},{"transit":false,"i_lat":-6.255332,"i_long":106.85449,"station_name":"Duren Kalibata","line":0,"station_id":"DRN","is_transit":false,"distance":824,"time":2},{"station_id":"CW","station_name":"Cawang","i_lat":-6.242512,"distance":1546,"is_transit":false,"time":3,"line":0,"i_long":106.856607,"transit":false},{"time":2,"i_lat":-6.226659,"station_name":"Tebet","station_id":"TEB","distance":1230,"transit":false,"i_long":106.857948,"is_transit":false,"line":2},{"station_name":"Manggarai","line":0,"station_id":"MRI","distance":2610,"time":4,"transit":true,"i_lat":-6.209883,"is_transit":true,"i_long":106.84912},{"station_name":"Sudirman","time":4,"transit":false,"i_lat":-6.202263,"line":1,"station_id":"SUD","distance":3186,"is_transit":false,"i_long":106.822649},{"station_id":"SUDB","distance":280,"time":1,"transit":false,"i_lat":-6.201433,"station_name":"Sudirman Baru","i_long":106.819881,"is_transit":false,"line":1},{"i_lat":-6.20132,"is_transit":false,"line":1,"station_id":"KAT","transit":false,"time":1,"distance":471,"i_long":106.816351,"station_name":"Karet"},{"distance":2029,"i_long":106.811091,"station_id":"THB","line":1,"station_name":"Tanah Abang","i_lat":-6.185545,"is_transit":true,"time":5,"transit":false},{"transit":true,"line":1,"distance":3632,"i_lat":-6.155215,"time":8,"is_transit":true,"station_name":"Duri","station_id":"DU","i_long":106.800832},{"transit":false,"i_long":106.79867,"i_lat":-6.144674,"station_name":"Angke","is_transit":false,"time":4,"line":0,"station_id":"AK","distance":1230},{"station_id":"KPB","line":0,"station_name":"Kampung Bandan","distance":4102,"i_lat":-6.132549,"transit":true,"is_transit":true,"time":9,"i_long":106.826365},{"time":3,"station_id":"RJW","station_name":"Rajawali","distance":1444,"i_long":106.836569,"line":11,"is_transit":false,"i_lat":-6.14505,"transit":false}],[{"is_transit":false,"line":0,"transit":false,"time":0,"distance":0,"i_long":106.816926,"station_id":"DP","station_name":"Depok","i_lat":-6.405256},{"station_name":"Depokbaru","station_id":"DPB","i_lat":-6.391065,"transit":false,"line":0,"time":3,"distance":1584,"i_long":106.819451,"is_transit":false},{"i_lat":-6.369073,"i_long":106.831114,"time":4,"is_transit":false,"station_id":"POC","distance":2727,"station_name":"Pondok Cina","transit":false,"line":2},{"i_long":106.831474,"time":2,"station_id":"UI","station_name":"Univ. Indonesia","line":2,"i_lat":-6.360749,"is_transit":false,"distance":1109,"transit":false},{"is_transit":false,"line":2,"station_id":"UP","i_lat":-6.339291,"time":3,"transit":false,"i_long":106.834175,"station_name":"Univ. Pancasila","distance":2264},{"transit":false,"i_lat":-6.330363,"station_id":"LNA","distance":1029,"i_long":106.832616,"line":2,"is_transit":false,"time":2,"station_name":"Lenteng Agung"},{"station_id":"TNT","transit":false,"i_long":106.838896,"is_transit":false,"line":2,"distance":2671,"time":3,"station_name":"Tanjung Barat","i_lat":-6.3080680000000005},{"station_id":"PSM","station_name":"Pasar Minggu","i_long":106.843999,"distance":2820,"time":4,"line":2,"transit":false,"i_lat":-6.2842400000000005,"is_transit":false},{"line":2,"station_name":"Pasar Minggu Baru","distance":2380,"time":2,"station_id":"PSMB","is_transit":false,"transit":false,"i_long":106.851577,"i_lat":-6.263214},{"distance":824,"transit":false,"is_transit":false,"station_id":"DRN","time":2,"i_lat":-6.255332,"station_name":"Duren Kalibata","i_long":106.85449,"line":0},{"transit":false,"distance":1546,"i_long":106.856607,"time":3,"is_transit":false,"i_lat":-6.242512,"line":0,"station_id":"CW","station_name":"Cawang"},{"time":2,"i_lat":-6.226659,"station_name":"Tebet","transit":false,"distance":1230,"station_id":"TEB","is_transit":false,"i_long":106.857948,"line":2},{"time":4,"i_long":106.84912,"station_name":"Manggarai","i_lat":-6.209883,"is_transit":true,"station_id":"MRI","distance":2610,"transit":true,"line":0},{"i_lat":-6.212485,"station_name":"Matraman","station_id":"MTR","distance":1275,"time":2,"line":1,"transit":false,"is_transit":false,"i_long":106.858896},{"line":0,"is_transit":true,"time":8,"i_lat":-6.215091,"distance":1377,"transit":true,"station_name":"Jatinegara","i_long":106.86807400000001,"station_id":"JNG"},{"station_id":"POK","is_transit":false,"i_long":106.861737,"i_lat":-6.209188,"distance":1236,"line":11,"time":2,"station_name":"Pondok Jati","transit":false},{"station_id":"KMT","station_name":"Kramat","transit":false,"line":11,"distance":1829,"i_lat":-6.193792,"is_transit":false,"time":2,"i_long":106.855437},{"station_name":"Gang Sentiong","distance":973,"line":11,"i_long":106.850107,"is_transit":false,"i_lat":-6.185975,"transit":false,"station_id":"GST","time":1},{"distance":1567,"transit":false,"station_id":"PSE","i_lat":-6.174784,"i_long":106.84368,"line":11,"is_transit":false,"time":8,"station_name":"Pasar Senen"},{"time":4,"station_id":"KMO","station_name":"Kemayoran","i_lat":-6.161728,"i_long":106.839204,"distance":1436,"is_transit":false,"line":11,"transit":false},{"station_name":"Rajawali","i_long":106.836569,"is_transit":false,"line":11,"distance":1901,"transit":false,"i_lat":-6.14505,"time":5,"station_id":"RJW"}],[{"time":0,"i_lat":-6.405256,"station_name":"Depok","station_id":"DP","transit":false,"is_transit":false,"i_long":106.816926,"distance":0,"line":0},{"is_transit":false,"distance":1584,"i_long":106.819451,"station_id":"DPB","line":0,"station_name":"Depokbaru","time":3,"transit":false,"i_lat":-6.391065},{"is_transit":false,"station_name":"Pondok Cina","time":4,"i_lat":-6.369073,"station_id":"POC","transit":false,"distance":2727,"i_long":106.831114,"line":2},{"i_long":106.831474,"line":2,"time":2,"transit":false,"i_lat":-6.360749,"station_id":"UI","station_name":"Univ. Indonesia","is_transit":false,"distance":1109},{"i_long":106.834175,"line":2,"time":3,"transit":false,"distance":2264,"station_id":"UP","station_name":"Univ. Pancasila","is_transit":false,"i_lat":-6.339291},{"is_transit":false,"station_name":"Lenteng Agung","distance":1029,"transit":false,"i_long":106.832616,"time":2,"i_lat":-6.330363,"station_id":"LNA","line":2},{"is_transit":false,"line":2,"station_name":"Tanjung Barat","distance":2671,"time":3,"transit":false,"i_long":106.838896,"i_lat":-6.3080680000000005,"station_id":"TNT"},{"station_id":"PSM","station_name":"Pasar Minggu","time":4,"transit":false,"i_long":106.843999,"distance":2820,"line":2,"i_lat":-6.2842400000000005,"is_transit":false},{"i_long":106.851577,"station_id":"PSMB","transit":false,"line":2,"is_transit":false,"time":2,"i_lat":-6.263214,"distance":2380,"station_name":"Pasar Minggu Baru"},{"line":0,"station_name":"Duren Kalibata","distance":824,"transit":false,"station_id":"DRN","time":2,"i_lat":-6.255332,"is_transit":false,"i_long":106.85449},{"is_transit":false,"i_lat":-6.242512,"i_long":106.856607,"time":3,"distance":1546,"station_name":"Cawang","line":0,"transit":false,"station_id":"CW"},{"transit":false,"station_id":"TEB","is_transit":false,"station_name":"Tebet","i_lat":-6.226659,"distance":1230,"time":2,"line":2,"i_long":106.857948},{"line":0,"station_name":"Manggarai","is_transit":true,"distance":2610,"transit":true,"time":4,"i_lat":-6.209883,"i_long":106.84912,"station_id":"MRI"},{"i_lat":-6.198556,"i_long":106.840169,"distance":1590,"time":4,"transit":false,"is_transit":false,"line":0,"station_id":"CKI","station_name":"Cikini"},{"i_long":106.832183,"distance":1750,"i_lat":-6.186295,"time":3,"transit":false,"station_id":"GDD","is_transit":false,"line":2,"station_name":"Gondangdia"},{"is_transit":false,"station_name":"Juanda","station_id":"JUA","distance":2015,"transit":false,"i_lat":-6.166716,"i_long":106.828284,"line":2,"time":4},{"time":2,"transit":false,"is_transit":false,"i_lat":-6.160725,"i_long":106.827103,"station_name":"Sawah Besar","distance":1149,"line":2,"station_id":"SW"},{"station_id":"MGB","distance":906,"i_long":106.82482,"line":2,"time":2,"is_transit":false,"i_lat":-6.149769,"transit":false,"station_name":"Manggabesar"},{"i_lat":-6.141205,"distance":1080,"transit":false,"station_name":"Jayakarta","station_id":"JAY","line":7,"is_transit":false,"time":2,"i_long":106.820901},{"is_transit":true,"i_lat":-6.137569,"transit":true,"i_long":106.812439,"time":4,"distance":1264,"line":0,"station_id":"JAKK","station_name":"Jakarta Kota"},{"distance":1364,"i_lat":-6.132549,"is_transit":true,"i_long":106.826365,"transit":true,"line":0,"station_name":"Kampung Bandan","station_id":"KPB","time":3},{"station_name":"Rajawali","distance":1444,"i_lat":-6.14505,"time":3,"transit":false,"i_long":106.836569,"line":11,"is_transit":false,"station_id":"RJW"}]]}