{"data":[[{"transit":false,"i_long":106.816926,"station_id":"DP","is_transit":false,"time":0,"line":2,"i_lat":-6.405256,"station_name":"Depok","distance":0},{"time":3,"distance":1584,"line":2,"station_name":"Depokbaru","transit":false,"i_lat":-6.391065,"i_long":106.819451,"station_id":"DPB","is_transit":false},{"i_lat":-6.369073,"station_name":"Pondok Cina","is_transit":false,"station_id":"POC","transit":false,"time":4,"line":2,"distance":2727,"i_long":106.831114},{"is_transit":false,"station_id":"UI","transit":false,"i_long":106.831474,"distance":1109,"i_lat":-6.360749,"line":2,"station_name":"Univ. Indonesia","time":2},{"is_transit":false,"distance":2264,"station_id":"UP","i_long":106.834175,"line":2,"station_name":"Univ. Pancasila","time":3,"transit":false,"i_lat":-6.339291},{"transit":false,"distance":1029,"i_lat":-6.330363,"station_id":"LNA","is_transit":false,"time":2,"line":2,"station_name":"Lenteng Agung","i_long":106.832616},{"transit":false,"station_name":"Tanjung Barat","time":3,"i_lat":-6.3080680000000005,"line":2,"station_id":"TNT","distance":2671,"is_transit":false,"i_long":106.838896},{"i_lat":-6.2842400000000005,"i_long":106.843999,"is_transit":false,"transit":false,"line":2,"station_name":"Pasar Minggu","distance":2820,"time":4,"station_id":"PSM"},{"i_long":106.851577,"time":2,"i_lat":-6.263214,"line":2,"transit":false,"station_name":"Pasar Minggu Baru","is_transit":false,"distance":2380,"station_id":"PSMB"},{"is_transit":false,"station_id":"DRN","i_lat":-6.255332,"time":2,"station_name":"Duren Kalibata","distance":824,"i_long":106.85449,"line":2,"transit":false},{"i_lat":-6.242512,"distance":1546,"line":2,"transit":false,"time":3,"i_long":106.856607,"station_id":"CW","station_name":"Cawang","is_transit":false},{"time":2,"station_name":"Tebet","i_long":106.857948,"transit":false,"distance":1230,"station_id":"TEB","i_lat":-6.226659,"line":2,"is_transit":false},{"station_name":"Manggarai","transit":true,"time":4,"i_lat":-6.209883,"distance":2610,"station_id":"MRI","is_transit":true,"line":2,"i_long":106.84912},{"transit":false,"time":2,"distance":1275,"station_name":"Matraman","i_lat":-6.212485,"i_long":106.858896,"station_id":"MTR","is_transit":false,"line":1},{"i_lat":-6.215091,"line":1,"station_name":"Jatinegara","time":8,"distance":1377,"is_transit":true,"i_long":106.86807400000001,"transit":true,"station_id":"JNG"},{"line":11,"station_id":"POK","time":2,"station_name":"Pondok Jati","is_transit":false,"distance":1236,"i_lat":-6.209188,"transit":false,"i_long":106.861737},{"is_transit":false,"i_long":106.855437,"transit":false,"station_name":"Kramat","station_id":"KMT","line":11,"time":2,"distance":1829,"i_lat":-6.193792},{"station_name":"Gang Sentiong","line":11,"is_transit":false,"distance":973,"i_lat":-6.185975,"i_long":106.850107,"time":1,"transit":false,"station_id":"GST"},{"station_id":"PSE","time":8,"distance":1567,"is_transit":false,"i_long":106.84368,"i_lat":-6.174784,"transit":false,"line":11,"station_name":"Pasar Senen"},{"distance":1436,"station_name":"Kemayoran","transit":false,"station_id":"KMO","is_transit":false,"time":4,"i_lat":-6.161728,"line":11,"i_long":106.839204},{"line":11,"is_transit":false,"distance":1901,"i_long":106.836569,"time":5,"station_id":"RJW","transit":false,"station_name":"Rajawali","i_lat":-6.14505}],[{"is_transit":false,"station_name":"Depok","i_lat":-6.405256,"distance":0,"transit":false,"station_id":"DP","line":2,"i_long":106.816926,"time":0},{"line":2,"transit":false,"station_name":"Depokbaru","i_long":106.819451,"station_id":"DPB","distance":1584,"time":3,"is_transit":false,"i_lat":-6.391065},{"distance":2727,"i_long":106.831114,"transit":false,"is_transit":false,"time":4,"station_id":"POC","i_lat":-6.369073,"line":2,"station_name":"Pondok Cina"},{"time":2,"station_name":"Univ. Indonesia","is_transit":false,"distance":1109,"i_lat":-6.360749,"i_long":106.831474,"line":2,"transit":false,"station_id":"UI"},{"transit":false,"i_lat":-6.339291,"time":3,"distance":2264,"i_long":106.834175,"station_name":"Univ. Pancasila","is_transit":false,"line":2,"station_id":"UP"},{"distance":1029,"transit":false,"line":2,"is_transit":false,"i_lat":-6.330363,"station_name":"Lenteng Agung","i_long":106.832616,"station_id":"LNA","time":2},{"is_transit":false,"time":3,"station_name":"Tanjung Barat","distance":2671,"line":2,"station_id":"TNT","i_lat":-6.3080680000000005,"transit":false,"i_long":106.838896},{"station_name":"Pasar Minggu","i_lat":-6.2842400000000005,"time":4,"i_long":106.843999,"is_transit":false,"transit":false,"station_id":"PSM","distance":2820,"line":2},{"is_transit":false,"time":2,"station_id":"PSMB","transit":false,"i_lat":-6.263214,"line":2,"distance":2380,"i_long":106.851577,"station_name":"Pasar Minggu Baru"},{"time":2,"i_lat":-6.255332,"transit":false,"line":2,"i_long":106.85449,"distance":824,"station_id":"DRN","station_name":"Duren Kalibata","is_transit":false},{"is_transit":false,"station_id":"CW","i_long":106.856607,"transit":false,"station_name":"Cawang","i_lat":-6.242512,"line":2,"time":3,"distance":1546},{"i_lat":-6.226659,"line":2,"is_transit":false,"i_long":106.857948,"time":2,"station_id":"TEB","station_name":"Tebet","distance":1230,"transit":false},{"line":2,"i_long":106.84912,"time":4,"is_transit":true,"i_lat":-6.209883,"transit":true,"station_name":"Manggarai","distance":2610,"station_id":"MRI"},{"station_id":"SUD","is_transit":false,"station_name":"Sudirman","i_lat":-6.202263,"i_long":106.822649,"time":4,"line":1,"transit":false,"distance":3186},{"time":1,"distance":280,"i_lat":-6.201433,"i_long":106.819881,"line":1,"station_id":"SUDB","station_name":"Sudirman Baru","transit":false,"is_transit":false},{"station_id":"KAT","time":1,"i_long":106.816351,"is_transit":false,"distance":471,"i_lat":-6.20132,"transit":false,"station_name":"Karet","line":1},{"i_long":106.811091,"i_lat":-6.185545,"station_name":"Tanah Abang","is_transit":false,"time":5,"station_id":"THB","line":1,"transit":false,"distance":2029},{"station_id":"DU","time":8,"is_transit":false,"transit":false,"distance":3632,"station_name":"Duri","i_lat":-6.155215,"i_long":106.800832,"line":1},{"station_name":"Angke","station_id":"AK","transit":false,"is_transit":false,"line":1,"i_long":106.79867,"i_lat":-6.144674,"time":4,"distance":1230},{"distance":4102,"i_lat":-6.132549,"i_long":106.826365,"transit":true,"station_name":"Kampung Bandan","is_transit":true,"station_id":"KPB","line":4,"time":9},{"transit":false,"i_lat":-6.14505,"distance":1444,"station_id":"RJW","line":11,"station_name":"Rajawali","time":3,"is_transit":false,"i_long":106.836569}],[{"distance":0,"i_lat":-6.405256,"transit":false,"station_id":"DP","is_transit":false,"i_long":106.816926,"station_name":"Depok","time":0,"line":2},{"station_name":"Depokbaru","is_transit":false,"distance":1584,"i_lat":-6.391065,"time":3,"transit":false,"i_long":106.819451,"line":2,"station_id":"DPB"},{"transit":false,"station_id":"POC","is_transit":false,"time":4,"line":2,"station_name":"Pondok Cina","i_lat":-6.369073,"distance":2727,"i_long":106.831114},{"time":2,"is_transit":false,"station_name":"Univ. Indonesia","station_id":"UI","distance":1109,"i_lat":-6.360749,"i_long":106.831474,"line":2,"transit":false},{"i_long":106.834175,"station_id":"UP","time":3,"is_transit":false,"line":2,"transit":false,"station_name":"Univ. Pancasila","distance":2264,"i_lat":-6.339291},{"transit":false,"station_name":"Lenteng Agung","station_id":"LNA","is_transit":false,"i_lat":-6.330363,"distance":1029,"line":2,"i_long":106.832616,"time":2},{"i_long":106.838896,"station_id":"TNT","transit":false,"line":2,"distance":2671,"is_transit":false,"i_lat":-6.3080680000000005,"station_name":"Tanjung Barat","time":3},{"transit":false,"distance":2820,"line":2,"is_transit":false,"station_id":"PSM","time":4,"i_lat":-6.2842400000000005,"i_long":106.843999,"station_name":"Pasar Minggu"},{"time":2,"line":2,"station_id":"PSMB","distance":2380,"i_long":106.851577,"transit":false,"is_transit":false,"station_name":"Pasar Minggu Baru","i_lat":-6.263214},{"i_lat":-6.255332,"transit":false,"station_id":"DRN","station_name":"Duren Kalibata","is_transit":false,"i_long":106.85449,"time":2,"distance":824,"line":2},{"distance":1546,"time":3,"i_long":106.856607,"i_lat":-6.242512,"transit":false,"line":2,"station_id":"CW","station_name":"Cawang","is_transit":false},{"transit":false,"is_transit":false,"time":2,"distance":1230,"i_lat":-6.226659,"station_id":"TEB","station_name":"Tebet","i_long":106.857948,"line":2},{"line":2,"transit":false,"distance":2610,"time":4,"i_long":106.84912,"i_lat":-6.209883,"station_id":"MRI","is_transit":false,"station_name":"Manggarai"},{"i_lat":-6.198556,"is_transit":false,"station_name":"Cikini","i_long":106.840169,"transit":false,"station_id":"CKI","distance":1590,"time":4,"line":2},{"distance":1750,"line":2,"transit":false,"i_lat":-6.186295,"station_id":"GDD","i_long":106.832183,"is_transit":false,"time":3,"station_name":"Gondangdia"},{"line":2,"station_name":"Juanda","transit":false,"time":4,"distance":2015,"i_lat":-6.166716,"i_long":106.828284,"station_id":"JUA","is_transit":false},{"time":2,"i_lat":-6.160725,"i_long":106.827103,"station_name":"Sawah Besar","distance":1149,"line":2,"transit":false,"station_id":"SW","is_transit":false},{"i_lat":-6.149769,"i_long":106.82482,"distance":906,"transit":false,"is_transit":false,"time":2,"line":2,"station_id":"MGB","station_name":"Manggabesar"},{"station_id":"JAY","time":2,"station_name":"Jayakarta","is_transit":false,"distance":1080,"i_lat":-6.141205,"line":2,"transit":false,"i_long":106.820901},{"station_name":"Jakarta Kota","time":4,"i_long":106.812439,"i_lat":-6.137569,"transit":true,"is_transit":true,"line":2,"distance":1264,"station_id":"JAKK"},{"line":4,"i_long":106.826365,"i_lat":-6.132549,"transit":true,"is_transit":true,"time":3,"station_id":"KPB","distance":1364,"station_name":"Kampung Bandan"},{"line":11,"transit":false,"time":3,"station_name":"Rajawali","is_transit":false,"i_long":106.836569,"distance":1444,"i_lat":-6.14505,"station_id":"RJW"}]]}