{"data":[[{"is_transit":false,"i_long":106.816926,"transit":false,"time":0,"station_id":"DP","station_name":"Depok","distance":0,"line":2,"i_lat":-6.405256},{"i_lat":-6.391065,"time":3,"station_name":"Depokbaru","transit":false,"is_transit":false,"station_id":"DPB","line":2,"distance":1584,"i_long":106.819451},{"i_long":106.831114,"line":2,"distance":2727,"i_lat":-6.369073,"transit":false,"is_transit":false,"station_id":"POC","time":4,"station_name":"Pondok Cina"},{"i_long":106.831474,"distance":1109,"line":2,"i_lat":-6.360749,"time":2,"is_transit":false,"transit":false,"station_name":"Univ. Indonesia","station_id":"UI"},{"distance":2264,"line":2,"is_transit":false,"i_lat":-6.339291,"station_name":"Univ. Pancasila","i_long":106.834175,"time":3,"station_id":"UP","transit":false},{"station_name":"Lenteng Agung","time":2,"line":2,"station_id":"LNA","transit":false,"is_transit":false,"i_long":106.832616,"distance":1029,"i_lat":-6.330363},{"station_name":"Tanjung Barat","time":3,"station_id":"TNT","i_lat":-6.3080680000000005,"transit":false,"is_transit":false,"line":2,"i_long":106.838896,"distance":2671},{"transit":false,"i_lat":-6.2842400000000005,"station_id":"PSM","time":4,"distance":2820,"line":2,"i_long":106.843999,"station_name":"Pasar Minggu","is_transit":false},{"station_name":"Pasar Minggu Baru","station_id":"PSMB","distance":2380,"is_transit":false,"transit":false,"i_lat":-6.263214,"time":2,"line":2,"i_long":106.851577},{"station_name":"Duren Kalibata","i_long":106.85449,"line":2,"i_lat":-6.255332,"station_id":"DRN","transit":false,"time":2,"is_transit":false,"distance":824},{"is_transit":false,"i_lat":-6.242512,"i_long":106.856607,"line":2,"station_name":"Cawang","time":3,"station_id":"CW","transit":false,"distance":1546},{"is_transit":false,"time":2,"station_name":"Tebet","transit":false,"distance":1230,"station_id":"TEB","line":2,"i_lat":-6.226659,"i_long":106.857948},{"time":4,"transit":true,"i_long":106.84912,"station_name":"Manggarai","line":2,"station_id":"MRI","distance":2610,"is_transit":true,"i_lat":-6.209883},{"i_long":106.858896,"i_lat":-6.212485,"transit":false,"station_name":"Matraman","distance":1275,"is_transit":false,"station_id":"MTR","line":1,"time":2},{"station_id":"JNG","distance":1377,"is_transit":true,"i_lat":-6.215091,"line":1,"i_long":106.86807400000001,"time":8,"station_name":"Jatinegara","transit":true},{"distance":1236,"i_long":106.861737,"i_lat":-6.209188,"is_transit":false,"station_id":"POK","line":11,"transit":false,"station_name":"Pondok Jati","time":2},{"station_id":"KMT","i_lat":-6.193792,"station_name":"Kramat","time":2,"i_long":106.855437,"line":11,"distance":1829,"is_transit":false,"transit":false},{"is_transit":false,"distance":973,"station_id":"GST","station_name":"Gang Sentiong","time":1,"line":11,"transit":false,"i_lat":-6.185975,"i_long":106.850107},{"station_name":"Pasar Senen","i_long":106.84368,"time":8,"distance":1567,"is_transit":false,"station_id":"PSE","i_lat":-6.174784,"line":11,"transit":false},{"line":11,"distance":1436,"i_long":106.839204,"is_transit":false,"station_id":"KMO","transit":false,"time":4,"station_name":"Kemayoran","i_lat":-6.161728},{"station_name":"Rajawali","transit":false,"is_transit":false,"i_lat":-6.14505,"station_id":"RJW","line":11,"i_long":106.836569,"distance":1901,"time":5}],[{"time":0,"distance":0,"is_transit":false,"station_id":"DP","i_lat":-6.405256,"i_long":106.816926,"transit":false,"line":2,"station_name":"Depok"},{"is_transit":false,"transit":false,"station_name":"Depokbaru","time":3,"distance":1584,"station_id":"DPB","i_long":106.819451,"line":2,"i_lat":-6.391065},{"i_long":106.831114,"is_transit":false,"distance":2727,"time":4,"line":2,"station_id":"POC","transit":false,"i_lat":-6.369073,"station_name":"Pondok Cina"},{"i_lat":-6.360749,"transit":false,"line":2,"time":2,"i_long":106.831474,"station_name":"Univ. Indonesia","station_id":"UI","distance":1109,"is_transit":false},{"time":3,"i_long":106.834175,"distance":2264,"station_id":"UP","station_name":"Univ. Pancasila","is_transit":false,"transit":false,"i_lat":-6.339291,"line":2},{"transit":false,"time":2,"i_lat":-6.330363,"is_transit":false,"line":2,"station_id":"LNA","i_long":106.832616,"distance":1029,"station_name":"Lenteng Agung"},{"line":2,"i_lat":-6.3080680000000005,"station_id":"TNT","transit":false,"time":3,"distance":2671,"is_transit":false,"i_long":106.838896,"station_name":"Tanjung Barat"},{"station_name":"Pasar Minggu","distance":2820,"transit":false,"time":4,"i_long":106.843999,"station_id":"PSM","is_transit":false,"i_lat":-6.2842400000000005,"line":2},{"i_lat":-6.263214,"transit":false,"time":2,"distance":2380,"is_transit":false,"i_long":106.851577,"line":2,"station_id":"PSMB","station_name":"Pasar Minggu Baru"},{"i_long":106.85449,"station_id":"DRN","line":2,"time":2,"distance":824,"is_transit":false,"station_name":"Duren Kalibata","i_lat":-6.255332,"transit":false},{"is_transit":false,"transit":false,"i_long":106.856607,"time":3,"i_lat":-6.242512,"station_id":"CW","distance":1546,"line":2,"station_name":"Cawang"},{"station_name":"Tebet","time":2,"i_long":106.857948,"line":2,"transit":false,"station_id":"TEB","i_lat":-6.226659,"is_transit":false,"distance":1230},{"station_name":"Manggarai","transit":true,"is_transit":true,"time":4,"station_id":"MRI","i_lat":-6.209883,"line":2,"i_long":106.84912,"distance":2610},{"distance":3186,"station_id":"SUD","line":1,"station_name":"Sudirman","time":4,"i_long":106.822649,"transit":false,"i_lat":-6.202263,"is_transit":false},{"i_lat":-6.201433,"station_name":"Sudirman Baru","is_transit":false,"station_id":"SUDB","i_long":106.819881,"line":1,"distance":280,"time":1,"transit":false},{"station_id":"KAT","i_long":106.816351,"station_name":"Karet","line":1,"time":1,"transit":false,"distance":471,"is_transit":false,"i_lat":-6.20132},{"time":5,"station_id":"THB","line":1,"i_lat":-6.185545,"transit":false,"i_long":106.811091,"station_name":"Tanah Abang","distance":2029,"is_transit":false},{"time":8,"station_name":"Duri","i_lat":-6.155215,"is_transit":false,"transit":false,"distance":3632,"station_id":"DU","i_long":106.800832,"line":1},{"i_lat":-6.144674,"line":1,"station_name":"Angke","is_transit":false,"station_id":"AK","time":4,"transit":false,"distance":1230,"i_long":106.79867},{"i_long":106.826365,"station_id":"KPB","time":9,"distance":4102,"i_lat":-6.132549,"station_name":"Kampung Bandan","is_transit":true,"transit":true,"line":4},{"station_name":"Rajawali","is_transit":false,"i_lat":-6.14505,"distance":1444,"i_long":106.836569,"transit":false,"line":11,"time":3,"station_id":"RJW"}],[{"station_name":"Depok","transit":false,"station_id":"DP","line":2,"distance":0,"is_transit":false,"i_lat":-6.405256,"time":0,"i_long":106.816926},{"station_id":"DPB","line":2,"station_name":"Depokbaru","i_lat":-6.391065,"distance":1584,"i_long":106.819451,"transit":false,"time":3,"is_transit":false},{"transit":false,"distance":2727,"is_transit":false,"station_id":"POC","i_lat":-6.369073,"line":2,"i_long":106.831114,"station_name":"Pondok Cina","time":4},{"station_name":"Univ. Indonesia","time":2,"is_transit":false,"line":2,"distance":1109,"station_id":"UI","i_lat":-6.360749,"i_long":106.831474,"transit":false},{"is_transit":false,"station_id":"UP","station_name":"Univ. Pancasila","distance":2264,"i_lat":-6.339291,"time":3,"transit":false,"i_long":106.834175,"line":2},{"is_transit":false,"station_id":"LNA","time":2,"i_lat":-6.330363,"transit":false,"i_long":106.832616,"distance":1029,"line":2,"station_name":"Lenteng Agung"},{"transit":false,"i_lat":-6.3080680000000005,"distance":2671,"is_transit":false,"station_name":"Tanjung Barat","time":3,"station_id":"TNT","line":2,"i_long":106.838896},{"time":4,"station_id":"PSM","i_long":106.843999,"station_name":"Pasar Minggu","distance":2820,"is_transit":false,"line":2,"transit":false,"i_lat":-6.2842400000000005},{"time":2,"distance":2380,"i_lat":-6.263214,"station_id":"PSMB","station_name":"Pasar Minggu Baru","i_long":106.851577,"is_transit":false,"line":2,"transit":false},{"distance":824,"transit":false,"line":2,"station_id":"DRN","i_lat":-6.255332,"is_transit":false,"station_name":"Duren Kalibata","time":2,"i_long":106.85449},{"station_name":"Cawang","time":3,"line":2,"i_lat":-6.242512,"station_id":"CW","distance":1546,"i_long":106.856607,"transit":false,"is_transit":false},{"time":2,"station_id":"TEB","station_name":"Tebet","is_transit":false,"line":2,"distance":1230,"i_long":106.857948,"i_lat":-6.226659,"transit":false},{"time":4,"station_name":"Manggarai","distance":2610,"transit":false,"i_long":106.84912,"is_transit":false,"line":2,"i_lat":-6.209883,"station_id":"MRI"},{"line":2,"station_name":"Cikini","i_long":106.840169,"distance":1590,"transit":false,"is_transit":false,"station_id":"CKI","i_lat":-6.198556,"time":4},{"line":2,"is_transit":false,"i_lat":-6.186295,"transit":false,"i_long":106.832183,"station_id":"GDD","station_name":"Gondangdia","distance":1750,"time":3},{"is_transit":false,"line":2,"i_lat":-6.166716,"time":4,"station_id":"JUA","i_long":106.828284,"distance":2015,"transit":false,"station_name":"Juanda"},{"i_lat":-6.160725,"time":2,"station_id":"SW","line":2,"is_transit":false,"transit":false,"i_long":106.827103,"distance":1149,"station_name":"Sawah Besar"},{"is_transit":false,"station_id":"MGB","distance":906,"time":2,"station_name":"Manggabesar","i_lat":-6.149769,"line":2,"transit":false,"i_long":106.82482},{"is_transit":false,"i_lat":-6.141205,"transit":false,"i_long":106.820901,"station_name":"Jayakarta","time":2,"distance":1080,"station_id":"JAY","line":2},{"distance":1264,"station_name":"Jakarta Kota","station_id":"JAKK","time":4,"i_lat":-6.137569,"is_transit":true,"transit":true,"i_long":106.812439,"line":2},{"line":4,"station_name":"Kampung Bandan","station_id":"KPB","i_long":106.826365,"time":3,"i_lat":-6.132549,"distance":1364,"is_transit":true,"transit":true},{"station_name":"Rajawali","time":3,"transit":false,"i_lat":-6.14505,"is_transit":false,"station_id":"RJW","i_long":106.836569,"distance":1444,"line":11}]]}