{"data":[[{"station_id":"DP","station_name":"Depok","transit":false,"time":0,"i_long":106.816926,"is_transit":false,"line":2,"distance":0,"i_lat":-6.405256},{"i_long":106.819451,"i_lat":-6.391065,"time":3,"station_id":"DPB","line":2,"transit":false,"station_name":"Depokbaru","distance":1584,"is_transit":false},{"distance":2727,"station_name":"Pondok Cina","time":4,"transit":false,"i_lat":-6.369073,"i_long":106.831114,"line":2,"is_transit":false,"station_id":"POC"},{"transit":false,"distance":1109,"i_lat":-6.360749,"is_transit":false,"station_id":"UI","station_name":"Univ. Indonesia","i_long":106.831474,"time":2,"line":2},{"i_long":106.834175,"transit":false,"station_name":"Univ. Pancasila","is_transit":false,"line":2,"time":3,"distance":2264,"station_id":"UP","i_lat":-6.339291},{"i_lat":-6.330363,"transit":false,"is_transit":false,"i_long":106.832616,"line":2,"distance":1029,"time":2,"station_name":"Lenteng Agung","station_id":"LNA"},{"i_lat":-6.3080680000000005,"i_long":106.838896,"time":3,"station_id":"TNT","distance":2671,"line":2,"station_name":"Tanjung Barat","is_transit":false,"transit":false},{"distance":2820,"line":2,"station_id":"PSM","i_long":106.843999,"time":4,"is_transit":false,"i_lat":-6.2842400000000005,"station_name":"Pasar Minggu","transit":false},{"i_lat":-6.263214,"station_name":"Pasar Minggu Baru","station_id":"PSMB","i_long":106.851577,"time":2,"is_transit":false,"line":2,"distance":2380,"transit":false},{"i_long":106.85449,"distance":824,"station_id":"DRN","station_name":"Duren Kalibata","line":2,"is_transit":false,"transit":false,"time":2,"i_lat":-6.255332},{"station_id":"CW","transit":false,"time":3,"station_name":"Cawang","distance":1546,"i_lat":-6.242512,"i_long":106.856607,"line":2,"is_transit":false},{"is_transit":false,"transit":false,"distance":1230,"i_long":106.857948,"time":2,"station_id":"TEB","station_name":"Tebet","i_lat":-6.226659,"line":2},{"is_transit":true,"transit":true,"time":4,"station_id":"MRI","i_long":106.84912,"distance":2610,"i_lat":-6.209883,"station_name":"Manggarai","line":2},{"transit":false,"i_lat":-6.212485,"station_id":"MTR","station_name":"Matraman","line":1,"is_transit":false,"i_long":106.858896,"time":2,"distance":1275},{"distance":1377,"i_lat":-6.215091,"time":8,"station_name":"Jatinegara","transit":true,"i_long":106.86807400000001,"line":1,"station_id":"JNG","is_transit":true},{"station_name":"Pondok Jati","is_transit":false,"time":2,"station_id":"POK","distance":1236,"i_long":106.861737,"line":11,"transit":false,"i_lat":-6.209188},{"station_id":"KMT","i_long":106.855437,"time":2,"station_name":"Kramat","transit":false,"distance":1829,"i_lat":-6.193792,"is_transit":false,"line":11},{"is_transit":false,"i_long":106.850107,"distance":973,"station_name":"Gang Sentiong","station_id":"GST","line":11,"transit":false,"i_lat":-6.185975,"time":1},{"station_id":"PSE","i_lat":-6.174784,"time":8,"i_long":106.84368,"is_transit":false,"transit":false,"line":11,"distance":1567,"station_name":"Pasar Senen"},{"i_long":106.839204,"distance":1436,"station_name":"Kemayoran","station_id":"KMO","is_transit":false,"i_lat":-6.161728,"line":11,"transit":false,"time":4},{"distance":1901,"i_lat":-6.14505,"line":11,"transit":false,"i_long":106.836569,"station_id":"RJW","station_name":"Rajawali","time":5,"is_transit":false}],[{"station_name":"Depok","line":2,"i_long":106.816926,"station_id":"DP","distance":0,"i_lat":-6.405256,"is_transit":false,"transit":false,"time":0},{"is_transit":false,"i_lat":-6.391065,"transit":false,"i_long":106.819451,"station_name":"Depokbaru","line":2,"station_id":"DPB","distance":1584,"time":3},{"station_name":"Pondok Cina","station_id":"POC","transit":false,"time":4,"distance":2727,"is_transit":false,"i_long":106.831114,"i_lat":-6.369073,"line":2},{"i_long":106.831474,"time":2,"station_name":"Univ. Indonesia","distance":1109,"line":2,"transit":false,"is_transit":false,"i_lat":-6.360749,"station_id":"UI"},{"distance":2264,"line":2,"i_lat":-6.339291,"i_long":106.834175,"station_id":"UP","transit":false,"time":3,"station_name":"Univ. Pancasila","is_transit":false},{"i_lat":-6.330363,"line":2,"is_transit":false,"i_long":106.832616,"distance":1029,"transit":false,"station_id":"LNA","time":2,"station_name":"Lenteng Agung"},{"time":3,"i_lat":-6.3080680000000005,"transit":false,"line":2,"station_id":"TNT","is_transit":false,"station_name":"Tanjung Barat","distance":2671,"i_long":106.838896},{"line":2,"station_name":"Pasar Minggu","transit":false,"station_id":"PSM","is_transit":false,"time":4,"distance":2820,"i_lat":-6.2842400000000005,"i_long":106.843999},{"distance":2380,"transit":false,"is_transit":false,"station_name":"Pasar Minggu Baru","station_id":"PSMB","time":2,"i_lat":-6.263214,"i_long":106.851577,"line":2},{"i_lat":-6.255332,"line":2,"station_id":"DRN","transit":false,"station_name":"Duren Kalibata","i_long":106.85449,"is_transit":false,"distance":824,"time":2},{"station_name":"Cawang","line":2,"i_lat":-6.242512,"distance":1546,"time":3,"is_transit":false,"station_id":"CW","transit":false,"i_long":106.856607},{"line":2,"distance":1230,"transit":false,"station_name":"Tebet","is_transit":false,"station_id":"TEB","i_lat":-6.226659,"i_long":106.857948,"time":2},{"line":2,"station_id":"MRI","transit":true,"i_lat":-6.209883,"station_name":"Manggarai","i_long":106.84912,"distance":2610,"is_transit":true,"time":4},{"is_transit":false,"line":1,"i_long":106.822649,"station_name":"Sudirman","transit":false,"station_id":"SUD","i_lat":-6.202263,"distance":3186,"time":4},{"time":1,"is_transit":false,"line":1,"distance":280,"station_id":"SUDB","i_long":106.819881,"transit":false,"i_lat":-6.201433,"station_name":"Sudirman Baru"},{"station_id":"KAT","i_lat":-6.20132,"i_long":106.816351,"is_transit":false,"transit":false,"time":1,"station_name":"Karet","distance":471,"line":1},{"distance":2029,"line":1,"i_long":106.811091,"station_name":"Tanah Abang","time":5,"transit":false,"is_transit":false,"i_lat":-6.185545,"station_id":"THB"},{"transit":false,"station_id":"DU","line":1,"is_transit":false,"i_lat":-6.155215,"station_name":"Duri","time":8,"i_long":106.800832,"distance":3632},{"line":1,"distance":1230,"station_id":"AK","transit":false,"i_long":106.79867,"station_name":"Angke","i_lat":-6.144674,"time":4,"is_transit":false},{"is_transit":true,"station_name":"Kampung Bandan","i_long":106.826365,"i_lat":-6.132549,"distance":4102,"station_id":"KPB","line":4,"transit":true,"time":9},{"is_transit":false,"line":11,"i_lat":-6.14505,"distance":1444,"time":3,"station_id":"RJW","transit":false,"i_long":106.836569,"station_name":"Rajawali"}],[{"is_transit":false,"station_name":"Depok","time":0,"i_lat":-6.405256,"i_long":106.816926,"distance":0,"line":2,"transit":false,"station_id":"DP"},{"i_lat":-6.391065,"line":2,"station_name":"Depokbaru","is_transit":false,"station_id":"DPB","distance":1584,"time":3,"transit":false,"i_long":106.819451},{"i_long":106.831114,"line":2,"distance":2727,"is_transit":false,"time":4,"station_id":"POC","i_lat":-6.369073,"station_name":"Pondok Cina","transit":false},{"i_long":106.831474,"i_lat":-6.360749,"station_name":"Univ. Indonesia","station_id":"UI","time":2,"line":2,"is_transit":false,"distance":1109,"transit":false},{"time":3,"i_long":106.834175,"i_lat":-6.339291,"is_transit":false,"transit":false,"line":2,"station_name":"Univ. Pancasila","distance":2264,"station_id":"UP"},{"station_name":"Lenteng Agung","time":2,"is_transit":false,"distance":1029,"i_lat":-6.330363,"i_long":106.832616,"line":2,"transit":false,"station_id":"LNA"},{"line":2,"distance":2671,"i_long":106.838896,"is_transit":false,"time":3,"station_id":"TNT","i_lat":-6.3080680000000005,"transit":false,"station_name":"Tanjung Barat"},{"transit":false,"is_transit":false,"station_name":"Pasar Minggu","distance":2820,"line":2,"station_id":"PSM","time":4,"i_lat":-6.2842400000000005,"i_long":106.843999},{"distance":2380,"station_name":"Pasar Minggu Baru","is_transit":false,"i_lat":-6.263214,"i_long":106.851577,"station_id":"PSMB","line":2,"time":2,"transit":false},{"station_name":"Duren Kalibata","is_transit":false,"distance":824,"time":2,"i_lat":-6.255332,"station_id":"DRN","transit":false,"line":2,"i_long":106.85449},{"time":3,"i_long":106.856607,"i_lat":-6.242512,"line":2,"station_name":"Cawang","station_id":"CW","distance":1546,"transit":false,"is_transit":false},{"time":2,"i_lat":-6.226659,"i_long":106.857948,"transit":false,"station_id":"TEB","station_name":"Tebet","distance":1230,"line":2,"is_transit":false},{"is_transit":false,"station_id":"MRI","time":4,"i_lat":-6.209883,"distance":2610,"transit":false,"i_long":106.84912,"station_name":"Manggarai","line":2},{"i_long":106.840169,"distance":1590,"line":2,"time":4,"is_transit":false,"transit":false,"station_id":"CKI","i_lat":-6.198556,"station_name":"Cikini"},{"transit":false,"i_lat":-6.186295,"line":2,"station_id":"GDD","time":3,"i_long":106.832183,"station_name":"Gondangdia","is_transit":false,"distance":1750},{"i_lat":-6.166716,"i_long":106.828284,"station_id":"JUA","transit":false,"distance":2015,"line":2,"is_transit":false,"station_name":"Juanda","time":4},{"transit":false,"is_transit":false,"station_id":"SW","i_long":106.827103,"line":2,"distance":1149,"i_lat":-6.160725,"time":2,"station_name":"Sawah Besar"},{"station_name":"Manggabesar","i_long":106.82482,"distance":906,"transit":false,"time":2,"line":2,"is_transit":false,"i_lat":-6.149769,"station_id":"MGB"},{"distance":1080,"station_id":"JAY","line":2,"i_lat":-6.141205,"time":2,"station_name":"Jayakarta","is_transit":false,"i_long":106.820901,"transit":false},{"is_transit":true,"i_lat":-6.137569,"time":4,"line":2,"station_id":"JAKK","transit":true,"i_long":106.812439,"station_name":"Jakarta Kota","distance":1264},{"transit":true,"line":4,"i_lat":-6.132549,"station_id":"KPB","i_long":106.826365,"station_name":"Kampung Bandan","distance":1364,"is_transit":true,"time":3},{"station_name":"Rajawali","i_lat":-6.14505,"time":3,"is_transit":false,"station_id":"RJW","i_long":106.836569,"line":11,"transit":false,"distance":1444}]]}