{"data":[[{"is_transit":false,"i_lat":-6.405256,"i_long":106.816926,"transit":false,"station_id":"DP","station_name":"Depok","time":0,"distance":0,"line":2},{"line":2,"station_id":"DPB","is_transit":false,"i_lat":-6.391065,"i_long":106.819451,"time":3,"transit":false,"distance":1584,"station_name":"Depokbaru"},{"time":4,"i_lat":-6.369073,"i_long":106.831114,"transit":false,"distance":2727,"station_name":"Pondok Cina","station_id":"POC","is_transit":false,"line":2},{"line":2,"i_lat":-6.360749,"i_long":106.831474,"station_name":"Univ. Indonesia","is_transit":false,"time":2,"transit":false,"distance":1109,"station_id":"UI"},{"transit":false,"station_id":"UP","i_long":106.834175,"is_transit":false,"distance":2264,"station_name":"Univ. Pancasila","i_lat":-6.339291,"time":3,"line":2},{"transit":false,"is_transit":false,"i_long":106.832616,"station_id":"LNA","line":2,"distance":1029,"station_name":"Lenteng Agung","i_lat":-6.330363,"time":2},{"is_transit":false,"station_id":"TNT","station_name":"Tanjung Barat","transit":false,"i_long":106.838896,"line":2,"time":3,"i_lat":-6.3080680000000005,"distance":2671},{"line":2,"distance":2820,"time":4,"station_id":"PSM","is_transit":false,"station_name":"Pasar Minggu","transit":false,"i_lat":-6.2842400000000005,"i_long":106.843999},{"transit":false,"station_name":"Pasar Minggu Baru","i_long":106.851577,"distance":2380,"is_transit":false,"time":2,"i_lat":-6.263214,"station_id":"PSMB","line":2},{"station_name":"Duren Kalibata","i_lat":-6.255332,"station_id":"DRN","i_long":106.85449,"line":2,"distance":824,"time":2,"is_transit":false,"transit":false},{"distance":1546,"station_id":"CW","i_long":106.856607,"transit":false,"line":2,"is_transit":false,"i_lat":-6.242512,"station_name":"Cawang","time":3},{"transit":false,"i_long":106.857948,"is_transit":false,"station_name":"Tebet","station_id":"TEB","time":2,"distance":1230,"line":2,"i_lat":-6.226659},{"station_name":"Manggarai","time":4,"i_lat":-6.209883,"station_id":"MRI","i_long":106.84912,"distance":2610,"is_transit":true,"transit":true,"line":2},{"is_transit":false,"i_lat":-6.202263,"time":4,"transit":false,"i_long":106.822649,"line":1,"station_id":"SUD","distance":3186,"station_name":"Sudirman"},{"distance":280,"time":1,"is_transit":false,"i_lat":-6.201433,"line":1,"transit":false,"station_name":"Sudirman Baru","station_id":"SUDB","i_long":106.819881},{"distance":471,"station_id":"KAT","is_transit":false,"time":1,"station_name":"Karet","transit":false,"line":1,"i_lat":-6.20132,"i_long":106.816351},{"station_id":"THB","station_name":"Tanah Abang","i_lat":-6.185545,"time":5,"is_transit":true,"transit":true,"distance":2029,"i_long":106.811091,"line":1},{"distance":3191,"station_name":"Palmerah","transit":false,"i_long":106.79689,"line":6,"i_lat":-6.207404,"time":6,"is_transit":false,"station_id":"PLM"},{"transit":false,"station_name":"Kebayoran","station_id":"KBY","is_transit":false,"time":7,"distance":3737,"i_long":106.780334,"line":6,"i_lat":-6.237242},{"i_lat":-6.276362,"i_long":106.74273,"line":6,"distance":6218,"station_name":"Pondokranji","time":8,"is_transit":false,"station_id":"PDJ","transit":false},{"line":6,"i_lat":-6.288927,"station_name":"Jurangmangu","distance":2179,"transit":false,"station_id":"JMU","time":3,"is_transit":false,"i_long":106.728916},{"line":6,"time":4,"station_id":"SDM","station_name":"Sudimara","distance":1994,"i_lat":-6.296963,"transit":false,"i_long":106.712277,"is_transit":false}],[{"station_id":"DP","i_long":106.816926,"line":2,"is_transit":false,"distance":0,"transit":false,"i_lat":-6.405256,"station_name":"Depok","time":0},{"distance":1584,"station_name":"Depokbaru","station_id":"DPB","transit":false,"i_long":106.819451,"line":2,"is_transit":false,"i_lat":-6.391065,"time":3},{"station_name":"Pondok Cina","i_long":106.831114,"is_transit":false,"i_lat":-6.369073,"transit":false,"time":4,"station_id":"POC","distance":2727,"line":2},{"i_lat":-6.360749,"is_transit":false,"time":2,"i_long":106.831474,"line":2,"station_id":"UI","transit":false,"station_name":"Univ. Indonesia","distance":1109},{"distance":2264,"time":3,"transit":false,"i_long":106.834175,"station_id":"UP","is_transit":false,"station_name":"Univ. Pancasila","line":2,"i_lat":-6.339291},{"station_name":"Lenteng Agung","station_id":"LNA","is_transit":false,"time":2,"distance":1029,"i_lat":-6.330363,"transit":false,"i_long":106.832616,"line":2},{"is_transit":false,"time":3,"i_lat":-6.3080680000000005,"transit":false,"station_name":"Tanjung Barat","station_id":"TNT","distance":2671,"line":2,"i_long":106.838896},{"is_transit":false,"i_lat":-6.2842400000000005,"transit":false,"station_id":"PSM","line":2,"i_long":106.843999,"time":4,"station_name":"Pasar Minggu","distance":2820},{"is_transit":false,"distance":2380,"i_long":106.851577,"station_id":"PSMB","i_lat":-6.263214,"transit":false,"station_name":"Pasar Minggu Baru","time":2,"line":2},{"is_transit":false,"time":2,"station_id":"DRN","i_lat":-6.255332,"station_name":"Duren Kalibata","transit":false,"distance":824,"i_long":106.85449,"line":2},{"transit":false,"time":3,"station_id":"CW","station_name":"Cawang","distance":1546,"i_lat":-6.242512,"i_long":106.856607,"is_transit":false,"line":2},{"transit":false,"distance":1230,"i_long":106.857948,"i_lat":-6.226659,"line":2,"time":2,"station_name":"Tebet","station_id":"TEB","is_transit":false},{"station_name":"Manggarai","distance":2610,"i_lat":-6.209883,"line":2,"transit":false,"station_id":"MRI","i_long":106.84912,"is_transit":false,"time":4},{"station_name":"Cikini","is_transit":false,"i_long":106.840169,"transit":false,"time":4,"station_id":"CKI","line":2,"distance":1590,"i_lat":-6.198556},{"is_transit":false,"i_long":106.832183,"station_id":"GDD","transit":false,"i_lat":-6.186295,"time":3,"distance":1750,"station_name":"Gondangdia","line":2},{"station_name":"Juanda","transit":false,"is_transit":false,"distance":2015,"station_id":"JUA","i_lat":-6.166716,"line":2,"i_long":106.828284,"time":4},{"station_id":"SW","station_name":"Sawah Besar","distance":1149,"line":2,"i_long":106.827103,"i_lat":-6.160725,"transit":false,"is_transit":false,"time":2},{"is_transit":false,"i_long":106.82482,"i_lat":-6.149769,"line":2,"transit":false,"station_id":"MGB","station_name":"Manggabesar","time":2,"distance":906},{"is_transit":false,"station_id":"JAY","transit":false,"time":2,"i_long":106.820901,"line":2,"distance":1080,"i_lat":-6.141205,"station_name":"Jayakarta"},{"is_transit":true,"distance":1264,"i_long":106.812439,"i_lat":-6.137569,"station_id":"JAKK","line":2,"time":4,"transit":true,"station_name":"Jakarta Kota"},{"station_name":"Kampung Bandan","time":3,"is_transit":true,"distance":1364,"i_lat":-6.132549,"i_long":106.826365,"transit":true,"line":4,"station_id":"KPB"},{"station_id":"AK","i_long":106.79867,"station_name":"Angke","line":1,"is_transit":false,"transit":false,"distance":4102,"i_lat":-6.144674,"time":9},{"i_long":106.800832,"i_lat":-6.155215,"is_transit":false,"transit":false,"station_id":"DU","distance":1230,"line":1,"station_name":"Duri","time":4},{"time":8,"i_long":106.811091,"transit":true,"is_transit":true,"station_name":"Tanah Abang","distance":3632,"i_lat":-6.185545,"station_id":"THB","line":1},{"i_long":106.79689,"i_lat":-6.207404,"transit":false,"station_name":"Palmerah","station_id":"PLM","time":6,"is_transit":false,"distance":3191,"line":6},{"i_lat":-6.237242,"is_transit":false,"line":6,"station_id":"KBY","transit":false,"distance":3737,"time":7,"station_name":"Kebayoran","i_long":106.780334},{"i_long":106.74273,"station_id":"PDJ","time":8,"transit":false,"station_name":"Pondokranji","distance":6218,"i_lat":-6.276362,"is_transit":false,"line":6},{"line":6,"i_lat":-6.288927,"station_id":"JMU","time":3,"transit":false,"distance":2179,"is_transit":false,"i_long":106.728916,"station_name":"Jurangmangu"},{"time":4,"i_long":106.712277,"station_id":"SDM","transit":false,"station_name":"Sudimara","is_transit":false,"distance":1994,"i_lat":-6.296963,"line":6}],[{"transit":false,"is_transit":false,"distance":0,"line":2,"i_long":106.816926,"i_lat":-6.405256,"time":0,"station_name":"Depok","station_id":"DP"},{"i_lat":-6.391065,"line":2,"time":3,"i_long":106.819451,"is_transit":false,"station_id":"DPB","transit":false,"distance":1584,"station_name":"Depokbaru"},{"is_transit":false,"time":4,"transit":false,"i_long":106.831114,"line":2,"station_name":"Pondok Cina","distance":2727,"station_id":"POC","i_lat":-6.369073},{"station_name":"Univ. Indonesia","transit":false,"is_transit":false,"i_lat":-6.360749,"line":2,"distance":1109,"i_long":106.831474,"station_id":"UI","time":2},{"transit":false,"station_id":"UP","i_long":106.834175,"line":2,"i_lat":-6.339291,"time":3,"station_name":"Univ. Pancasila","distance":2264,"is_transit":false},{"distance":1029,"i_lat":-6.330363,"is_transit":false,"station_id":"LNA","station_name":"Lenteng Agung","transit":false,"time":2,"line":2,"i_long":106.832616},{"i_long":106.838896,"line":2,"station_id":"TNT","distance":2671,"transit":false,"i_lat":-6.3080680000000005,"station_name":"Tanjung Barat","is_transit":false,"time":3},{"station_id":"PSM","is_transit":false,"line":2,"time":4,"station_name":"Pasar Minggu","i_lat":-6.2842400000000005,"distance":2820,"i_long":106.843999,"transit":false},{"station_id":"PSMB","distance":2380,"station_name":"Pasar Minggu Baru","i_lat":-6.263214,"time":2,"line":2,"transit":false,"is_transit":false,"i_long":106.851577},{"time":2,"is_transit":false,"station_name":"Duren Kalibata","distance":824,"i_long":106.85449,"station_id":"DRN","line":2,"transit":false,"i_lat":-6.255332},{"i_lat":-6.242512,"distance":1546,"i_long":106.856607,"station_id":"CW","time":3,"is_transit":false,"transit":false,"station_name":"Cawang","line":2},{"i_long":106.857948,"transit":false,"distance":1230,"is_transit":false,"station_name":"Tebet","i_lat":-6.226659,"time":2,"line":2,"station_id":"TEB"},{"station_name":"Manggarai","transit":true,"is_transit":true,"i_lat":-6.209883,"distance":2610,"i_long":106.84912,"station_id":"MRI","line":2,"time":4},{"distance":1275,"transit":false,"line":1,"time":2,"i_lat":-6.212485,"i_long":106.858896,"station_id":"MTR","is_transit":false,"station_name":"Matraman"},{"i_long":106.86807400000001,"station_id":"JNG","is_transit":true,"station_name":"Jatinegara","transit":true,"i_lat":-6.215091,"line":1,"time":8,"distance":1377},{"time":2,"line":11,"station_name":"Pondok Jati","station_id":"POK","distance":1236,"i_long":106.861737,"transit":false,"is_transit":false,"i_lat":-6.209188},{"station_id":"KMT","is_transit":false,"distance":1829,"i_lat":-6.193792,"station_name":"Kramat","transit":false,"line":11,"time":2,"i_long":106.855437},{"distance":973,"transit":false,"station_name":"Gang Sentiong","i_long":106.850107,"time":1,"is_transit":false,"line":11,"station_id":"GST","i_lat":-6.185975},{"i_long":106.84368,"distance":1567,"station_id":"PSE","station_name":"Pasar Senen","time":8,"is_transit":false,"i_lat":-6.174784,"line":11,"transit":false},{"distance":1436,"station_name":"Kemayoran","transit":false,"i_lat":-6.161728,"line":11,"is_transit":false,"i_long":106.839204,"station_id":"KMO","time":4},{"transit":false,"i_long":106.836569,"station_name":"Rajawali","i_lat":-6.14505,"distance":1901,"station_id":"RJW","time":5,"is_transit":false,"line":11},{"time":3,"distance":1444,"line":4,"i_lat":-6.132549,"i_long":106.826365,"transit":true,"station_id":"KPB","station_name":"Kampung Bandan","is_transit":true},{"time":9,"transit":false,"station_name":"Angke","i_lat":-6.144674,"is_transit":false,"i_long":106.79867,"distance":4102,"line":1,"station_id":"AK"},{"is_transit":false,"distance":1230,"i_lat":-6.155215,"line":1,"i_long":106.800832,"station_id":"DU","time":4,"transit":false,"station_name":"Duri"},{"line":1,"time":8,"transit":true,"station_id":"THB","is_transit":true,"distance":3632,"i_long":106.811091,"i_lat":-6.185545,"station_name":"Tanah Abang"},{"transit":false,"line":6,"time":6,"station_name":"Palmerah","distance":3191,"i_long":106.79689,"station_id":"PLM","i_lat":-6.207404,"is_transit":false},{"station_name":"Kebayoran","distance":3737,"station_id":"KBY","line":6,"i_long":106.780334,"i_lat":-6.237242,"transit":false,"time":7,"is_transit":false},{"station_name":"Pondokranji","station_id":"PDJ","i_long":106.74273,"line":6,"distance":6218,"i_lat":-6.276362,"time":8,"is_transit":false,"transit":false},{"i_long":106.728916,"station_name":"Jurangmangu","transit":false,"is_transit":false,"distance":2179,"i_lat":-6.288927,"station_id":"JMU","line":6,"time":3},{"line":6,"i_long":106.712277,"is_transit":false,"time":4,"station_name":"Sudimara","i_lat":-6.296963,"station_id":"SDM","distance":1994,"transit":false}]]}