{"data":[[{"i_long":106.816926,"distance":0,"i_lat":-6.405256,"transit":false,"is_transit":false,"line":2,"station_id":"DP","station_name":"Depok","time":0},{"distance":1584,"station_name":"Depokbaru","is_transit":false,"i_lat":-6.391065,"transit":false,"i_long":106.819451,"line":2,"station_id":"DPB","time":3},{"station_name":"Pondok Cina","transit":false,"i_lat":-6.369073,"distance":2727,"line":2,"time":4,"is_transit":false,"i_long":106.831114,"station_id":"POC"},{"time":2,"i_long":106.831474,"station_name":"Univ. Indonesia","distance":1109,"station_id":"UI","transit":false,"line":2,"is_transit":false,"i_lat":-6.360749},{"distance":2264,"station_id":"UP","line":2,"i_lat":-6.339291,"time":3,"i_long":106.834175,"station_name":"Univ. Pancasila","is_transit":false,"transit":false},{"station_name":"Lenteng Agung","i_long":106.832616,"is_transit":false,"line":2,"station_id":"LNA","i_lat":-6.330363,"time":2,"distance":1029,"transit":false},{"is_transit":false,"time":3,"i_lat":-6.3080680000000005,"distance":2671,"line":2,"station_id":"TNT","transit":false,"station_name":"Tanjung Barat","i_long":106.838896},{"station_name":"Pasar Minggu","transit":false,"time":4,"is_transit":false,"i_long":106.843999,"distance":2820,"line":2,"station_id":"PSM","i_lat":-6.2842400000000005},{"is_transit":false,"station_name":"Pasar Minggu Baru","line":2,"distance":2380,"station_id":"PSMB","transit":false,"i_lat":-6.263214,"time":2,"i_long":106.851577},{"is_transit":false,"i_lat":-6.255332,"i_long":106.85449,"time":2,"distance":824,"station_name":"Duren Kalibata","transit":false,"station_id":"DRN","line":2},{"is_transit":false,"transit":false,"i_long":106.856607,"i_lat":-6.242512,"distance":1546,"line":2,"station_name":"Cawang","time":3,"station_id":"CW"},{"is_transit":false,"station_id":"TEB","time":2,"station_name":"Tebet","transit":false,"i_long":106.857948,"line":2,"i_lat":-6.226659,"distance":1230},{"is_transit":false,"distance":2610,"line":2,"i_lat":-6.209883,"i_long":106.84912,"time":4,"station_id":"MRI","transit":false,"station_name":"Manggarai"},{"distance":1590,"is_transit":false,"time":4,"transit":false,"i_lat":-6.198556,"i_long":106.840169,"station_name":"Cikini","line":2,"station_id":"CKI"},{"transit":false,"distance":1750,"station_name":"Gondangdia","i_long":106.832183,"i_lat":-6.186295,"line":2,"is_transit":false,"station_id":"GDD","time":3},{"time":4,"is_transit":false,"station_id":"JUA","i_lat":-6.166716,"i_long":106.828284,"distance":2015,"line":2,"station_name":"Juanda","transit":false},{"is_transit":false,"i_lat":-6.160725,"time":2,"distance":1149,"station_name":"Sawah Besar","station_id":"SW","transit":false,"line":2,"i_long":106.827103}],[{"i_long":106.816926,"station_name":"Depok","distance":0,"transit":false,"time":0,"line":2,"station_id":"DP","i_lat":-6.405256,"is_transit":false},{"transit":false,"station_id":"DPB","station_name":"Depokbaru","i_lat":-6.391065,"i_long":106.819451,"time":3,"is_transit":false,"distance":1584,"line":2},{"line":2,"transit":false,"distance":2727,"station_id":"POC","is_transit":false,"station_name":"Pondok Cina","time":4,"i_lat":-6.369073,"i_long":106.831114},{"station_id":"UI","time":2,"transit":false,"distance":1109,"i_long":106.831474,"station_name":"Univ. Indonesia","i_lat":-6.360749,"line":2,"is_transit":false},{"i_long":106.834175,"i_lat":-6.339291,"is_transit":false,"station_name":"Univ. Pancasila","station_id":"UP","transit":false,"time":3,"distance":2264,"line":2},{"i_lat":-6.330363,"time":2,"transit":false,"line":2,"i_long":106.832616,"is_transit":false,"distance":1029,"station_name":"Lenteng Agung","station_id":"LNA"},{"time":3,"station_id":"TNT","is_transit":false,"distance":2671,"i_long":106.838896,"line":2,"i_lat":-6.3080680000000005,"transit":false,"station_name":"Tanjung Barat"},{"time":4,"station_name":"Pasar Minggu","is_transit":false,"distance":2820,"i_lat":-6.2842400000000005,"line":2,"station_id":"PSM","transit":false,"i_long":106.843999},{"transit":false,"i_long":106.851577,"line":2,"station_id":"PSMB","is_transit":false,"time":2,"station_name":"Pasar Minggu Baru","i_lat":-6.263214,"distance":2380},{"transit":false,"i_lat":-6.255332,"i_long":106.85449,"is_transit":false,"line":2,"time":2,"distance":824,"station_id":"DRN","station_name":"Duren Kalibata"},{"is_transit":false,"line":2,"time":3,"transit":false,"station_id":"CW","station_name":"Cawang","i_lat":-6.242512,"i_long":106.856607,"distance":1546},{"i_long":106.857948,"station_name":"Tebet","i_lat":-6.226659,"line":2,"is_transit":false,"distance":1230,"station_id":"TEB","time":2,"transit":false},{"line":2,"station_id":"MRI","transit":true,"is_transit":true,"time":4,"distance":2610,"station_name":"Manggarai","i_lat":-6.209883,"i_long":106.84912},{"station_id":"SUD","is_transit":false,"station_name":"Sudirman","distance":3186,"transit":false,"i_lat":-6.202263,"time":4,"i_long":106.822649,"line":1},{"i_long":106.819881,"line":1,"time":1,"is_transit":false,"distance":280,"transit":false,"i_lat":-6.201433,"station_name":"Sudirman Baru","station_id":"SUDB"},{"station_id":"KAT","i_long":106.816351,"time":1,"station_name":"Karet","transit":false,"i_lat":-6.20132,"is_transit":false,"distance":471,"line":1},{"transit":false,"i_long":106.811091,"distance":2029,"time":5,"station_id":"THB","station_name":"Tanah Abang","i_lat":-6.185545,"line":1,"is_transit":false},{"time":8,"station_name":"Duri","distance":3632,"is_transit":false,"station_id":"DU","transit":false,"line":1,"i_lat":-6.155215,"i_long":106.800832},{"transit":false,"station_name":"Angke","station_id":"AK","i_long":106.79867,"line":1,"is_transit":false,"i_lat":-6.144674,"time":4,"distance":1230},{"station_name":"Kampung Bandan","i_lat":-6.132549,"is_transit":true,"transit":true,"line":4,"station_id":"KPB","distance":4102,"i_long":106.826365,"time":9},{"time":3,"is_transit":true,"station_name":"Jakarta Kota","transit":true,"i_long":106.812439,"station_id":"JAKK","distance":1364,"i_lat":-6.137569,"line":2},{"station_name":"Jayakarta","i_lat":-6.141205,"i_long":106.820901,"station_id":"JAY","line":2,"time":4,"distance":1264,"is_transit":false,"transit":false},{"line":2,"is_transit":false,"i_long":106.82482,"time":2,"station_id":"MGB","transit":false,"distance":1080,"i_lat":-6.149769,"station_name":"Manggabesar"},{"distance":906,"i_long":106.827103,"line":2,"time":2,"station_name":"Sawah Besar","is_transit":false,"i_lat":-6.160725,"transit":false,"station_id":"SW"}],[{"i_long":106.816926,"station_name":"Depok","is_transit":false,"i_lat":-6.405256,"line":2,"distance":0,"station_id":"DP","transit":false,"time":0},{"distance":1584,"transit":false,"i_long":106.819451,"line":2,"is_transit":false,"station_id":"DPB","time":3,"station_name":"Depokbaru","i_lat":-6.391065},{"i_lat":-6.369073,"time":4,"is_transit":false,"station_name":"Pondok Cina","distance":2727,"line":2,"i_long":106.831114,"station_id":"POC","transit":false},{"time":2,"i_lat":-6.360749,"i_long":106.831474,"line":2,"station_id":"UI","is_transit":false,"distance":1109,"transit":false,"station_name":"Univ. Indonesia"},{"time":3,"line":2,"station_name":"Univ. Pancasila","station_id":"UP","is_transit":false,"transit":false,"distance":2264,"i_lat":-6.339291,"i_long":106.834175},{"transit":false,"station_name":"Lenteng Agung","line":2,"time":2,"is_transit":false,"i_long":106.832616,"station_id":"LNA","i_lat":-6.330363,"distance":1029},{"distance":2671,"station_id":"TNT","station_name":"Tanjung Barat","i_lat":-6.3080680000000005,"time":3,"transit":false,"is_transit":false,"i_long":106.838896,"line":2},{"time":4,"station_id":"PSM","is_transit":false,"transit":false,"distance":2820,"i_long":106.843999,"station_name":"Pasar Minggu","i_lat":-6.2842400000000005,"line":2},{"i_lat":-6.263214,"transit":false,"i_long":106.851577,"time":2,"line":2,"is_transit":false,"station_id":"PSMB","station_name":"Pasar Minggu Baru","distance":2380},{"i_long":106.85449,"i_lat":-6.255332,"line":2,"time":2,"is_transit":false,"station_name":"Duren Kalibata","station_id":"DRN","distance":824,"transit":false},{"i_lat":-6.242512,"time":3,"distance":1546,"station_name":"Cawang","i_long":106.856607,"station_id":"CW","is_transit":false,"line":2,"transit":false},{"line":2,"station_id":"TEB","time":2,"distance":1230,"station_name":"Tebet","transit":false,"i_long":106.857948,"is_transit":false,"i_lat":-6.226659},{"time":4,"i_long":106.84912,"distance":2610,"line":2,"i_lat":-6.209883,"station_id":"MRI","is_transit":true,"transit":true,"station_name":"Manggarai"},{"station_id":"MTR","is_transit":false,"time":2,"distance":1275,"station_name":"Matraman","i_long":106.858896,"line":1,"transit":false,"i_lat":-6.212485},{"distance":1377,"transit":true,"time":8,"is_transit":true,"i_lat":-6.215091,"i_long":106.86807400000001,"line":1,"station_name":"Jatinegara","station_id":"JNG"},{"i_long":106.861737,"i_lat":-6.209188,"line":11,"station_id":"POK","is_transit":false,"station_name":"Pondok Jati","time":2,"transit":false,"distance":1236},{"station_id":"KMT","time":2,"station_name":"Kramat","distance":1829,"i_lat":-6.193792,"line":11,"transit":false,"is_transit":false,"i_long":106.855437},{"is_transit":false,"station_name":"Gang Sentiong","time":1,"i_lat":-6.185975,"distance":973,"i_long":106.850107,"line":11,"station_id":"GST","transit":false},{"line":11,"station_id":"PSE","is_transit":false,"transit":false,"time":8,"distance":1567,"i_long":106.84368,"station_name":"Pasar Senen","i_lat":-6.174784},{"is_transit":false,"i_lat":-6.161728,"time":4,"transit":false,"station_name":"Kemayoran","i_long":106.839204,"station_id":"KMO","distance":1436,"line":11},{"i_lat":-6.14505,"line":11,"transit":false,"distance":1901,"time":5,"station_id":"RJW","i_long":106.836569,"station_name":"Rajawali","is_transit":false},{"station_name":"Kampung Bandan","i_lat":-6.132549,"i_long":106.826365,"is_transit":true,"line":4,"time":3,"transit":true,"distance":1444,"station_id":"KPB"},{"transit":true,"i_long":106.812439,"is_transit":true,"time":3,"station_id":"JAKK","distance":1364,"i_lat":-6.137569,"line":2,"station_name":"Jakarta Kota"},{"transit":false,"time":4,"is_transit":false,"distance":1264,"line":2,"i_lat":-6.141205,"station_name":"Jayakarta","station_id":"JAY","i_long":106.820901},{"station_name":"Manggabesar","station_id":"MGB","is_transit":false,"i_long":106.82482,"distance":1080,"time":2,"line":2,"transit":false,"i_lat":-6.149769},{"station_name":"Sawah Besar","i_lat":-6.160725,"is_transit":false,"station_id":"SW","line":2,"i_long":106.827103,"transit":false,"time":2,"distance":906}]]}