{"data":[[{"station_id":"DP","i_lat":-6.405256,"distance":0,"line":2,"time":0,"transit":false,"station_name":"Depok","is_transit":false,"i_long":106.816926},{"i_long":106.819451,"time":3,"is_transit":false,"station_id":"DPB","station_name":"Depokbaru","line":2,"distance":1584,"transit":false,"i_lat":-6.391065},{"station_name":"Pondok Cina","distance":2727,"transit":false,"station_id":"POC","time":4,"is_transit":false,"i_lat":-6.369073,"line":2,"i_long":106.831114},{"transit":false,"line":2,"station_name":"Univ. Indonesia","distance":1109,"i_long":106.831474,"i_lat":-6.360749,"time":2,"is_transit":false,"station_id":"UI"},{"station_name":"Univ. Pancasila","distance":2264,"line":2,"time":3,"is_transit":false,"i_lat":-6.339291,"station_id":"UP","transit":false,"i_long":106.834175},{"i_long":106.832616,"station_name":"Lenteng Agung","is_transit":false,"transit":false,"i_lat":-6.330363,"distance":1029,"station_id":"LNA","time":2,"line":2},{"distance":2671,"i_long":106.838896,"is_transit":false,"time":3,"i_lat":-6.3080680000000005,"line":2,"transit":false,"station_id":"TNT","station_name":"Tanjung Barat"},{"station_id":"PSM","transit":false,"i_long":106.843999,"line":2,"i_lat":-6.2842400000000005,"is_transit":false,"station_name":"Pasar Minggu","distance":2820,"time":4},{"distance":2380,"line":2,"station_name":"Pasar Minggu Baru","is_transit":false,"station_id":"PSMB","transit":false,"i_long":106.851577,"time":2,"i_lat":-6.263214},{"station_id":"DRN","line":2,"transit":false,"i_long":106.85449,"is_transit":false,"station_name":"Duren Kalibata","distance":824,"i_lat":-6.255332,"time":2},{"station_name":"Cawang","i_lat":-6.242512,"line":2,"transit":false,"is_transit":false,"distance":1546,"i_long":106.856607,"station_id":"CW","time":3},{"line":2,"transit":false,"distance":1230,"i_lat":-6.226659,"is_transit":false,"i_long":106.857948,"station_name":"Tebet","station_id":"TEB","time":2},{"station_id":"MRI","time":4,"distance":2610,"transit":false,"i_lat":-6.209883,"i_long":106.84912,"is_transit":false,"line":2,"station_name":"Manggarai"},{"station_name":"Cikini","time":4,"line":2,"i_lat":-6.198556,"i_long":106.840169,"station_id":"CKI","transit":false,"distance":1590,"is_transit":false},{"distance":1750,"line":2,"station_name":"Gondangdia","i_lat":-6.186295,"station_id":"GDD","transit":false,"time":3,"i_long":106.832183,"is_transit":false},{"line":2,"station_id":"JUA","station_name":"Juanda","time":4,"distance":2015,"i_lat":-6.166716,"is_transit":false,"transit":false,"i_long":106.828284},{"distance":1149,"time":2,"transit":false,"station_id":"SW","line":2,"station_name":"Sawah Besar","is_transit":false,"i_lat":-6.160725,"i_long":106.827103}],[{"time":0,"station_id":"DP","transit":false,"i_lat":-6.405256,"station_name":"Depok","is_transit":false,"distance":0,"line":2,"i_long":106.816926},{"station_id":"DPB","distance":1584,"line":2,"station_name":"Depokbaru","i_long":106.819451,"time":3,"is_transit":false,"transit":false,"i_lat":-6.391065},{"station_name":"Pondok Cina","distance":2727,"time":4,"transit":false,"i_long":106.831114,"line":2,"i_lat":-6.369073,"station_id":"POC","is_transit":false},{"station_id":"UI","is_transit":false,"transit":false,"i_lat":-6.360749,"i_long":106.831474,"time":2,"station_name":"Univ. Indonesia","line":2,"distance":1109},{"i_long":106.834175,"is_transit":false,"distance":2264,"i_lat":-6.339291,"transit":false,"line":2,"station_id":"UP","time":3,"station_name":"Univ. Pancasila"},{"i_lat":-6.330363,"distance":1029,"transit":false,"line":2,"time":2,"station_name":"Lenteng Agung","i_long":106.832616,"station_id":"LNA","is_transit":false},{"station_name":"Tanjung Barat","distance":2671,"station_id":"TNT","transit":false,"is_transit":false,"time":3,"i_lat":-6.3080680000000005,"i_long":106.838896,"line":2},{"i_long":106.843999,"distance":2820,"transit":false,"station_id":"PSM","i_lat":-6.2842400000000005,"is_transit":false,"time":4,"station_name":"Pasar Minggu","line":2},{"station_id":"PSMB","time":2,"i_long":106.851577,"line":2,"is_transit":false,"station_name":"Pasar Minggu Baru","i_lat":-6.263214,"transit":false,"distance":2380},{"i_lat":-6.255332,"station_id":"DRN","time":2,"transit":false,"is_transit":false,"i_long":106.85449,"line":2,"station_name":"Duren Kalibata","distance":824},{"time":3,"line":2,"station_id":"CW","distance":1546,"station_name":"Cawang","i_long":106.856607,"is_transit":false,"transit":false,"i_lat":-6.242512},{"transit":false,"time":2,"i_long":106.857948,"station_name":"Tebet","is_transit":false,"line":2,"i_lat":-6.226659,"station_id":"TEB","distance":1230},{"i_long":106.84912,"i_lat":-6.209883,"station_id":"MRI","line":2,"distance":2610,"station_name":"Manggarai","time":4,"transit":true,"is_transit":true},{"distance":3186,"i_long":106.822649,"station_name":"Sudirman","line":1,"transit":false,"is_transit":false,"time":4,"i_lat":-6.202263,"station_id":"SUD"},{"transit":false,"i_long":106.819881,"distance":280,"station_name":"Sudirman Baru","time":1,"i_lat":-6.201433,"station_id":"SUDB","line":1,"is_transit":false},{"i_lat":-6.20132,"station_name":"Karet","distance":471,"is_transit":false,"i_long":106.816351,"line":1,"transit":false,"time":1,"station_id":"KAT"},{"station_id":"THB","i_long":106.811091,"i_lat":-6.185545,"line":1,"time":5,"is_transit":false,"station_name":"Tanah Abang","transit":false,"distance":2029},{"station_name":"Duri","line":1,"is_transit":false,"time":8,"transit":false,"station_id":"DU","distance":3632,"i_long":106.800832,"i_lat":-6.155215},{"transit":false,"is_transit":false,"station_id":"AK","i_lat":-6.144674,"distance":1230,"time":4,"i_long":106.79867,"line":1,"station_name":"Angke"},{"transit":true,"line":4,"i_lat":-6.132549,"time":9,"station_id":"KPB","station_name":"Kampung Bandan","is_transit":true,"distance":4102,"i_long":106.826365},{"time":3,"transit":true,"station_name":"Jakarta Kota","station_id":"JAKK","is_transit":true,"line":2,"distance":1364,"i_long":106.812439,"i_lat":-6.137569},{"i_lat":-6.141205,"i_long":106.820901,"station_name":"Jayakarta","station_id":"JAY","distance":1264,"time":4,"transit":false,"line":2,"is_transit":false},{"distance":1080,"time":2,"line":2,"is_transit":false,"i_lat":-6.149769,"station_name":"Manggabesar","i_long":106.82482,"transit":false,"station_id":"MGB"},{"i_long":106.827103,"i_lat":-6.160725,"transit":false,"station_id":"SW","station_name":"Sawah Besar","is_transit":false,"time":2,"distance":906,"line":2}],[{"distance":0,"transit":false,"i_lat":-6.405256,"line":2,"station_name":"Depok","station_id":"DP","is_transit":false,"time":0,"i_long":106.816926},{"line":2,"time":3,"transit":false,"station_id":"DPB","station_name":"Depokbaru","distance":1584,"i_lat":-6.391065,"i_long":106.819451,"is_transit":false},{"distance":2727,"is_transit":false,"transit":false,"i_long":106.831114,"i_lat":-6.369073,"time":4,"station_id":"POC","line":2,"station_name":"Pondok Cina"},{"i_long":106.831474,"line":2,"time":2,"station_name":"Univ. Indonesia","transit":false,"i_lat":-6.360749,"is_transit":false,"station_id":"UI","distance":1109},{"station_name":"Univ. Pancasila","distance":2264,"transit":false,"i_lat":-6.339291,"i_long":106.834175,"time":3,"is_transit":false,"line":2,"station_id":"UP"},{"station_id":"LNA","time":2,"line":2,"is_transit":false,"transit":false,"distance":1029,"i_lat":-6.330363,"station_name":"Lenteng Agung","i_long":106.832616},{"line":2,"station_name":"Tanjung Barat","time":3,"i_long":106.838896,"distance":2671,"station_id":"TNT","is_transit":false,"transit":false,"i_lat":-6.3080680000000005},{"station_id":"PSM","line":2,"time":4,"transit":false,"is_transit":false,"i_lat":-6.2842400000000005,"distance":2820,"i_long":106.843999,"station_name":"Pasar Minggu"},{"station_id":"PSMB","station_name":"Pasar Minggu Baru","line":2,"distance":2380,"time":2,"transit":false,"i_lat":-6.263214,"i_long":106.851577,"is_transit":false},{"i_long":106.85449,"transit":false,"time":2,"line":2,"station_id":"DRN","distance":824,"is_transit":false,"i_lat":-6.255332,"station_name":"Duren Kalibata"},{"station_id":"CW","distance":1546,"i_lat":-6.242512,"i_long":106.856607,"time":3,"line":2,"is_transit":false,"transit":false,"station_name":"Cawang"},{"station_name":"Tebet","is_transit":false,"time":2,"station_id":"TEB","transit":false,"i_lat":-6.226659,"distance":1230,"i_long":106.857948,"line":2},{"distance":2610,"transit":true,"i_long":106.84912,"is_transit":true,"station_name":"Manggarai","i_lat":-6.209883,"line":2,"time":4,"station_id":"MRI"},{"i_lat":-6.212485,"time":2,"line":1,"is_transit":false,"distance":1275,"transit":false,"station_name":"Matraman","i_long":106.858896,"station_id":"MTR"},{"is_transit":true,"line":1,"i_long":106.86807400000001,"distance":1377,"time":8,"station_id":"JNG","station_name":"Jatinegara","transit":true,"i_lat":-6.215091},{"transit":false,"time":2,"is_transit":false,"i_long":106.861737,"station_name":"Pondok Jati","line":11,"distance":1236,"i_lat":-6.209188,"station_id":"POK"},{"i_long":106.855437,"distance":1829,"station_name":"Kramat","station_id":"KMT","line":11,"transit":false,"time":2,"is_transit":false,"i_lat":-6.193792},{"time":1,"i_lat":-6.185975,"distance":973,"station_name":"Gang Sentiong","station_id":"GST","transit":false,"is_transit":false,"line":11,"i_long":106.850107},{"transit":false,"station_id":"PSE","time":8,"line":11,"i_lat":-6.174784,"station_name":"Pasar Senen","is_transit":false,"i_long":106.84368,"distance":1567},{"distance":1436,"is_transit":false,"i_long":106.839204,"transit":false,"time":4,"i_lat":-6.161728,"station_id":"KMO","station_name":"Kemayoran","line":11},{"station_id":"RJW","distance":1901,"i_lat":-6.14505,"is_transit":false,"time":5,"i_long":106.836569,"line":11,"station_name":"Rajawali","transit":false},{"station_name":"Kampung Bandan","line":4,"station_id":"KPB","is_transit":true,"distance":1444,"transit":true,"i_long":106.826365,"i_lat":-6.132549,"time":3},{"distance":1364,"station_name":"Jakarta Kota","i_long":106.812439,"transit":true,"i_lat":-6.137569,"line":2,"station_id":"JAKK","is_transit":true,"time":3},{"line":2,"i_long":106.820901,"station_id":"JAY","station_name":"Jayakarta","distance":1264,"i_lat":-6.141205,"transit":false,"is_transit":false,"time":4},{"i_long":106.82482,"line":2,"is_transit":false,"transit":false,"time":2,"station_name":"Manggabesar","i_lat":-6.149769,"station_id":"MGB","distance":1080},{"station_id":"SW","time":2,"i_lat":-6.160725,"line":2,"station_name":"Sawah Besar","distance":906,"is_transit":false,"i_long":106.827103,"transit":false}]]}