{"data":[[{"line":2,"i_long":106.816926,"station_name":"Depok","distance":0,"transit":false,"time":0,"i_lat":-6.405256,"is_transit":false,"station_id":"DP"},{"transit":false,"station_id":"DPB","distance":1584,"i_long":106.819451,"station_name":"Depokbaru","is_transit":false,"i_lat":-6.391065,"line":2,"time":3},{"station_name":"Pondok Cina","distance":2727,"line":2,"station_id":"POC","transit":false,"i_lat":-6.369073,"i_long":106.831114,"time":4,"is_transit":false},{"station_id":"UI","i_long":106.831474,"transit":false,"time":2,"i_lat":-6.360749,"line":2,"is_transit":false,"station_name":"Univ. Indonesia","distance":1109},{"transit":false,"i_lat":-6.339291,"distance":2264,"time":3,"is_transit":false,"i_long":106.834175,"station_name":"Univ. Pancasila","station_id":"UP","line":2},{"station_id":"LNA","i_lat":-6.330363,"station_name":"Lenteng Agung","i_long":106.832616,"is_transit":false,"time":2,"distance":1029,"transit":false,"line":2},{"station_id":"TNT","time":3,"distance":2671,"transit":false,"i_lat":-6.3080680000000005,"i_long":106.838896,"line":2,"is_transit":false,"station_name":"Tanjung Barat"},{"distance":2820,"line":2,"time":4,"i_long":106.843999,"i_lat":-6.2842400000000005,"is_transit":false,"station_id":"PSM","transit":false,"station_name":"Pasar Minggu"},{"time":2,"i_lat":-6.263214,"distance":2380,"transit":false,"station_name":"Pasar Minggu Baru","is_transit":false,"station_id":"PSMB","i_long":106.851577,"line":2},{"transit":false,"is_transit":false,"i_long":106.85449,"line":2,"station_name":"Duren Kalibata","distance":824,"station_id":"DRN","time":2,"i_lat":-6.255332},{"station_name":"Cawang","station_id":"CW","is_transit":false,"time":3,"i_lat":-6.242512,"i_long":106.856607,"line":2,"distance":1546,"transit":false},{"i_long":106.857948,"transit":false,"line":2,"distance":1230,"i_lat":-6.226659,"station_name":"Tebet","is_transit":false,"time":2,"station_id":"TEB"},{"station_name":"Manggarai","station_id":"MRI","time":4,"distance":2610,"transit":false,"i_long":106.84912,"is_transit":false,"line":2,"i_lat":-6.209883},{"station_name":"Cikini","transit":false,"is_transit":false,"line":2,"station_id":"CKI","i_lat":-6.198556,"time":4,"distance":1590,"i_long":106.840169},{"i_lat":-6.186295,"i_long":106.832183,"transit":false,"station_id":"GDD","line":2,"distance":1750,"time":3,"is_transit":false,"station_name":"Gondangdia"},{"i_long":106.828284,"station_id":"JUA","is_transit":false,"i_lat":-6.166716,"time":4,"distance":2015,"line":2,"station_name":"Juanda","transit":false},{"time":2,"i_lat":-6.160725,"line":2,"station_name":"Sawah Besar","distance":1149,"transit":false,"station_id":"SW","is_transit":false,"i_long":106.827103}],[{"station_id":"DP","distance":0,"i_long":106.816926,"is_transit":false,"time":0,"i_lat":-6.405256,"station_name":"Depok","transit":false,"line":2},{"station_name":"Depokbaru","distance":1584,"station_id":"DPB","transit":false,"is_transit":false,"line":2,"i_lat":-6.391065,"i_long":106.819451,"time":3},{"distance":2727,"i_long":106.831114,"line":2,"i_lat":-6.369073,"station_id":"POC","station_name":"Pondok Cina","time":4,"transit":false,"is_transit":false},{"transit":false,"distance":1109,"station_name":"Univ. Indonesia","time":2,"i_lat":-6.360749,"is_transit":false,"i_long":106.831474,"line":2,"station_id":"UI"},{"is_transit":false,"transit":false,"station_id":"UP","station_name":"Univ. Pancasila","line":2,"distance":2264,"time":3,"i_lat":-6.339291,"i_long":106.834175},{"is_transit":false,"distance":1029,"time":2,"transit":false,"i_lat":-6.330363,"i_long":106.832616,"line":2,"station_name":"Lenteng Agung","station_id":"LNA"},{"transit":false,"time":3,"i_lat":-6.3080680000000005,"line":2,"distance":2671,"station_id":"TNT","station_name":"Tanjung Barat","i_long":106.838896,"is_transit":false},{"i_lat":-6.2842400000000005,"transit":false,"line":2,"distance":2820,"time":4,"station_name":"Pasar Minggu","station_id":"PSM","i_long":106.843999,"is_transit":false},{"station_name":"Pasar Minggu Baru","line":2,"i_lat":-6.263214,"station_id":"PSMB","is_transit":false,"transit":false,"distance":2380,"i_long":106.851577,"time":2},{"i_long":106.85449,"transit":false,"station_id":"DRN","is_transit":false,"distance":824,"station_name":"Duren Kalibata","time":2,"i_lat":-6.255332,"line":2},{"i_long":106.856607,"time":3,"distance":1546,"transit":false,"station_name":"Cawang","line":2,"i_lat":-6.242512,"is_transit":false,"station_id":"CW"},{"is_transit":false,"i_lat":-6.226659,"line":2,"station_id":"TEB","transit":false,"time":2,"i_long":106.857948,"station_name":"Tebet","distance":1230},{"station_name":"Manggarai","i_long":106.84912,"time":4,"is_transit":true,"station_id":"MRI","i_lat":-6.209883,"distance":2610,"transit":true,"line":2},{"transit":false,"distance":3186,"i_long":106.822649,"is_transit":false,"time":4,"i_lat":-6.202263,"line":1,"station_id":"SUD","station_name":"Sudirman"},{"station_name":"Sudirman Baru","time":1,"distance":280,"i_lat":-6.201433,"line":1,"transit":false,"station_id":"SUDB","is_transit":false,"i_long":106.819881},{"line":1,"time":1,"i_lat":-6.20132,"station_name":"Karet","station_id":"KAT","i_long":106.816351,"distance":471,"is_transit":false,"transit":false},{"line":1,"i_lat":-6.185545,"transit":false,"is_transit":false,"station_id":"THB","time":5,"distance":2029,"i_long":106.811091,"station_name":"Tanah Abang"},{"is_transit":false,"line":1,"i_lat":-6.155215,"station_name":"Duri","distance":3632,"i_long":106.800832,"transit":false,"station_id":"DU","time":8},{"station_name":"Angke","station_id":"AK","is_transit":false,"time":4,"distance":1230,"i_lat":-6.144674,"i_long":106.79867,"transit":false,"line":1},{"station_name":"Kampung Bandan","is_transit":true,"i_long":106.826365,"transit":true,"time":9,"station_id":"KPB","line":4,"distance":4102,"i_lat":-6.132549},{"transit":true,"i_long":106.812439,"station_id":"JAKK","time":3,"is_transit":true,"i_lat":-6.137569,"distance":1364,"line":2,"station_name":"Jakarta Kota"},{"distance":1264,"station_name":"Jayakarta","time":4,"is_transit":false,"i_long":106.820901,"i_lat":-6.141205,"line":2,"transit":false,"station_id":"JAY"},{"is_transit":false,"station_name":"Manggabesar","distance":1080,"i_lat":-6.149769,"time":2,"station_id":"MGB","i_long":106.82482,"line":2,"transit":false},{"transit":false,"i_lat":-6.160725,"line":2,"distance":906,"is_transit":false,"time":2,"station_id":"SW","station_name":"Sawah Besar","i_long":106.827103}],[{"station_id":"DP","line":2,"transit":false,"i_long":106.816926,"is_transit":false,"station_name":"Depok","distance":0,"time":0,"i_lat":-6.405256},{"is_transit":false,"time":3,"distance":1584,"line":2,"i_lat":-6.391065,"station_id":"DPB","transit":false,"station_name":"Depokbaru","i_long":106.819451},{"transit":false,"is_transit":false,"time":4,"line":2,"i_long":106.831114,"i_lat":-6.369073,"station_name":"Pondok Cina","station_id":"POC","distance":2727},{"i_lat":-6.360749,"station_id":"UI","distance":1109,"is_transit":false,"time":2,"i_long":106.831474,"line":2,"station_name":"Univ. Indonesia","transit":false},{"i_lat":-6.339291,"transit":false,"station_id":"UP","distance":2264,"i_long":106.834175,"is_transit":false,"line":2,"station_name":"Univ. Pancasila","time":3},{"distance":1029,"station_name":"Lenteng Agung","is_transit":false,"transit":false,"station_id":"LNA","time":2,"i_lat":-6.330363,"i_long":106.832616,"line":2},{"transit":false,"i_lat":-6.3080680000000005,"i_long":106.838896,"time":3,"station_name":"Tanjung Barat","distance":2671,"station_id":"TNT","line":2,"is_transit":false},{"station_name":"Pasar Minggu","i_lat":-6.2842400000000005,"i_long":106.843999,"line":2,"is_transit":false,"time":4,"station_id":"PSM","transit":false,"distance":2820},{"distance":2380,"time":2,"transit":false,"station_id":"PSMB","station_name":"Pasar Minggu Baru","is_transit":false,"i_lat":-6.263214,"i_long":106.851577,"line":2},{"station_id":"DRN","time":2,"i_lat":-6.255332,"is_transit":false,"line":2,"i_long":106.85449,"station_name":"Duren Kalibata","transit":false,"distance":824},{"line":2,"i_lat":-6.242512,"station_name":"Cawang","station_id":"CW","i_long":106.856607,"distance":1546,"transit":false,"is_transit":false,"time":3},{"distance":1230,"station_id":"TEB","i_lat":-6.226659,"i_long":106.857948,"transit":false,"time":2,"line":2,"station_name":"Tebet","is_transit":false},{"distance":2610,"i_lat":-6.209883,"transit":true,"i_long":106.84912,"station_id":"MRI","is_transit":true,"line":2,"time":4,"station_name":"Manggarai"},{"distance":1275,"station_name":"Matraman","i_long":106.858896,"line":1,"is_transit":false,"station_id":"MTR","time":2,"i_lat":-6.212485,"transit":false},{"station_name":"Jatinegara","transit":true,"is_transit":true,"time":8,"distance":1377,"i_long":106.86807400000001,"station_id":"JNG","line":1,"i_lat":-6.215091},{"is_transit":false,"time":2,"i_long":106.861737,"line":11,"i_lat":-6.209188,"transit":false,"distance":1236,"station_id":"POK","station_name":"Pondok Jati"},{"is_transit":false,"i_lat":-6.193792,"time":2,"i_long":106.855437,"station_name":"Kramat","distance":1829,"transit":false,"station_id":"KMT","line":11},{"time":1,"i_long":106.850107,"station_name":"Gang Sentiong","transit":false,"is_transit":false,"distance":973,"station_id":"GST","line":11,"i_lat":-6.185975},{"distance":1567,"line":11,"i_lat":-6.174784,"transit":false,"station_id":"PSE","station_name":"Pasar Senen","i_long":106.84368,"time":8,"is_transit":false},{"i_lat":-6.161728,"i_long":106.839204,"line":11,"station_name":"Kemayoran","station_id":"KMO","time":4,"transit":false,"is_transit":false,"distance":1436},{"station_name":"Rajawali","distance":1901,"station_id":"RJW","transit":false,"i_lat":-6.14505,"line":11,"is_transit":false,"time":5,"i_long":106.836569},{"station_name":"Kampung Bandan","time":3,"i_long":106.826365,"i_lat":-6.132549,"is_transit":true,"transit":true,"line":4,"distance":1444,"station_id":"KPB"},{"transit":true,"i_lat":-6.137569,"is_transit":true,"time":3,"station_id":"JAKK","station_name":"Jakarta Kota","distance":1364,"i_long":106.812439,"line":2},{"station_id":"JAY","transit":false,"time":4,"i_long":106.820901,"is_transit":false,"i_lat":-6.141205,"station_name":"Jayakarta","distance":1264,"line":2},{"distance":1080,"is_transit":false,"time":2,"station_name":"Manggabesar","i_long":106.82482,"i_lat":-6.149769,"line":2,"transit":false,"station_id":"MGB"},{"line":2,"distance":906,"i_lat":-6.160725,"station_id":"SW","transit":false,"is_transit":false,"time":2,"station_name":"Sawah Besar","i_long":106.827103}]]}