{"data":[[{"line":2,"time":0,"i_long":106.816926,"station_name":"Depok","is_transit":false,"station_id":"DP","distance":0,"i_lat":-6.405256,"transit":false},{"station_name":"Depokbaru","line":2,"i_lat":-6.391065,"transit":false,"time":3,"is_transit":false,"station_id":"DPB","distance":1584,"i_long":106.819451},{"station_name":"Pondok Cina","line":2,"i_lat":-6.369073,"i_long":106.831114,"is_transit":false,"station_id":"POC","distance":2727,"transit":false,"time":4},{"i_long":106.831474,"transit":false,"station_name":"Univ. Indonesia","i_lat":-6.360749,"station_id":"UI","distance":1109,"time":2,"line":2,"is_transit":false},{"i_lat":-6.339291,"transit":false,"line":2,"distance":2264,"is_transit":false,"station_id":"UP","station_name":"Univ. Pancasila","time":3,"i_long":106.834175},{"station_name":"Lenteng Agung","i_lat":-6.330363,"time":2,"i_long":106.832616,"line":2,"is_transit":false,"station_id":"LNA","transit":false,"distance":1029},{"distance":2671,"line":2,"i_long":106.838896,"station_id":"TNT","transit":false,"time":3,"is_transit":false,"i_lat":-6.3080680000000005,"station_name":"Tanjung Barat"},{"is_transit":false,"station_name":"Pasar Minggu","distance":2820,"time":4,"line":2,"station_id":"PSM","transit":false,"i_lat":-6.2842400000000005,"i_long":106.843999},{"i_lat":-6.263214,"distance":2380,"station_id":"PSMB","station_name":"Pasar Minggu Baru","i_long":106.851577,"transit":false,"time":2,"is_transit":false,"line":2},{"distance":824,"station_id":"DRN","station_name":"Duren Kalibata","i_long":106.85449,"i_lat":-6.255332,"transit":false,"time":2,"is_transit":false,"line":2},{"line":2,"distance":1546,"time":3,"station_id":"CW","i_long":106.856607,"transit":false,"is_transit":false,"station_name":"Cawang","i_lat":-6.242512},{"station_id":"TEB","line":2,"i_lat":-6.226659,"transit":false,"station_name":"Tebet","distance":1230,"time":2,"is_transit":false,"i_long":106.857948},{"i_long":106.84912,"distance":2610,"station_name":"Manggarai","is_transit":true,"station_id":"MRI","i_lat":-6.209883,"line":2,"transit":true,"time":4},{"time":4,"transit":false,"station_id":"SUD","station_name":"Sudirman","i_long":106.822649,"is_transit":false,"i_lat":-6.202263,"distance":3186,"line":1},{"i_lat":-6.201433,"time":1,"station_id":"SUDB","is_transit":false,"station_name":"Sudirman Baru","distance":280,"line":1,"transit":false,"i_long":106.819881},{"distance":471,"transit":false,"is_transit":false,"line":1,"station_name":"Karet","time":1,"station_id":"KAT","i_lat":-6.20132,"i_long":106.816351},{"i_long":106.811091,"station_name":"Tanah Abang","time":5,"station_id":"THB","line":1,"distance":2029,"i_lat":-6.185545,"transit":true,"is_transit":true},{"i_long":106.79689,"line":6,"station_name":"Palmerah","i_lat":-6.207404,"distance":3191,"transit":false,"is_transit":false,"time":6,"station_id":"PLM"},{"distance":3737,"i_long":106.780334,"time":7,"line":6,"i_lat":-6.237242,"station_name":"Kebayoran","transit":false,"station_id":"KBY","is_transit":false},{"is_transit":false,"i_lat":-6.276362,"time":8,"line":6,"transit":false,"station_name":"Pondokranji","station_id":"PDJ","i_long":106.74273,"distance":6218},{"i_lat":-6.288927,"transit":false,"i_long":106.728916,"line":6,"station_name":"Jurangmangu","is_transit":false,"distance":2179,"station_id":"JMU","time":3},{"transit":false,"distance":1994,"is_transit":false,"i_lat":-6.296963,"station_name":"Sudimara","line":6,"time":4,"station_id":"SDM","i_long":106.712277}],[{"station_id":"DP","distance":0,"i_long":106.816926,"line":2,"is_transit":false,"transit":false,"i_lat":-6.405256,"time":0,"station_name":"Depok"},{"line":2,"station_id":"DPB","is_transit":false,"transit":false,"station_name":"Depokbaru","i_long":106.819451,"i_lat":-6.391065,"time":3,"distance":1584},{"distance":2727,"transit":false,"station_id":"POC","time":4,"station_name":"Pondok Cina","is_transit":false,"i_lat":-6.369073,"i_long":106.831114,"line":2},{"time":2,"station_id":"UI","i_lat":-6.360749,"transit":false,"distance":1109,"is_transit":false,"i_long":106.831474,"station_name":"Univ. Indonesia","line":2},{"transit":false,"line":2,"is_transit":false,"station_name":"Univ. Pancasila","distance":2264,"time":3,"i_lat":-6.339291,"station_id":"UP","i_long":106.834175},{"distance":1029,"transit":false,"station_name":"Lenteng Agung","station_id":"LNA","i_lat":-6.330363,"i_long":106.832616,"line":2,"time":2,"is_transit":false},{"station_id":"TNT","i_long":106.838896,"distance":2671,"line":2,"transit":false,"station_name":"Tanjung Barat","is_transit":false,"time":3,"i_lat":-6.3080680000000005},{"i_long":106.843999,"line":2,"station_id":"PSM","time":4,"i_lat":-6.2842400000000005,"is_transit":false,"station_name":"Pasar Minggu","distance":2820,"transit":false},{"i_lat":-6.263214,"time":2,"transit":false,"is_transit":false,"i_long":106.851577,"station_name":"Pasar Minggu Baru","station_id":"PSMB","line":2,"distance":2380},{"i_long":106.85449,"line":2,"station_id":"DRN","station_name":"Duren Kalibata","is_transit":false,"time":2,"distance":824,"i_lat":-6.255332,"transit":false},{"station_id":"CW","distance":1546,"i_lat":-6.242512,"is_transit":false,"station_name":"Cawang","line":2,"i_long":106.856607,"transit":false,"time":3},{"transit":false,"i_lat":-6.226659,"station_name":"Tebet","station_id":"TEB","distance":1230,"is_transit":false,"line":2,"i_long":106.857948,"time":2},{"i_long":106.84912,"line":2,"station_id":"MRI","i_lat":-6.209883,"distance":2610,"station_name":"Manggarai","is_transit":false,"time":4,"transit":false},{"i_long":106.840169,"time":4,"station_name":"Cikini","line":2,"transit":false,"is_transit":false,"distance":1590,"i_lat":-6.198556,"station_id":"CKI"},{"i_lat":-6.186295,"station_id":"GDD","i_long":106.832183,"transit":false,"station_name":"Gondangdia","distance":1750,"time":3,"is_transit":false,"line":2},{"time":4,"i_lat":-6.166716,"line":2,"transit":false,"station_id":"JUA","distance":2015,"is_transit":false,"station_name":"Juanda","i_long":106.828284},{"is_transit":false,"station_name":"Sawah Besar","line":2,"transit":false,"time":2,"station_id":"SW","i_lat":-6.160725,"i_long":106.827103,"distance":1149},{"time":2,"distance":906,"i_lat":-6.149769,"transit":false,"station_name":"Manggabesar","station_id":"MGB","line":2,"i_long":106.82482,"is_transit":false},{"station_id":"JAY","transit":false,"distance":1080,"is_transit":false,"time":2,"i_lat":-6.141205,"line":2,"station_name":"Jayakarta","i_long":106.820901},{"i_lat":-6.137569,"distance":1264,"time":4,"i_long":106.812439,"station_name":"Jakarta Kota","line":2,"is_transit":true,"station_id":"JAKK","transit":true},{"is_transit":true,"time":3,"i_long":106.826365,"station_name":"Kampung Bandan","distance":1364,"transit":true,"line":4,"i_lat":-6.132549,"station_id":"KPB"},{"is_transit":false,"transit":false,"distance":4102,"time":9,"station_id":"AK","i_lat":-6.144674,"i_long":106.79867,"station_name":"Angke","line":1},{"station_name":"Duri","line":1,"transit":false,"time":4,"station_id":"DU","i_long":106.800832,"distance":1230,"is_transit":false,"i_lat":-6.155215},{"is_transit":true,"line":1,"i_lat":-6.185545,"transit":true,"station_name":"Tanah Abang","distance":3632,"station_id":"THB","time":8,"i_long":106.811091},{"i_long":106.79689,"line":6,"transit":false,"is_transit":false,"station_name":"Palmerah","station_id":"PLM","time":6,"distance":3191,"i_lat":-6.207404},{"station_id":"KBY","transit":false,"station_name":"Kebayoran","distance":3737,"i_long":106.780334,"line":6,"is_transit":false,"i_lat":-6.237242,"time":7},{"station_id":"PDJ","distance":6218,"i_lat":-6.276362,"station_name":"Pondokranji","line":6,"is_transit":false,"transit":false,"time":8,"i_long":106.74273},{"i_lat":-6.288927,"is_transit":false,"station_name":"Jurangmangu","distance":2179,"station_id":"JMU","transit":false,"i_long":106.728916,"time":3,"line":6},{"line":6,"time":4,"i_lat":-6.296963,"distance":1994,"i_long":106.712277,"transit":false,"station_id":"SDM","is_transit":false,"station_name":"Sudimara"}],[{"line":2,"transit":false,"i_long":106.816926,"station_name":"Depok","time":0,"station_id":"DP","distance":0,"i_lat":-6.405256,"is_transit":false},{"time":3,"is_transit":false,"i_lat":-6.391065,"transit":false,"station_name":"Depokbaru","line":2,"i_long":106.819451,"station_id":"DPB","distance":1584},{"transit":false,"time":4,"is_transit":false,"distance":2727,"station_name":"Pondok Cina","i_long":106.831114,"i_lat":-6.369073,"line":2,"station_id":"POC"},{"station_name":"Univ. Indonesia","is_transit":false,"i_long":106.831474,"line":2,"station_id":"UI","distance":1109,"i_lat":-6.360749,"time":2,"transit":false},{"line":2,"station_name":"Univ. Pancasila","i_lat":-6.339291,"time":3,"transit":false,"distance":2264,"i_long":106.834175,"station_id":"UP","is_transit":false},{"transit":false,"is_transit":false,"distance":1029,"station_name":"Lenteng Agung","station_id":"LNA","line":2,"i_long":106.832616,"i_lat":-6.330363,"time":2},{"i_lat":-6.3080680000000005,"i_long":106.838896,"distance":2671,"line":2,"time":3,"is_transit":false,"station_id":"TNT","transit":false,"station_name":"Tanjung Barat"},{"i_lat":-6.2842400000000005,"line":2,"is_transit":false,"i_long":106.843999,"station_name":"Pasar Minggu","time":4,"station_id":"PSM","distance":2820,"transit":false},{"station_id":"PSMB","i_lat":-6.263214,"transit":false,"is_transit":false,"time":2,"line":2,"i_long":106.851577,"distance":2380,"station_name":"Pasar Minggu Baru"},{"distance":824,"line":2,"time":2,"i_lat":-6.255332,"station_id":"DRN","station_name":"Duren Kalibata","i_long":106.85449,"transit":false,"is_transit":false},{"line":2,"i_lat":-6.242512,"station_name":"Cawang","transit":false,"distance":1546,"i_long":106.856607,"is_transit":false,"station_id":"CW","time":3},{"i_lat":-6.226659,"station_id":"TEB","transit":false,"line":2,"time":2,"station_name":"Tebet","i_long":106.857948,"is_transit":false,"distance":1230},{"i_lat":-6.209883,"distance":2610,"station_id":"MRI","station_name":"Manggarai","transit":true,"is_transit":true,"line":2,"i_long":106.84912,"time":4},{"station_id":"MTR","i_lat":-6.212485,"transit":false,"station_name":"Matraman","is_transit":false,"line":1,"distance":1275,"time":2,"i_long":106.858896},{"i_lat":-6.215091,"line":1,"is_transit":true,"station_id":"JNG","time":8,"station_name":"Jatinegara","transit":true,"distance":1377,"i_long":106.86807400000001},{"station_name":"Pondok Jati","line":11,"time":2,"i_long":106.861737,"station_id":"POK","transit":false,"i_lat":-6.209188,"distance":1236,"is_transit":false},{"station_name":"Kramat","line":11,"distance":1829,"time":2,"transit":false,"i_lat":-6.193792,"i_long":106.855437,"station_id":"KMT","is_transit":false},{"i_lat":-6.185975,"i_long":106.850107,"transit":false,"distance":973,"is_transit":false,"time":1,"line":11,"station_name":"Gang Sentiong","station_id":"GST"},{"transit":false,"time":8,"i_long":106.84368,"i_lat":-6.174784,"is_transit":false,"station_id":"PSE","station_name":"Pasar Senen","line":11,"distance":1567},{"transit":false,"station_id":"KMO","station_name":"Kemayoran","line":11,"is_transit":false,"i_lat":-6.161728,"i_long":106.839204,"time":4,"distance":1436},{"is_transit":false,"station_id":"RJW","time":5,"distance":1901,"transit":false,"station_name":"Rajawali","i_lat":-6.14505,"i_long":106.836569,"line":11},{"station_id":"KPB","is_transit":true,"i_lat":-6.132549,"station_name":"Kampung Bandan","distance":1444,"transit":true,"i_long":106.826365,"line":4,"time":3},{"station_id":"AK","transit":false,"time":9,"distance":4102,"station_name":"Angke","is_transit":false,"i_long":106.79867,"i_lat":-6.144674,"line":1},{"is_transit":false,"station_name":"Duri","time":4,"line":1,"i_long":106.800832,"station_id":"DU","distance":1230,"i_lat":-6.155215,"transit":false},{"transit":true,"time":8,"is_transit":true,"station_name":"Tanah Abang","distance":3632,"line":1,"station_id":"THB","i_lat":-6.185545,"i_long":106.811091},{"station_id":"PLM","line":6,"i_lat":-6.207404,"is_transit":false,"i_long":106.79689,"transit":false,"station_name":"Palmerah","time":6,"distance":3191},{"transit":false,"distance":3737,"line":6,"i_lat":-6.237242,"station_id":"KBY","is_transit":false,"station_name":"Kebayoran","i_long":106.780334,"time":7},{"i_lat":-6.276362,"time":8,"line":6,"transit":false,"i_long":106.74273,"station_id":"PDJ","station_name":"Pondokranji","is_transit":false,"distance":6218},{"station_id":"JMU","is_transit":false,"line":6,"transit":false,"time":3,"station_name":"Jurangmangu","distance":2179,"i_lat":-6.288927,"i_long":106.728916},{"line":6,"i_long":106.712277,"station_id":"SDM","transit":false,"time":4,"i_lat":-6.296963,"is_transit":false,"station_name":"Sudimara","distance":1994}]]}