{"data":[[{"transit":false,"is_transit":false,"i_lat":-6.405256,"i_long":106.816926,"distance":0,"line":0,"station_name":"Depok","station_id":"DP","time":0},{"distance":1584,"transit":false,"time":3,"station_name":"Depokbaru","i_long":106.819451,"i_lat":-6.391065,"is_transit":false,"line":0,"station_id":"DPB"},{"station_name":"Pondok Cina","i_long":106.831114,"time":4,"distance":2727,"i_lat":-6.369073,"is_transit":false,"transit":false,"line":2,"station_id":"POC"},{"line":2,"is_transit":false,"i_long":106.831474,"transit":false,"station_name":"Univ. Indonesia","distance":1109,"station_id":"UI","time":2,"i_lat":-6.360749},{"line":2,"station_name":"Univ. Pancasila","i_long":106.834175,"distance":2264,"i_lat":-6.339291,"transit":false,"station_id":"UP","is_transit":false,"time":3},{"station_name":"Lenteng Agung","time":2,"is_transit":false,"transit":false,"i_lat":-6.330363,"line":2,"station_id":"LNA","i_long":106.832616,"distance":1029},{"i_long":106.838896,"transit":false,"is_transit":false,"i_lat":-6.3080680000000005,"line":2,"station_name":"Tanjung Barat","station_id":"TNT","distance":2671,"time":3},{"transit":false,"distance":2820,"station_id":"PSM","i_lat":-6.2842400000000005,"i_long":106.843999,"line":2,"time":4,"station_name":"Pasar Minggu","is_transit":false},{"i_long":106.851577,"line":2,"transit":false,"distance":2380,"i_lat":-6.263214,"is_transit":false,"time":2,"station_id":"PSMB","station_name":"Pasar Minggu Baru"},{"i_long":106.85449,"distance":824,"i_lat":-6.255332,"station_id":"DRN","line":0,"is_transit":false,"time":2,"transit":false,"station_name":"Duren Kalibata"},{"distance":1546,"i_lat":-6.242512,"time":3,"transit":false,"station_name":"Cawang","i_long":106.856607,"is_transit":false,"station_id":"CW","line":0},{"transit":false,"line":2,"station_id":"TEB","time":2,"distance":1230,"i_long":106.857948,"i_lat":-6.226659,"station_name":"Tebet","is_transit":false},{"transit":true,"i_lat":-6.209883,"station_name":"Manggarai","i_long":106.84912,"line":0,"time":4,"distance":2610,"is_transit":true,"station_id":"MRI"},{"time":4,"is_transit":false,"station_id":"CKI","station_name":"Cikini","i_long":106.840169,"line":0,"transit":false,"i_lat":-6.198556,"distance":1590},{"station_name":"Gondangdia","time":3,"distance":1750,"transit":false,"is_transit":false,"i_lat":-6.186295,"station_id":"GDD","i_long":106.832183,"line":2},{"i_long":106.828284,"line":2,"time":4,"station_id":"JUA","is_transit":false,"i_lat":-6.166716,"station_name":"Juanda","distance":2015,"transit":false},{"station_id":"SW","transit":false,"i_lat":-6.160725,"is_transit":false,"line":2,"i_long":106.827103,"station_name":"Sawah Besar","distance":1149,"time":2}],[{"transit":false,"i_long":106.816926,"station_name":"Depok","distance":0,"is_transit":false,"time":0,"station_id":"DP","line":0,"i_lat":-6.405256},{"line":0,"transit":false,"is_transit":false,"i_lat":-6.391065,"station_id":"DPB","distance":1584,"time":3,"station_name":"Depokbaru","i_long":106.819451},{"i_lat":-6.369073,"line":2,"station_id":"POC","distance":2727,"transit":false,"i_long":106.831114,"station_name":"Pondok Cina","is_transit":false,"time":4},{"is_transit":false,"station_id":"UI","distance":1109,"transit":false,"i_lat":-6.360749,"i_long":106.831474,"time":2,"station_name":"Univ. Indonesia","line":2},{"distance":2264,"transit":false,"i_lat":-6.339291,"is_transit":false,"line":2,"station_id":"UP","time":3,"station_name":"Univ. Pancasila","i_long":106.834175},{"time":2,"line":2,"transit":false,"is_transit":false,"i_long":106.832616,"distance":1029,"station_id":"LNA","i_lat":-6.330363,"station_name":"Lenteng Agung"},{"distance":2671,"station_name":"Tanjung Barat","time":3,"is_transit":false,"station_id":"TNT","i_long":106.838896,"line":2,"transit":false,"i_lat":-6.3080680000000005},{"station_id":"PSM","transit":false,"i_lat":-6.2842400000000005,"is_transit":false,"time":4,"i_long":106.843999,"station_name":"Pasar Minggu","distance":2820,"line":2},{"i_lat":-6.263214,"line":2,"i_long":106.851577,"station_name":"Pasar Minggu Baru","is_transit":false,"time":2,"distance":2380,"transit":false,"station_id":"PSMB"},{"line":0,"i_long":106.85449,"is_transit":false,"transit":false,"distance":824,"time":2,"station_name":"Duren Kalibata","i_lat":-6.255332,"station_id":"DRN"},{"station_name":"Cawang","line":0,"time":3,"distance":1546,"is_transit":false,"transit":false,"i_lat":-6.242512,"i_long":106.856607,"station_id":"CW"},{"station_id":"TEB","time":2,"line":2,"distance":1230,"is_transit":false,"i_lat":-6.226659,"i_long":106.857948,"transit":false,"station_name":"Tebet"},{"station_name":"Manggarai","station_id":"MRI","transit":true,"i_lat":-6.209883,"i_long":106.84912,"time":4,"is_transit":true,"distance":2610,"line":0},{"is_transit":false,"distance":3186,"i_long":106.822649,"station_name":"Sudirman","line":1,"time":4,"transit":false,"i_lat":-6.202263,"station_id":"SUD"},{"time":1,"i_lat":-6.201433,"station_id":"SUDB","transit":false,"station_name":"Sudirman Baru","is_transit":false,"distance":280,"i_long":106.819881,"line":1},{"distance":471,"station_name":"Karet","transit":false,"station_id":"KAT","i_lat":-6.20132,"line":1,"i_long":106.816351,"time":1,"is_transit":false},{"line":1,"station_id":"THB","distance":2029,"time":5,"station_name":"Tanah Abang","transit":false,"i_long":106.811091,"i_lat":-6.185545,"is_transit":true},{"distance":3632,"is_transit":true,"i_lat":-6.155215,"station_id":"DU","station_name":"Duri","line":1,"transit":true,"time":8,"i_long":106.800832},{"transit":false,"i_lat":-6.144674,"station_name":"Angke","station_id":"AK","i_long":106.79867,"is_transit":false,"time":4,"distance":1230,"line":0},{"transit":false,"station_name":"Kampung Bandan","is_transit":true,"distance":4102,"i_long":106.826365,"line":0,"station_id":"KPB","time":9,"i_lat":-6.132549},{"time":3,"transit":true,"line":0,"station_name":"Jakarta Kota","i_long":106.812439,"i_lat":-6.137569,"is_transit":true,"station_id":"JAKK","distance":1364},{"station_name":"Jayakarta","line":7,"distance":1264,"is_transit":false,"i_lat":-6.141205,"station_id":"JAY","transit":false,"time":4,"i_long":106.820901},{"line":2,"i_long":106.82482,"station_id":"MGB","station_name":"Manggabesar","is_transit":false,"i_lat":-6.149769,"distance":1080,"time":2,"transit":false},{"station_id":"SW","time":2,"is_transit":false,"station_name":"Sawah Besar","distance":906,"transit":false,"i_lat":-6.160725,"i_long":106.827103,"line":2}],[{"distance":0,"is_transit":false,"station_id":"DP","i_lat":-6.405256,"i_long":106.816926,"station_name":"Depok","time":0,"transit":false,"line":0},{"transit":false,"is_transit":false,"station_name":"Depokbaru","station_id":"DPB","time":3,"distance":1584,"i_long":106.819451,"line":0,"i_lat":-6.391065},{"time":4,"station_id":"POC","station_name":"Pondok Cina","i_long":106.831114,"distance":2727,"line":2,"transit":false,"is_transit":false,"i_lat":-6.369073},{"is_transit":false,"i_lat":-6.360749,"station_name":"Univ. Indonesia","time":2,"transit":false,"station_id":"UI","distance":1109,"line":2,"i_long":106.831474},{"line":2,"distance":2264,"i_long":106.834175,"is_transit":false,"time":3,"station_id":"UP","transit":false,"station_name":"Univ. Pancasila","i_lat":-6.339291},{"transit":false,"station_name":"Lenteng Agung","is_transit":false,"station_id":"LNA","time":2,"distance":1029,"i_lat":-6.330363,"i_long":106.832616,"line":2},{"is_transit":false,"i_lat":-6.3080680000000005,"station_id":"TNT","transit":false,"i_long":106.838896,"line":2,"station_name":"Tanjung Barat","time":3,"distance":2671},{"transit":false,"i_lat":-6.2842400000000005,"line":2,"station_name":"Pasar Minggu","time":4,"is_transit":false,"i_long":106.843999,"distance":2820,"station_id":"PSM"},{"is_transit":false,"line":2,"i_long":106.851577,"i_lat":-6.263214,"station_name":"Pasar Minggu Baru","distance":2380,"time":2,"transit":false,"station_id":"PSMB"},{"station_id":"DRN","transit":false,"line":0,"i_lat":-6.255332,"is_transit":false,"distance":824,"time":2,"i_long":106.85449,"station_name":"Duren Kalibata"},{"i_long":106.856607,"transit":false,"is_transit":false,"station_name":"Cawang","line":0,"distance":1546,"station_id":"CW","time":3,"i_lat":-6.242512},{"is_transit":false,"distance":1230,"transit":false,"i_lat":-6.226659,"i_long":106.857948,"station_name":"Tebet","time":2,"line":2,"station_id":"TEB"},{"is_transit":true,"station_name":"Manggarai","station_id":"MRI","transit":true,"i_lat":-6.209883,"time":4,"distance":2610,"i_long":106.84912,"line":0},{"i_long":106.858896,"transit":false,"is_transit":false,"i_lat":-6.212485,"station_id":"MTR","station_name":"Matraman","distance":1275,"time":2,"line":1},{"line":0,"time":8,"station_name":"Jatinegara","distance":1377,"i_lat":-6.215091,"transit":true,"station_id":"JNG","i_long":106.86807400000001,"is_transit":true},{"i_lat":-6.209188,"station_id":"POK","line":11,"distance":1236,"time":2,"transit":false,"i_long":106.861737,"is_transit":false,"station_name":"Pondok Jati"},{"is_transit":false,"transit":false,"station_id":"KMT","i_lat":-6.193792,"line":11,"time":2,"station_name":"Kramat","distance":1829,"i_long":106.855437},{"is_transit":false,"transit":false,"i_long":106.850107,"distance":973,"time":1,"i_lat":-6.185975,"line":11,"station_id":"GST","station_name":"Gang Sentiong"},{"station_id":"PSE","time":8,"i_lat":-6.174784,"station_name":"Pasar Senen","distance":1567,"transit":false,"i_long":106.84368,"line":11,"is_transit":false},{"line":11,"is_transit":false,"station_id":"KMO","transit":false,"i_lat":-6.161728,"time":4,"distance":1436,"i_long":106.839204,"station_name":"Kemayoran"},{"distance":1901,"station_name":"Rajawali","time":5,"transit":false,"i_lat":-6.14505,"station_id":"RJW","i_long":106.836569,"is_transit":false,"line":11},{"station_name":"Kampung Bandan","line":0,"distance":1444,"transit":true,"i_long":106.826365,"is_transit":true,"i_lat":-6.132549,"time":3,"station_id":"KPB"},{"time":3,"is_transit":true,"i_long":106.812439,"station_id":"JAKK","line":0,"station_name":"Jakarta Kota","transit":true,"i_lat":-6.137569,"distance":1364},{"transit":false,"is_transit":false,"distance":1264,"station_id":"JAY","line":7,"time":4,"i_long":106.820901,"i_lat":-6.141205,"station_name":"Jayakarta"},{"time":2,"station_name":"Manggabesar","is_transit":false,"i_long":106.82482,"distance":1080,"transit":false,"i_lat":-6.149769,"station_id":"MGB","line":2},{"station_id":"SW","i_long":106.827103,"is_transit":false,"time":2,"station_name":"Sawah Besar","distance":906,"transit":false,"line":2,"i_lat":-6.160725}]]}