{"data":[[{"is_transit":false,"time":0,"i_lat":-6.405256,"line":0,"station_name":"Depok","station_id":"DP","transit":false,"distance":0,"i_long":106.816926},{"is_transit":false,"station_id":"DPB","distance":1584,"i_long":106.819451,"line":0,"transit":false,"time":3,"station_name":"Depokbaru","i_lat":-6.391065},{"distance":2727,"station_name":"Pondok Cina","station_id":"POC","time":4,"transit":false,"i_long":106.831114,"is_transit":false,"line":2,"i_lat":-6.369073},{"transit":false,"i_long":106.831474,"time":2,"line":2,"i_lat":-6.360749,"station_name":"Univ. Indonesia","distance":1109,"station_id":"UI","is_transit":false},{"i_lat":-6.339291,"is_transit":false,"station_name":"Univ. Pancasila","distance":2264,"i_long":106.834175,"transit":false,"station_id":"UP","line":2,"time":3},{"station_id":"LNA","is_transit":false,"distance":1029,"transit":false,"i_lat":-6.330363,"line":2,"time":2,"station_name":"Lenteng Agung","i_long":106.832616},{"time":3,"i_lat":-6.3080680000000005,"distance":2671,"station_name":"Tanjung Barat","is_transit":false,"line":2,"transit":false,"i_long":106.838896,"station_id":"TNT"},{"time":4,"line":2,"transit":false,"distance":2820,"i_lat":-6.2842400000000005,"i_long":106.843999,"is_transit":false,"station_id":"PSM","station_name":"Pasar Minggu"},{"i_lat":-6.263214,"i_long":106.851577,"transit":false,"distance":2380,"time":2,"station_name":"Pasar Minggu Baru","line":2,"is_transit":false,"station_id":"PSMB"},{"distance":824,"i_long":106.85449,"station_id":"DRN","i_lat":-6.255332,"station_name":"Duren Kalibata","line":0,"transit":false,"is_transit":false,"time":2},{"station_id":"CW","line":0,"i_lat":-6.242512,"time":3,"distance":1546,"station_name":"Cawang","transit":false,"is_transit":false,"i_long":106.856607},{"station_id":"TEB","line":2,"station_name":"Tebet","i_lat":-6.226659,"transit":false,"time":2,"i_long":106.857948,"distance":1230,"is_transit":false},{"is_transit":true,"i_long":106.84912,"i_lat":-6.209883,"distance":2610,"transit":true,"line":0,"station_id":"MRI","time":4,"station_name":"Manggarai"},{"station_name":"Sudirman","is_transit":false,"distance":3186,"i_lat":-6.202263,"station_id":"SUD","time":4,"transit":false,"i_long":106.822649,"line":1},{"distance":280,"i_long":106.819881,"i_lat":-6.201433,"line":1,"station_id":"SUDB","station_name":"Sudirman Baru","is_transit":false,"transit":false,"time":1},{"line":1,"station_id":"KAT","station_name":"Karet","is_transit":false,"transit":false,"distance":471,"i_long":106.816351,"time":1,"i_lat":-6.20132},{"transit":false,"time":5,"distance":2029,"is_transit":true,"station_name":"Tanah Abang","i_lat":-6.185545,"line":1,"station_id":"THB","i_long":106.811091}],[{"i_long":106.816926,"station_id":"DP","station_name":"Depok","line":0,"time":0,"i_lat":-6.405256,"distance":0,"transit":false,"is_transit":false},{"is_transit":false,"time":3,"distance":1584,"transit":false,"station_name":"Depokbaru","i_lat":-6.391065,"i_long":106.819451,"line":0,"station_id":"DPB"},{"i_lat":-6.369073,"station_name":"Pondok Cina","station_id":"POC","time":4,"is_transit":false,"transit":false,"distance":2727,"line":2,"i_long":106.831114},{"is_transit":false,"station_id":"UI","time":2,"distance":1109,"i_long":106.831474,"station_name":"Univ. Indonesia","i_lat":-6.360749,"transit":false,"line":2},{"station_id":"UP","i_long":106.834175,"time":3,"is_transit":false,"transit":false,"station_name":"Univ. Pancasila","i_lat":-6.339291,"distance":2264,"line":2},{"line":2,"is_transit":false,"distance":1029,"i_long":106.832616,"time":2,"transit":false,"station_name":"Lenteng Agung","i_lat":-6.330363,"station_id":"LNA"},{"transit":false,"is_transit":false,"distance":2671,"station_name":"Tanjung Barat","time":3,"i_lat":-6.3080680000000005,"station_id":"TNT","line":2,"i_long":106.838896},{"i_lat":-6.2842400000000005,"station_id":"PSM","i_long":106.843999,"transit":false,"station_name":"Pasar Minggu","is_transit":false,"line":2,"time":4,"distance":2820},{"i_lat":-6.263214,"is_transit":false,"station_id":"PSMB","transit":false,"station_name":"Pasar Minggu Baru","line":2,"i_long":106.851577,"time":2,"distance":2380},{"time":2,"station_id":"DRN","line":0,"i_long":106.85449,"station_name":"Duren Kalibata","i_lat":-6.255332,"is_transit":false,"transit":false,"distance":824},{"i_lat":-6.242512,"station_id":"CW","i_long":106.856607,"time":3,"distance":1546,"station_name":"Cawang","transit":false,"is_transit":false,"line":0},{"distance":1230,"station_id":"TEB","time":2,"station_name":"Tebet","i_long":106.857948,"transit":false,"line":2,"is_transit":false,"i_lat":-6.226659},{"i_long":106.84912,"line":0,"transit":true,"time":4,"station_name":"Manggarai","station_id":"MRI","i_lat":-6.209883,"distance":2610,"is_transit":true},{"line":0,"distance":1590,"i_lat":-6.198556,"is_transit":false,"transit":false,"time":4,"station_name":"Cikini","i_long":106.840169,"station_id":"CKI"},{"distance":1750,"transit":false,"station_name":"Gondangdia","line":2,"i_long":106.832183,"time":3,"i_lat":-6.186295,"station_id":"GDD","is_transit":false},{"i_long":106.828284,"time":4,"transit":false,"distance":2015,"is_transit":false,"i_lat":-6.166716,"station_name":"Juanda","station_id":"JUA","line":2},{"time":2,"distance":1149,"line":2,"station_id":"SW","station_name":"Sawah Besar","is_transit":false,"i_long":106.827103,"transit":false,"i_lat":-6.160725},{"i_long":106.82482,"distance":906,"transit":false,"i_lat":-6.149769,"line":2,"is_transit":false,"time":2,"station_id":"MGB","station_name":"Manggabesar"},{"i_long":106.820901,"distance":1080,"i_lat":-6.141205,"station_name":"Jayakarta","time":2,"station_id":"JAY","line":7,"transit":false,"is_transit":false},{"station_name":"Jakarta Kota","transit":true,"distance":1264,"i_lat":-6.137569,"i_long":106.812439,"time":4,"is_transit":true,"line":0,"station_id":"JAKK"},{"distance":1364,"station_id":"KPB","time":3,"station_name":"Kampung Bandan","is_transit":true,"i_long":106.826365,"line":0,"i_lat":-6.132549,"transit":false},{"is_transit":false,"station_name":"Angke","i_lat":-6.144674,"station_id":"AK","time":9,"line":0,"i_long":106.79867,"transit":false,"distance":4102},{"transit":true,"station_id":"DU","i_lat":-6.155215,"i_long":106.800832,"is_transit":true,"distance":1230,"time":4,"station_name":"Duri","line":1},{"time":8,"transit":false,"station_name":"Tanah Abang","i_lat":-6.185545,"distance":3632,"station_id":"THB","i_long":106.811091,"line":1,"is_transit":true}],[{"transit":false,"distance":0,"station_name":"Depok","is_transit":false,"i_long":106.816926,"line":0,"time":0,"i_lat":-6.405256,"station_id":"DP"},{"time":3,"station_id":"DPB","transit":false,"is_transit":false,"line":0,"distance":1584,"station_name":"Depokbaru","i_lat":-6.391065,"i_long":106.819451},{"time":4,"distance":2727,"station_name":"Pondok Cina","i_lat":-6.369073,"station_id":"POC","transit":false,"line":2,"i_long":106.831114,"is_transit":false},{"distance":1109,"is_transit":false,"time":2,"station_id":"UI","line":2,"station_name":"Univ. Indonesia","i_long":106.831474,"i_lat":-6.360749,"transit":false},{"is_transit":false,"i_long":106.834175,"time":3,"transit":false,"i_lat":-6.339291,"station_name":"Univ. Pancasila","station_id":"UP","distance":2264,"line":2},{"transit":false,"station_name":"Lenteng Agung","i_lat":-6.330363,"time":2,"distance":1029,"i_long":106.832616,"station_id":"LNA","is_transit":false,"line":2},{"line":2,"transit":false,"station_name":"Tanjung Barat","station_id":"TNT","time":3,"i_lat":-6.3080680000000005,"i_long":106.838896,"distance":2671,"is_transit":false},{"distance":2820,"transit":false,"i_lat":-6.2842400000000005,"station_id":"PSM","time":4,"line":2,"station_name":"Pasar Minggu","is_transit":false,"i_long":106.843999},{"distance":2380,"station_name":"Pasar Minggu Baru","is_transit":false,"i_lat":-6.263214,"station_id":"PSMB","time":2,"transit":false,"i_long":106.851577,"line":2},{"is_transit":false,"station_name":"Duren Kalibata","transit":false,"station_id":"DRN","time":2,"i_lat":-6.255332,"distance":824,"i_long":106.85449,"line":0},{"i_lat":-6.242512,"station_name":"Cawang","station_id":"CW","is_transit":false,"distance":1546,"i_long":106.856607,"time":3,"line":0,"transit":false},{"station_name":"Tebet","station_id":"TEB","i_lat":-6.226659,"line":2,"is_transit":false,"distance":1230,"transit":false,"i_long":106.857948,"time":2},{"transit":true,"station_id":"MRI","station_name":"Manggarai","is_transit":true,"time":4,"i_lat":-6.209883,"line":0,"i_long":106.84912,"distance":2610},{"time":2,"transit":false,"distance":1275,"i_lat":-6.212485,"i_long":106.858896,"station_name":"Matraman","line":1,"is_transit":false,"station_id":"MTR"},{"station_id":"JNG","i_lat":-6.215091,"is_transit":true,"distance":1377,"transit":true,"i_long":106.86807400000001,"line":0,"station_name":"Jatinegara","time":8},{"station_id":"POK","time":2,"station_name":"Pondok Jati","i_lat":-6.209188,"i_long":106.861737,"transit":false,"is_transit":false,"line":11,"distance":1236},{"distance":1829,"i_long":106.855437,"is_transit":false,"transit":false,"station_name":"Kramat","station_id":"KMT","i_lat":-6.193792,"time":2,"line":11},{"time":1,"distance":973,"station_id":"GST","station_name":"Gang Sentiong","i_lat":-6.185975,"line":11,"i_long":106.850107,"is_transit":false,"transit":false},{"station_id":"PSE","i_long":106.84368,"is_transit":false,"transit":false,"time":8,"distance":1567,"i_lat":-6.174784,"station_name":"Pasar Senen","line":11},{"distance":1436,"i_long":106.839204,"station_name":"Kemayoran","time":4,"station_id":"KMO","is_transit":false,"i_lat":-6.161728,"line":11,"transit":false},{"station_id":"RJW","is_transit":false,"transit":false,"time":5,"station_name":"Rajawali","i_lat":-6.14505,"i_long":106.836569,"line":11,"distance":1901},{"station_id":"KPB","time":3,"i_lat":-6.132549,"i_long":106.826365,"transit":true,"line":0,"is_transit":true,"distance":1444,"station_name":"Kampung Bandan"},{"time":9,"station_id":"AK","station_name":"Angke","distance":4102,"i_long":106.79867,"is_transit":false,"line":0,"i_lat":-6.144674,"transit":false},{"i_long":106.800832,"transit":true,"time":4,"station_name":"Duri","is_transit":true,"i_lat":-6.155215,"station_id":"DU","distance":1230,"line":1},{"is_transit":true,"station_name":"Tanah Abang","line":1,"time":8,"transit":false,"distance":3632,"i_lat":-6.185545,"i_long":106.811091,"station_id":"THB"}]]}