{"data":[[{"transit":false,"is_transit":false,"time":0,"line":2,"station_name":"Depok","i_long":106.816926,"distance":0,"i_lat":-6.405256,"station_id":"DP"},{"station_name":"Depokbaru","distance":1584,"i_lat":-6.391065,"line":2,"time":3,"i_long":106.819451,"transit":false,"station_id":"DPB","is_transit":false},{"line":2,"time":4,"is_transit":false,"distance":2727,"station_id":"POC","station_name":"Pondok Cina","transit":false,"i_lat":-6.369073,"i_long":106.831114},{"time":2,"is_transit":false,"station_id":"UI","i_long":106.831474,"distance":1109,"transit":false,"line":2,"station_name":"Univ. Indonesia","i_lat":-6.360749},{"is_transit":false,"transit":false,"i_long":106.834175,"station_name":"Univ. Pancasila","line":2,"distance":2264,"i_lat":-6.339291,"station_id":"UP","time":3},{"i_long":106.832616,"station_name":"Lenteng Agung","is_transit":false,"line":2,"distance":1029,"time":2,"transit":false,"station_id":"LNA","i_lat":-6.330363},{"line":2,"station_id":"TNT","is_transit":false,"distance":2671,"i_long":106.838896,"i_lat":-6.3080680000000005,"transit":false,"station_name":"Tanjung Barat","time":3},{"time":4,"i_long":106.843999,"station_name":"Pasar Minggu","line":2,"distance":2820,"transit":false,"station_id":"PSM","i_lat":-6.2842400000000005,"is_transit":false},{"is_transit":false,"distance":2380,"i_lat":-6.263214,"i_long":106.851577,"station_name":"Pasar Minggu Baru","time":2,"transit":false,"line":2,"station_id":"PSMB"},{"station_id":"DRN","time":2,"i_lat":-6.255332,"transit":false,"is_transit":false,"station_name":"Duren Kalibata","distance":824,"i_long":106.85449,"line":2},{"i_lat":-6.242512,"transit":false,"is_transit":false,"station_name":"Cawang","i_long":106.856607,"time":3,"distance":1546,"line":2,"station_id":"CW"},{"time":2,"station_name":"Tebet","station_id":"TEB","transit":false,"distance":1230,"line":2,"i_lat":-6.226659,"is_transit":false,"i_long":106.857948},{"i_long":106.84912,"line":2,"distance":2610,"transit":true,"station_id":"MRI","station_name":"Manggarai","i_lat":-6.209883,"is_transit":true,"time":4},{"i_lat":-6.202263,"distance":3186,"station_id":"SUD","time":4,"line":1,"i_long":106.822649,"transit":false,"is_transit":false,"station_name":"Sudirman"},{"station_id":"SUDB","line":1,"i_long":106.819881,"station_name":"Sudirman Baru","transit":false,"time":1,"i_lat":-6.201433,"distance":280,"is_transit":false},{"distance":471,"station_id":"KAT","i_lat":-6.20132,"line":1,"is_transit":false,"time":1,"transit":false,"station_name":"Karet","i_long":106.816351},{"i_long":106.811091,"distance":2029,"station_name":"Tanah Abang","transit":false,"is_transit":false,"i_lat":-6.185545,"line":1,"station_id":"THB","time":5}],[{"i_lat":-6.405256,"transit":false,"time":0,"line":2,"station_name":"Depok","is_transit":false,"i_long":106.816926,"station_id":"DP","distance":0},{"station_id":"DPB","i_lat":-6.391065,"distance":1584,"station_name":"Depokbaru","i_long":106.819451,"transit":false,"is_transit":false,"time":3,"line":2},{"is_transit":false,"i_lat":-6.369073,"station_name":"Pondok Cina","i_long":106.831114,"distance":2727,"station_id":"POC","line":2,"time":4,"transit":false},{"time":2,"i_long":106.831474,"station_name":"Univ. Indonesia","transit":false,"station_id":"UI","distance":1109,"is_transit":false,"line":2,"i_lat":-6.360749},{"is_transit":false,"time":3,"i_lat":-6.339291,"i_long":106.834175,"line":2,"distance":2264,"station_id":"UP","transit":false,"station_name":"Univ. Pancasila"},{"distance":1029,"station_id":"LNA","i_lat":-6.330363,"transit":false,"is_transit":false,"station_name":"Lenteng Agung","line":2,"i_long":106.832616,"time":2},{"station_id":"TNT","time":3,"distance":2671,"transit":false,"is_transit":false,"station_name":"Tanjung Barat","i_lat":-6.3080680000000005,"line":2,"i_long":106.838896},{"time":4,"station_name":"Pasar Minggu","i_lat":-6.2842400000000005,"i_long":106.843999,"line":2,"transit":false,"is_transit":false,"distance":2820,"station_id":"PSM"},{"station_id":"PSMB","is_transit":false,"station_name":"Pasar Minggu Baru","i_lat":-6.263214,"transit":false,"i_long":106.851577,"line":2,"distance":2380,"time":2},{"transit":false,"time":2,"distance":824,"station_name":"Duren Kalibata","i_lat":-6.255332,"station_id":"DRN","is_transit":false,"i_long":106.85449,"line":2},{"i_long":106.856607,"is_transit":false,"time":3,"i_lat":-6.242512,"distance":1546,"transit":false,"station_name":"Cawang","station_id":"CW","line":2},{"station_id":"TEB","station_name":"Tebet","i_long":106.857948,"distance":1230,"transit":false,"is_transit":false,"time":2,"i_lat":-6.226659,"line":2},{"is_transit":false,"time":4,"station_id":"MRI","i_long":106.84912,"station_name":"Manggarai","transit":false,"line":2,"i_lat":-6.209883,"distance":2610},{"i_lat":-6.198556,"distance":1590,"i_long":106.840169,"station_name":"Cikini","transit":false,"line":2,"station_id":"CKI","is_transit":false,"time":4},{"distance":1750,"time":3,"i_long":106.832183,"line":2,"transit":false,"station_id":"GDD","station_name":"Gondangdia","i_lat":-6.186295,"is_transit":false},{"distance":2015,"transit":false,"i_long":106.828284,"station_id":"JUA","is_transit":false,"time":4,"i_lat":-6.166716,"station_name":"Juanda","line":2},{"line":2,"time":2,"i_long":106.827103,"i_lat":-6.160725,"transit":false,"station_id":"SW","station_name":"Sawah Besar","distance":1149,"is_transit":false},{"station_id":"MGB","line":2,"i_long":106.82482,"transit":false,"distance":906,"i_lat":-6.149769,"is_transit":false,"time":2,"station_name":"Manggabesar"},{"time":2,"line":2,"i_lat":-6.141205,"station_id":"JAY","is_transit":false,"transit":false,"station_name":"Jayakarta","distance":1080,"i_long":106.820901},{"line":2,"distance":1264,"is_transit":true,"transit":true,"i_long":106.812439,"time":4,"station_id":"JAKK","station_name":"Jakarta Kota","i_lat":-6.137569},{"i_long":106.826365,"station_id":"KPB","is_transit":true,"line":4,"transit":true,"i_lat":-6.132549,"time":3,"station_name":"Kampung Bandan","distance":1364},{"station_id":"AK","distance":4102,"time":9,"line":1,"i_long":106.79867,"station_name":"Angke","is_transit":false,"transit":false,"i_lat":-6.144674},{"station_id":"DU","time":4,"i_lat":-6.155215,"distance":1230,"transit":false,"is_transit":false,"station_name":"Duri","line":1,"i_long":106.800832},{"station_name":"Tanah Abang","line":1,"is_transit":false,"time":8,"i_lat":-6.185545,"i_long":106.811091,"transit":false,"distance":3632,"station_id":"THB"}],[{"distance":0,"is_transit":false,"station_name":"Depok","i_long":106.816926,"time":0,"i_lat":-6.405256,"transit":false,"station_id":"DP","line":2},{"i_lat":-6.391065,"i_long":106.819451,"transit":false,"line":2,"is_transit":false,"time":3,"station_name":"Depokbaru","station_id":"DPB","distance":1584},{"line":2,"transit":false,"time":4,"station_name":"Pondok Cina","i_lat":-6.369073,"distance":2727,"is_transit":false,"i_long":106.831114,"station_id":"POC"},{"station_id":"UI","time":2,"is_transit":false,"station_name":"Univ. Indonesia","line":2,"transit":false,"distance":1109,"i_lat":-6.360749,"i_long":106.831474},{"is_transit":false,"i_long":106.834175,"station_id":"UP","transit":false,"i_lat":-6.339291,"station_name":"Univ. Pancasila","line":2,"time":3,"distance":2264},{"is_transit":false,"i_long":106.832616,"time":2,"station_id":"LNA","transit":false,"station_name":"Lenteng Agung","distance":1029,"i_lat":-6.330363,"line":2},{"time":3,"i_lat":-6.3080680000000005,"is_transit":false,"transit":false,"station_id":"TNT","station_name":"Tanjung Barat","line":2,"distance":2671,"i_long":106.838896},{"line":2,"station_name":"Pasar Minggu","distance":2820,"station_id":"PSM","transit":false,"time":4,"is_transit":false,"i_lat":-6.2842400000000005,"i_long":106.843999},{"time":2,"i_lat":-6.263214,"i_long":106.851577,"is_transit":false,"transit":false,"station_id":"PSMB","distance":2380,"line":2,"station_name":"Pasar Minggu Baru"},{"time":2,"line":2,"station_name":"Duren Kalibata","is_transit":false,"i_lat":-6.255332,"transit":false,"i_long":106.85449,"distance":824,"station_id":"DRN"},{"i_lat":-6.242512,"i_long":106.856607,"is_transit":false,"time":3,"station_id":"CW","station_name":"Cawang","transit":false,"distance":1546,"line":2},{"i_lat":-6.226659,"is_transit":false,"station_name":"Tebet","station_id":"TEB","transit":false,"time":2,"i_long":106.857948,"distance":1230,"line":2},{"time":4,"station_id":"MRI","i_long":106.84912,"i_lat":-6.209883,"line":2,"station_name":"Manggarai","is_transit":true,"distance":2610,"transit":true},{"i_lat":-6.212485,"i_long":106.858896,"line":1,"station_id":"MTR","time":2,"is_transit":false,"station_name":"Matraman","transit":false,"distance":1275},{"station_id":"JNG","is_transit":true,"transit":true,"i_lat":-6.215091,"i_long":106.86807400000001,"time":8,"line":1,"station_name":"Jatinegara","distance":1377},{"time":2,"i_long":106.861737,"line":11,"distance":1236,"i_lat":-6.209188,"station_id":"POK","station_name":"Pondok Jati","transit":false,"is_transit":false},{"station_id":"KMT","transit":false,"is_transit":false,"time":2,"station_name":"Kramat","i_long":106.855437,"i_lat":-6.193792,"line":11,"distance":1829},{"distance":973,"station_name":"Gang Sentiong","station_id":"GST","i_lat":-6.185975,"transit":false,"is_transit":false,"time":1,"i_long":106.850107,"line":11},{"is_transit":false,"station_name":"Pasar Senen","distance":1567,"i_lat":-6.174784,"station_id":"PSE","i_long":106.84368,"time":8,"transit":false,"line":11},{"is_transit":false,"time":4,"transit":false,"distance":1436,"station_id":"KMO","i_long":106.839204,"i_lat":-6.161728,"line":11,"station_name":"Kemayoran"},{"transit":false,"is_transit":false,"time":5,"distance":1901,"i_long":106.836569,"station_id":"RJW","line":11,"station_name":"Rajawali","i_lat":-6.14505},{"i_lat":-6.132549,"is_transit":true,"transit":true,"time":3,"distance":1444,"station_id":"KPB","station_name":"Kampung Bandan","line":4,"i_long":106.826365},{"time":9,"distance":4102,"station_id":"AK","i_lat":-6.144674,"station_name":"Angke","is_transit":false,"i_long":106.79867,"line":1,"transit":false},{"station_id":"DU","is_transit":false,"i_long":106.800832,"line":1,"distance":1230,"i_lat":-6.155215,"station_name":"Duri","transit":false,"time":4},{"time":8,"is_transit":false,"line":1,"i_lat":-6.185545,"distance":3632,"i_long":106.811091,"transit":false,"station_id":"THB","station_name":"Tanah Abang"}]]}