{"data":[[{"line":2,"station_id":"DP","is_transit":false,"i_lat":-6.405256,"distance":0,"i_long":106.816926,"transit":false,"station_name":"Depok","time":0},{"time":3,"distance":1584,"station_name":"Depokbaru","transit":false,"i_long":106.819451,"is_transit":false,"line":2,"i_lat":-6.391065,"station_id":"DPB"},{"is_transit":false,"line":2,"time":4,"distance":2727,"station_id":"POC","i_lat":-6.369073,"transit":false,"i_long":106.831114,"station_name":"Pondok Cina"},{"is_transit":false,"transit":false,"line":2,"i_lat":-6.360749,"distance":1109,"i_long":106.831474,"time":2,"station_name":"Univ. Indonesia","station_id":"UI"},{"line":2,"station_name":"Univ. Pancasila","time":3,"i_lat":-6.339291,"i_long":106.834175,"distance":2264,"is_transit":false,"transit":false,"station_id":"UP"},{"i_long":106.832616,"station_id":"LNA","time":2,"i_lat":-6.330363,"is_transit":false,"station_name":"Lenteng Agung","line":2,"distance":1029,"transit":false},{"distance":2671,"station_id":"TNT","i_long":106.838896,"time":3,"station_name":"Tanjung Barat","i_lat":-6.3080680000000005,"transit":false,"is_transit":false,"line":2},{"i_long":106.843999,"station_name":"Pasar Minggu","time":4,"line":2,"is_transit":false,"station_id":"PSM","distance":2820,"transit":false,"i_lat":-6.2842400000000005},{"station_id":"PSMB","i_lat":-6.263214,"i_long":106.851577,"transit":false,"line":2,"is_transit":false,"time":2,"station_name":"Pasar Minggu Baru","distance":2380},{"is_transit":false,"station_name":"Duren Kalibata","time":2,"transit":false,"i_lat":-6.255332,"i_long":106.85449,"line":2,"distance":824,"station_id":"DRN"},{"transit":false,"line":2,"station_name":"Cawang","i_long":106.856607,"i_lat":-6.242512,"station_id":"CW","time":3,"is_transit":false,"distance":1546},{"is_transit":false,"i_long":106.857948,"time":2,"i_lat":-6.226659,"station_name":"Tebet","station_id":"TEB","line":2,"transit":false,"distance":1230},{"time":4,"station_id":"MRI","is_transit":true,"i_lat":-6.209883,"i_long":106.84912,"transit":true,"distance":2610,"station_name":"Manggarai","line":2},{"distance":3186,"station_name":"Sudirman","is_transit":false,"time":4,"station_id":"SUD","transit":false,"i_lat":-6.202263,"line":1,"i_long":106.822649},{"time":1,"distance":280,"i_lat":-6.201433,"is_transit":false,"transit":false,"station_name":"Sudirman Baru","station_id":"SUDB","line":1,"i_long":106.819881},{"i_lat":-6.20132,"line":1,"transit":false,"time":1,"distance":471,"is_transit":false,"station_id":"KAT","station_name":"Karet","i_long":106.816351},{"line":1,"i_long":106.811091,"distance":2029,"time":5,"is_transit":false,"i_lat":-6.185545,"station_id":"THB","station_name":"Tanah Abang","transit":false}],[{"distance":0,"is_transit":false,"transit":false,"station_name":"Depok","i_lat":-6.405256,"i_long":106.816926,"line":2,"time":0,"station_id":"DP"},{"station_id":"DPB","i_long":106.819451,"i_lat":-6.391065,"station_name":"Depokbaru","distance":1584,"transit":false,"is_transit":false,"line":2,"time":3},{"station_id":"POC","station_name":"Pondok Cina","distance":2727,"line":2,"is_transit":false,"i_lat":-6.369073,"time":4,"transit":false,"i_long":106.831114},{"transit":false,"station_id":"UI","line":2,"is_transit":false,"i_lat":-6.360749,"station_name":"Univ. Indonesia","time":2,"i_long":106.831474,"distance":1109},{"line":2,"station_id":"UP","distance":2264,"transit":false,"i_long":106.834175,"station_name":"Univ. Pancasila","i_lat":-6.339291,"time":3,"is_transit":false},{"is_transit":false,"station_name":"Lenteng Agung","i_long":106.832616,"i_lat":-6.330363,"distance":1029,"station_id":"LNA","line":2,"transit":false,"time":2},{"station_name":"Tanjung Barat","line":2,"i_lat":-6.3080680000000005,"distance":2671,"time":3,"station_id":"TNT","transit":false,"i_long":106.838896,"is_transit":false},{"is_transit":false,"time":4,"station_name":"Pasar Minggu","i_lat":-6.2842400000000005,"i_long":106.843999,"distance":2820,"line":2,"transit":false,"station_id":"PSM"},{"i_lat":-6.263214,"line":2,"is_transit":false,"station_name":"Pasar Minggu Baru","station_id":"PSMB","distance":2380,"time":2,"transit":false,"i_long":106.851577},{"i_long":106.85449,"line":2,"distance":824,"is_transit":false,"time":2,"station_id":"DRN","i_lat":-6.255332,"station_name":"Duren Kalibata","transit":false},{"i_long":106.856607,"i_lat":-6.242512,"station_id":"CW","time":3,"station_name":"Cawang","line":2,"is_transit":false,"distance":1546,"transit":false},{"time":2,"i_long":106.857948,"i_lat":-6.226659,"is_transit":false,"transit":false,"line":2,"distance":1230,"station_id":"TEB","station_name":"Tebet"},{"station_name":"Manggarai","time":4,"is_transit":false,"distance":2610,"i_lat":-6.209883,"i_long":106.84912,"line":2,"transit":false,"station_id":"MRI"},{"line":2,"distance":1590,"i_long":106.840169,"is_transit":false,"time":4,"station_id":"CKI","i_lat":-6.198556,"transit":false,"station_name":"Cikini"},{"transit":false,"is_transit":false,"station_name":"Gondangdia","distance":1750,"line":2,"station_id":"GDD","time":3,"i_lat":-6.186295,"i_long":106.832183},{"distance":2015,"station_name":"Juanda","is_transit":false,"i_lat":-6.166716,"i_long":106.828284,"station_id":"JUA","line":2,"time":4,"transit":false},{"distance":1149,"is_transit":false,"time":2,"station_name":"Sawah Besar","i_lat":-6.160725,"station_id":"SW","transit":false,"line":2,"i_long":106.827103},{"line":2,"transit":false,"distance":906,"station_id":"MGB","i_long":106.82482,"i_lat":-6.149769,"is_transit":false,"time":2,"station_name":"Manggabesar"},{"station_name":"Jayakarta","is_transit":false,"station_id":"JAY","i_long":106.820901,"time":2,"distance":1080,"transit":false,"line":2,"i_lat":-6.141205},{"i_long":106.812439,"is_transit":true,"station_name":"Jakarta Kota","line":2,"station_id":"JAKK","i_lat":-6.137569,"distance":1264,"transit":true,"time":4},{"station_id":"KPB","is_transit":true,"time":3,"station_name":"Kampung Bandan","line":4,"distance":1364,"i_long":106.826365,"i_lat":-6.132549,"transit":true},{"i_long":106.79867,"transit":false,"station_name":"Angke","station_id":"AK","distance":4102,"i_lat":-6.144674,"is_transit":false,"time":9,"line":1},{"station_name":"Duri","i_long":106.800832,"i_lat":-6.155215,"line":1,"station_id":"DU","is_transit":false,"time":4,"transit":false,"distance":1230},{"station_name":"Tanah Abang","line":1,"time":8,"station_id":"THB","i_lat":-6.185545,"transit":false,"is_transit":false,"distance":3632,"i_long":106.811091}],[{"station_name":"Depok","i_long":106.816926,"distance":0,"time":0,"transit":false,"line":2,"is_transit":false,"i_lat":-6.405256,"station_id":"DP"},{"distance":1584,"station_id":"DPB","line":2,"i_lat":-6.391065,"time":3,"station_name":"Depokbaru","is_transit":false,"i_long":106.819451,"transit":false},{"is_transit":false,"i_lat":-6.369073,"time":4,"line":2,"station_id":"POC","transit":false,"i_long":106.831114,"station_name":"Pondok Cina","distance":2727},{"transit":false,"line":2,"i_lat":-6.360749,"station_id":"UI","i_long":106.831474,"station_name":"Univ. Indonesia","distance":1109,"is_transit":false,"time":2},{"station_name":"Univ. Pancasila","i_lat":-6.339291,"time":3,"is_transit":false,"station_id":"UP","i_long":106.834175,"line":2,"transit":false,"distance":2264},{"time":2,"distance":1029,"transit":false,"i_long":106.832616,"line":2,"is_transit":false,"station_name":"Lenteng Agung","i_lat":-6.330363,"station_id":"LNA"},{"station_name":"Tanjung Barat","distance":2671,"transit":false,"station_id":"TNT","is_transit":false,"time":3,"i_long":106.838896,"line":2,"i_lat":-6.3080680000000005},{"time":4,"station_name":"Pasar Minggu","distance":2820,"i_lat":-6.2842400000000005,"line":2,"is_transit":false,"station_id":"PSM","i_long":106.843999,"transit":false},{"station_id":"PSMB","i_long":106.851577,"line":2,"transit":false,"time":2,"is_transit":false,"i_lat":-6.263214,"distance":2380,"station_name":"Pasar Minggu Baru"},{"distance":824,"time":2,"station_name":"Duren Kalibata","i_long":106.85449,"i_lat":-6.255332,"station_id":"DRN","is_transit":false,"line":2,"transit":false},{"station_name":"Cawang","i_long":106.856607,"transit":false,"station_id":"CW","i_lat":-6.242512,"line":2,"is_transit":false,"time":3,"distance":1546},{"station_id":"TEB","station_name":"Tebet","line":2,"time":2,"i_long":106.857948,"distance":1230,"transit":false,"is_transit":false,"i_lat":-6.226659},{"station_id":"MRI","time":4,"is_transit":true,"transit":true,"i_lat":-6.209883,"i_long":106.84912,"station_name":"Manggarai","line":2,"distance":2610},{"time":2,"line":1,"i_lat":-6.212485,"distance":1275,"station_id":"MTR","i_long":106.858896,"station_name":"Matraman","transit":false,"is_transit":false},{"time":8,"distance":1377,"i_long":106.86807400000001,"is_transit":true,"station_id":"JNG","i_lat":-6.215091,"station_name":"Jatinegara","line":1,"transit":true},{"distance":1236,"is_transit":false,"i_long":106.861737,"station_name":"Pondok Jati","time":2,"i_lat":-6.209188,"transit":false,"station_id":"POK","line":11},{"is_transit":false,"distance":1829,"station_id":"KMT","i_lat":-6.193792,"station_name":"Kramat","time":2,"transit":false,"line":11,"i_long":106.855437},{"i_long":106.850107,"line":11,"transit":false,"i_lat":-6.185975,"is_transit":false,"time":1,"station_id":"GST","distance":973,"station_name":"Gang Sentiong"},{"i_lat":-6.174784,"is_transit":false,"line":11,"distance":1567,"station_name":"Pasar Senen","station_id":"PSE","time":8,"i_long":106.84368,"transit":false},{"i_lat":-6.161728,"distance":1436,"transit":false,"station_id":"KMO","i_long":106.839204,"line":11,"station_name":"Kemayoran","time":4,"is_transit":false},{"i_lat":-6.14505,"station_name":"Rajawali","time":5,"distance":1901,"transit":false,"station_id":"RJW","is_transit":false,"i_long":106.836569,"line":11},{"time":3,"i_long":106.826365,"is_transit":true,"distance":1444,"station_id":"KPB","station_name":"Kampung Bandan","transit":true,"i_lat":-6.132549,"line":4},{"transit":false,"distance":4102,"i_long":106.79867,"line":1,"station_id":"AK","is_transit":false,"time":9,"station_name":"Angke","i_lat":-6.144674},{"i_long":106.800832,"i_lat":-6.155215,"transit":false,"distance":1230,"is_transit":false,"station_id":"DU","time":4,"station_name":"Duri","line":1},{"station_id":"THB","time":8,"transit":false,"station_name":"Tanah Abang","i_lat":-6.185545,"line":1,"distance":3632,"is_transit":false,"i_long":106.811091}]]}