{"data":[[{"station_name":"Depok","i_long":106.816926,"is_transit":false,"distance":0,"time":0,"line":2,"station_id":"DP","i_lat":-6.405256,"transit":false},{"station_name":"Depokbaru","i_lat":-6.391065,"time":3,"transit":false,"line":2,"distance":1584,"is_transit":false,"station_id":"DPB","i_long":106.819451},{"station_name":"Pondok Cina","station_id":"POC","i_long":106.831114,"i_lat":-6.369073,"transit":false,"distance":2727,"time":4,"line":2,"is_transit":false},{"time":2,"station_id":"UI","station_name":"Univ. Indonesia","i_lat":-6.360749,"i_long":106.831474,"distance":1109,"transit":false,"line":2,"is_transit":false},{"distance":2264,"i_lat":-6.339291,"transit":false,"i_long":106.834175,"station_name":"Univ. Pancasila","time":3,"is_transit":false,"station_id":"UP","line":2},{"i_long":106.832616,"distance":1029,"station_id":"LNA","transit":false,"station_name":"Lenteng Agung","is_transit":false,"time":2,"i_lat":-6.330363,"line":2},{"time":3,"line":2,"is_transit":false,"station_id":"TNT","distance":2671,"i_lat":-6.3080680000000005,"station_name":"Tanjung Barat","i_long":106.838896,"transit":false},{"i_long":106.843999,"transit":false,"line":2,"distance":2820,"time":4,"i_lat":-6.2842400000000005,"is_transit":false,"station_name":"Pasar Minggu","station_id":"PSM"},{"i_long":106.851577,"station_id":"PSMB","time":2,"i_lat":-6.263214,"is_transit":false,"transit":false,"distance":2380,"station_name":"Pasar Minggu Baru","line":2},{"transit":false,"i_long":106.85449,"is_transit":false,"i_lat":-6.255332,"distance":824,"time":2,"station_id":"DRN","line":2,"station_name":"Duren Kalibata"},{"line":2,"i_lat":-6.242512,"distance":1546,"station_name":"Cawang","station_id":"CW","time":3,"is_transit":false,"transit":false,"i_long":106.856607},{"distance":1230,"station_id":"TEB","transit":false,"station_name":"Tebet","time":2,"line":2,"is_transit":false,"i_long":106.857948,"i_lat":-6.226659},{"distance":2610,"time":4,"station_name":"Manggarai","station_id":"MRI","is_transit":true,"transit":true,"i_lat":-6.209883,"line":2,"i_long":106.84912},{"distance":1275,"station_id":"MTR","time":2,"transit":false,"line":1,"i_lat":-6.212485,"is_transit":false,"station_name":"Matraman","i_long":106.858896},{"station_name":"Jatinegara","time":8,"station_id":"JNG","line":1,"transit":false,"i_lat":-6.215091,"is_transit":false,"distance":1377,"i_long":106.86807400000001},{"is_transit":false,"station_id":"KLD","i_long":106.899548,"transit":false,"station_name":"Klender","i_lat":-6.2135,"line":1,"distance":3395,"time":3},{"is_transit":false,"i_long":106.922662,"transit":false,"station_name":"Buaran","station_id":"BUA","distance":3100,"time":2,"line":1,"i_lat":-6.215568},{"station_id":"KLDB","i_lat":-6.217455,"i_long":106.939679,"station_name":"Klenderbaru","line":1,"transit":false,"time":1,"is_transit":false,"distance":1305},{"line":1,"i_long":106.951283,"is_transit":false,"time":8,"station_id":"CUK","distance":1385,"transit":false,"station_name":"Cakung","i_lat":-6.219053},{"station_id":"KRI","line":1,"station_name":"Kranji","distance":3097,"time":3,"is_transit":false,"i_lat":-6.224515,"transit":false,"i_long":106.977657},{"transit":false,"i_lat":-6.236616,"i_long":106.997013,"is_transit":false,"station_name":"Bekasi","distance":2520,"time":4,"station_id":"BKS","line":1},{"i_long":107.016735,"is_transit":false,"station_id":"BKST","transit":false,"station_name":"Bekasi Timur","distance":2368,"i_lat":-6.248029,"time":2,"line":1},{"distance":4460,"station_name":"Tambun","time":7,"line":1,"i_long":107.055722,"is_transit":false,"station_id":"TB","i_lat":-6.258864,"transit":false},{"is_transit":false,"i_long":107.083084,"station_id":"CIT","line":1,"transit":false,"station_name":"Cibitung","distance":3420,"i_lat":-6.261877,"time":3},{"time":2,"distance":2800,"i_long":107.093313,"line":1,"is_transit":false,"station_name":"Metland Telaga Murni","station_id":"TLM","transit":false,"i_lat":-6.262938}],[{"is_transit":false,"i_lat":-6.405256,"time":0,"station_name":"Depok","station_id":"DP","distance":0,"transit":false,"i_long":106.816926,"line":2},{"station_name":"Depokbaru","line":2,"time":3,"is_transit":false,"distance":1584,"transit":false,"station_id":"DPB","i_lat":-6.391065,"i_long":106.819451},{"line":2,"i_lat":-6.369073,"i_long":106.831114,"time":4,"transit":false,"distance":2727,"is_transit":false,"station_name":"Pondok Cina","station_id":"POC"},{"time":2,"transit":false,"station_name":"Univ. Indonesia","distance":1109,"station_id":"UI","i_lat":-6.360749,"i_long":106.831474,"is_transit":false,"line":2},{"station_id":"UP","distance":2264,"line":2,"transit":false,"station_name":"Univ. Pancasila","is_transit":false,"i_lat":-6.339291,"i_long":106.834175,"time":3},{"station_name":"Lenteng Agung","station_id":"LNA","i_long":106.832616,"i_lat":-6.330363,"transit":false,"line":2,"distance":1029,"is_transit":false,"time":2},{"distance":2671,"is_transit":false,"transit":false,"line":2,"i_long":106.838896,"time":3,"station_name":"Tanjung Barat","i_lat":-6.3080680000000005,"station_id":"TNT"},{"station_id":"PSM","is_transit":false,"i_long":106.843999,"distance":2820,"line":2,"station_name":"Pasar Minggu","time":4,"transit":false,"i_lat":-6.2842400000000005},{"station_id":"PSMB","i_lat":-6.263214,"transit":false,"i_long":106.851577,"time":2,"station_name":"Pasar Minggu Baru","is_transit":false,"distance":2380,"line":2},{"transit":false,"station_name":"Duren Kalibata","i_long":106.85449,"i_lat":-6.255332,"time":2,"is_transit":false,"line":2,"distance":824,"station_id":"DRN"},{"time":3,"i_long":106.856607,"station_id":"CW","distance":1546,"transit":false,"station_name":"Cawang","line":2,"is_transit":false,"i_lat":-6.242512},{"is_transit":false,"distance":1230,"transit":false,"i_lat":-6.226659,"i_long":106.857948,"time":2,"station_name":"Tebet","station_id":"TEB","line":2},{"is_transit":true,"time":4,"i_lat":-6.209883,"station_name":"Manggarai","distance":2610,"station_id":"MRI","line":2,"transit":true,"i_long":106.84912},{"i_long":106.822649,"station_name":"Sudirman","is_transit":false,"distance":3186,"time":4,"transit":false,"station_id":"SUD","i_lat":-6.202263,"line":1},{"i_long":106.819881,"time":1,"station_id":"SUDB","transit":false,"distance":280,"i_lat":-6.201433,"station_name":"Sudirman Baru","is_transit":false,"line":1},{"is_transit":false,"distance":471,"station_id":"KAT","i_long":106.816351,"time":1,"i_lat":-6.20132,"station_name":"Karet","transit":false,"line":1},{"is_transit":false,"i_long":106.811091,"line":1,"station_id":"THB","time":5,"transit":false,"distance":2029,"station_name":"Tanah Abang","i_lat":-6.185545},{"distance":3632,"station_id":"DU","station_name":"Duri","i_long":106.800832,"time":8,"transit":false,"is_transit":false,"i_lat":-6.155215,"line":1},{"is_transit":false,"time":4,"line":1,"station_name":"Angke","distance":1230,"station_id":"AK","transit":false,"i_lat":-6.144674,"i_long":106.79867},{"i_long":106.826365,"station_name":"Kampung Bandan","is_transit":true,"time":9,"i_lat":-6.132549,"line":4,"distance":4102,"station_id":"KPB","transit":true},{"i_lat":-6.14505,"time":3,"transit":false,"is_transit":false,"station_name":"Rajawali","distance":1444,"station_id":"RJW","i_long":106.836569,"line":11},{"is_transit":false,"time":5,"i_long":106.839204,"station_id":"KMO","distance":1901,"transit":false,"station_name":"Kemayoran","i_lat":-6.161728,"line":11},{"i_lat":-6.174784,"station_name":"Pasar Senen","station_id":"PSE","is_transit":false,"time":4,"i_long":106.84368,"distance":1436,"line":11,"transit":false},{"is_transit":false,"time":8,"station_id":"GST","distance":1567,"i_lat":-6.185975,"transit":false,"i_long":106.850107,"line":11,"station_name":"Gang Sentiong"},{"i_lat":-6.193792,"station_name":"Kramat","transit":false,"distance":973,"line":11,"is_transit":false,"i_long":106.855437,"time":1,"station_id":"KMT"},{"transit":false,"distance":1829,"station_id":"POK","is_transit":false,"i_long":106.861737,"line":11,"station_name":"Pondok Jati","i_lat":-6.209188,"time":2},{"distance":1236,"station_name":"Jatinegara","time":9,"i_lat":-6.215091,"station_id":"JNG","i_long":106.86807400000001,"transit":true,"line":1,"is_transit":true},{"station_name":"Klender","is_transit":false,"i_long":106.899548,"station_id":"KLD","i_lat":-6.2135,"line":1,"distance":3395,"transit":false,"time":3},{"is_transit":false,"time":2,"station_name":"Buaran","i_lat":-6.215568,"line":1,"distance":3100,"transit":false,"station_id":"BUA","i_long":106.922662},{"is_transit":false,"time":1,"transit":false,"station_name":"Klenderbaru","distance":1305,"i_long":106.939679,"line":1,"station_id":"KLDB","i_lat":-6.217455},{"station_name":"Cakung","time":8,"station_id":"CUK","i_long":106.951283,"transit":false,"is_transit":false,"distance":1385,"i_lat":-6.219053,"line":1},{"distance":3097,"i_lat":-6.224515,"station_id":"KRI","i_long":106.977657,"line":1,"time":3,"station_name":"Kranji","is_transit":false,"transit":false},{"i_lat":-6.236616,"i_long":106.997013,"is_transit":false,"distance":2520,"time":4,"station_id":"BKS","line":1,"transit":false,"station_name":"Bekasi"},{"distance":2368,"time":2,"line":1,"is_transit":false,"i_lat":-6.248029,"station_name":"Bekasi Timur","i_long":107.016735,"transit":false,"station_id":"BKST"},{"i_long":107.055722,"i_lat":-6.258864,"transit":false,"station_id":"TB","station_name":"Tambun","is_transit":false,"time":7,"distance":4460,"line":1},{"transit":false,"distance":3420,"i_lat":-6.261877,"line":1,"station_name":"Cibitung","time":3,"is_transit":false,"station_id":"CIT","i_long":107.083084},{"line":1,"time":2,"transit":false,"station_name":"Metland Telaga Murni","station_id":"TLM","distance":2800,"i_lat":-6.262938,"i_long":107.093313,"is_transit":false}],[{"transit":false,"is_transit":false,"distance":0,"i_long":106.816926,"i_lat":-6.405256,"time":0,"station_id":"DP","line":2,"station_name":"Depok"},{"i_long":106.819451,"line":2,"transit":false,"station_name":"Depokbaru","time":3,"i_lat":-6.391065,"is_transit":false,"station_id":"DPB","distance":1584},{"transit":false,"station_name":"Pondok Cina","distance":2727,"i_lat":-6.369073,"i_long":106.831114,"time":4,"is_transit":false,"line":2,"station_id":"POC"},{"station_id":"UI","time":2,"line":2,"transit":false,"is_transit":false,"distance":1109,"i_lat":-6.360749,"station_name":"Univ. Indonesia","i_long":106.831474},{"line":2,"station_name":"Univ. Pancasila","time":3,"i_long":106.834175,"distance":2264,"is_transit":false,"station_id":"UP","transit":false,"i_lat":-6.339291},{"station_id":"LNA","line":2,"transit":false,"time":2,"is_transit":false,"i_lat":-6.330363,"distance":1029,"i_long":106.832616,"station_name":"Lenteng Agung"},{"station_id":"TNT","station_name":"Tanjung Barat","line":2,"transit":false,"distance":2671,"time":3,"i_lat":-6.3080680000000005,"i_long":106.838896,"is_transit":false},{"i_long":106.843999,"transit":false,"time":4,"line":2,"station_id":"PSM","distance":2820,"is_transit":false,"i_lat":-6.2842400000000005,"station_name":"Pasar Minggu"},{"station_id":"PSMB","distance":2380,"i_lat":-6.263214,"i_long":106.851577,"time":2,"line":2,"is_transit":false,"transit":false,"station_name":"Pasar Minggu Baru"},{"station_name":"Duren Kalibata","is_transit":false,"time":2,"transit":false,"station_id":"DRN","i_lat":-6.255332,"distance":824,"i_long":106.85449,"line":2},{"transit":false,"distance":1546,"i_long":106.856607,"is_transit":false,"station_name":"Cawang","i_lat":-6.242512,"line":2,"time":3,"station_id":"CW"},{"i_lat":-6.226659,"time":2,"line":2,"transit":false,"is_transit":false,"distance":1230,"station_name":"Tebet","i_long":106.857948,"station_id":"TEB"},{"is_transit":false,"line":2,"i_long":106.84912,"distance":2610,"time":4,"station_id":"MRI","station_name":"Manggarai","transit":false,"i_lat":-6.209883},{"transit":false,"time":4,"is_transit":false,"i_long":106.840169,"station_name":"Cikini","line":2,"distance":1590,"i_lat":-6.198556,"station_id":"CKI"},{"i_long":106.832183,"distance":1750,"station_name":"Gondangdia","station_id":"GDD","line":2,"transit":false,"time":3,"is_transit":false,"i_lat":-6.186295},{"distance":2015,"is_transit":false,"station_id":"JUA","time":4,"line":2,"station_name":"Juanda","i_lat":-6.166716,"transit":false,"i_long":106.828284},{"line":2,"transit":false,"is_transit":false,"i_lat":-6.160725,"time":2,"station_name":"Sawah Besar","distance":1149,"i_long":106.827103,"station_id":"SW"},{"i_lat":-6.149769,"i_long":106.82482,"time":2,"is_transit":false,"line":2,"station_name":"Manggabesar","transit":false,"station_id":"MGB","distance":906},{"i_lat":-6.141205,"transit":false,"time":2,"distance":1080,"i_long":106.820901,"station_name":"Jayakarta","station_id":"JAY","is_transit":false,"line":2},{"transit":true,"line":2,"time":4,"distance":1264,"i_long":106.812439,"is_transit":true,"station_name":"Jakarta Kota","i_lat":-6.137569,"station_id":"JAKK"},{"i_lat":-6.132549,"is_transit":true,"time":3,"station_id":"KPB","station_name":"Kampung Bandan","distance":1364,"i_long":106.826365,"line":4,"transit":true},{"time":3,"station_id":"RJW","i_long":106.836569,"line":11,"distance":1444,"is_transit":false,"i_lat":-6.14505,"transit":false,"station_name":"Rajawali"},{"line":11,"is_transit":false,"station_id":"KMO","transit":false,"distance":1901,"station_name":"Kemayoran","time":5,"i_lat":-6.161728,"i_long":106.839204},{"distance":1436,"time":4,"i_long":106.84368,"i_lat":-6.174784,"line":11,"is_transit":false,"transit":false,"station_name":"Pasar Senen","station_id":"PSE"},{"station_name":"Gang Sentiong","is_transit":false,"station_id":"GST","line":11,"time":8,"i_lat":-6.185975,"distance":1567,"i_long":106.850107,"transit":false},{"time":1,"i_lat":-6.193792,"station_name":"Kramat","i_long":106.855437,"station_id":"KMT","transit":false,"is_transit":false,"line":11,"distance":973},{"distance":1829,"station_id":"POK","station_name":"Pondok Jati","transit":false,"is_transit":false,"time":2,"i_lat":-6.209188,"i_long":106.861737,"line":11},{"station_name":"Jatinegara","transit":true,"i_lat":-6.215091,"is_transit":true,"line":1,"distance":1236,"station_id":"JNG","i_long":106.86807400000001,"time":9},{"is_transit":false,"line":1,"station_id":"KLD","distance":3395,"i_long":106.899548,"transit":false,"station_name":"Klender","time":3,"i_lat":-6.2135},{"is_transit":false,"i_long":106.922662,"transit":false,"distance":3100,"i_lat":-6.215568,"time":2,"station_id":"BUA","line":1,"station_name":"Buaran"},{"station_name":"Klenderbaru","transit":false,"is_transit":false,"station_id":"KLDB","line":1,"time":1,"distance":1305,"i_lat":-6.217455,"i_long":106.939679},{"line":1,"distance":1385,"station_id":"CUK","i_lat":-6.219053,"transit":false,"is_transit":false,"i_long":106.951283,"time":8,"station_name":"Cakung"},{"time":3,"i_lat":-6.224515,"i_long":106.977657,"is_transit":false,"station_id":"KRI","line":1,"station_name":"Kranji","distance":3097,"transit":false},{"station_name":"Bekasi","station_id":"BKS","distance":2520,"i_long":106.997013,"transit":false,"line":1,"time":4,"i_lat":-6.236616,"is_transit":false},{"distance":2368,"is_transit":false,"station_name":"Bekasi Timur","time":2,"station_id":"BKST","line":1,"i_lat":-6.248029,"transit":false,"i_long":107.016735},{"is_transit":false,"transit":false,"line":1,"station_name":"Tambun","time":7,"i_lat":-6.258864,"i_long":107.055722,"station_id":"TB","distance":4460},{"is_transit":false,"station_name":"Cibitung","i_lat":-6.261877,"time":3,"transit":false,"station_id":"CIT","distance":3420,"i_long":107.083084,"line":1},{"i_long":107.093313,"transit":false,"station_name":"Metland Telaga Murni","distance":2800,"is_transit":false,"station_id":"TLM","time":2,"i_lat":-6.262938,"line":1}]]}