{"data":[[{"distance":0,"is_transit":false,"i_long":106.816926,"time":0,"line":2,"station_name":"Depok","i_lat":-6.405256,"transit":false,"station_id":"DP"},{"transit":false,"i_long":106.819451,"is_transit":false,"line":2,"station_id":"DPB","i_lat":-6.391065,"distance":1584,"time":3,"station_name":"Depokbaru"},{"i_long":106.831114,"line":2,"distance":2727,"transit":false,"station_id":"POC","time":4,"is_transit":false,"station_name":"Pondok Cina","i_lat":-6.369073},{"station_name":"Univ. Indonesia","station_id":"UI","line":2,"transit":false,"is_transit":false,"i_long":106.831474,"time":2,"i_lat":-6.360749,"distance":1109},{"distance":2264,"station_id":"UP","is_transit":false,"i_lat":-6.339291,"i_long":106.834175,"station_name":"Univ. Pancasila","time":3,"line":2,"transit":false},{"distance":1029,"i_long":106.832616,"is_transit":false,"i_lat":-6.330363,"line":2,"station_id":"LNA","transit":false,"station_name":"Lenteng Agung","time":2},{"station_id":"TNT","line":2,"time":3,"is_transit":false,"i_long":106.838896,"distance":2671,"station_name":"Tanjung Barat","i_lat":-6.3080680000000005,"transit":false},{"station_name":"Pasar Minggu","station_id":"PSM","time":4,"transit":false,"is_transit":false,"distance":2820,"i_lat":-6.2842400000000005,"i_long":106.843999,"line":2},{"station_id":"PSMB","transit":false,"station_name":"Pasar Minggu Baru","i_long":106.851577,"time":2,"distance":2380,"i_lat":-6.263214,"line":2,"is_transit":false},{"line":2,"distance":824,"i_lat":-6.255332,"station_id":"DRN","station_name":"Duren Kalibata","transit":false,"time":2,"is_transit":false,"i_long":106.85449},{"transit":false,"i_lat":-6.242512,"i_long":106.856607,"line":2,"station_name":"Cawang","is_transit":false,"distance":1546,"time":3,"station_id":"CW"},{"transit":false,"i_long":106.857948,"station_name":"Tebet","distance":1230,"is_transit":false,"line":2,"time":2,"station_id":"TEB","i_lat":-6.226659},{"is_transit":true,"station_name":"Manggarai","station_id":"MRI","distance":2610,"i_long":106.84912,"i_lat":-6.209883,"line":2,"time":4,"transit":true},{"i_lat":-6.212485,"i_long":106.858896,"transit":false,"time":2,"distance":1275,"is_transit":false,"station_id":"MTR","station_name":"Matraman","line":1},{"line":1,"distance":1377,"is_transit":false,"station_id":"JNG","i_long":106.86807400000001,"transit":false,"i_lat":-6.215091,"time":8,"station_name":"Jatinegara"},{"i_lat":-6.2135,"station_id":"KLD","station_name":"Klender","line":1,"is_transit":false,"distance":3395,"transit":false,"time":3,"i_long":106.899548},{"station_name":"Buaran","transit":false,"time":2,"is_transit":false,"distance":3100,"station_id":"BUA","i_lat":-6.215568,"i_long":106.922662,"line":1},{"time":1,"is_transit":false,"transit":false,"i_long":106.939679,"distance":1305,"line":1,"station_name":"Klenderbaru","i_lat":-6.217455,"station_id":"KLDB"},{"is_transit":false,"transit":false,"i_long":106.951283,"line":1,"station_name":"Cakung","station_id":"CUK","distance":1385,"i_lat":-6.219053,"time":8},{"i_lat":-6.224515,"line":1,"station_name":"Kranji","distance":3097,"is_transit":false,"transit":false,"i_long":106.977657,"time":3,"station_id":"KRI"},{"time":4,"station_name":"Bekasi","distance":2520,"station_id":"BKS","i_long":106.997013,"line":1,"transit":false,"i_lat":-6.236616,"is_transit":false},{"transit":false,"i_long":107.016735,"line":1,"station_name":"Bekasi Timur","station_id":"BKST","is_transit":false,"i_lat":-6.248029,"time":2,"distance":2368},{"i_lat":-6.258864,"i_long":107.055722,"station_name":"Tambun","station_id":"TB","time":7,"transit":false,"distance":4460,"is_transit":false,"line":1},{"transit":false,"is_transit":false,"station_name":"Cibitung","time":3,"station_id":"CIT","line":1,"distance":3420,"i_lat":-6.261877,"i_long":107.083084},{"is_transit":false,"i_lat":-6.262938,"distance":2800,"transit":false,"i_long":107.093313,"time":2,"line":1,"station_id":"TLM","station_name":"Metland Telaga Murni"}],[{"i_lat":-6.405256,"i_long":106.816926,"distance":0,"line":2,"station_name":"Depok","time":0,"station_id":"DP","transit":false,"is_transit":false},{"station_name":"Depokbaru","line":2,"time":3,"is_transit":false,"i_lat":-6.391065,"i_long":106.819451,"transit":false,"distance":1584,"station_id":"DPB"},{"station_name":"Pondok Cina","station_id":"POC","is_transit":false,"i_lat":-6.369073,"i_long":106.831114,"transit":false,"time":4,"distance":2727,"line":2},{"station_id":"UI","station_name":"Univ. Indonesia","line":2,"time":2,"is_transit":false,"i_lat":-6.360749,"transit":false,"distance":1109,"i_long":106.831474},{"i_lat":-6.339291,"station_name":"Univ. Pancasila","transit":false,"station_id":"UP","i_long":106.834175,"distance":2264,"line":2,"time":3,"is_transit":false},{"station_name":"Lenteng Agung","distance":1029,"is_transit":false,"time":2,"line":2,"i_lat":-6.330363,"transit":false,"station_id":"LNA","i_long":106.832616},{"transit":false,"station_name":"Tanjung Barat","station_id":"TNT","i_lat":-6.3080680000000005,"line":2,"is_transit":false,"distance":2671,"time":3,"i_long":106.838896},{"time":4,"station_name":"Pasar Minggu","distance":2820,"station_id":"PSM","i_lat":-6.2842400000000005,"i_long":106.843999,"line":2,"is_transit":false,"transit":false},{"time":2,"station_name":"Pasar Minggu Baru","i_lat":-6.263214,"is_transit":false,"i_long":106.851577,"transit":false,"station_id":"PSMB","distance":2380,"line":2},{"station_name":"Duren Kalibata","transit":false,"i_long":106.85449,"distance":824,"station_id":"DRN","line":2,"is_transit":false,"i_lat":-6.255332,"time":2},{"i_long":106.856607,"i_lat":-6.242512,"distance":1546,"transit":false,"time":3,"line":2,"station_name":"Cawang","is_transit":false,"station_id":"CW"},{"time":2,"i_long":106.857948,"distance":1230,"i_lat":-6.226659,"transit":false,"station_name":"Tebet","station_id":"TEB","is_transit":false,"line":2},{"i_long":106.84912,"distance":2610,"line":2,"station_id":"MRI","is_transit":true,"time":4,"transit":true,"i_lat":-6.209883,"station_name":"Manggarai"},{"station_name":"Sudirman","is_transit":false,"time":4,"distance":3186,"transit":false,"i_long":106.822649,"i_lat":-6.202263,"station_id":"SUD","line":1},{"is_transit":false,"station_id":"SUDB","line":1,"i_lat":-6.201433,"distance":280,"i_long":106.819881,"time":1,"station_name":"Sudirman Baru","transit":false},{"station_id":"KAT","i_long":106.816351,"time":1,"transit":false,"is_transit":false,"distance":471,"i_lat":-6.20132,"line":1,"station_name":"Karet"},{"station_name":"Tanah Abang","transit":false,"time":5,"is_transit":false,"station_id":"THB","i_long":106.811091,"distance":2029,"i_lat":-6.185545,"line":1},{"station_name":"Duri","transit":false,"is_transit":false,"station_id":"DU","i_long":106.800832,"line":1,"i_lat":-6.155215,"time":8,"distance":3632},{"distance":1230,"time":4,"station_id":"AK","i_long":106.79867,"line":1,"station_name":"Angke","is_transit":false,"transit":false,"i_lat":-6.144674},{"time":9,"is_transit":true,"station_id":"KPB","i_long":106.826365,"distance":4102,"i_lat":-6.132549,"station_name":"Kampung Bandan","line":4,"transit":true},{"i_lat":-6.14505,"is_transit":false,"transit":false,"time":3,"i_long":106.836569,"station_name":"Rajawali","station_id":"RJW","distance":1444,"line":11},{"time":5,"station_name":"Kemayoran","is_transit":false,"distance":1901,"station_id":"KMO","line":11,"i_lat":-6.161728,"transit":false,"i_long":106.839204},{"is_transit":false,"distance":1436,"transit":false,"station_name":"Pasar Senen","i_lat":-6.174784,"time":4,"station_id":"PSE","i_long":106.84368,"line":11},{"transit":false,"station_id":"GST","distance":1567,"station_name":"Gang Sentiong","time":8,"line":11,"i_long":106.850107,"is_transit":false,"i_lat":-6.185975},{"line":11,"station_id":"KMT","time":1,"distance":973,"transit":false,"station_name":"Kramat","i_lat":-6.193792,"i_long":106.855437,"is_transit":false},{"time":2,"i_long":106.861737,"i_lat":-6.209188,"station_name":"Pondok Jati","is_transit":false,"distance":1829,"station_id":"POK","line":11,"transit":false},{"is_transit":true,"station_name":"Jatinegara","i_lat":-6.215091,"time":9,"transit":true,"i_long":106.86807400000001,"line":1,"distance":1236,"station_id":"JNG"},{"i_long":106.899548,"i_lat":-6.2135,"is_transit":false,"line":1,"distance":3395,"station_id":"KLD","transit":false,"time":3,"station_name":"Klender"},{"i_long":106.922662,"line":1,"distance":3100,"transit":false,"time":2,"i_lat":-6.215568,"is_transit":false,"station_id":"BUA","station_name":"Buaran"},{"station_name":"Klenderbaru","is_transit":false,"line":1,"time":1,"i_lat":-6.217455,"transit":false,"i_long":106.939679,"station_id":"KLDB","distance":1305},{"transit":false,"distance":1385,"i_long":106.951283,"i_lat":-6.219053,"time":8,"station_name":"Cakung","station_id":"CUK","is_transit":false,"line":1},{"station_id":"KRI","time":3,"i_lat":-6.224515,"line":1,"i_long":106.977657,"is_transit":false,"transit":false,"station_name":"Kranji","distance":3097},{"transit":false,"distance":2520,"station_id":"BKS","is_transit":false,"i_long":106.997013,"line":1,"station_name":"Bekasi","time":4,"i_lat":-6.236616},{"line":1,"station_name":"Bekasi Timur","i_lat":-6.248029,"time":2,"transit":false,"i_long":107.016735,"is_transit":false,"station_id":"BKST","distance":2368},{"station_name":"Tambun","i_long":107.055722,"is_transit":false,"distance":4460,"line":1,"time":7,"station_id":"TB","transit":false,"i_lat":-6.258864},{"station_name":"Cibitung","station_id":"CIT","i_long":107.083084,"is_transit":false,"transit":false,"i_lat":-6.261877,"distance":3420,"line":1,"time":3},{"transit":false,"distance":2800,"i_long":107.093313,"i_lat":-6.262938,"time":2,"line":1,"station_name":"Metland Telaga Murni","station_id":"TLM","is_transit":false}],[{"is_transit":false,"i_lat":-6.405256,"station_name":"Depok","station_id":"DP","transit":false,"i_long":106.816926,"distance":0,"time":0,"line":2},{"transit":false,"i_lat":-6.391065,"station_name":"Depokbaru","line":2,"time":3,"distance":1584,"i_long":106.819451,"is_transit":false,"station_id":"DPB"},{"station_id":"POC","i_long":106.831114,"station_name":"Pondok Cina","i_lat":-6.369073,"line":2,"transit":false,"time":4,"distance":2727,"is_transit":false},{"is_transit":false,"time":2,"i_long":106.831474,"line":2,"station_name":"Univ. Indonesia","distance":1109,"station_id":"UI","i_lat":-6.360749,"transit":false},{"i_long":106.834175,"station_name":"Univ. Pancasila","time":3,"station_id":"UP","distance":2264,"i_lat":-6.339291,"is_transit":false,"transit":false,"line":2},{"transit":false,"line":2,"station_name":"Lenteng Agung","is_transit":false,"distance":1029,"station_id":"LNA","i_lat":-6.330363,"i_long":106.832616,"time":2},{"is_transit":false,"line":2,"transit":false,"distance":2671,"time":3,"station_id":"TNT","station_name":"Tanjung Barat","i_lat":-6.3080680000000005,"i_long":106.838896},{"station_name":"Pasar Minggu","transit":false,"i_lat":-6.2842400000000005,"is_transit":false,"line":2,"distance":2820,"time":4,"i_long":106.843999,"station_id":"PSM"},{"is_transit":false,"transit":false,"line":2,"station_name":"Pasar Minggu Baru","i_long":106.851577,"time":2,"i_lat":-6.263214,"distance":2380,"station_id":"PSMB"},{"i_long":106.85449,"line":2,"transit":false,"is_transit":false,"distance":824,"time":2,"station_id":"DRN","station_name":"Duren Kalibata","i_lat":-6.255332},{"transit":false,"i_long":106.856607,"time":3,"station_name":"Cawang","line":2,"distance":1546,"is_transit":false,"station_id":"CW","i_lat":-6.242512},{"line":2,"distance":1230,"transit":false,"time":2,"station_id":"TEB","station_name":"Tebet","i_lat":-6.226659,"is_transit":false,"i_long":106.857948},{"is_transit":false,"time":4,"station_id":"MRI","i_lat":-6.209883,"i_long":106.84912,"station_name":"Manggarai","line":2,"transit":false,"distance":2610},{"time":4,"i_lat":-6.198556,"is_transit":false,"i_long":106.840169,"station_id":"CKI","station_name":"Cikini","transit":false,"distance":1590,"line":2},{"transit":false,"time":3,"is_transit":false,"line":2,"station_id":"GDD","i_lat":-6.186295,"i_long":106.832183,"distance":1750,"station_name":"Gondangdia"},{"transit":false,"i_lat":-6.166716,"station_id":"JUA","is_transit":false,"distance":2015,"line":2,"time":4,"station_name":"Juanda","i_long":106.828284},{"station_name":"Sawah Besar","distance":1149,"transit":false,"is_transit":false,"i_long":106.827103,"time":2,"i_lat":-6.160725,"line":2,"station_id":"SW"},{"i_long":106.82482,"station_name":"Manggabesar","distance":906,"station_id":"MGB","is_transit":false,"transit":false,"i_lat":-6.149769,"line":2,"time":2},{"i_long":106.820901,"station_name":"Jayakarta","is_transit":false,"line":2,"time":2,"distance":1080,"i_lat":-6.141205,"transit":false,"station_id":"JAY"},{"distance":1264,"i_lat":-6.137569,"i_long":106.812439,"time":4,"station_id":"JAKK","transit":true,"line":2,"station_name":"Jakarta Kota","is_transit":true},{"i_long":106.826365,"station_name":"Kampung Bandan","line":4,"transit":true,"station_id":"KPB","is_transit":true,"distance":1364,"time":3,"i_lat":-6.132549},{"i_long":106.836569,"line":11,"station_id":"RJW","time":3,"i_lat":-6.14505,"is_transit":false,"transit":false,"station_name":"Rajawali","distance":1444},{"is_transit":false,"time":5,"distance":1901,"i_lat":-6.161728,"station_name":"Kemayoran","station_id":"KMO","transit":false,"i_long":106.839204,"line":11},{"is_transit":false,"station_id":"PSE","transit":false,"station_name":"Pasar Senen","distance":1436,"i_long":106.84368,"line":11,"i_lat":-6.174784,"time":4},{"is_transit":false,"i_long":106.850107,"station_name":"Gang Sentiong","i_lat":-6.185975,"line":11,"time":8,"distance":1567,"transit":false,"station_id":"GST"},{"i_lat":-6.193792,"time":1,"line":11,"i_long":106.855437,"station_name":"Kramat","is_transit":false,"transit":false,"station_id":"KMT","distance":973},{"distance":1829,"i_lat":-6.209188,"station_name":"Pondok Jati","station_id":"POK","line":11,"time":2,"is_transit":false,"transit":false,"i_long":106.861737},{"is_transit":true,"distance":1236,"time":9,"station_id":"JNG","i_long":106.86807400000001,"line":1,"transit":true,"station_name":"Jatinegara","i_lat":-6.215091},{"time":3,"transit":false,"line":1,"station_name":"Klender","is_transit":false,"distance":3395,"i_long":106.899548,"i_lat":-6.2135,"station_id":"KLD"},{"station_id":"BUA","line":1,"is_transit":false,"distance":3100,"i_long":106.922662,"station_name":"Buaran","i_lat":-6.215568,"transit":false,"time":2},{"station_name":"Klenderbaru","i_lat":-6.217455,"i_long":106.939679,"distance":1305,"is_transit":false,"transit":false,"line":1,"time":1,"station_id":"KLDB"},{"i_long":106.951283,"station_id":"CUK","distance":1385,"time":8,"line":1,"i_lat":-6.219053,"transit":false,"station_name":"Cakung","is_transit":false},{"time":3,"distance":3097,"i_lat":-6.224515,"station_id":"KRI","transit":false,"station_name":"Kranji","i_long":106.977657,"is_transit":false,"line":1},{"transit":false,"station_name":"Bekasi","is_transit":false,"i_lat":-6.236616,"i_long":106.997013,"line":1,"time":4,"distance":2520,"station_id":"BKS"},{"transit":false,"time":2,"distance":2368,"i_long":107.016735,"line":1,"station_name":"Bekasi Timur","station_id":"BKST","i_lat":-6.248029,"is_transit":false},{"is_transit":false,"time":7,"distance":4460,"i_long":107.055722,"station_name":"Tambun","station_id":"TB","transit":false,"i_lat":-6.258864,"line":1},{"i_lat":-6.261877,"station_id":"CIT","i_long":107.083084,"line":1,"is_transit":false,"transit":false,"time":3,"distance":3420,"station_name":"Cibitung"},{"distance":2800,"station_id":"TLM","i_long":107.093313,"line":1,"time":2,"is_transit":false,"transit":false,"station_name":"Metland Telaga Murni","i_lat":-6.262938}]]}