{"data":[[{"line":2,"transit":false,"is_transit":false,"i_long":106.816926,"time":0,"station_id":"DP","i_lat":-6.405256,"station_name":"Depok","distance":0},{"station_id":"DPB","transit":false,"time":3,"distance":1584,"station_name":"Depokbaru","is_transit":false,"i_lat":-6.391065,"line":2,"i_long":106.819451},{"station_name":"Pondok Cina","is_transit":false,"distance":2727,"line":2,"station_id":"POC","i_long":106.831114,"time":4,"i_lat":-6.369073,"transit":false},{"transit":false,"line":2,"i_long":106.831474,"time":2,"is_transit":false,"distance":1109,"station_name":"Univ. Indonesia","station_id":"UI","i_lat":-6.360749},{"line":2,"time":3,"is_transit":false,"station_name":"Univ. Pancasila","i_lat":-6.339291,"distance":2264,"i_long":106.834175,"transit":false,"station_id":"UP"},{"station_id":"LNA","i_lat":-6.330363,"station_name":"Lenteng Agung","time":2,"transit":false,"is_transit":false,"i_long":106.832616,"line":2,"distance":1029},{"transit":false,"i_long":106.838896,"station_name":"Tanjung Barat","is_transit":false,"station_id":"TNT","line":2,"time":3,"i_lat":-6.3080680000000005,"distance":2671},{"i_lat":-6.2842400000000005,"is_transit":false,"station_id":"PSM","time":4,"station_name":"Pasar Minggu","i_long":106.843999,"transit":false,"line":2,"distance":2820},{"time":2,"distance":2380,"i_long":106.851577,"station_id":"PSMB","transit":false,"i_lat":-6.263214,"station_name":"Pasar Minggu Baru","is_transit":false,"line":2},{"station_id":"DRN","i_lat":-6.255332,"time":2,"is_transit":false,"transit":false,"distance":824,"station_name":"Duren Kalibata","i_long":106.85449,"line":2},{"transit":false,"i_long":106.856607,"i_lat":-6.242512,"line":2,"distance":1546,"time":3,"station_id":"CW","station_name":"Cawang","is_transit":false},{"i_long":106.857948,"station_name":"Tebet","is_transit":false,"time":2,"line":2,"distance":1230,"transit":false,"i_lat":-6.226659,"station_id":"TEB"},{"distance":2610,"station_name":"Manggarai","transit":true,"line":2,"station_id":"MRI","time":4,"is_transit":true,"i_lat":-6.209883,"i_long":106.84912},{"time":2,"distance":1275,"station_id":"MTR","station_name":"Matraman","transit":false,"i_long":106.858896,"is_transit":false,"i_lat":-6.212485,"line":1},{"station_id":"JNG","transit":false,"line":1,"station_name":"Jatinegara","time":8,"i_lat":-6.215091,"distance":1377,"i_long":106.86807400000001,"is_transit":false},{"line":1,"distance":3395,"station_name":"Klender","transit":false,"is_transit":false,"station_id":"KLD","time":3,"i_long":106.899548,"i_lat":-6.2135},{"distance":3100,"time":2,"station_id":"BUA","station_name":"Buaran","is_transit":false,"transit":false,"i_lat":-6.215568,"i_long":106.922662,"line":1},{"line":1,"station_id":"KLDB","i_long":106.939679,"i_lat":-6.217455,"station_name":"Klenderbaru","is_transit":false,"transit":false,"distance":1305,"time":1},{"distance":1385,"station_name":"Cakung","station_id":"CUK","i_lat":-6.219053,"line":1,"is_transit":false,"time":8,"transit":false,"i_long":106.951283},{"station_name":"Kranji","time":3,"i_long":106.977657,"station_id":"KRI","distance":3097,"i_lat":-6.224515,"is_transit":false,"transit":false,"line":1},{"station_id":"BKS","line":1,"distance":2520,"station_name":"Bekasi","i_lat":-6.236616,"time":4,"i_long":106.997013,"is_transit":false,"transit":false},{"i_lat":-6.248029,"i_long":107.016735,"station_name":"Bekasi Timur","line":1,"time":2,"station_id":"BKST","is_transit":false,"distance":2368,"transit":false},{"time":7,"i_lat":-6.258864,"line":1,"station_name":"Tambun","i_long":107.055722,"transit":false,"station_id":"TB","distance":4460,"is_transit":false},{"i_long":107.083084,"is_transit":false,"transit":false,"i_lat":-6.261877,"line":1,"time":3,"station_id":"CIT","distance":3420,"station_name":"Cibitung"},{"i_long":107.093313,"line":1,"transit":false,"station_name":"Metland Telaga Murni","is_transit":false,"i_lat":-6.262938,"station_id":"TLM","distance":2800,"time":2}],[{"transit":false,"line":2,"i_long":106.816926,"station_name":"Depok","is_transit":false,"i_lat":-6.405256,"distance":0,"station_id":"DP","time":0},{"station_id":"DPB","distance":1584,"transit":false,"i_long":106.819451,"station_name":"Depokbaru","line":2,"i_lat":-6.391065,"time":3,"is_transit":false},{"time":4,"distance":2727,"is_transit":false,"transit":false,"station_id":"POC","station_name":"Pondok Cina","line":2,"i_lat":-6.369073,"i_long":106.831114},{"i_long":106.831474,"i_lat":-6.360749,"station_name":"Univ. Indonesia","is_transit":false,"distance":1109,"time":2,"transit":false,"station_id":"UI","line":2},{"i_long":106.834175,"line":2,"i_lat":-6.339291,"station_name":"Univ. Pancasila","station_id":"UP","time":3,"is_transit":false,"distance":2264,"transit":false},{"transit":false,"time":2,"i_lat":-6.330363,"i_long":106.832616,"is_transit":false,"distance":1029,"station_id":"LNA","line":2,"station_name":"Lenteng Agung"},{"distance":2671,"station_name":"Tanjung Barat","line":2,"time":3,"i_long":106.838896,"is_transit":false,"transit":false,"station_id":"TNT","i_lat":-6.3080680000000005},{"station_name":"Pasar Minggu","line":2,"transit":false,"station_id":"PSM","distance":2820,"is_transit":false,"i_long":106.843999,"i_lat":-6.2842400000000005,"time":4},{"i_long":106.851577,"distance":2380,"station_name":"Pasar Minggu Baru","station_id":"PSMB","time":2,"line":2,"is_transit":false,"transit":false,"i_lat":-6.263214},{"i_long":106.85449,"is_transit":false,"line":2,"i_lat":-6.255332,"station_id":"DRN","transit":false,"distance":824,"station_name":"Duren Kalibata","time":2},{"i_lat":-6.242512,"is_transit":false,"i_long":106.856607,"line":2,"station_name":"Cawang","transit":false,"time":3,"station_id":"CW","distance":1546},{"station_name":"Tebet","station_id":"TEB","distance":1230,"time":2,"i_lat":-6.226659,"i_long":106.857948,"line":2,"is_transit":false,"transit":false},{"distance":2610,"i_long":106.84912,"transit":true,"is_transit":true,"time":4,"station_name":"Manggarai","station_id":"MRI","line":2,"i_lat":-6.209883},{"station_id":"SUD","is_transit":false,"i_lat":-6.202263,"line":1,"i_long":106.822649,"distance":3186,"station_name":"Sudirman","time":4,"transit":false},{"station_name":"Sudirman Baru","is_transit":false,"time":1,"i_lat":-6.201433,"i_long":106.819881,"distance":280,"station_id":"SUDB","transit":false,"line":1},{"line":1,"is_transit":false,"i_lat":-6.20132,"station_id":"KAT","i_long":106.816351,"transit":false,"distance":471,"station_name":"Karet","time":1},{"line":1,"transit":false,"is_transit":false,"station_id":"THB","time":5,"station_name":"Tanah Abang","distance":2029,"i_lat":-6.185545,"i_long":106.811091},{"i_long":106.800832,"time":8,"station_name":"Duri","distance":3632,"line":1,"transit":false,"is_transit":false,"i_lat":-6.155215,"station_id":"DU"},{"distance":1230,"line":1,"i_lat":-6.144674,"i_long":106.79867,"station_id":"AK","transit":false,"time":4,"station_name":"Angke","is_transit":false},{"i_lat":-6.132549,"line":4,"is_transit":true,"i_long":106.826365,"distance":4102,"transit":true,"station_id":"KPB","time":9,"station_name":"Kampung Bandan"},{"time":3,"i_lat":-6.14505,"transit":false,"line":11,"station_id":"RJW","is_transit":false,"station_name":"Rajawali","distance":1444,"i_long":106.836569},{"line":11,"station_name":"Kemayoran","transit":false,"station_id":"KMO","is_transit":false,"time":5,"distance":1901,"i_lat":-6.161728,"i_long":106.839204},{"distance":1436,"transit":false,"is_transit":false,"station_name":"Pasar Senen","station_id":"PSE","time":4,"i_lat":-6.174784,"i_long":106.84368,"line":11},{"i_lat":-6.185975,"line":11,"station_id":"GST","transit":false,"station_name":"Gang Sentiong","i_long":106.850107,"is_transit":false,"distance":1567,"time":8},{"station_name":"Kramat","line":11,"i_lat":-6.193792,"distance":973,"time":1,"is_transit":false,"station_id":"KMT","transit":false,"i_long":106.855437},{"line":11,"distance":1829,"transit":false,"is_transit":false,"station_name":"Pondok Jati","station_id":"POK","i_lat":-6.209188,"i_long":106.861737,"time":2},{"line":1,"station_id":"JNG","transit":true,"i_lat":-6.215091,"station_name":"Jatinegara","i_long":106.86807400000001,"distance":1236,"is_transit":true,"time":9},{"is_transit":false,"line":1,"i_long":106.899548,"station_name":"Klender","transit":false,"station_id":"KLD","i_lat":-6.2135,"distance":3395,"time":3},{"time":2,"is_transit":false,"line":1,"distance":3100,"station_id":"BUA","i_long":106.922662,"transit":false,"i_lat":-6.215568,"station_name":"Buaran"},{"station_id":"KLDB","i_lat":-6.217455,"i_long":106.939679,"is_transit":false,"transit":false,"time":1,"station_name":"Klenderbaru","distance":1305,"line":1},{"distance":1385,"line":1,"i_long":106.951283,"station_name":"Cakung","time":8,"transit":false,"is_transit":false,"i_lat":-6.219053,"station_id":"CUK"},{"distance":3097,"station_id":"KRI","time":3,"transit":false,"line":1,"i_long":106.977657,"station_name":"Kranji","i_lat":-6.224515,"is_transit":false},{"time":4,"i_lat":-6.236616,"line":1,"distance":2520,"i_long":106.997013,"transit":false,"station_name":"Bekasi","station_id":"BKS","is_transit":false},{"i_lat":-6.248029,"i_long":107.016735,"station_id":"BKST","is_transit":false,"time":2,"distance":2368,"line":1,"station_name":"Bekasi Timur","transit":false},{"is_transit":false,"time":7,"i_long":107.055722,"station_name":"Tambun","distance":4460,"transit":false,"station_id":"TB","i_lat":-6.258864,"line":1},{"station_id":"CIT","station_name":"Cibitung","transit":false,"i_long":107.083084,"distance":3420,"i_lat":-6.261877,"line":1,"time":3,"is_transit":false},{"i_lat":-6.262938,"is_transit":false,"transit":false,"station_name":"Metland Telaga Murni","i_long":107.093313,"line":1,"station_id":"TLM","distance":2800,"time":2}],[{"transit":false,"i_lat":-6.405256,"distance":0,"is_transit":false,"station_id":"DP","time":0,"line":2,"station_name":"Depok","i_long":106.816926},{"is_transit":false,"i_long":106.819451,"line":2,"station_name":"Depokbaru","time":3,"station_id":"DPB","transit":false,"distance":1584,"i_lat":-6.391065},{"station_id":"POC","transit":false,"distance":2727,"station_name":"Pondok Cina","is_transit":false,"i_long":106.831114,"line":2,"i_lat":-6.369073,"time":4},{"station_id":"UI","time":2,"line":2,"i_lat":-6.360749,"transit":false,"is_transit":false,"i_long":106.831474,"distance":1109,"station_name":"Univ. Indonesia"},{"time":3,"transit":false,"i_lat":-6.339291,"distance":2264,"is_transit":false,"station_id":"UP","station_name":"Univ. Pancasila","line":2,"i_long":106.834175},{"time":2,"is_transit":false,"station_name":"Lenteng Agung","distance":1029,"i_lat":-6.330363,"transit":false,"i_long":106.832616,"station_id":"LNA","line":2},{"transit":false,"i_lat":-6.3080680000000005,"station_id":"TNT","station_name":"Tanjung Barat","is_transit":false,"line":2,"time":3,"distance":2671,"i_long":106.838896},{"line":2,"station_id":"PSM","station_name":"Pasar Minggu","time":4,"is_transit":false,"transit":false,"distance":2820,"i_lat":-6.2842400000000005,"i_long":106.843999},{"distance":2380,"time":2,"station_id":"PSMB","transit":false,"i_long":106.851577,"is_transit":false,"line":2,"station_name":"Pasar Minggu Baru","i_lat":-6.263214},{"transit":false,"i_lat":-6.255332,"station_id":"DRN","station_name":"Duren Kalibata","is_transit":false,"i_long":106.85449,"distance":824,"line":2,"time":2},{"i_lat":-6.242512,"line":2,"i_long":106.856607,"is_transit":false,"station_name":"Cawang","time":3,"station_id":"CW","transit":false,"distance":1546},{"time":2,"i_lat":-6.226659,"distance":1230,"i_long":106.857948,"transit":false,"station_name":"Tebet","line":2,"is_transit":false,"station_id":"TEB"},{"is_transit":false,"i_long":106.84912,"station_id":"MRI","line":2,"time":4,"transit":false,"distance":2610,"i_lat":-6.209883,"station_name":"Manggarai"},{"station_id":"CKI","i_long":106.840169,"distance":1590,"line":2,"time":4,"is_transit":false,"transit":false,"i_lat":-6.198556,"station_name":"Cikini"},{"is_transit":false,"distance":1750,"i_long":106.832183,"transit":false,"time":3,"line":2,"i_lat":-6.186295,"station_name":"Gondangdia","station_id":"GDD"},{"distance":2015,"i_lat":-6.166716,"transit":false,"line":2,"i_long":106.828284,"time":4,"is_transit":false,"station_name":"Juanda","station_id":"JUA"},{"station_name":"Sawah Besar","transit":false,"i_long":106.827103,"station_id":"SW","is_transit":false,"time":2,"distance":1149,"i_lat":-6.160725,"line":2},{"distance":906,"i_lat":-6.149769,"line":2,"i_long":106.82482,"transit":false,"time":2,"is_transit":false,"station_name":"Manggabesar","station_id":"MGB"},{"station_id":"JAY","transit":false,"i_long":106.820901,"station_name":"Jayakarta","i_lat":-6.141205,"line":2,"time":2,"distance":1080,"is_transit":false},{"station_name":"Jakarta Kota","time":4,"line":2,"station_id":"JAKK","is_transit":true,"i_long":106.812439,"i_lat":-6.137569,"transit":true,"distance":1264},{"line":4,"transit":true,"time":3,"is_transit":true,"distance":1364,"station_name":"Kampung Bandan","station_id":"KPB","i_lat":-6.132549,"i_long":106.826365},{"distance":1444,"transit":false,"line":11,"is_transit":false,"station_name":"Rajawali","station_id":"RJW","i_long":106.836569,"time":3,"i_lat":-6.14505},{"distance":1901,"station_name":"Kemayoran","station_id":"KMO","line":11,"transit":false,"is_transit":false,"i_lat":-6.161728,"i_long":106.839204,"time":5},{"line":11,"i_long":106.84368,"station_id":"PSE","station_name":"Pasar Senen","i_lat":-6.174784,"transit":false,"is_transit":false,"time":4,"distance":1436},{"station_name":"Gang Sentiong","transit":false,"i_lat":-6.185975,"i_long":106.850107,"is_transit":false,"line":11,"station_id":"GST","time":8,"distance":1567},{"i_long":106.855437,"station_name":"Kramat","station_id":"KMT","time":1,"i_lat":-6.193792,"is_transit":false,"line":11,"distance":973,"transit":false},{"distance":1829,"transit":false,"line":11,"station_id":"POK","station_name":"Pondok Jati","time":2,"is_transit":false,"i_lat":-6.209188,"i_long":106.861737},{"is_transit":true,"i_long":106.86807400000001,"transit":true,"station_id":"JNG","i_lat":-6.215091,"station_name":"Jatinegara","line":1,"distance":1236,"time":9},{"transit":false,"i_long":106.899548,"distance":3395,"station_id":"KLD","is_transit":false,"i_lat":-6.2135,"line":1,"time":3,"station_name":"Klender"},{"station_name":"Buaran","i_long":106.922662,"station_id":"BUA","is_transit":false,"time":2,"transit":false,"i_lat":-6.215568,"line":1,"distance":3100},{"distance":1305,"station_name":"Klenderbaru","transit":false,"time":1,"i_long":106.939679,"line":1,"is_transit":false,"station_id":"KLDB","i_lat":-6.217455},{"is_transit":false,"distance":1385,"time":8,"i_long":106.951283,"i_lat":-6.219053,"transit":false,"line":1,"station_id":"CUK","station_name":"Cakung"},{"time":3,"line":1,"i_long":106.977657,"distance":3097,"transit":false,"i_lat":-6.224515,"station_name":"Kranji","station_id":"KRI","is_transit":false},{"i_lat":-6.236616,"line":1,"time":4,"is_transit":false,"station_name":"Bekasi","distance":2520,"station_id":"BKS","transit":false,"i_long":106.997013},{"distance":2368,"transit":false,"i_lat":-6.248029,"time":2,"is_transit":false,"station_id":"BKST","line":1,"i_long":107.016735,"station_name":"Bekasi Timur"},{"station_name":"Tambun","i_long":107.055722,"i_lat":-6.258864,"is_transit":false,"station_id":"TB","line":1,"time":7,"transit":false,"distance":4460},{"station_name":"Cibitung","i_long":107.083084,"distance":3420,"time":3,"i_lat":-6.261877,"is_transit":false,"line":1,"transit":false,"station_id":"CIT"},{"i_lat":-6.262938,"line":1,"i_long":107.093313,"distance":2800,"is_transit":false,"station_id":"TLM","time":2,"station_name":"Metland Telaga Murni","transit":false}]]}