{"data":[[{"i_lat":-6.405256,"time":0,"station_id":"DP","is_transit":false,"i_long":106.816926,"line":0,"transit":false,"distance":0,"station_name":"Depok"},{"i_lat":-6.391065,"line":0,"station_name":"Depokbaru","distance":1584,"station_id":"DPB","time":3,"is_transit":false,"transit":false,"i_long":106.819451},{"i_lat":-6.369073,"station_name":"Pondok Cina","station_id":"POC","transit":false,"is_transit":false,"time":4,"distance":2727,"i_long":106.831114,"line":2},{"is_transit":false,"distance":1109,"time":2,"i_long":106.831474,"station_id":"UI","transit":false,"station_name":"Univ. Indonesia","i_lat":-6.360749,"line":2},{"i_long":106.834175,"station_name":"Univ. Pancasila","distance":2264,"is_transit":false,"transit":false,"i_lat":-6.339291,"station_id":"UP","line":2,"time":3},{"time":2,"station_id":"LNA","distance":1029,"i_long":106.832616,"line":2,"transit":false,"is_transit":false,"station_name":"Lenteng Agung","i_lat":-6.330363},{"i_long":106.838896,"line":2,"is_transit":false,"i_lat":-6.3080680000000005,"station_name":"Tanjung Barat","station_id":"TNT","time":3,"distance":2671,"transit":false},{"transit":false,"station_name":"Pasar Minggu","is_transit":false,"station_id":"PSM","time":4,"line":2,"i_long":106.843999,"i_lat":-6.2842400000000005,"distance":2820},{"station_name":"Pasar Minggu Baru","station_id":"PSMB","i_lat":-6.263214,"i_long":106.851577,"transit":false,"distance":2380,"line":2,"is_transit":false,"time":2},{"station_id":"DRN","transit":false,"is_transit":false,"time":2,"station_name":"Duren Kalibata","distance":824,"i_long":106.85449,"i_lat":-6.255332,"line":0},{"station_id":"CW","i_long":106.856607,"is_transit":false,"time":3,"station_name":"Cawang","line":0,"transit":false,"i_lat":-6.242512,"distance":1546},{"station_name":"Tebet","i_lat":-6.226659,"line":2,"transit":false,"i_long":106.857948,"distance":1230,"is_transit":false,"station_id":"TEB","time":2},{"i_lat":-6.209883,"time":4,"station_name":"Manggarai","line":0,"station_id":"MRI","is_transit":true,"i_long":106.84912,"distance":2610,"transit":true},{"transit":false,"line":1,"station_id":"MTR","distance":1275,"i_lat":-6.212485,"is_transit":false,"i_long":106.858896,"time":2,"station_name":"Matraman"},{"station_id":"JNG","is_transit":true,"line":0,"distance":1377,"station_name":"Jatinegara","i_lat":-6.215091,"time":8,"transit":false,"i_long":106.86807400000001},{"station_name":"Klender","distance":3395,"i_lat":-6.2135,"station_id":"KLD","is_transit":false,"time":3,"transit":false,"line":1,"i_long":106.899548},{"i_lat":-6.215568,"line":0,"station_id":"BUA","i_long":106.922662,"time":2,"transit":false,"station_name":"Buaran","distance":3100,"is_transit":false},{"line":1,"i_long":106.939679,"is_transit":false,"station_name":"Klenderbaru","i_lat":-6.217455,"station_id":"KLDB","distance":1305,"transit":false,"time":1},{"i_long":106.951283,"station_name":"Cakung","distance":1385,"time":8,"i_lat":-6.219053,"station_id":"CUK","is_transit":false,"line":0,"transit":false},{"transit":false,"station_id":"KRI","i_long":106.977657,"time":3,"distance":3097,"i_lat":-6.224515,"line":1,"station_name":"Kranji","is_transit":false},{"time":4,"is_transit":false,"transit":false,"i_lat":-6.236616,"i_long":106.997013,"distance":2520,"station_id":"BKS","station_name":"Bekasi","line":0},{"station_name":"Bekasi Timur","station_id":"BKST","is_transit":false,"i_lat":-6.248029,"i_long":107.016735,"time":2,"transit":false,"line":0,"distance":2368},{"i_lat":-6.258864,"distance":4460,"station_id":"TB","station_name":"Tambun","transit":false,"is_transit":false,"time":7,"i_long":107.055722,"line":1},{"transit":false,"distance":3420,"is_transit":false,"station_name":"Cibitung","i_long":107.083084,"line":0,"station_id":"CIT","i_lat":-6.261877,"time":3},{"is_transit":false,"time":2,"i_long":107.093313,"transit":false,"station_id":"TLM","i_lat":-6.262938,"line":1,"station_name":"Metland Telaga Murni","distance":2800}],[{"station_name":"Depok","distance":0,"transit":false,"i_long":106.816926,"is_transit":false,"i_lat":-6.405256,"line":0,"time":0,"station_id":"DP"},{"is_transit":false,"station_id":"DPB","i_long":106.819451,"transit":false,"station_name":"Depokbaru","line":0,"time":3,"distance":1584,"i_lat":-6.391065},{"is_transit":false,"station_name":"Pondok Cina","transit":false,"i_lat":-6.369073,"line":2,"station_id":"POC","distance":2727,"time":4,"i_long":106.831114},{"i_long":106.831474,"is_transit":false,"i_lat":-6.360749,"station_name":"Univ. Indonesia","station_id":"UI","time":2,"distance":1109,"transit":false,"line":2},{"i_lat":-6.339291,"line":2,"transit":false,"time":3,"is_transit":false,"i_long":106.834175,"station_name":"Univ. Pancasila","distance":2264,"station_id":"UP"},{"station_id":"LNA","i_lat":-6.330363,"station_name":"Lenteng Agung","distance":1029,"i_long":106.832616,"time":2,"line":2,"transit":false,"is_transit":false},{"line":2,"is_transit":false,"i_lat":-6.3080680000000005,"station_name":"Tanjung Barat","distance":2671,"time":3,"station_id":"TNT","transit":false,"i_long":106.838896},{"line":2,"i_long":106.843999,"station_id":"PSM","distance":2820,"is_transit":false,"transit":false,"time":4,"i_lat":-6.2842400000000005,"station_name":"Pasar Minggu"},{"i_long":106.851577,"line":2,"time":2,"i_lat":-6.263214,"station_id":"PSMB","transit":false,"is_transit":false,"station_name":"Pasar Minggu Baru","distance":2380},{"is_transit":false,"station_name":"Duren Kalibata","line":0,"time":2,"station_id":"DRN","i_long":106.85449,"distance":824,"i_lat":-6.255332,"transit":false},{"line":0,"distance":1546,"station_id":"CW","i_lat":-6.242512,"transit":false,"time":3,"is_transit":false,"station_name":"Cawang","i_long":106.856607},{"station_id":"TEB","distance":1230,"transit":false,"i_lat":-6.226659,"i_long":106.857948,"line":2,"station_name":"Tebet","time":2,"is_transit":false},{"station_name":"Manggarai","i_lat":-6.209883,"time":4,"station_id":"MRI","is_transit":true,"transit":true,"distance":2610,"i_long":106.84912,"line":0},{"time":4,"i_long":106.822649,"transit":false,"distance":3186,"is_transit":false,"i_lat":-6.202263,"station_id":"SUD","station_name":"Sudirman","line":1},{"time":1,"distance":280,"is_transit":false,"i_lat":-6.201433,"station_name":"Sudirman Baru","transit":false,"i_long":106.819881,"line":1,"station_id":"SUDB"},{"station_id":"KAT","time":1,"is_transit":false,"distance":471,"transit":false,"i_lat":-6.20132,"i_long":106.816351,"line":1,"station_name":"Karet"},{"line":1,"i_lat":-6.185545,"station_id":"THB","station_name":"Tanah Abang","is_transit":true,"time":5,"transit":false,"distance":2029,"i_long":106.811091},{"station_name":"Duri","station_id":"DU","is_transit":true,"line":1,"i_long":106.800832,"transit":true,"distance":3632,"i_lat":-6.155215,"time":8},{"time":4,"transit":false,"distance":1230,"i_lat":-6.144674,"i_long":106.79867,"is_transit":false,"line":0,"station_name":"Angke","station_id":"AK"},{"distance":4102,"transit":true,"i_lat":-6.132549,"i_long":106.826365,"station_id":"KPB","station_name":"Kampung Bandan","time":9,"line":0,"is_transit":true},{"station_id":"RJW","is_transit":false,"distance":1444,"station_name":"Rajawali","i_lat":-6.14505,"i_long":106.836569,"transit":false,"line":11,"time":3},{"i_lat":-6.161728,"station_id":"KMO","is_transit":false,"time":5,"distance":1901,"transit":false,"i_long":106.839204,"line":11,"station_name":"Kemayoran"},{"station_id":"PSE","is_transit":false,"time":4,"transit":false,"station_name":"Pasar Senen","distance":1436,"i_long":106.84368,"line":11,"i_lat":-6.174784},{"transit":false,"distance":1567,"line":11,"station_id":"GST","is_transit":false,"i_lat":-6.185975,"i_long":106.850107,"time":8,"station_name":"Gang Sentiong"},{"transit":false,"i_long":106.855437,"i_lat":-6.193792,"is_transit":false,"station_name":"Kramat","line":11,"time":1,"station_id":"KMT","distance":973},{"i_long":106.861737,"time":2,"station_name":"Pondok Jati","distance":1829,"line":11,"station_id":"POK","i_lat":-6.209188,"transit":false,"is_transit":false},{"station_id":"JNG","is_transit":true,"transit":true,"distance":1236,"station_name":"Jatinegara","i_lat":-6.215091,"time":9,"i_long":106.86807400000001,"line":0},{"i_long":106.899548,"line":1,"time":3,"is_transit":false,"distance":3395,"station_id":"KLD","i_lat":-6.2135,"transit":false,"station_name":"Klender"},{"is_transit":false,"time":2,"station_id":"BUA","transit":false,"i_lat":-6.215568,"i_long":106.922662,"line":0,"station_name":"Buaran","distance":3100},{"i_long":106.939679,"station_name":"Klenderbaru","i_lat":-6.217455,"time":1,"distance":1305,"station_id":"KLDB","line":1,"is_transit":false,"transit":false},{"station_name":"Cakung","station_id":"CUK","time":8,"i_long":106.951283,"line":0,"is_transit":false,"transit":false,"i_lat":-6.219053,"distance":1385},{"time":3,"i_lat":-6.224515,"station_id":"KRI","is_transit":false,"distance":3097,"station_name":"Kranji","i_long":106.977657,"transit":false,"line":1},{"station_name":"Bekasi","transit":false,"i_lat":-6.236616,"distance":2520,"is_transit":false,"i_long":106.997013,"line":0,"station_id":"BKS","time":4},{"station_id":"BKST","is_transit":false,"time":2,"station_name":"Bekasi Timur","line":0,"i_long":107.016735,"i_lat":-6.248029,"distance":2368,"transit":false},{"is_transit":false,"transit":false,"i_lat":-6.258864,"time":7,"line":1,"i_long":107.055722,"distance":4460,"station_name":"Tambun","station_id":"TB"},{"station_name":"Cibitung","time":3,"station_id":"CIT","i_lat":-6.261877,"distance":3420,"i_long":107.083084,"is_transit":false,"line":0,"transit":false},{"i_long":107.093313,"is_transit":false,"line":1,"distance":2800,"station_name":"Metland Telaga Murni","time":2,"transit":false,"i_lat":-6.262938,"station_id":"TLM"}],[{"station_name":"Depok","distance":0,"time":0,"i_lat":-6.405256,"i_long":106.816926,"is_transit":false,"line":0,"transit":false,"station_id":"DP"},{"station_name":"Depokbaru","line":0,"station_id":"DPB","i_long":106.819451,"time":3,"is_transit":false,"i_lat":-6.391065,"transit":false,"distance":1584},{"transit":false,"is_transit":false,"time":4,"distance":2727,"line":2,"i_lat":-6.369073,"i_long":106.831114,"station_name":"Pondok Cina","station_id":"POC"},{"station_id":"UI","distance":1109,"i_lat":-6.360749,"i_long":106.831474,"transit":false,"line":2,"station_name":"Univ. Indonesia","is_transit":false,"time":2},{"station_id":"UP","line":2,"is_transit":false,"time":3,"distance":2264,"station_name":"Univ. Pancasila","i_lat":-6.339291,"i_long":106.834175,"transit":false},{"i_long":106.832616,"distance":1029,"station_id":"LNA","station_name":"Lenteng Agung","i_lat":-6.330363,"is_transit":false,"transit":false,"time":2,"line":2},{"station_id":"TNT","station_name":"Tanjung Barat","line":2,"i_long":106.838896,"is_transit":false,"time":3,"distance":2671,"transit":false,"i_lat":-6.3080680000000005},{"time":4,"is_transit":false,"i_long":106.843999,"distance":2820,"station_id":"PSM","station_name":"Pasar Minggu","line":2,"i_lat":-6.2842400000000005,"transit":false},{"distance":2380,"transit":false,"station_name":"Pasar Minggu Baru","time":2,"station_id":"PSMB","is_transit":false,"i_lat":-6.263214,"i_long":106.851577,"line":2},{"transit":false,"is_transit":false,"time":2,"i_long":106.85449,"distance":824,"i_lat":-6.255332,"station_name":"Duren Kalibata","station_id":"DRN","line":0},{"is_transit":false,"transit":false,"i_long":106.856607,"i_lat":-6.242512,"distance":1546,"line":0,"station_id":"CW","station_name":"Cawang","time":3},{"is_transit":false,"distance":1230,"line":2,"station_id":"TEB","station_name":"Tebet","i_long":106.857948,"i_lat":-6.226659,"transit":false,"time":2},{"distance":2610,"time":4,"i_long":106.84912,"station_name":"Manggarai","station_id":"MRI","transit":true,"i_lat":-6.209883,"line":0,"is_transit":true},{"distance":1590,"i_long":106.840169,"line":0,"station_id":"CKI","station_name":"Cikini","is_transit":false,"time":4,"i_lat":-6.198556,"transit":false},{"transit":false,"i_lat":-6.186295,"i_long":106.832183,"station_id":"GDD","time":3,"station_name":"Gondangdia","is_transit":false,"distance":1750,"line":2},{"is_transit":false,"time":4,"distance":2015,"transit":false,"i_long":106.828284,"station_name":"Juanda","station_id":"JUA","i_lat":-6.166716,"line":2},{"station_name":"Sawah Besar","is_transit":false,"line":2,"station_id":"SW","distance":1149,"transit":false,"i_lat":-6.160725,"i_long":106.827103,"time":2},{"time":2,"is_transit":false,"i_long":106.82482,"station_name":"Manggabesar","line":2,"i_lat":-6.149769,"transit":false,"distance":906,"station_id":"MGB"},{"distance":1080,"line":7,"station_name":"Jayakarta","i_lat":-6.141205,"transit":false,"station_id":"JAY","i_long":106.820901,"is_transit":false,"time":2},{"time":4,"i_long":106.812439,"transit":true,"line":0,"is_transit":true,"distance":1264,"i_lat":-6.137569,"station_id":"JAKK","station_name":"Jakarta Kota"},{"i_lat":-6.132549,"line":0,"i_long":106.826365,"transit":true,"time":3,"station_name":"Kampung Bandan","station_id":"KPB","is_transit":true,"distance":1364},{"station_id":"RJW","is_transit":false,"line":11,"transit":false,"i_lat":-6.14505,"distance":1444,"time":3,"i_long":106.836569,"station_name":"Rajawali"},{"is_transit":false,"transit":false,"distance":1901,"station_id":"KMO","i_long":106.839204,"time":5,"line":11,"i_lat":-6.161728,"station_name":"Kemayoran"},{"distance":1436,"station_id":"PSE","time":4,"is_transit":false,"transit":false,"i_lat":-6.174784,"i_long":106.84368,"line":11,"station_name":"Pasar Senen"},{"time":8,"station_id":"GST","distance":1567,"station_name":"Gang Sentiong","transit":false,"i_long":106.850107,"is_transit":false,"line":11,"i_lat":-6.185975},{"i_long":106.855437,"is_transit":false,"line":11,"station_id":"KMT","time":1,"transit":false,"i_lat":-6.193792,"distance":973,"station_name":"Kramat"},{"distance":1829,"i_lat":-6.209188,"line":11,"i_long":106.861737,"time":2,"is_transit":false,"station_id":"POK","transit":false,"station_name":"Pondok Jati"},{"line":0,"time":9,"station_id":"JNG","is_transit":true,"distance":1236,"station_name":"Jatinegara","i_lat":-6.215091,"i_long":106.86807400000001,"transit":true},{"distance":3395,"i_long":106.899548,"time":3,"line":1,"transit":false,"station_name":"Klender","i_lat":-6.2135,"station_id":"KLD","is_transit":false},{"time":2,"transit":false,"i_lat":-6.215568,"station_name":"Buaran","i_long":106.922662,"line":0,"is_transit":false,"station_id":"BUA","distance":3100},{"time":1,"i_lat":-6.217455,"line":1,"station_id":"KLDB","i_long":106.939679,"station_name":"Klenderbaru","transit":false,"is_transit":false,"distance":1305},{"distance":1385,"transit":false,"i_long":106.951283,"station_id":"CUK","time":8,"station_name":"Cakung","is_transit":false,"i_lat":-6.219053,"line":0},{"i_long":106.977657,"line":1,"distance":3097,"station_name":"Kranji","station_id":"KRI","is_transit":false,"transit":false,"i_lat":-6.224515,"time":3},{"transit":false,"is_transit":false,"time":4,"i_lat":-6.236616,"station_id":"BKS","station_name":"Bekasi","distance":2520,"i_long":106.997013,"line":0},{"i_lat":-6.248029,"line":0,"is_transit":false,"time":2,"transit":false,"station_name":"Bekasi Timur","distance":2368,"i_long":107.016735,"station_id":"BKST"},{"i_long":107.055722,"time":7,"station_name":"Tambun","station_id":"TB","distance":4460,"line":1,"transit":false,"is_transit":false,"i_lat":-6.258864},{"time":3,"station_name":"Cibitung","line":0,"station_id":"CIT","distance":3420,"i_lat":-6.261877,"is_transit":false,"transit":false,"i_long":107.083084},{"station_id":"TLM","line":1,"i_long":107.093313,"transit":false,"time":2,"is_transit":false,"i_lat":-6.262938,"station_name":"Metland Telaga Murni","distance":2800}]]}