{"data":[[{"is_transit":false,"transit":false,"i_long":106.816926,"line":2,"station_name":"Depok","station_id":"DP","distance":0,"i_lat":-6.405256,"time":0},{"i_lat":-6.391065,"line":2,"station_name":"Depokbaru","distance":1584,"is_transit":false,"transit":false,"i_long":106.819451,"time":3,"station_id":"DPB"},{"time":4,"station_name":"Pondok Cina","distance":2727,"station_id":"POC","i_long":106.831114,"line":2,"transit":false,"i_lat":-6.369073,"is_transit":false},{"transit":false,"i_long":106.831474,"line":2,"station_name":"Univ. Indonesia","station_id":"UI","is_transit":false,"i_lat":-6.360749,"time":2,"distance":1109},{"i_lat":-6.339291,"i_long":106.834175,"station_name":"Univ. Pancasila","station_id":"UP","time":3,"transit":false,"distance":2264,"is_transit":false,"line":2},{"transit":false,"is_transit":false,"station_name":"Lenteng Agung","time":2,"station_id":"LNA","line":2,"distance":1029,"i_lat":-6.330363,"i_long":106.832616},{"is_transit":false,"i_lat":-6.3080680000000005,"distance":2671,"transit":false,"i_long":106.838896,"time":3,"line":2,"station_id":"TNT","station_name":"Tanjung Barat"},{"i_lat":-6.2842400000000005,"i_long":106.843999,"distance":2820,"line":2,"station_name":"Pasar Minggu","time":4,"station_id":"PSM","transit":false,"is_transit":false},{"station_name":"Pasar Minggu Baru","line":2,"time":2,"is_transit":false,"i_lat":-6.263214,"i_long":106.851577,"transit":false,"station_id":"PSMB","distance":2380},{"station_name":"Duren Kalibata","station_id":"DRN","is_transit":false,"i_lat":-6.255332,"i_long":106.85449,"transit":false,"time":2,"distance":824,"line":2},{"station_id":"CW","station_name":"Cawang","line":2,"time":3,"is_transit":false,"i_lat":-6.242512,"transit":false,"distance":1546,"i_long":106.856607},{"i_lat":-6.226659,"station_name":"Tebet","transit":false,"station_id":"TEB","i_long":106.857948,"distance":1230,"line":2,"time":2,"is_transit":false},{"station_name":"Manggarai","distance":2610,"is_transit":true,"time":4,"line":2,"i_lat":-6.209883,"transit":true,"station_id":"MRI","i_long":106.84912},{"transit":false,"station_name":"Sudirman","station_id":"SUD","i_lat":-6.202263,"line":1,"is_transit":false,"distance":3186,"time":4,"i_long":106.822649},{"time":1,"station_name":"Sudirman Baru","station_id":"SUDB","distance":280,"i_lat":-6.201433,"i_long":106.819881,"line":1,"is_transit":false,"transit":false},{"time":1,"station_name":"Karet","i_lat":-6.20132,"is_transit":false,"i_long":106.816351,"transit":false,"station_id":"KAT","distance":471,"line":1},{"station_name":"Tanah Abang","transit":false,"i_long":106.811091,"distance":2029,"station_id":"THB","line":1,"is_transit":false,"i_lat":-6.185545,"time":5}],[{"time":0,"i_long":106.816926,"station_id":"DP","is_transit":false,"station_name":"Depok","transit":false,"distance":0,"i_lat":-6.405256,"line":2},{"line":2,"i_lat":-6.391065,"station_id":"DPB","i_long":106.819451,"time":3,"is_transit":false,"transit":false,"station_name":"Depokbaru","distance":1584},{"is_transit":false,"line":2,"station_id":"POC","transit":false,"distance":2727,"station_name":"Pondok Cina","time":4,"i_lat":-6.369073,"i_long":106.831114},{"i_long":106.831474,"transit":false,"i_lat":-6.360749,"station_name":"Univ. Indonesia","line":2,"time":2,"is_transit":false,"distance":1109,"station_id":"UI"},{"station_id":"UP","station_name":"Univ. Pancasila","i_lat":-6.339291,"i_long":106.834175,"line":2,"time":3,"distance":2264,"transit":false,"is_transit":false},{"distance":1029,"i_lat":-6.330363,"is_transit":false,"transit":false,"line":2,"time":2,"station_name":"Lenteng Agung","station_id":"LNA","i_long":106.832616},{"station_name":"Tanjung Barat","transit":false,"is_transit":false,"station_id":"TNT","i_long":106.838896,"i_lat":-6.3080680000000005,"time":3,"distance":2671,"line":2},{"station_name":"Pasar Minggu","transit":false,"is_transit":false,"station_id":"PSM","i_long":106.843999,"line":2,"i_lat":-6.2842400000000005,"time":4,"distance":2820},{"distance":2380,"time":2,"station_id":"PSMB","i_long":106.851577,"line":2,"station_name":"Pasar Minggu Baru","is_transit":false,"transit":false,"i_lat":-6.263214},{"is_transit":false,"transit":false,"station_id":"DRN","i_long":106.85449,"distance":824,"i_lat":-6.255332,"station_name":"Duren Kalibata","line":2,"time":2},{"i_lat":-6.242512,"is_transit":false,"transit":false,"time":3,"i_long":106.856607,"station_name":"Cawang","station_id":"CW","distance":1546,"line":2},{"time":2,"station_name":"Tebet","is_transit":false,"station_id":"TEB","distance":1230,"line":2,"i_lat":-6.226659,"transit":false,"i_long":106.857948},{"is_transit":false,"distance":2610,"station_name":"Manggarai","transit":false,"i_lat":-6.209883,"time":4,"station_id":"MRI","i_long":106.84912,"line":2},{"transit":false,"station_id":"CKI","distance":1590,"station_name":"Cikini","time":4,"line":2,"i_long":106.840169,"is_transit":false,"i_lat":-6.198556},{"line":2,"station_id":"GDD","time":3,"distance":1750,"transit":false,"station_name":"Gondangdia","i_lat":-6.186295,"i_long":106.832183,"is_transit":false},{"transit":false,"i_long":106.828284,"i_lat":-6.166716,"station_name":"Juanda","is_transit":false,"station_id":"JUA","distance":2015,"line":2,"time":4},{"is_transit":false,"station_name":"Sawah Besar","i_lat":-6.160725,"time":2,"transit":false,"i_long":106.827103,"line":2,"distance":1149,"station_id":"SW"},{"distance":906,"station_name":"Manggabesar","i_long":106.82482,"time":2,"i_lat":-6.149769,"line":2,"transit":false,"is_transit":false,"station_id":"MGB"},{"time":2,"distance":1080,"is_transit":false,"transit":false,"i_lat":-6.141205,"station_id":"JAY","line":2,"i_long":106.820901,"station_name":"Jayakarta"},{"i_lat":-6.137569,"i_long":106.812439,"is_transit":true,"line":2,"time":4,"transit":true,"station_name":"Jakarta Kota","station_id":"JAKK","distance":1264},{"station_id":"KPB","station_name":"Kampung Bandan","i_long":106.826365,"line":4,"time":3,"distance":1364,"is_transit":true,"transit":true,"i_lat":-6.132549},{"transit":false,"i_long":106.79867,"station_name":"Angke","time":9,"is_transit":false,"i_lat":-6.144674,"station_id":"AK","line":1,"distance":4102},{"i_long":106.800832,"station_name":"Duri","distance":1230,"transit":false,"station_id":"DU","line":1,"time":4,"is_transit":false,"i_lat":-6.155215},{"distance":3632,"i_lat":-6.185545,"line":1,"station_name":"Tanah Abang","transit":false,"i_long":106.811091,"is_transit":false,"time":8,"station_id":"THB"}],[{"is_transit":false,"transit":false,"time":0,"station_name":"Depok","station_id":"DP","distance":0,"i_lat":-6.405256,"i_long":106.816926,"line":2},{"i_lat":-6.391065,"station_name":"Depokbaru","distance":1584,"is_transit":false,"i_long":106.819451,"line":2,"time":3,"station_id":"DPB","transit":false},{"station_id":"POC","line":2,"i_long":106.831114,"transit":false,"station_name":"Pondok Cina","is_transit":false,"distance":2727,"i_lat":-6.369073,"time":4},{"transit":false,"i_long":106.831474,"line":2,"time":2,"station_name":"Univ. Indonesia","station_id":"UI","distance":1109,"i_lat":-6.360749,"is_transit":false},{"line":2,"station_id":"UP","i_lat":-6.339291,"station_name":"Univ. Pancasila","transit":false,"is_transit":false,"distance":2264,"i_long":106.834175,"time":3},{"time":2,"station_name":"Lenteng Agung","distance":1029,"line":2,"is_transit":false,"transit":false,"i_lat":-6.330363,"station_id":"LNA","i_long":106.832616},{"transit":false,"station_id":"TNT","line":2,"i_long":106.838896,"is_transit":false,"distance":2671,"i_lat":-6.3080680000000005,"time":3,"station_name":"Tanjung Barat"},{"is_transit":false,"station_name":"Pasar Minggu","transit":false,"distance":2820,"time":4,"i_lat":-6.2842400000000005,"station_id":"PSM","line":2,"i_long":106.843999},{"line":2,"time":2,"is_transit":false,"transit":false,"station_id":"PSMB","distance":2380,"i_long":106.851577,"i_lat":-6.263214,"station_name":"Pasar Minggu Baru"},{"time":2,"is_transit":false,"station_id":"DRN","transit":false,"i_lat":-6.255332,"station_name":"Duren Kalibata","distance":824,"line":2,"i_long":106.85449},{"transit":false,"distance":1546,"i_lat":-6.242512,"i_long":106.856607,"line":2,"station_id":"CW","time":3,"is_transit":false,"station_name":"Cawang"},{"i_lat":-6.226659,"station_name":"Tebet","is_transit":false,"i_long":106.857948,"line":2,"time":2,"distance":1230,"transit":false,"station_id":"TEB"},{"time":4,"line":2,"station_name":"Manggarai","station_id":"MRI","distance":2610,"i_lat":-6.209883,"i_long":106.84912,"is_transit":true,"transit":true},{"is_transit":false,"transit":false,"station_name":"Matraman","i_lat":-6.212485,"distance":1275,"i_long":106.858896,"station_id":"MTR","time":2,"line":1},{"station_name":"Jatinegara","is_transit":true,"i_lat":-6.215091,"i_long":106.86807400000001,"time":8,"distance":1377,"line":1,"station_id":"JNG","transit":true},{"distance":1236,"time":2,"i_long":106.861737,"i_lat":-6.209188,"is_transit":false,"transit":false,"line":11,"station_name":"Pondok Jati","station_id":"POK"},{"i_lat":-6.193792,"station_name":"Kramat","station_id":"KMT","i_long":106.855437,"is_transit":false,"transit":false,"distance":1829,"line":11,"time":2},{"transit":false,"i_lat":-6.185975,"distance":973,"i_long":106.850107,"time":1,"station_id":"GST","is_transit":false,"station_name":"Gang Sentiong","line":11},{"is_transit":false,"transit":false,"distance":1567,"station_name":"Pasar Senen","line":11,"i_lat":-6.174784,"station_id":"PSE","i_long":106.84368,"time":8},{"station_id":"KMO","i_long":106.839204,"time":4,"station_name":"Kemayoran","transit":false,"is_transit":false,"i_lat":-6.161728,"line":11,"distance":1436},{"time":5,"transit":false,"station_id":"RJW","i_lat":-6.14505,"is_transit":false,"i_long":106.836569,"station_name":"Rajawali","distance":1901,"line":11},{"station_id":"KPB","i_lat":-6.132549,"transit":true,"distance":1444,"station_name":"Kampung Bandan","i_long":106.826365,"time":3,"line":4,"is_transit":true},{"i_long":106.79867,"transit":false,"station_id":"AK","distance":4102,"station_name":"Angke","is_transit":false,"time":9,"i_lat":-6.144674,"line":1},{"time":4,"is_transit":false,"i_long":106.800832,"distance":1230,"line":1,"station_id":"DU","transit":false,"station_name":"Duri","i_lat":-6.155215},{"distance":3632,"line":1,"is_transit":false,"time":8,"transit":false,"i_long":106.811091,"station_id":"THB","station_name":"Tanah Abang","i_lat":-6.185545}]]}