{"data":[[{"time":0,"station_name":"Depokbaru","is_transit":false,"distance":0,"i_lat":-6.391065,"station_id":"DPB","line":2,"i_long":106.819451,"transit":false},{"time":4,"distance":2727,"station_id":"POC","station_name":"Pondok Cina","is_transit":false,"line":2,"transit":false,"i_lat":-6.369073,"i_long":106.831114},{"station_name":"Univ. Indonesia","station_id":"UI","i_lat":-6.360749,"i_long":106.831474,"transit":false,"line":2,"is_transit":false,"time":2,"distance":1109},{"i_lat":-6.339291,"is_transit":false,"i_long":106.834175,"transit":false,"station_name":"Univ. Pancasila","station_id":"UP","time":3,"distance":2264,"line":2},{"station_name":"Lenteng Agung","time":2,"i_lat":-6.330363,"transit":false,"station_id":"LNA","i_long":106.832616,"is_transit":false,"distance":1029,"line":2},{"transit":false,"distance":2671,"station_name":"Tanjung Barat","i_lat":-6.3080680000000005,"is_transit":false,"i_long":106.838896,"time":3,"line":2,"station_id":"TNT"},{"is_transit":false,"i_lat":-6.2842400000000005,"line":2,"station_id":"PSM","transit":false,"station_name":"Pasar Minggu","i_long":106.843999,"time":4,"distance":2820},{"is_transit":false,"i_lat":-6.263214,"distance":2380,"transit":false,"station_name":"Pasar Minggu Baru","i_long":106.851577,"line":2,"station_id":"PSMB","time":2},{"line":2,"i_long":106.85449,"station_name":"Duren Kalibata","i_lat":-6.255332,"time":2,"distance":824,"transit":false,"is_transit":false,"station_id":"DRN"},{"distance":1546,"line":2,"time":3,"i_lat":-6.242512,"i_long":106.856607,"station_name":"Cawang","is_transit":false,"station_id":"CW","transit":false},{"distance":1230,"is_transit":false,"line":2,"time":2,"station_id":"TEB","station_name":"Tebet","transit":false,"i_lat":-6.226659,"i_long":106.857948},{"station_id":"MRI","i_long":106.84912,"distance":2610,"transit":true,"line":2,"i_lat":-6.209883,"is_transit":true,"station_name":"Manggarai","time":4},{"line":1,"i_long":106.822649,"distance":3186,"station_name":"Sudirman","transit":false,"i_lat":-6.202263,"is_transit":false,"station_id":"SUD","time":4},{"is_transit":false,"station_id":"SUDB","transit":false,"line":1,"distance":280,"i_lat":-6.201433,"time":1,"station_name":"Sudirman Baru","i_long":106.819881},{"i_lat":-6.20132,"line":1,"station_id":"KAT","i_long":106.816351,"time":1,"distance":471,"station_name":"Karet","is_transit":false,"transit":false},{"station_name":"Tanah Abang","line":1,"i_lat":-6.185545,"i_long":106.811091,"transit":false,"distance":2029,"station_id":"THB","time":5,"is_transit":false}],[{"distance":0,"transit":false,"station_id":"DPB","is_transit":false,"i_long":106.819451,"time":0,"line":2,"station_name":"Depokbaru","i_lat":-6.391065},{"station_id":"POC","transit":false,"station_name":"Pondok Cina","i_lat":-6.369073,"is_transit":false,"distance":2727,"line":2,"i_long":106.831114,"time":4},{"i_lat":-6.360749,"time":2,"i_long":106.831474,"station_id":"UI","station_name":"Univ. Indonesia","distance":1109,"line":2,"is_transit":false,"transit":false},{"is_transit":false,"time":3,"i_lat":-6.339291,"station_name":"Univ. Pancasila","i_long":106.834175,"distance":2264,"transit":false,"line":2,"station_id":"UP"},{"is_transit":false,"i_long":106.832616,"station_id":"LNA","line":2,"i_lat":-6.330363,"time":2,"distance":1029,"station_name":"Lenteng Agung","transit":false},{"station_name":"Tanjung Barat","time":3,"transit":false,"station_id":"TNT","is_transit":false,"i_lat":-6.3080680000000005,"i_long":106.838896,"distance":2671,"line":2},{"is_transit":false,"i_lat":-6.2842400000000005,"i_long":106.843999,"distance":2820,"station_id":"PSM","transit":false,"line":2,"station_name":"Pasar Minggu","time":4},{"is_transit":false,"time":2,"station_id":"PSMB","line":2,"i_lat":-6.263214,"station_name":"Pasar Minggu Baru","i_long":106.851577,"distance":2380,"transit":false},{"time":2,"i_long":106.85449,"distance":824,"transit":false,"station_id":"DRN","line":2,"station_name":"Duren Kalibata","i_lat":-6.255332,"is_transit":false},{"is_transit":false,"distance":1546,"line":2,"transit":false,"station_id":"CW","time":3,"i_long":106.856607,"i_lat":-6.242512,"station_name":"Cawang"},{"i_lat":-6.226659,"transit":false,"time":2,"distance":1230,"station_id":"TEB","is_transit":false,"line":2,"i_long":106.857948,"station_name":"Tebet"},{"line":2,"station_name":"Manggarai","i_long":106.84912,"time":4,"distance":2610,"station_id":"MRI","is_transit":false,"transit":false,"i_lat":-6.209883},{"is_transit":false,"i_lat":-6.198556,"transit":false,"line":2,"station_id":"CKI","station_name":"Cikini","distance":1590,"i_long":106.840169,"time":4},{"transit":false,"station_id":"GDD","is_transit":false,"distance":1750,"i_lat":-6.186295,"line":2,"i_long":106.832183,"station_name":"Gondangdia","time":3},{"is_transit":false,"transit":false,"distance":2015,"i_long":106.828284,"line":2,"station_name":"Juanda","i_lat":-6.166716,"time":4,"station_id":"JUA"},{"station_name":"Sawah Besar","i_long":106.827103,"time":2,"distance":1149,"transit":false,"is_transit":false,"i_lat":-6.160725,"line":2,"station_id":"SW"},{"is_transit":false,"distance":906,"station_name":"Manggabesar","line":2,"station_id":"MGB","time":2,"i_lat":-6.149769,"transit":false,"i_long":106.82482},{"station_id":"JAY","station_name":"Jayakarta","i_lat":-6.141205,"i_long":106.820901,"is_transit":false,"distance":1080,"transit":false,"line":2,"time":2},{"i_long":106.812439,"transit":true,"time":4,"is_transit":true,"i_lat":-6.137569,"distance":1264,"line":2,"station_id":"JAKK","station_name":"Jakarta Kota"},{"i_long":106.826365,"line":4,"station_id":"KPB","time":3,"i_lat":-6.132549,"transit":true,"is_transit":true,"station_name":"Kampung Bandan","distance":1364},{"is_transit":false,"line":1,"station_id":"AK","station_name":"Angke","i_long":106.79867,"transit":false,"time":9,"distance":4102,"i_lat":-6.144674},{"is_transit":false,"transit":false,"i_lat":-6.155215,"i_long":106.800832,"station_id":"DU","station_name":"Duri","time":4,"line":1,"distance":1230},{"time":8,"station_name":"Tanah Abang","i_long":106.811091,"transit":false,"is_transit":false,"distance":3632,"i_lat":-6.185545,"station_id":"THB","line":1}],[{"station_name":"Depokbaru","time":0,"i_lat":-6.391065,"transit":false,"station_id":"DPB","line":2,"i_long":106.819451,"is_transit":false,"distance":0},{"i_lat":-6.369073,"time":4,"is_transit":false,"i_long":106.831114,"station_id":"POC","line":2,"distance":2727,"station_name":"Pondok Cina","transit":false},{"i_long":106.831474,"distance":1109,"i_lat":-6.360749,"line":2,"station_id":"UI","time":2,"transit":false,"station_name":"Univ. Indonesia","is_transit":false},{"time":3,"station_id":"UP","i_long":106.834175,"is_transit":false,"station_name":"Univ. Pancasila","line":2,"transit":false,"distance":2264,"i_lat":-6.339291},{"station_name":"Lenteng Agung","time":2,"i_lat":-6.330363,"line":2,"transit":false,"distance":1029,"is_transit":false,"i_long":106.832616,"station_id":"LNA"},{"is_transit":false,"distance":2671,"time":3,"station_name":"Tanjung Barat","i_long":106.838896,"transit":false,"station_id":"TNT","i_lat":-6.3080680000000005,"line":2},{"transit":false,"is_transit":false,"distance":2820,"station_name":"Pasar Minggu","station_id":"PSM","time":4,"i_lat":-6.2842400000000005,"line":2,"i_long":106.843999},{"line":2,"is_transit":false,"station_name":"Pasar Minggu Baru","i_long":106.851577,"distance":2380,"time":2,"transit":false,"i_lat":-6.263214,"station_id":"PSMB"},{"time":2,"transit":false,"distance":824,"station_id":"DRN","station_name":"Duren Kalibata","i_lat":-6.255332,"i_long":106.85449,"line":2,"is_transit":false},{"transit":false,"station_name":"Cawang","distance":1546,"i_long":106.856607,"is_transit":false,"line":2,"time":3,"station_id":"CW","i_lat":-6.242512},{"is_transit":false,"time":2,"distance":1230,"station_id":"TEB","station_name":"Tebet","i_lat":-6.226659,"i_long":106.857948,"line":2,"transit":false},{"is_transit":true,"distance":2610,"i_lat":-6.209883,"station_id":"MRI","i_long":106.84912,"transit":true,"line":2,"station_name":"Manggarai","time":4},{"is_transit":false,"distance":1275,"i_lat":-6.212485,"i_long":106.858896,"line":1,"time":2,"transit":false,"station_name":"Matraman","station_id":"MTR"},{"distance":1377,"transit":true,"station_name":"Jatinegara","time":8,"i_lat":-6.215091,"is_transit":true,"station_id":"JNG","line":1,"i_long":106.86807400000001},{"station_name":"Pondok Jati","i_lat":-6.209188,"distance":1236,"line":11,"time":2,"transit":false,"is_transit":false,"station_id":"POK","i_long":106.861737},{"i_long":106.855437,"i_lat":-6.193792,"station_id":"KMT","time":2,"distance":1829,"line":11,"is_transit":false,"transit":false,"station_name":"Kramat"},{"time":1,"line":11,"distance":973,"station_name":"Gang Sentiong","is_transit":false,"transit":false,"station_id":"GST","i_long":106.850107,"i_lat":-6.185975},{"station_id":"PSE","time":8,"is_transit":false,"transit":false,"i_long":106.84368,"distance":1567,"i_lat":-6.174784,"line":11,"station_name":"Pasar Senen"},{"station_name":"Kemayoran","i_long":106.839204,"is_transit":false,"station_id":"KMO","time":4,"i_lat":-6.161728,"line":11,"transit":false,"distance":1436},{"time":5,"distance":1901,"is_transit":false,"station_name":"Rajawali","transit":false,"i_long":106.836569,"station_id":"RJW","line":11,"i_lat":-6.14505},{"station_id":"KPB","distance":1444,"station_name":"Kampung Bandan","i_lat":-6.132549,"i_long":106.826365,"line":4,"is_transit":true,"transit":true,"time":3},{"line":1,"is_transit":false,"station_name":"Angke","distance":4102,"i_long":106.79867,"transit":false,"station_id":"AK","i_lat":-6.144674,"time":9},{"i_long":106.800832,"transit":false,"is_transit":false,"station_name":"Duri","i_lat":-6.155215,"line":1,"time":4,"distance":1230,"station_id":"DU"},{"station_id":"THB","distance":3632,"i_long":106.811091,"line":1,"transit":false,"i_lat":-6.185545,"station_name":"Tanah Abang","time":8,"is_transit":false}]]}