{"data":[[{"distance":0,"station_id":"DPB","i_long":106.819451,"line":2,"transit":false,"i_lat":-6.391065,"station_name":"Depokbaru","is_transit":false,"time":0},{"i_lat":-6.369073,"i_long":106.831114,"distance":2727,"transit":false,"station_id":"POC","is_transit":false,"time":4,"line":2,"station_name":"Pondok Cina"},{"i_long":106.831474,"is_transit":false,"i_lat":-6.360749,"station_id":"UI","time":2,"line":2,"distance":1109,"transit":false,"station_name":"Univ. Indonesia"},{"i_lat":-6.339291,"i_long":106.834175,"distance":2264,"time":3,"line":2,"station_name":"Univ. Pancasila","is_transit":false,"station_id":"UP","transit":false},{"station_id":"LNA","is_transit":false,"distance":1029,"line":2,"i_lat":-6.330363,"i_long":106.832616,"transit":false,"station_name":"Lenteng Agung","time":2},{"line":2,"i_lat":-6.3080680000000005,"station_id":"TNT","is_transit":false,"distance":2671,"i_long":106.838896,"time":3,"station_name":"Tanjung Barat","transit":false},{"line":2,"i_long":106.843999,"transit":false,"distance":2820,"station_id":"PSM","is_transit":false,"station_name":"Pasar Minggu","time":4,"i_lat":-6.2842400000000005},{"i_lat":-6.263214,"line":2,"distance":2380,"station_name":"Pasar Minggu Baru","time":2,"i_long":106.851577,"transit":false,"station_id":"PSMB","is_transit":false},{"distance":824,"station_name":"Duren Kalibata","time":2,"line":2,"is_transit":false,"station_id":"DRN","i_long":106.85449,"i_lat":-6.255332,"transit":false},{"i_lat":-6.242512,"time":3,"i_long":106.856607,"line":2,"is_transit":false,"distance":1546,"transit":false,"station_name":"Cawang","station_id":"CW"},{"line":2,"transit":false,"distance":1230,"i_long":106.857948,"station_id":"TEB","is_transit":false,"time":2,"station_name":"Tebet","i_lat":-6.226659},{"distance":2610,"i_lat":-6.209883,"i_long":106.84912,"transit":true,"is_transit":true,"station_id":"MRI","time":4,"line":2,"station_name":"Manggarai"},{"time":4,"i_lat":-6.202263,"station_name":"Sudirman","distance":3186,"line":1,"transit":false,"station_id":"SUD","is_transit":false,"i_long":106.822649},{"distance":280,"station_id":"SUDB","station_name":"Sudirman Baru","is_transit":false,"time":1,"transit":false,"line":1,"i_long":106.819881,"i_lat":-6.201433},{"i_lat":-6.20132,"distance":471,"station_id":"KAT","transit":false,"i_long":106.816351,"station_name":"Karet","is_transit":false,"line":1,"time":1},{"time":5,"station_id":"THB","transit":true,"i_lat":-6.185545,"i_long":106.811091,"line":1,"is_transit":true,"distance":2029,"station_name":"Tanah Abang"},{"transit":false,"station_name":"Palmerah","distance":3191,"station_id":"PLM","i_long":106.79689,"line":6,"time":6,"i_lat":-6.207404,"is_transit":false},{"time":7,"transit":false,"distance":3737,"line":6,"station_name":"Kebayoran","station_id":"KBY","is_transit":false,"i_lat":-6.237242,"i_long":106.780334},{"distance":6218,"i_long":106.74273,"i_lat":-6.276362,"station_id":"PDJ","line":6,"time":8,"is_transit":false,"station_name":"Pondokranji","transit":false},{"i_lat":-6.288927,"distance":2179,"is_transit":false,"time":3,"station_id":"JMU","line":6,"i_long":106.728916,"transit":false,"station_name":"Jurangmangu"},{"station_id":"SDM","is_transit":false,"time":4,"i_lat":-6.296963,"transit":false,"distance":1994,"i_long":106.712277,"station_name":"Sudimara","line":6},{"is_transit":false,"i_long":106.675475,"station_name":"Rawa Buntu","line":6,"time":6,"distance":4566,"transit":false,"station_id":"RU","i_lat":-6.314823},{"line":6,"time":4,"is_transit":false,"distance":2413,"i_long":106.66566,"i_lat":-6.319871,"transit":false,"station_name":"Serpong","station_id":"SRP"},{"station_name":"Cisauk","i_long":106.640411,"time":4,"line":3,"is_transit":false,"distance":1784,"transit":false,"station_id":"CSK","i_lat":-6.32484},{"distance":2519,"i_lat":-6.329547,"i_long":106.617853,"line":3,"time":4,"station_id":"CC","is_transit":false,"transit":false,"station_name":"Cicayur"},{"i_long":106.568863,"is_transit":false,"time":8,"distance":5968,"line":6,"transit":false,"station_name":"Parung Panjang","station_id":"PRP","i_lat":-6.3441410000000005},{"is_transit":false,"i_long":106.508482,"station_id":"CJT","station_name":"Cilejit","time":9,"distance":7025,"i_lat":-6.354349,"line":3,"transit":false},{"distance":2675,"station_id":"DAR","i_long":106.491338,"time":6,"line":0,"transit":false,"is_transit":false,"i_lat":-6.338021,"station_name":"Daru"},{"station_name":"Tenjo","i_long":106.460812,"transit":false,"i_lat":-6.327251,"station_id":"TEJ","is_transit":false,"distance":3902,"line":6,"time":5},{"time":5,"distance":2974,"i_long":106.425991,"line":6,"station_name":"Tigaraksa","transit":false,"station_id":"TGS","i_lat":-6.328533,"is_transit":false},{"transit":false,"is_transit":false,"time":3,"i_lat":-6.33561,"station_name":"Cikoya","line":3,"station_id":"CKY","distance":2651,"i_long":106.411216},{"station_id":"MJ","is_transit":false,"time":4,"station_name":"Maja","i_lat":-6.332307,"line":6,"transit":false,"i_long":106.394373,"distance":1853},{"time":10,"distance":7293,"station_id":"CTR","station_name":"Citeras","transit":false,"i_lat":-6.334892,"i_long":106.332092,"line":3,"is_transit":false},{"i_long":106.250396,"station_name":"Rangkasbitung","transit":false,"is_transit":false,"distance":9847,"station_id":"RK","time":13,"i_lat":-6.352675,"line":3}],[{"i_lat":-6.391065,"transit":false,"station_id":"DPB","time":0,"distance":0,"line":2,"is_transit":false,"station_name":"Depokbaru","i_long":106.819451},{"station_id":"POC","distance":2727,"i_long":106.831114,"station_name":"Pondok Cina","line":2,"i_lat":-6.369073,"time":4,"transit":false,"is_transit":false},{"station_name":"Univ. Indonesia","time":2,"line":2,"transit":false,"distance":1109,"station_id":"UI","i_lat":-6.360749,"i_long":106.831474,"is_transit":false},{"distance":2264,"line":2,"transit":false,"station_id":"UP","i_long":106.834175,"i_lat":-6.339291,"is_transit":false,"station_name":"Univ. Pancasila","time":3},{"transit":false,"line":2,"station_name":"Lenteng Agung","is_transit":false,"station_id":"LNA","time":2,"i_lat":-6.330363,"i_long":106.832616,"distance":1029},{"station_id":"TNT","station_name":"Tanjung Barat","i_lat":-6.3080680000000005,"transit":false,"line":2,"time":3,"i_long":106.838896,"is_transit":false,"distance":2671},{"station_id":"PSM","i_lat":-6.2842400000000005,"line":2,"transit":false,"distance":2820,"is_transit":false,"time":4,"station_name":"Pasar Minggu","i_long":106.843999},{"time":2,"distance":2380,"line":2,"transit":false,"i_long":106.851577,"i_lat":-6.263214,"station_name":"Pasar Minggu Baru","is_transit":false,"station_id":"PSMB"},{"station_id":"DRN","station_name":"Duren Kalibata","is_transit":false,"time":2,"distance":824,"i_lat":-6.255332,"i_long":106.85449,"transit":false,"line":2},{"i_lat":-6.242512,"station_id":"CW","distance":1546,"i_long":106.856607,"line":2,"time":3,"station_name":"Cawang","is_transit":false,"transit":false},{"line":2,"transit":false,"time":2,"station_name":"Tebet","i_lat":-6.226659,"i_long":106.857948,"distance":1230,"is_transit":false,"station_id":"TEB"},{"distance":2610,"transit":false,"station_id":"MRI","is_transit":false,"time":4,"i_lat":-6.209883,"station_name":"Manggarai","i_long":106.84912,"line":2},{"is_transit":false,"transit":false,"station_name":"Cikini","station_id":"CKI","time":4,"distance":1590,"i_lat":-6.198556,"line":2,"i_long":106.840169},{"i_long":106.832183,"station_id":"GDD","time":3,"distance":1750,"line":2,"transit":false,"station_name":"Gondangdia","is_transit":false,"i_lat":-6.186295},{"line":2,"station_id":"JUA","i_lat":-6.166716,"time":4,"distance":2015,"is_transit":false,"transit":false,"i_long":106.828284,"station_name":"Juanda"},{"i_long":106.827103,"station_name":"Sawah Besar","time":2,"i_lat":-6.160725,"transit":false,"station_id":"SW","line":2,"distance":1149,"is_transit":false},{"i_long":106.82482,"line":2,"station_id":"MGB","is_transit":false,"station_name":"Manggabesar","time":2,"distance":906,"transit":false,"i_lat":-6.149769},{"station_id":"JAY","distance":1080,"i_lat":-6.141205,"time":2,"transit":false,"station_name":"Jayakarta","is_transit":false,"i_long":106.820901,"line":2},{"i_long":106.812439,"distance":1264,"line":2,"station_name":"Jakarta Kota","is_transit":true,"transit":true,"i_lat":-6.137569,"time":4,"station_id":"JAKK"},{"station_name":"Kampung Bandan","transit":true,"station_id":"KPB","i_lat":-6.132549,"time":3,"i_long":106.826365,"is_transit":true,"line":4,"distance":1364},{"station_id":"AK","transit":false,"distance":4102,"time":9,"is_transit":false,"i_lat":-6.144674,"i_long":106.79867,"line":1,"station_name":"Angke"},{"line":1,"distance":1230,"time":4,"transit":false,"station_id":"DU","is_transit":false,"i_lat":-6.155215,"i_long":106.800832,"station_name":"Duri"},{"station_id":"THB","distance":3632,"transit":true,"time":8,"i_lat":-6.185545,"is_transit":true,"i_long":106.811091,"station_name":"Tanah Abang","line":1},{"line":6,"transit":false,"time":6,"distance":3191,"is_transit":false,"station_id":"PLM","i_long":106.79689,"station_name":"Palmerah","i_lat":-6.207404},{"line":6,"station_id":"KBY","time":7,"is_transit":false,"transit":false,"distance":3737,"station_name":"Kebayoran","i_lat":-6.237242,"i_long":106.780334},{"station_id":"PDJ","i_lat":-6.276362,"line":6,"transit":false,"distance":6218,"i_long":106.74273,"time":8,"station_name":"Pondokranji","is_transit":false},{"i_long":106.728916,"time":3,"line":6,"is_transit":false,"transit":false,"station_id":"JMU","i_lat":-6.288927,"distance":2179,"station_name":"Jurangmangu"},{"time":4,"is_transit":false,"station_id":"SDM","distance":1994,"transit":false,"i_long":106.712277,"line":6,"i_lat":-6.296963,"station_name":"Sudimara"},{"time":6,"i_lat":-6.314823,"i_long":106.675475,"line":6,"transit":false,"station_name":"Rawa Buntu","distance":4566,"is_transit":false,"station_id":"RU"},{"station_id":"SRP","i_long":106.66566,"station_name":"Serpong","i_lat":-6.319871,"line":6,"is_transit":false,"distance":2413,"time":4,"transit":false},{"i_lat":-6.32484,"station_id":"CSK","is_transit":false,"i_long":106.640411,"line":3,"distance":1784,"time":4,"station_name":"Cisauk","transit":false},{"i_long":106.617853,"station_name":"Cicayur","station_id":"CC","distance":2519,"line":3,"transit":false,"time":4,"i_lat":-6.329547,"is_transit":false},{"i_lat":-6.3441410000000005,"station_name":"Parung Panjang","station_id":"PRP","distance":5968,"transit":false,"i_long":106.568863,"line":6,"is_transit":false,"time":8},{"is_transit":false,"i_long":106.508482,"line":3,"transit":false,"station_id":"CJT","time":9,"station_name":"Cilejit","i_lat":-6.354349,"distance":7025},{"i_long":106.491338,"distance":2675,"line":0,"i_lat":-6.338021,"station_id":"DAR","is_transit":false,"station_name":"Daru","time":6,"transit":false},{"transit":false,"distance":3902,"i_lat":-6.327251,"station_id":"TEJ","station_name":"Tenjo","is_transit":false,"time":5,"i_long":106.460812,"line":6},{"i_long":106.425991,"distance":2974,"transit":false,"line":6,"station_id":"TGS","time":5,"is_transit":false,"i_lat":-6.328533,"station_name":"Tigaraksa"},{"i_lat":-6.33561,"line":3,"time":3,"transit":false,"is_transit":false,"station_name":"Cikoya","distance":2651,"station_id":"CKY","i_long":106.411216},{"station_id":"MJ","line":6,"i_long":106.394373,"time":4,"transit":false,"i_lat":-6.332307,"distance":1853,"station_name":"Maja","is_transit":false},{"i_lat":-6.334892,"line":3,"transit":false,"i_long":106.332092,"station_name":"Citeras","is_transit":false,"distance":7293,"station_id":"CTR","time":10},{"i_lat":-6.352675,"transit":false,"time":13,"distance":9847,"station_name":"Rangkasbitung","is_transit":false,"i_long":106.250396,"station_id":"RK","line":3}],[{"distance":0,"i_lat":-6.391065,"station_name":"Depokbaru","i_long":106.819451,"transit":false,"line":2,"station_id":"DPB","is_transit":false,"time":0},{"distance":2727,"i_lat":-6.369073,"transit":false,"is_transit":false,"i_long":106.831114,"station_name":"Pondok Cina","time":4,"station_id":"POC","line":2},{"station_name":"Univ. Indonesia","is_transit":false,"i_long":106.831474,"i_lat":-6.360749,"distance":1109,"line":2,"transit":false,"station_id":"UI","time":2},{"transit":false,"station_name":"Univ. Pancasila","is_transit":false,"station_id":"UP","time":3,"distance":2264,"i_lat":-6.339291,"i_long":106.834175,"line":2},{"time":2,"station_name":"Lenteng Agung","i_long":106.832616,"is_transit":false,"station_id":"LNA","i_lat":-6.330363,"line":2,"distance":1029,"transit":false},{"time":3,"i_lat":-6.3080680000000005,"station_id":"TNT","transit":false,"station_name":"Tanjung Barat","is_transit":false,"distance":2671,"i_long":106.838896,"line":2},{"transit":false,"line":2,"station_id":"PSM","time":4,"i_long":106.843999,"station_name":"Pasar Minggu","is_transit":false,"distance":2820,"i_lat":-6.2842400000000005},{"i_long":106.851577,"station_id":"PSMB","time":2,"i_lat":-6.263214,"transit":false,"distance":2380,"line":2,"is_transit":false,"station_name":"Pasar Minggu Baru"},{"station_name":"Duren Kalibata","transit":false,"is_transit":false,"i_lat":-6.255332,"line":2,"distance":824,"time":2,"i_long":106.85449,"station_id":"DRN"},{"station_id":"CW","line":2,"is_transit":false,"time":3,"distance":1546,"station_name":"Cawang","i_lat":-6.242512,"i_long":106.856607,"transit":false},{"i_lat":-6.226659,"i_long":106.857948,"station_id":"TEB","time":2,"is_transit":false,"distance":1230,"transit":false,"line":2,"station_name":"Tebet"},{"is_transit":true,"station_name":"Manggarai","line":2,"distance":2610,"transit":true,"i_lat":-6.209883,"time":4,"station_id":"MRI","i_long":106.84912},{"station_id":"MTR","i_lat":-6.212485,"time":2,"line":1,"distance":1275,"is_transit":false,"i_long":106.858896,"transit":false,"station_name":"Matraman"},{"station_id":"JNG","distance":1377,"i_lat":-6.215091,"line":1,"transit":true,"time":8,"is_transit":true,"i_long":106.86807400000001,"station_name":"Jatinegara"},{"station_id":"POK","i_long":106.861737,"i_lat":-6.209188,"station_name":"Pondok Jati","distance":1236,"is_transit":false,"time":2,"line":11,"transit":false},{"line":11,"transit":false,"station_name":"Kramat","is_transit":false,"i_lat":-6.193792,"distance":1829,"i_long":106.855437,"time":2,"station_id":"KMT"},{"station_name":"Gang Sentiong","transit":false,"is_transit":false,"line":11,"i_long":106.850107,"time":1,"station_id":"GST","distance":973,"i_lat":-6.185975},{"line":11,"transit":false,"i_long":106.84368,"station_name":"Pasar Senen","distance":1567,"i_lat":-6.174784,"station_id":"PSE","is_transit":false,"time":8},{"time":4,"i_long":106.839204,"i_lat":-6.161728,"station_name":"Kemayoran","distance":1436,"line":11,"is_transit":false,"transit":false,"station_id":"KMO"},{"time":5,"transit":false,"i_lat":-6.14505,"line":11,"station_name":"Rajawali","i_long":106.836569,"is_transit":false,"station_id":"RJW","distance":1901},{"station_name":"Kampung Bandan","line":4,"transit":true,"distance":1444,"i_lat":-6.132549,"station_id":"KPB","is_transit":true,"i_long":106.826365,"time":3},{"is_transit":false,"station_id":"AK","distance":4102,"i_lat":-6.144674,"i_long":106.79867,"station_name":"Angke","time":9,"transit":false,"line":1},{"i_long":106.800832,"is_transit":false,"i_lat":-6.155215,"distance":1230,"time":4,"station_name":"Duri","station_id":"DU","line":1,"transit":false},{"i_long":106.811091,"line":1,"is_transit":true,"distance":3632,"transit":true,"station_name":"Tanah Abang","i_lat":-6.185545,"station_id":"THB","time":8},{"station_name":"Palmerah","transit":false,"station_id":"PLM","is_transit":false,"distance":3191,"time":6,"i_lat":-6.207404,"i_long":106.79689,"line":6},{"line":6,"time":7,"distance":3737,"station_id":"KBY","is_transit":false,"transit":false,"i_long":106.780334,"i_lat":-6.237242,"station_name":"Kebayoran"},{"i_long":106.74273,"station_name":"Pondokranji","line":6,"transit":false,"station_id":"PDJ","time":8,"is_transit":false,"distance":6218,"i_lat":-6.276362},{"is_transit":false,"transit":false,"station_name":"Jurangmangu","i_lat":-6.288927,"station_id":"JMU","line":6,"time":3,"i_long":106.728916,"distance":2179},{"line":6,"station_id":"SDM","time":4,"distance":1994,"i_long":106.712277,"station_name":"Sudimara","i_lat":-6.296963,"is_transit":false,"transit":false},{"station_name":"Rawa Buntu","line":6,"is_transit":false,"station_id":"RU","time":6,"i_long":106.675475,"distance":4566,"i_lat":-6.314823,"transit":false},{"transit":false,"time":4,"line":6,"station_id":"SRP","distance":2413,"i_long":106.66566,"station_name":"Serpong","is_transit":false,"i_lat":-6.319871},{"station_name":"Cisauk","station_id":"CSK","i_lat":-6.32484,"distance":1784,"line":3,"is_transit":false,"transit":false,"time":4,"i_long":106.640411},{"time":4,"station_id":"CC","station_name":"Cicayur","distance":2519,"is_transit":false,"i_lat":-6.329547,"i_long":106.617853,"line":3,"transit":false},{"is_transit":false,"transit":false,"i_lat":-6.3441410000000005,"line":6,"time":8,"station_name":"Parung Panjang","station_id":"PRP","distance":5968,"i_long":106.568863},{"distance":7025,"is_transit":false,"i_lat":-6.354349,"station_id":"CJT","time":9,"line":3,"station_name":"Cilejit","i_long":106.508482,"transit":false},{"i_long":106.491338,"is_transit":false,"line":0,"station_name":"Daru","station_id":"DAR","time":6,"i_lat":-6.338021,"distance":2675,"transit":false},{"station_id":"TEJ","distance":3902,"line":6,"time":5,"is_transit":false,"i_lat":-6.327251,"station_name":"Tenjo","i_long":106.460812,"transit":false},{"distance":2974,"station_name":"Tigaraksa","station_id":"TGS","transit":false,"is_transit":false,"time":5,"line":6,"i_lat":-6.328533,"i_long":106.425991},{"i_lat":-6.33561,"station_id":"CKY","is_transit":false,"time":3,"distance":2651,"transit":false,"i_long":106.411216,"line":3,"station_name":"Cikoya"},{"station_name":"Maja","i_lat":-6.332307,"distance":1853,"is_transit":false,"i_long":106.394373,"transit":false,"line":6,"station_id":"MJ","time":4},{"station_id":"CTR","is_transit":false,"i_lat":-6.334892,"i_long":106.332092,"transit":false,"time":10,"station_name":"Citeras","distance":7293,"line":3},{"station_id":"RK","distance":9847,"i_lat":-6.352675,"time":13,"station_name":"Rangkasbitung","is_transit":false,"transit":false,"i_long":106.250396,"line":3}]]}