{"data":[[{"i_long":106.819451,"station_name":"Depokbaru","is_transit":false,"station_id":"DPB","line":2,"transit":false,"distance":0,"time":0,"i_lat":-6.391065},{"distance":2727,"station_name":"Pondok Cina","transit":false,"time":4,"is_transit":false,"line":2,"station_id":"POC","i_long":106.831114,"i_lat":-6.369073},{"transit":false,"distance":1109,"time":2,"station_name":"Univ. Indonesia","station_id":"UI","i_lat":-6.360749,"i_long":106.831474,"line":2,"is_transit":false},{"transit":false,"distance":2264,"i_lat":-6.339291,"line":2,"i_long":106.834175,"is_transit":false,"station_name":"Univ. Pancasila","station_id":"UP","time":3},{"station_name":"Lenteng Agung","i_long":106.832616,"line":2,"transit":false,"distance":1029,"is_transit":false,"i_lat":-6.330363,"time":2,"station_id":"LNA"},{"station_id":"TNT","transit":false,"i_lat":-6.3080680000000005,"station_name":"Tanjung Barat","is_transit":false,"distance":2671,"time":3,"line":2,"i_long":106.838896},{"distance":2820,"station_name":"Pasar Minggu","transit":false,"time":4,"i_lat":-6.2842400000000005,"line":2,"station_id":"PSM","i_long":106.843999,"is_transit":false},{"time":2,"line":2,"station_id":"PSMB","station_name":"Pasar Minggu Baru","i_long":106.851577,"transit":false,"distance":2380,"is_transit":false,"i_lat":-6.263214},{"line":2,"station_name":"Duren Kalibata","distance":824,"station_id":"DRN","i_long":106.85449,"transit":false,"is_transit":false,"time":2,"i_lat":-6.255332},{"i_lat":-6.242512,"station_name":"Cawang","line":2,"is_transit":false,"transit":false,"distance":1546,"station_id":"CW","i_long":106.856607,"time":3},{"transit":false,"time":2,"distance":1230,"is_transit":false,"station_name":"Tebet","i_lat":-6.226659,"i_long":106.857948,"station_id":"TEB","line":2},{"is_transit":true,"i_lat":-6.209883,"transit":true,"i_long":106.84912,"distance":2610,"station_id":"MRI","time":4,"station_name":"Manggarai","line":2},{"i_lat":-6.202263,"transit":false,"i_long":106.822649,"station_name":"Sudirman","line":1,"time":4,"station_id":"SUD","distance":3186,"is_transit":false},{"is_transit":false,"station_name":"Sudirman Baru","station_id":"SUDB","transit":false,"i_lat":-6.201433,"line":1,"distance":280,"time":1,"i_long":106.819881},{"i_long":106.816351,"transit":false,"station_name":"Karet","time":1,"i_lat":-6.20132,"line":1,"station_id":"KAT","is_transit":false,"distance":471},{"i_lat":-6.185545,"is_transit":false,"i_long":106.811091,"line":1,"station_name":"Tanah Abang","distance":2029,"station_id":"THB","time":5,"transit":false}],[{"line":2,"transit":false,"time":0,"i_long":106.819451,"distance":0,"i_lat":-6.391065,"station_id":"DPB","is_transit":false,"station_name":"Depokbaru"},{"line":2,"is_transit":false,"station_id":"POC","i_lat":-6.369073,"time":4,"distance":2727,"transit":false,"station_name":"Pondok Cina","i_long":106.831114},{"distance":1109,"i_lat":-6.360749,"is_transit":false,"transit":false,"line":2,"i_long":106.831474,"time":2,"station_name":"Univ. Indonesia","station_id":"UI"},{"time":3,"distance":2264,"is_transit":false,"transit":false,"i_lat":-6.339291,"i_long":106.834175,"station_id":"UP","station_name":"Univ. Pancasila","line":2},{"is_transit":false,"i_long":106.832616,"line":2,"station_id":"LNA","time":2,"transit":false,"i_lat":-6.330363,"station_name":"Lenteng Agung","distance":1029},{"station_name":"Tanjung Barat","station_id":"TNT","time":3,"i_lat":-6.3080680000000005,"is_transit":false,"distance":2671,"i_long":106.838896,"line":2,"transit":false},{"time":4,"i_long":106.843999,"distance":2820,"station_name":"Pasar Minggu","station_id":"PSM","i_lat":-6.2842400000000005,"is_transit":false,"transit":false,"line":2},{"time":2,"transit":false,"station_id":"PSMB","distance":2380,"is_transit":false,"i_lat":-6.263214,"line":2,"i_long":106.851577,"station_name":"Pasar Minggu Baru"},{"distance":824,"time":2,"station_id":"DRN","i_long":106.85449,"transit":false,"station_name":"Duren Kalibata","line":2,"is_transit":false,"i_lat":-6.255332},{"i_lat":-6.242512,"time":3,"station_name":"Cawang","is_transit":false,"transit":false,"distance":1546,"station_id":"CW","i_long":106.856607,"line":2},{"is_transit":false,"station_name":"Tebet","time":2,"station_id":"TEB","i_long":106.857948,"distance":1230,"line":2,"transit":false,"i_lat":-6.226659},{"i_lat":-6.209883,"time":4,"station_id":"MRI","distance":2610,"is_transit":false,"line":2,"i_long":106.84912,"transit":false,"station_name":"Manggarai"},{"transit":false,"i_long":106.840169,"is_transit":false,"line":2,"distance":1590,"station_name":"Cikini","time":4,"station_id":"CKI","i_lat":-6.198556},{"i_long":106.832183,"i_lat":-6.186295,"station_id":"GDD","station_name":"Gondangdia","line":2,"distance":1750,"transit":false,"time":3,"is_transit":false},{"station_id":"JUA","line":2,"station_name":"Juanda","transit":false,"i_lat":-6.166716,"i_long":106.828284,"is_transit":false,"distance":2015,"time":4},{"i_lat":-6.160725,"line":2,"distance":1149,"i_long":106.827103,"transit":false,"is_transit":false,"time":2,"station_id":"SW","station_name":"Sawah Besar"},{"i_lat":-6.149769,"station_name":"Manggabesar","transit":false,"distance":906,"time":2,"station_id":"MGB","i_long":106.82482,"line":2,"is_transit":false},{"station_id":"JAY","i_lat":-6.141205,"line":2,"transit":false,"distance":1080,"i_long":106.820901,"time":2,"is_transit":false,"station_name":"Jayakarta"},{"time":4,"i_long":106.812439,"line":2,"station_id":"JAKK","transit":true,"station_name":"Jakarta Kota","i_lat":-6.137569,"is_transit":true,"distance":1264},{"station_name":"Kampung Bandan","station_id":"KPB","i_lat":-6.132549,"is_transit":true,"line":4,"transit":true,"time":3,"distance":1364,"i_long":106.826365},{"time":9,"i_lat":-6.144674,"line":1,"i_long":106.79867,"is_transit":false,"transit":false,"station_id":"AK","distance":4102,"station_name":"Angke"},{"is_transit":false,"transit":false,"station_name":"Duri","time":4,"i_long":106.800832,"line":1,"distance":1230,"station_id":"DU","i_lat":-6.155215},{"i_long":106.811091,"transit":false,"i_lat":-6.185545,"time":8,"is_transit":false,"station_name":"Tanah Abang","distance":3632,"line":1,"station_id":"THB"}],[{"time":0,"i_lat":-6.391065,"transit":false,"i_long":106.819451,"station_id":"DPB","is_transit":false,"distance":0,"line":2,"station_name":"Depokbaru"},{"station_name":"Pondok Cina","distance":2727,"station_id":"POC","line":2,"is_transit":false,"transit":false,"i_lat":-6.369073,"i_long":106.831114,"time":4},{"time":2,"i_lat":-6.360749,"i_long":106.831474,"line":2,"station_name":"Univ. Indonesia","is_transit":false,"distance":1109,"transit":false,"station_id":"UI"},{"station_name":"Univ. Pancasila","station_id":"UP","transit":false,"distance":2264,"is_transit":false,"line":2,"i_long":106.834175,"time":3,"i_lat":-6.339291},{"is_transit":false,"station_id":"LNA","transit":false,"distance":1029,"i_lat":-6.330363,"line":2,"station_name":"Lenteng Agung","time":2,"i_long":106.832616},{"line":2,"transit":false,"time":3,"distance":2671,"is_transit":false,"station_name":"Tanjung Barat","station_id":"TNT","i_long":106.838896,"i_lat":-6.3080680000000005},{"transit":false,"is_transit":false,"distance":2820,"time":4,"station_id":"PSM","line":2,"i_long":106.843999,"station_name":"Pasar Minggu","i_lat":-6.2842400000000005},{"station_name":"Pasar Minggu Baru","transit":false,"station_id":"PSMB","time":2,"i_long":106.851577,"line":2,"i_lat":-6.263214,"is_transit":false,"distance":2380},{"time":2,"station_name":"Duren Kalibata","i_lat":-6.255332,"line":2,"distance":824,"is_transit":false,"transit":false,"station_id":"DRN","i_long":106.85449},{"station_id":"CW","line":2,"transit":false,"station_name":"Cawang","is_transit":false,"distance":1546,"i_lat":-6.242512,"i_long":106.856607,"time":3},{"time":2,"i_long":106.857948,"distance":1230,"transit":false,"is_transit":false,"station_name":"Tebet","line":2,"i_lat":-6.226659,"station_id":"TEB"},{"transit":true,"i_long":106.84912,"time":4,"distance":2610,"i_lat":-6.209883,"line":2,"station_id":"MRI","is_transit":true,"station_name":"Manggarai"},{"is_transit":false,"station_id":"MTR","i_long":106.858896,"line":1,"distance":1275,"station_name":"Matraman","transit":false,"time":2,"i_lat":-6.212485},{"station_id":"JNG","line":1,"transit":true,"i_lat":-6.215091,"is_transit":true,"i_long":106.86807400000001,"station_name":"Jatinegara","distance":1377,"time":8},{"station_id":"POK","i_long":106.861737,"station_name":"Pondok Jati","transit":false,"line":11,"is_transit":false,"time":2,"i_lat":-6.209188,"distance":1236},{"station_name":"Kramat","station_id":"KMT","i_lat":-6.193792,"i_long":106.855437,"distance":1829,"time":2,"line":11,"is_transit":false,"transit":false},{"i_lat":-6.185975,"transit":false,"station_id":"GST","distance":973,"is_transit":false,"i_long":106.850107,"station_name":"Gang Sentiong","line":11,"time":1},{"i_long":106.84368,"line":11,"station_id":"PSE","distance":1567,"transit":false,"is_transit":false,"i_lat":-6.174784,"station_name":"Pasar Senen","time":8},{"is_transit":false,"transit":false,"station_id":"KMO","i_lat":-6.161728,"station_name":"Kemayoran","line":11,"distance":1436,"i_long":106.839204,"time":4},{"is_transit":false,"station_id":"RJW","station_name":"Rajawali","distance":1901,"i_lat":-6.14505,"time":5,"i_long":106.836569,"line":11,"transit":false},{"i_lat":-6.132549,"line":4,"station_id":"KPB","transit":true,"is_transit":true,"i_long":106.826365,"distance":1444,"station_name":"Kampung Bandan","time":3},{"i_lat":-6.144674,"time":9,"line":1,"station_name":"Angke","i_long":106.79867,"transit":false,"distance":4102,"station_id":"AK","is_transit":false},{"is_transit":false,"station_id":"DU","distance":1230,"transit":false,"time":4,"i_lat":-6.155215,"station_name":"Duri","i_long":106.800832,"line":1},{"transit":false,"time":8,"station_id":"THB","line":1,"i_long":106.811091,"station_name":"Tanah Abang","distance":3632,"is_transit":false,"i_lat":-6.185545}]]}