{"data":[[{"distance":0,"station_id":"DPB","is_transit":false,"transit":false,"station_name":"Depokbaru","i_lat":-6.391065,"i_long":106.819451,"time":0,"line":2},{"line":2,"transit":false,"station_name":"Pondok Cina","distance":2727,"i_lat":-6.369073,"station_id":"POC","is_transit":false,"time":4,"i_long":106.831114},{"station_name":"Univ. Indonesia","i_long":106.831474,"distance":1109,"transit":false,"line":2,"station_id":"UI","time":2,"is_transit":false,"i_lat":-6.360749},{"time":3,"distance":2264,"station_name":"Univ. Pancasila","i_long":106.834175,"line":2,"is_transit":false,"station_id":"UP","transit":false,"i_lat":-6.339291},{"time":2,"station_id":"LNA","is_transit":false,"transit":false,"line":2,"i_lat":-6.330363,"station_name":"Lenteng Agung","distance":1029,"i_long":106.832616},{"i_long":106.838896,"is_transit":false,"i_lat":-6.3080680000000005,"line":2,"station_id":"TNT","distance":2671,"transit":false,"station_name":"Tanjung Barat","time":3},{"i_lat":-6.2842400000000005,"time":4,"line":2,"distance":2820,"i_long":106.843999,"is_transit":false,"station_id":"PSM","station_name":"Pasar Minggu","transit":false},{"transit":false,"i_lat":-6.263214,"i_long":106.851577,"distance":2380,"station_id":"PSMB","is_transit":false,"line":2,"time":2,"station_name":"Pasar Minggu Baru"},{"time":2,"station_name":"Duren Kalibata","line":2,"i_lat":-6.255332,"transit":false,"station_id":"DRN","is_transit":false,"distance":824,"i_long":106.85449},{"i_lat":-6.242512,"station_name":"Cawang","time":3,"i_long":106.856607,"is_transit":false,"distance":1546,"station_id":"CW","line":2,"transit":false},{"is_transit":false,"time":2,"line":2,"i_long":106.857948,"distance":1230,"station_id":"TEB","i_lat":-6.226659,"transit":false,"station_name":"Tebet"},{"distance":2610,"is_transit":true,"line":2,"i_lat":-6.209883,"time":4,"transit":true,"i_long":106.84912,"station_id":"MRI","station_name":"Manggarai"},{"station_name":"Matraman","line":1,"distance":1275,"is_transit":false,"station_id":"MTR","i_long":106.858896,"transit":false,"i_lat":-6.212485,"time":2},{"time":8,"station_name":"Jatinegara","transit":false,"is_transit":false,"i_lat":-6.215091,"station_id":"JNG","distance":1377,"i_long":106.86807400000001,"line":1},{"is_transit":false,"time":3,"station_id":"KLD","station_name":"Klender","line":1,"i_long":106.899548,"transit":false,"i_lat":-6.2135,"distance":3395},{"station_name":"Buaran","distance":3100,"station_id":"BUA","transit":false,"time":2,"is_transit":false,"i_long":106.922662,"i_lat":-6.215568,"line":1},{"station_name":"Klenderbaru","station_id":"KLDB","i_lat":-6.217455,"distance":1305,"is_transit":false,"line":1,"i_long":106.939679,"transit":false,"time":1},{"is_transit":false,"line":1,"i_long":106.951283,"station_name":"Cakung","distance":1385,"i_lat":-6.219053,"time":8,"transit":false,"station_id":"CUK"},{"time":3,"i_lat":-6.224515,"station_id":"KRI","transit":false,"station_name":"Kranji","i_long":106.977657,"line":1,"distance":3097,"is_transit":false},{"line":1,"station_id":"BKS","transit":false,"is_transit":false,"i_lat":-6.236616,"i_long":106.997013,"station_name":"Bekasi","distance":2520,"time":4}],[{"station_id":"DPB","time":0,"distance":0,"transit":false,"station_name":"Depokbaru","i_lat":-6.391065,"i_long":106.819451,"line":2,"is_transit":false},{"transit":false,"station_name":"Pondok Cina","distance":2727,"time":4,"i_long":106.831114,"i_lat":-6.369073,"line":2,"is_transit":false,"station_id":"POC"},{"i_lat":-6.360749,"distance":1109,"i_long":106.831474,"line":2,"station_name":"Univ. Indonesia","transit":false,"station_id":"UI","time":2,"is_transit":false},{"station_name":"Univ. Pancasila","is_transit":false,"i_long":106.834175,"distance":2264,"station_id":"UP","transit":false,"line":2,"time":3,"i_lat":-6.339291},{"i_lat":-6.330363,"station_name":"Lenteng Agung","station_id":"LNA","time":2,"transit":false,"i_long":106.832616,"distance":1029,"is_transit":false,"line":2},{"time":3,"is_transit":false,"transit":false,"i_lat":-6.3080680000000005,"station_id":"TNT","distance":2671,"i_long":106.838896,"station_name":"Tanjung Barat","line":2},{"time":4,"station_name":"Pasar Minggu","line":2,"transit":false,"distance":2820,"i_lat":-6.2842400000000005,"is_transit":false,"i_long":106.843999,"station_id":"PSM"},{"is_transit":false,"station_name":"Pasar Minggu Baru","i_long":106.851577,"i_lat":-6.263214,"distance":2380,"station_id":"PSMB","time":2,"transit":false,"line":2},{"is_transit":false,"i_long":106.85449,"transit":false,"station_name":"Duren Kalibata","station_id":"DRN","line":2,"i_lat":-6.255332,"time":2,"distance":824},{"line":2,"station_id":"CW","i_lat":-6.242512,"distance":1546,"transit":false,"station_name":"Cawang","i_long":106.856607,"is_transit":false,"time":3},{"i_lat":-6.226659,"is_transit":false,"time":2,"station_name":"Tebet","i_long":106.857948,"transit":false,"station_id":"TEB","distance":1230,"line":2},{"line":2,"transit":true,"station_name":"Manggarai","distance":2610,"is_transit":true,"i_lat":-6.209883,"time":4,"i_long":106.84912,"station_id":"MRI"},{"station_name":"Sudirman","transit":false,"time":4,"i_lat":-6.202263,"distance":3186,"line":1,"station_id":"SUD","is_transit":false,"i_long":106.822649},{"station_name":"Sudirman Baru","time":1,"is_transit":false,"i_long":106.819881,"line":1,"station_id":"SUDB","distance":280,"i_lat":-6.201433,"transit":false},{"line":1,"station_name":"Karet","distance":471,"i_lat":-6.20132,"station_id":"KAT","time":1,"is_transit":false,"i_long":106.816351,"transit":false},{"time":5,"distance":2029,"i_lat":-6.185545,"transit":false,"line":1,"station_name":"Tanah Abang","is_transit":false,"i_long":106.811091,"station_id":"THB"},{"distance":3632,"i_lat":-6.155215,"i_long":106.800832,"station_name":"Duri","time":8,"line":1,"transit":false,"is_transit":false,"station_id":"DU"},{"time":4,"transit":false,"station_name":"Angke","i_lat":-6.144674,"distance":1230,"station_id":"AK","i_long":106.79867,"is_transit":false,"line":1},{"i_long":106.826365,"line":4,"transit":true,"station_id":"KPB","distance":4102,"time":9,"station_name":"Kampung Bandan","i_lat":-6.132549,"is_transit":true},{"i_long":106.836569,"station_name":"Rajawali","i_lat":-6.14505,"transit":false,"line":11,"is_transit":false,"time":3,"distance":1444,"station_id":"RJW"},{"station_name":"Kemayoran","i_lat":-6.161728,"i_long":106.839204,"time":5,"is_transit":false,"transit":false,"distance":1901,"line":11,"station_id":"KMO"},{"distance":1436,"transit":false,"time":4,"line":11,"i_lat":-6.174784,"station_id":"PSE","station_name":"Pasar Senen","is_transit":false,"i_long":106.84368},{"station_id":"GST","time":8,"is_transit":false,"line":11,"transit":false,"i_long":106.850107,"i_lat":-6.185975,"station_name":"Gang Sentiong","distance":1567},{"transit":false,"i_long":106.855437,"i_lat":-6.193792,"line":11,"station_id":"KMT","station_name":"Kramat","time":1,"is_transit":false,"distance":973},{"transit":false,"i_long":106.861737,"station_name":"Pondok Jati","is_transit":false,"i_lat":-6.209188,"line":11,"time":2,"distance":1829,"station_id":"POK"},{"distance":1236,"station_name":"Jatinegara","transit":true,"time":9,"i_long":106.86807400000001,"i_lat":-6.215091,"station_id":"JNG","is_transit":true,"line":1},{"station_name":"Klender","is_transit":false,"i_lat":-6.2135,"line":1,"distance":3395,"time":3,"station_id":"KLD","i_long":106.899548,"transit":false},{"i_lat":-6.215568,"line":1,"i_long":106.922662,"time":2,"distance":3100,"station_id":"BUA","station_name":"Buaran","transit":false,"is_transit":false},{"transit":false,"i_lat":-6.217455,"i_long":106.939679,"line":1,"time":1,"is_transit":false,"distance":1305,"station_name":"Klenderbaru","station_id":"KLDB"},{"line":1,"transit":false,"station_id":"CUK","i_lat":-6.219053,"station_name":"Cakung","is_transit":false,"i_long":106.951283,"distance":1385,"time":8},{"line":1,"distance":3097,"station_name":"Kranji","station_id":"KRI","time":3,"transit":false,"is_transit":false,"i_long":106.977657,"i_lat":-6.224515},{"i_long":106.997013,"transit":false,"i_lat":-6.236616,"line":1,"time":4,"is_transit":false,"distance":2520,"station_id":"BKS","station_name":"Bekasi"}],[{"distance":0,"is_transit":false,"station_id":"DPB","i_long":106.819451,"time":0,"station_name":"Depokbaru","line":2,"i_lat":-6.391065,"transit":false},{"i_lat":-6.369073,"distance":2727,"i_long":106.831114,"station_id":"POC","station_name":"Pondok Cina","is_transit":false,"line":2,"transit":false,"time":4},{"station_id":"UI","time":2,"distance":1109,"is_transit":false,"transit":false,"i_lat":-6.360749,"i_long":106.831474,"station_name":"Univ. Indonesia","line":2},{"is_transit":false,"time":3,"i_long":106.834175,"station_id":"UP","station_name":"Univ. Pancasila","transit":false,"i_lat":-6.339291,"distance":2264,"line":2},{"transit":false,"i_lat":-6.330363,"line":2,"i_long":106.832616,"station_name":"Lenteng Agung","is_transit":false,"time":2,"distance":1029,"station_id":"LNA"},{"station_id":"TNT","line":2,"transit":false,"station_name":"Tanjung Barat","is_transit":false,"i_lat":-6.3080680000000005,"distance":2671,"i_long":106.838896,"time":3},{"transit":false,"distance":2820,"time":4,"is_transit":false,"line":2,"station_name":"Pasar Minggu","i_lat":-6.2842400000000005,"i_long":106.843999,"station_id":"PSM"},{"is_transit":false,"transit":false,"i_lat":-6.263214,"i_long":106.851577,"station_id":"PSMB","line":2,"station_name":"Pasar Minggu Baru","time":2,"distance":2380},{"transit":false,"station_id":"DRN","is_transit":false,"i_lat":-6.255332,"time":2,"distance":824,"station_name":"Duren Kalibata","i_long":106.85449,"line":2},{"station_name":"Cawang","transit":false,"line":2,"is_transit":false,"distance":1546,"i_lat":-6.242512,"station_id":"CW","time":3,"i_long":106.856607},{"station_id":"TEB","transit":false,"station_name":"Tebet","time":2,"distance":1230,"i_long":106.857948,"line":2,"i_lat":-6.226659,"is_transit":false},{"i_lat":-6.209883,"transit":false,"distance":2610,"is_transit":false,"i_long":106.84912,"station_id":"MRI","station_name":"Manggarai","line":2,"time":4},{"is_transit":false,"time":4,"i_lat":-6.198556,"i_long":106.840169,"line":2,"station_name":"Cikini","distance":1590,"transit":false,"station_id":"CKI"},{"transit":false,"is_transit":false,"distance":1750,"station_name":"Gondangdia","i_long":106.832183,"i_lat":-6.186295,"time":3,"line":2,"station_id":"GDD"},{"station_id":"JUA","i_long":106.828284,"time":4,"is_transit":false,"station_name":"Juanda","transit":false,"distance":2015,"i_lat":-6.166716,"line":2},{"transit":false,"i_long":106.827103,"time":2,"is_transit":false,"station_name":"Sawah Besar","line":2,"distance":1149,"i_lat":-6.160725,"station_id":"SW"},{"distance":906,"station_name":"Manggabesar","time":2,"transit":false,"station_id":"MGB","i_lat":-6.149769,"i_long":106.82482,"is_transit":false,"line":2},{"station_id":"JAY","transit":false,"station_name":"Jayakarta","time":2,"line":2,"i_lat":-6.141205,"distance":1080,"is_transit":false,"i_long":106.820901},{"distance":1264,"is_transit":true,"line":2,"station_id":"JAKK","i_long":106.812439,"time":4,"transit":true,"i_lat":-6.137569,"station_name":"Jakarta Kota"},{"station_name":"Kampung Bandan","is_transit":true,"i_long":106.826365,"line":4,"time":3,"station_id":"KPB","i_lat":-6.132549,"transit":true,"distance":1364},{"is_transit":false,"transit":false,"i_lat":-6.14505,"station_id":"RJW","line":11,"i_long":106.836569,"station_name":"Rajawali","distance":1444,"time":3},{"transit":false,"distance":1901,"i_lat":-6.161728,"station_id":"KMO","is_transit":false,"line":11,"station_name":"Kemayoran","time":5,"i_long":106.839204},{"is_transit":false,"i_long":106.84368,"distance":1436,"line":11,"transit":false,"i_lat":-6.174784,"station_name":"Pasar Senen","station_id":"PSE","time":4},{"i_lat":-6.185975,"distance":1567,"time":8,"station_id":"GST","line":11,"is_transit":false,"station_name":"Gang Sentiong","i_long":106.850107,"transit":false},{"transit":false,"is_transit":false,"station_name":"Kramat","station_id":"KMT","distance":973,"i_lat":-6.193792,"time":1,"i_long":106.855437,"line":11},{"i_lat":-6.209188,"line":11,"transit":false,"station_name":"Pondok Jati","station_id":"POK","distance":1829,"is_transit":false,"time":2,"i_long":106.861737},{"distance":1236,"is_transit":true,"i_lat":-6.215091,"line":1,"transit":true,"i_long":106.86807400000001,"time":9,"station_name":"Jatinegara","station_id":"JNG"},{"station_name":"Klender","i_lat":-6.2135,"distance":3395,"station_id":"KLD","transit":false,"i_long":106.899548,"line":1,"time":3,"is_transit":false},{"i_lat":-6.215568,"line":1,"is_transit":false,"station_id":"BUA","transit":false,"station_name":"Buaran","distance":3100,"time":2,"i_long":106.922662},{"distance":1305,"i_long":106.939679,"station_id":"KLDB","station_name":"Klenderbaru","is_transit":false,"i_lat":-6.217455,"time":1,"line":1,"transit":false},{"time":8,"i_lat":-6.219053,"station_name":"Cakung","transit":false,"station_id":"CUK","is_transit":false,"line":1,"i_long":106.951283,"distance":1385},{"transit":false,"distance":3097,"time":3,"station_id":"KRI","i_lat":-6.224515,"station_name":"Kranji","is_transit":false,"i_long":106.977657,"line":1},{"time":4,"i_long":106.997013,"line":1,"is_transit":false,"station_name":"Bekasi","i_lat":-6.236616,"transit":false,"distance":2520,"station_id":"BKS"}]]}