{"data":[[{"i_lat":-6.391065,"i_long":106.819451,"line":2,"time":0,"is_transit":false,"station_id":"DPB","station_name":"Depokbaru","distance":0,"transit":false},{"is_transit":false,"time":4,"transit":false,"line":2,"i_long":106.831114,"i_lat":-6.369073,"distance":2727,"station_name":"Pondok Cina","station_id":"POC"},{"is_transit":false,"i_lat":-6.360749,"station_id":"UI","i_long":106.831474,"time":2,"distance":1109,"transit":false,"line":2,"station_name":"Univ. Indonesia"},{"is_transit":false,"station_name":"Univ. Pancasila","distance":2264,"time":3,"transit":false,"i_lat":-6.339291,"i_long":106.834175,"line":2,"station_id":"UP"},{"time":2,"station_name":"Lenteng Agung","i_long":106.832616,"distance":1029,"line":2,"station_id":"LNA","is_transit":false,"transit":false,"i_lat":-6.330363},{"transit":false,"i_lat":-6.3080680000000005,"distance":2671,"is_transit":false,"line":2,"station_id":"TNT","time":3,"i_long":106.838896,"station_name":"Tanjung Barat"},{"station_name":"Pasar Minggu","time":4,"i_lat":-6.2842400000000005,"station_id":"PSM","i_long":106.843999,"line":2,"is_transit":false,"transit":false,"distance":2820},{"station_id":"PSMB","i_lat":-6.263214,"is_transit":false,"i_long":106.851577,"distance":2380,"line":2,"time":2,"station_name":"Pasar Minggu Baru","transit":false},{"i_lat":-6.255332,"i_long":106.85449,"is_transit":false,"time":2,"distance":824,"station_id":"DRN","transit":false,"line":2,"station_name":"Duren Kalibata"},{"distance":1546,"station_name":"Cawang","transit":false,"i_lat":-6.242512,"i_long":106.856607,"line":2,"time":3,"is_transit":false,"station_id":"CW"},{"transit":false,"line":2,"i_lat":-6.226659,"station_id":"TEB","is_transit":false,"time":2,"i_long":106.857948,"distance":1230,"station_name":"Tebet"},{"station_id":"MRI","station_name":"Manggarai","is_transit":true,"i_lat":-6.209883,"line":2,"i_long":106.84912,"transit":true,"time":4,"distance":2610},{"transit":false,"time":4,"line":1,"station_id":"SUD","station_name":"Sudirman","is_transit":false,"i_lat":-6.202263,"distance":3186,"i_long":106.822649},{"i_lat":-6.201433,"distance":280,"line":1,"station_name":"Sudirman Baru","is_transit":false,"transit":false,"time":1,"i_long":106.819881,"station_id":"SUDB"},{"time":1,"i_lat":-6.20132,"station_name":"Karet","is_transit":false,"station_id":"KAT","line":1,"i_long":106.816351,"transit":false,"distance":471},{"is_transit":true,"i_long":106.811091,"line":1,"station_id":"THB","transit":true,"distance":2029,"i_lat":-6.185545,"time":5,"station_name":"Tanah Abang"},{"line":6,"station_name":"Palmerah","is_transit":false,"time":6,"i_lat":-6.207404,"i_long":106.79689,"station_id":"PLM","distance":3191,"transit":false},{"i_long":106.780334,"transit":false,"line":6,"time":7,"station_id":"KBY","station_name":"Kebayoran","distance":3737,"is_transit":false,"i_lat":-6.237242},{"line":6,"time":8,"station_id":"PDJ","i_long":106.74273,"i_lat":-6.276362,"is_transit":false,"station_name":"Pondokranji","transit":false,"distance":6218},{"line":6,"station_id":"JMU","distance":2179,"transit":false,"station_name":"Jurangmangu","is_transit":false,"i_lat":-6.288927,"i_long":106.728916,"time":3},{"time":4,"station_name":"Sudimara","distance":1994,"transit":false,"i_long":106.712277,"is_transit":false,"line":6,"i_lat":-6.296963,"station_id":"SDM"},{"line":6,"i_lat":-6.314823,"transit":false,"distance":4566,"i_long":106.675475,"station_name":"Rawa Buntu","time":6,"station_id":"RU","is_transit":false},{"station_id":"SRP","i_lat":-6.319871,"station_name":"Serpong","time":4,"transit":false,"i_long":106.66566,"distance":2413,"is_transit":false,"line":6},{"station_name":"Cisauk","i_lat":-6.32484,"i_long":106.640411,"station_id":"CSK","time":4,"transit":false,"is_transit":false,"line":3,"distance":1784},{"distance":2519,"time":4,"i_lat":-6.329547,"station_name":"Cicayur","station_id":"CC","is_transit":false,"line":3,"i_long":106.617853,"transit":false},{"transit":false,"station_name":"Parung Panjang","i_lat":-6.3441410000000005,"station_id":"PRP","i_long":106.568863,"distance":5968,"is_transit":false,"line":6,"time":8},{"i_lat":-6.354349,"transit":false,"time":9,"is_transit":false,"i_long":106.508482,"line":3,"station_name":"Cilejit","station_id":"CJT","distance":7025},{"i_lat":-6.338021,"time":6,"station_name":"Daru","transit":false,"is_transit":false,"i_long":106.491338,"line":0,"distance":2675,"station_id":"DAR"},{"i_long":106.460812,"transit":false,"distance":3902,"line":6,"station_name":"Tenjo","time":5,"station_id":"TEJ","is_transit":false,"i_lat":-6.327251},{"distance":2974,"i_lat":-6.328533,"is_transit":false,"station_id":"TGS","transit":false,"i_long":106.425991,"station_name":"Tigaraksa","line":6,"time":5},{"station_id":"CKY","line":3,"transit":false,"i_lat":-6.33561,"time":3,"station_name":"Cikoya","is_transit":false,"distance":2651,"i_long":106.411216},{"i_long":106.394373,"line":6,"i_lat":-6.332307,"transit":false,"is_transit":false,"station_name":"Maja","distance":1853,"time":4,"station_id":"MJ"},{"i_long":106.332092,"distance":7293,"time":10,"line":3,"i_lat":-6.334892,"station_name":"Citeras","transit":false,"is_transit":false,"station_id":"CTR"},{"is_transit":false,"distance":9847,"line":3,"station_name":"Rangkasbitung","transit":false,"i_long":106.250396,"i_lat":-6.352675,"station_id":"RK","time":13}],[{"time":0,"station_id":"DPB","transit":false,"distance":0,"station_name":"Depokbaru","is_transit":false,"i_lat":-6.391065,"i_long":106.819451,"line":2},{"time":4,"transit":false,"is_transit":false,"distance":2727,"line":2,"i_long":106.831114,"station_name":"Pondok Cina","station_id":"POC","i_lat":-6.369073},{"i_long":106.831474,"transit":false,"distance":1109,"line":2,"time":2,"station_name":"Univ. Indonesia","is_transit":false,"station_id":"UI","i_lat":-6.360749},{"line":2,"is_transit":false,"distance":2264,"transit":false,"station_name":"Univ. Pancasila","i_lat":-6.339291,"station_id":"UP","i_long":106.834175,"time":3},{"line":2,"i_lat":-6.330363,"time":2,"is_transit":false,"distance":1029,"transit":false,"station_id":"LNA","i_long":106.832616,"station_name":"Lenteng Agung"},{"is_transit":false,"i_lat":-6.3080680000000005,"i_long":106.838896,"transit":false,"line":2,"station_id":"TNT","time":3,"station_name":"Tanjung Barat","distance":2671},{"station_name":"Pasar Minggu","line":2,"station_id":"PSM","is_transit":false,"distance":2820,"transit":false,"i_lat":-6.2842400000000005,"i_long":106.843999,"time":4},{"i_lat":-6.263214,"station_name":"Pasar Minggu Baru","station_id":"PSMB","transit":false,"is_transit":false,"distance":2380,"i_long":106.851577,"line":2,"time":2},{"distance":824,"time":2,"station_id":"DRN","station_name":"Duren Kalibata","i_lat":-6.255332,"i_long":106.85449,"line":2,"transit":false,"is_transit":false},{"station_id":"CW","i_long":106.856607,"time":3,"distance":1546,"i_lat":-6.242512,"line":2,"transit":false,"station_name":"Cawang","is_transit":false},{"transit":false,"distance":1230,"station_id":"TEB","is_transit":false,"i_lat":-6.226659,"line":2,"i_long":106.857948,"station_name":"Tebet","time":2},{"line":2,"distance":2610,"i_lat":-6.209883,"is_transit":false,"time":4,"transit":false,"i_long":106.84912,"station_name":"Manggarai","station_id":"MRI"},{"is_transit":false,"time":4,"distance":1590,"transit":false,"i_long":106.840169,"station_name":"Cikini","i_lat":-6.198556,"station_id":"CKI","line":2},{"i_long":106.832183,"line":2,"time":3,"distance":1750,"i_lat":-6.186295,"transit":false,"station_id":"GDD","is_transit":false,"station_name":"Gondangdia"},{"station_id":"JUA","station_name":"Juanda","i_lat":-6.166716,"is_transit":false,"time":4,"line":2,"transit":false,"i_long":106.828284,"distance":2015},{"is_transit":false,"station_name":"Sawah Besar","line":2,"i_lat":-6.160725,"station_id":"SW","i_long":106.827103,"distance":1149,"transit":false,"time":2},{"station_name":"Manggabesar","distance":906,"i_lat":-6.149769,"i_long":106.82482,"is_transit":false,"station_id":"MGB","line":2,"time":2,"transit":false},{"time":2,"transit":false,"i_long":106.820901,"distance":1080,"line":2,"i_lat":-6.141205,"station_name":"Jayakarta","station_id":"JAY","is_transit":false},{"station_name":"Jakarta Kota","distance":1264,"is_transit":true,"i_long":106.812439,"time":4,"i_lat":-6.137569,"transit":true,"line":2,"station_id":"JAKK"},{"time":3,"is_transit":true,"i_lat":-6.132549,"distance":1364,"station_name":"Kampung Bandan","station_id":"KPB","i_long":106.826365,"line":4,"transit":true},{"line":1,"i_long":106.79867,"distance":4102,"i_lat":-6.144674,"station_id":"AK","time":9,"is_transit":false,"transit":false,"station_name":"Angke"},{"station_name":"Duri","station_id":"DU","line":1,"distance":1230,"i_long":106.800832,"time":4,"transit":false,"is_transit":false,"i_lat":-6.155215},{"time":8,"station_id":"THB","transit":true,"is_transit":true,"i_lat":-6.185545,"line":1,"distance":3632,"station_name":"Tanah Abang","i_long":106.811091},{"transit":false,"i_long":106.79689,"station_id":"PLM","distance":3191,"i_lat":-6.207404,"station_name":"Palmerah","time":6,"line":6,"is_transit":false},{"time":7,"line":6,"i_lat":-6.237242,"distance":3737,"station_name":"Kebayoran","i_long":106.780334,"station_id":"KBY","transit":false,"is_transit":false},{"time":8,"transit":false,"i_long":106.74273,"line":6,"distance":6218,"is_transit":false,"i_lat":-6.276362,"station_id":"PDJ","station_name":"Pondokranji"},{"station_id":"JMU","station_name":"Jurangmangu","i_lat":-6.288927,"transit":false,"i_long":106.728916,"line":6,"is_transit":false,"time":3,"distance":2179},{"line":6,"i_lat":-6.296963,"station_id":"SDM","transit":false,"is_transit":false,"i_long":106.712277,"station_name":"Sudimara","distance":1994,"time":4},{"station_id":"RU","time":6,"transit":false,"station_name":"Rawa Buntu","is_transit":false,"distance":4566,"i_lat":-6.314823,"i_long":106.675475,"line":6},{"time":4,"distance":2413,"i_lat":-6.319871,"i_long":106.66566,"station_name":"Serpong","station_id":"SRP","is_transit":false,"line":6,"transit":false},{"transit":false,"i_lat":-6.32484,"i_long":106.640411,"line":3,"distance":1784,"is_transit":false,"station_id":"CSK","time":4,"station_name":"Cisauk"},{"time":4,"transit":false,"is_transit":false,"i_long":106.617853,"station_name":"Cicayur","line":3,"station_id":"CC","distance":2519,"i_lat":-6.329547},{"distance":5968,"station_name":"Parung Panjang","i_lat":-6.3441410000000005,"transit":false,"station_id":"PRP","i_long":106.568863,"time":8,"is_transit":false,"line":6},{"distance":7025,"is_transit":false,"time":9,"line":3,"station_id":"CJT","station_name":"Cilejit","i_lat":-6.354349,"transit":false,"i_long":106.508482},{"line":0,"i_lat":-6.338021,"is_transit":false,"transit":false,"station_id":"DAR","station_name":"Daru","i_long":106.491338,"time":6,"distance":2675},{"is_transit":false,"line":6,"time":5,"station_name":"Tenjo","station_id":"TEJ","i_lat":-6.327251,"distance":3902,"transit":false,"i_long":106.460812},{"transit":false,"time":5,"distance":2974,"i_lat":-6.328533,"line":6,"station_name":"Tigaraksa","i_long":106.425991,"is_transit":false,"station_id":"TGS"},{"distance":2651,"transit":false,"is_transit":false,"i_lat":-6.33561,"i_long":106.411216,"line":3,"time":3,"station_id":"CKY","station_name":"Cikoya"},{"distance":1853,"line":6,"time":4,"station_name":"Maja","transit":false,"i_lat":-6.332307,"is_transit":false,"i_long":106.394373,"station_id":"MJ"},{"distance":7293,"transit":false,"i_lat":-6.334892,"time":10,"station_name":"Citeras","station_id":"CTR","is_transit":false,"line":3,"i_long":106.332092},{"station_id":"RK","is_transit":false,"line":3,"i_long":106.250396,"i_lat":-6.352675,"transit":false,"time":13,"station_name":"Rangkasbitung","distance":9847}],[{"distance":0,"station_id":"DPB","transit":false,"i_lat":-6.391065,"i_long":106.819451,"line":2,"station_name":"Depokbaru","is_transit":false,"time":0},{"time":4,"transit":false,"is_transit":false,"distance":2727,"i_lat":-6.369073,"station_name":"Pondok Cina","line":2,"i_long":106.831114,"station_id":"POC"},{"station_name":"Univ. Indonesia","transit":false,"station_id":"UI","i_long":106.831474,"time":2,"distance":1109,"line":2,"is_transit":false,"i_lat":-6.360749},{"i_long":106.834175,"transit":false,"line":2,"time":3,"i_lat":-6.339291,"station_name":"Univ. Pancasila","distance":2264,"is_transit":false,"station_id":"UP"},{"is_transit":false,"distance":1029,"i_long":106.832616,"transit":false,"station_id":"LNA","station_name":"Lenteng Agung","i_lat":-6.330363,"line":2,"time":2},{"time":3,"station_id":"TNT","distance":2671,"station_name":"Tanjung Barat","transit":false,"is_transit":false,"i_long":106.838896,"line":2,"i_lat":-6.3080680000000005},{"transit":false,"time":4,"station_id":"PSM","station_name":"Pasar Minggu","distance":2820,"line":2,"i_long":106.843999,"i_lat":-6.2842400000000005,"is_transit":false},{"transit":false,"is_transit":false,"line":2,"station_id":"PSMB","i_lat":-6.263214,"time":2,"station_name":"Pasar Minggu Baru","i_long":106.851577,"distance":2380},{"time":2,"station_id":"DRN","i_long":106.85449,"distance":824,"transit":false,"line":2,"station_name":"Duren Kalibata","is_transit":false,"i_lat":-6.255332},{"distance":1546,"station_name":"Cawang","time":3,"i_lat":-6.242512,"transit":false,"i_long":106.856607,"station_id":"CW","line":2,"is_transit":false},{"station_name":"Tebet","station_id":"TEB","is_transit":false,"i_long":106.857948,"distance":1230,"time":2,"transit":false,"i_lat":-6.226659,"line":2},{"i_lat":-6.209883,"is_transit":true,"time":4,"transit":true,"i_long":106.84912,"distance":2610,"station_id":"MRI","line":2,"station_name":"Manggarai"},{"line":1,"is_transit":false,"i_long":106.858896,"transit":false,"station_id":"MTR","station_name":"Matraman","time":2,"distance":1275,"i_lat":-6.212485},{"is_transit":true,"i_lat":-6.215091,"time":8,"transit":true,"line":1,"i_long":106.86807400000001,"distance":1377,"station_id":"JNG","station_name":"Jatinegara"},{"time":2,"line":11,"station_id":"POK","i_lat":-6.209188,"station_name":"Pondok Jati","is_transit":false,"distance":1236,"transit":false,"i_long":106.861737},{"time":2,"distance":1829,"is_transit":false,"station_id":"KMT","i_lat":-6.193792,"line":11,"station_name":"Kramat","transit":false,"i_long":106.855437},{"is_transit":false,"line":11,"transit":false,"i_long":106.850107,"distance":973,"i_lat":-6.185975,"station_name":"Gang Sentiong","station_id":"GST","time":1},{"distance":1567,"station_id":"PSE","is_transit":false,"time":8,"station_name":"Pasar Senen","i_lat":-6.174784,"i_long":106.84368,"transit":false,"line":11},{"i_lat":-6.161728,"station_id":"KMO","is_transit":false,"line":11,"time":4,"transit":false,"station_name":"Kemayoran","distance":1436,"i_long":106.839204},{"is_transit":false,"line":11,"i_lat":-6.14505,"time":5,"i_long":106.836569,"station_name":"Rajawali","station_id":"RJW","distance":1901,"transit":false},{"is_transit":true,"station_name":"Kampung Bandan","distance":1444,"line":4,"i_long":106.826365,"time":3,"transit":true,"i_lat":-6.132549,"station_id":"KPB"},{"distance":4102,"is_transit":false,"station_name":"Angke","line":1,"station_id":"AK","transit":false,"time":9,"i_lat":-6.144674,"i_long":106.79867},{"i_long":106.800832,"station_name":"Duri","i_lat":-6.155215,"line":1,"distance":1230,"station_id":"DU","is_transit":false,"time":4,"transit":false},{"time":8,"distance":3632,"is_transit":true,"line":1,"i_lat":-6.185545,"station_id":"THB","i_long":106.811091,"station_name":"Tanah Abang","transit":true},{"station_name":"Palmerah","is_transit":false,"time":6,"i_lat":-6.207404,"i_long":106.79689,"line":6,"distance":3191,"transit":false,"station_id":"PLM"},{"transit":false,"i_long":106.780334,"line":6,"distance":3737,"i_lat":-6.237242,"is_transit":false,"station_name":"Kebayoran","station_id":"KBY","time":7},{"station_name":"Pondokranji","line":6,"transit":false,"is_transit":false,"distance":6218,"station_id":"PDJ","time":8,"i_lat":-6.276362,"i_long":106.74273},{"line":6,"time":3,"distance":2179,"station_name":"Jurangmangu","station_id":"JMU","is_transit":false,"i_lat":-6.288927,"transit":false,"i_long":106.728916},{"is_transit":false,"line":6,"time":4,"i_lat":-6.296963,"station_id":"SDM","distance":1994,"i_long":106.712277,"transit":false,"station_name":"Sudimara"},{"time":6,"i_lat":-6.314823,"i_long":106.675475,"is_transit":false,"transit":false,"distance":4566,"station_id":"RU","station_name":"Rawa Buntu","line":6},{"station_id":"SRP","line":6,"time":4,"transit":false,"distance":2413,"is_transit":false,"station_name":"Serpong","i_lat":-6.319871,"i_long":106.66566},{"transit":false,"time":4,"line":3,"distance":1784,"i_lat":-6.32484,"i_long":106.640411,"station_name":"Cisauk","station_id":"CSK","is_transit":false},{"i_long":106.617853,"line":3,"transit":false,"i_lat":-6.329547,"is_transit":false,"station_name":"Cicayur","distance":2519,"station_id":"CC","time":4},{"time":8,"distance":5968,"station_name":"Parung Panjang","is_transit":false,"i_lat":-6.3441410000000005,"line":6,"station_id":"PRP","transit":false,"i_long":106.568863},{"i_long":106.508482,"station_id":"CJT","time":9,"distance":7025,"i_lat":-6.354349,"line":3,"is_transit":false,"transit":false,"station_name":"Cilejit"},{"transit":false,"i_long":106.491338,"station_id":"DAR","distance":2675,"is_transit":false,"time":6,"i_lat":-6.338021,"line":0,"station_name":"Daru"},{"station_id":"TEJ","i_lat":-6.327251,"transit":false,"time":5,"i_long":106.460812,"station_name":"Tenjo","is_transit":false,"distance":3902,"line":6},{"station_name":"Tigaraksa","is_transit":false,"i_lat":-6.328533,"time":5,"distance":2974,"transit":false,"line":6,"i_long":106.425991,"station_id":"TGS"},{"i_long":106.411216,"distance":2651,"station_name":"Cikoya","i_lat":-6.33561,"is_transit":false,"station_id":"CKY","transit":false,"line":3,"time":3},{"transit":false,"line":6,"i_long":106.394373,"time":4,"station_name":"Maja","distance":1853,"is_transit":false,"station_id":"MJ","i_lat":-6.332307},{"station_name":"Citeras","distance":7293,"is_transit":false,"line":3,"i_lat":-6.334892,"station_id":"CTR","time":10,"transit":false,"i_long":106.332092},{"transit":false,"i_long":106.250396,"is_transit":false,"station_id":"RK","station_name":"Rangkasbitung","time":13,"distance":9847,"i_lat":-6.352675,"line":3}]]}