{"data":[[{"distance":0,"line":0,"transit":false,"station_id":"DPB","is_transit":false,"time":0,"i_lat":-6.391065,"station_name":"Depokbaru","i_long":106.819451},{"station_id":"DP","station_name":"Depok","line":0,"i_lat":-6.405256,"i_long":106.816926,"is_transit":false,"distance":1584,"time":3,"transit":false},{"is_transit":true,"transit":false,"line":1,"station_name":"Citayam","time":6,"station_id":"CTA","distance":5084,"i_lat":-6.448811,"i_long":106.800298},{"station_name":"Bojonggede","line":0,"distance":5197,"i_lat":-6.493243,"i_long":106.792719,"is_transit":false,"time":5,"transit":false,"station_id":"BJD"},{"line":0,"is_transit":false,"transit":false,"i_lat":-6.530544,"time":5,"distance":4331,"station_id":"CLT","station_name":"Cilebut","i_long":106.800016}]]}