{"data":[[{"time":0,"i_lat":-6.391065,"distance":0,"line":2,"i_long":106.819451,"station_id":"DPB","station_name":"Depokbaru","transit":false,"is_transit":false},{"station_id":"POC","i_lat":-6.369073,"is_transit":false,"transit":false,"time":4,"i_long":106.831114,"station_name":"Pondok Cina","line":2,"distance":2727},{"time":2,"is_transit":false,"station_id":"UI","i_lat":-6.360749,"transit":false,"i_long":106.831474,"line":2,"station_name":"Univ. Indonesia","distance":1109},{"is_transit":false,"time":3,"transit":false,"station_name":"Univ. Pancasila","i_long":106.834175,"station_id":"UP","distance":2264,"i_lat":-6.339291,"line":2},{"i_lat":-6.330363,"distance":1029,"time":2,"i_long":106.832616,"transit":false,"is_transit":false,"station_id":"LNA","station_name":"Lenteng Agung","line":2},{"i_lat":-6.3080680000000005,"station_id":"TNT","i_long":106.838896,"line":2,"station_name":"Tanjung Barat","is_transit":false,"time":3,"transit":false,"distance":2671},{"distance":2820,"i_lat":-6.2842400000000005,"is_transit":false,"station_name":"Pasar Minggu","transit":false,"station_id":"PSM","time":4,"i_long":106.843999,"line":2},{"i_lat":-6.263214,"station_id":"PSMB","i_long":106.851577,"distance":2380,"station_name":"Pasar Minggu Baru","transit":false,"is_transit":false,"time":2,"line":2},{"line":2,"i_lat":-6.255332,"i_long":106.85449,"time":2,"station_name":"Duren Kalibata","transit":false,"distance":824,"is_transit":false,"station_id":"DRN"},{"station_id":"CW","i_long":106.856607,"transit":false,"is_transit":false,"time":3,"i_lat":-6.242512,"line":2,"station_name":"Cawang","distance":1546},{"station_id":"TEB","time":2,"i_long":106.857948,"station_name":"Tebet","transit":false,"is_transit":false,"distance":1230,"i_lat":-6.226659,"line":2},{"is_transit":true,"i_lat":-6.209883,"distance":2610,"i_long":106.84912,"station_id":"MRI","line":2,"time":4,"transit":true,"station_name":"Manggarai"},{"distance":1275,"station_name":"Matraman","time":2,"station_id":"MTR","line":1,"i_long":106.858896,"is_transit":false,"i_lat":-6.212485,"transit":false},{"is_transit":false,"i_long":106.86807400000001,"distance":1377,"station_name":"Jatinegara","line":1,"station_id":"JNG","transit":false,"i_lat":-6.215091,"time":8},{"station_id":"KLD","i_lat":-6.2135,"distance":3395,"time":3,"i_long":106.899548,"line":1,"transit":false,"station_name":"Klender","is_transit":false},{"i_long":106.922662,"station_name":"Buaran","line":1,"transit":false,"time":2,"i_lat":-6.215568,"distance":3100,"is_transit":false,"station_id":"BUA"},{"station_name":"Klenderbaru","station_id":"KLDB","i_long":106.939679,"line":1,"is_transit":false,"distance":1305,"time":1,"i_lat":-6.217455,"transit":false},{"station_id":"CUK","i_lat":-6.219053,"distance":1385,"line":1,"i_long":106.951283,"station_name":"Cakung","transit":false,"is_transit":false,"time":8},{"station_name":"Kranji","line":1,"is_transit":false,"station_id":"KRI","i_long":106.977657,"i_lat":-6.224515,"time":3,"transit":false,"distance":3097},{"distance":2520,"transit":false,"is_transit":false,"station_id":"BKS","i_long":106.997013,"line":1,"station_name":"Bekasi","i_lat":-6.236616,"time":4}],[{"i_long":106.819451,"time":0,"transit":false,"is_transit":false,"station_id":"DPB","station_name":"Depokbaru","i_lat":-6.391065,"distance":0,"line":2},{"station_id":"POC","station_name":"Pondok Cina","is_transit":false,"i_lat":-6.369073,"i_long":106.831114,"time":4,"line":2,"transit":false,"distance":2727},{"i_lat":-6.360749,"station_id":"UI","station_name":"Univ. Indonesia","distance":1109,"line":2,"time":2,"i_long":106.831474,"is_transit":false,"transit":false},{"station_id":"UP","i_long":106.834175,"distance":2264,"line":2,"station_name":"Univ. Pancasila","transit":false,"time":3,"i_lat":-6.339291,"is_transit":false},{"distance":1029,"station_id":"LNA","line":2,"i_long":106.832616,"station_name":"Lenteng Agung","transit":false,"is_transit":false,"i_lat":-6.330363,"time":2},{"time":3,"line":2,"transit":false,"station_name":"Tanjung Barat","i_lat":-6.3080680000000005,"is_transit":false,"station_id":"TNT","i_long":106.838896,"distance":2671},{"i_long":106.843999,"time":4,"is_transit":false,"station_id":"PSM","line":2,"station_name":"Pasar Minggu","distance":2820,"transit":false,"i_lat":-6.2842400000000005},{"i_long":106.851577,"line":2,"time":2,"i_lat":-6.263214,"station_name":"Pasar Minggu Baru","transit":false,"distance":2380,"is_transit":false,"station_id":"PSMB"},{"i_lat":-6.255332,"i_long":106.85449,"line":2,"station_name":"Duren Kalibata","distance":824,"transit":false,"is_transit":false,"station_id":"DRN","time":2},{"line":2,"station_id":"CW","i_lat":-6.242512,"station_name":"Cawang","time":3,"transit":false,"distance":1546,"i_long":106.856607,"is_transit":false},{"station_id":"TEB","i_long":106.857948,"station_name":"Tebet","distance":1230,"transit":false,"is_transit":false,"line":2,"i_lat":-6.226659,"time":2},{"i_long":106.84912,"distance":2610,"station_id":"MRI","transit":true,"station_name":"Manggarai","is_transit":true,"time":4,"line":2,"i_lat":-6.209883},{"is_transit":false,"time":4,"station_id":"SUD","line":1,"i_lat":-6.202263,"transit":false,"station_name":"Sudirman","i_long":106.822649,"distance":3186},{"transit":false,"i_lat":-6.201433,"line":1,"is_transit":false,"i_long":106.819881,"station_name":"Sudirman Baru","distance":280,"station_id":"SUDB","time":1},{"distance":471,"station_name":"Karet","station_id":"KAT","is_transit":false,"line":1,"time":1,"transit":false,"i_lat":-6.20132,"i_long":106.816351},{"transit":false,"station_name":"Tanah Abang","is_transit":false,"station_id":"THB","distance":2029,"i_lat":-6.185545,"time":5,"i_long":106.811091,"line":1},{"station_name":"Duri","distance":3632,"i_lat":-6.155215,"transit":false,"line":1,"is_transit":false,"i_long":106.800832,"time":8,"station_id":"DU"},{"is_transit":false,"i_lat":-6.144674,"transit":false,"time":4,"station_id":"AK","distance":1230,"i_long":106.79867,"line":1,"station_name":"Angke"},{"station_name":"Kampung Bandan","time":9,"station_id":"KPB","transit":true,"i_lat":-6.132549,"is_transit":true,"i_long":106.826365,"line":4,"distance":4102},{"i_lat":-6.14505,"station_name":"Rajawali","transit":false,"station_id":"RJW","i_long":106.836569,"is_transit":false,"line":11,"distance":1444,"time":3},{"station_name":"Kemayoran","distance":1901,"transit":false,"time":5,"station_id":"KMO","i_long":106.839204,"is_transit":false,"line":11,"i_lat":-6.161728},{"transit":false,"time":4,"i_long":106.84368,"is_transit":false,"station_id":"PSE","i_lat":-6.174784,"station_name":"Pasar Senen","distance":1436,"line":11},{"distance":1567,"station_name":"Gang Sentiong","transit":false,"is_transit":false,"i_long":106.850107,"line":11,"time":8,"station_id":"GST","i_lat":-6.185975},{"station_name":"Kramat","time":1,"line":11,"distance":973,"i_lat":-6.193792,"transit":false,"station_id":"KMT","i_long":106.855437,"is_transit":false},{"time":2,"station_name":"Pondok Jati","station_id":"POK","i_lat":-6.209188,"line":11,"i_long":106.861737,"distance":1829,"transit":false,"is_transit":false},{"i_lat":-6.215091,"time":9,"is_transit":true,"station_name":"Jatinegara","i_long":106.86807400000001,"distance":1236,"transit":true,"line":1,"station_id":"JNG"},{"station_name":"Klender","distance":3395,"time":3,"line":1,"station_id":"KLD","is_transit":false,"i_lat":-6.2135,"transit":false,"i_long":106.899548},{"station_name":"Buaran","transit":false,"i_lat":-6.215568,"station_id":"BUA","distance":3100,"line":1,"i_long":106.922662,"time":2,"is_transit":false},{"i_lat":-6.217455,"station_id":"KLDB","line":1,"distance":1305,"i_long":106.939679,"time":1,"transit":false,"is_transit":false,"station_name":"Klenderbaru"},{"i_long":106.951283,"distance":1385,"i_lat":-6.219053,"line":1,"station_name":"Cakung","transit":false,"is_transit":false,"time":8,"station_id":"CUK"},{"station_name":"Kranji","time":3,"i_lat":-6.224515,"distance":3097,"station_id":"KRI","transit":false,"line":1,"i_long":106.977657,"is_transit":false},{"line":1,"is_transit":false,"distance":2520,"time":4,"station_name":"Bekasi","station_id":"BKS","transit":false,"i_lat":-6.236616,"i_long":106.997013}],[{"time":0,"line":2,"station_id":"DPB","i_long":106.819451,"transit":false,"station_name":"Depokbaru","distance":0,"i_lat":-6.391065,"is_transit":false},{"is_transit":false,"station_id":"POC","i_lat":-6.369073,"i_long":106.831114,"transit":false,"station_name":"Pondok Cina","line":2,"distance":2727,"time":4},{"i_long":106.831474,"station_id":"UI","station_name":"Univ. Indonesia","i_lat":-6.360749,"line":2,"is_transit":false,"time":2,"distance":1109,"transit":false},{"time":3,"i_long":106.834175,"station_id":"UP","transit":false,"i_lat":-6.339291,"line":2,"station_name":"Univ. Pancasila","distance":2264,"is_transit":false},{"is_transit":false,"time":2,"i_long":106.832616,"i_lat":-6.330363,"distance":1029,"transit":false,"line":2,"station_name":"Lenteng Agung","station_id":"LNA"},{"distance":2671,"line":2,"is_transit":false,"transit":false,"i_long":106.838896,"station_id":"TNT","station_name":"Tanjung Barat","time":3,"i_lat":-6.3080680000000005},{"station_name":"Pasar Minggu","is_transit":false,"transit":false,"station_id":"PSM","i_long":106.843999,"distance":2820,"time":4,"i_lat":-6.2842400000000005,"line":2},{"distance":2380,"i_long":106.851577,"time":2,"transit":false,"line":2,"i_lat":-6.263214,"station_name":"Pasar Minggu Baru","station_id":"PSMB","is_transit":false},{"distance":824,"is_transit":false,"time":2,"station_id":"DRN","line":2,"station_name":"Duren Kalibata","transit":false,"i_long":106.85449,"i_lat":-6.255332},{"is_transit":false,"station_id":"CW","i_long":106.856607,"distance":1546,"transit":false,"line":2,"i_lat":-6.242512,"time":3,"station_name":"Cawang"},{"station_name":"Tebet","distance":1230,"i_lat":-6.226659,"time":2,"station_id":"TEB","i_long":106.857948,"transit":false,"is_transit":false,"line":2},{"i_lat":-6.209883,"is_transit":false,"transit":false,"distance":2610,"time":4,"station_id":"MRI","i_long":106.84912,"line":2,"station_name":"Manggarai"},{"transit":false,"distance":1590,"i_long":106.840169,"i_lat":-6.198556,"station_name":"Cikini","time":4,"station_id":"CKI","is_transit":false,"line":2},{"station_name":"Gondangdia","is_transit":false,"station_id":"GDD","line":2,"distance":1750,"i_lat":-6.186295,"time":3,"i_long":106.832183,"transit":false},{"distance":2015,"is_transit":false,"line":2,"time":4,"i_lat":-6.166716,"station_name":"Juanda","i_long":106.828284,"transit":false,"station_id":"JUA"},{"station_id":"SW","i_lat":-6.160725,"i_long":106.827103,"line":2,"time":2,"distance":1149,"station_name":"Sawah Besar","transit":false,"is_transit":false},{"i_lat":-6.149769,"time":2,"transit":false,"i_long":106.82482,"distance":906,"station_id":"MGB","line":2,"station_name":"Manggabesar","is_transit":false},{"distance":1080,"station_name":"Jayakarta","time":2,"transit":false,"i_lat":-6.141205,"i_long":106.820901,"station_id":"JAY","is_transit":false,"line":2},{"distance":1264,"station_id":"JAKK","i_lat":-6.137569,"line":2,"transit":true,"is_transit":true,"i_long":106.812439,"station_name":"Jakarta Kota","time":4},{"time":3,"station_id":"KPB","line":4,"i_long":106.826365,"station_name":"Kampung Bandan","distance":1364,"transit":true,"i_lat":-6.132549,"is_transit":true},{"time":3,"distance":1444,"is_transit":false,"station_name":"Rajawali","i_long":106.836569,"station_id":"RJW","i_lat":-6.14505,"transit":false,"line":11},{"time":5,"i_long":106.839204,"station_name":"Kemayoran","station_id":"KMO","is_transit":false,"distance":1901,"i_lat":-6.161728,"transit":false,"line":11},{"time":4,"transit":false,"station_id":"PSE","i_lat":-6.174784,"i_long":106.84368,"station_name":"Pasar Senen","is_transit":false,"distance":1436,"line":11},{"i_lat":-6.185975,"line":11,"station_name":"Gang Sentiong","distance":1567,"station_id":"GST","i_long":106.850107,"is_transit":false,"time":8,"transit":false},{"transit":false,"station_name":"Kramat","station_id":"KMT","i_lat":-6.193792,"i_long":106.855437,"line":11,"distance":973,"is_transit":false,"time":1},{"station_id":"POK","i_long":106.861737,"i_lat":-6.209188,"line":11,"transit":false,"is_transit":false,"station_name":"Pondok Jati","time":2,"distance":1829},{"i_lat":-6.215091,"time":9,"distance":1236,"station_id":"JNG","i_long":106.86807400000001,"is_transit":true,"line":1,"station_name":"Jatinegara","transit":true},{"time":3,"transit":false,"station_name":"Klender","station_id":"KLD","is_transit":false,"distance":3395,"i_lat":-6.2135,"line":1,"i_long":106.899548},{"is_transit":false,"station_name":"Buaran","line":1,"i_lat":-6.215568,"i_long":106.922662,"time":2,"distance":3100,"station_id":"BUA","transit":false},{"line":1,"station_name":"Klenderbaru","station_id":"KLDB","i_long":106.939679,"time":1,"is_transit":false,"distance":1305,"i_lat":-6.217455,"transit":false},{"line":1,"station_name":"Cakung","distance":1385,"transit":false,"i_lat":-6.219053,"is_transit":false,"i_long":106.951283,"time":8,"station_id":"CUK"},{"station_name":"Kranji","station_id":"KRI","is_transit":false,"distance":3097,"time":3,"i_lat":-6.224515,"i_long":106.977657,"transit":false,"line":1},{"time":4,"i_lat":-6.236616,"station_name":"Bekasi","station_id":"BKS","distance":2520,"i_long":106.997013,"transit":false,"line":1,"is_transit":false}]]}