{"data":[[{"station_name":"Depokbaru","i_lat":-6.391065,"distance":0,"is_transit":false,"i_long":106.819451,"time":0,"station_id":"DPB","line":2,"transit":false},{"line":2,"i_lat":-6.369073,"station_id":"POC","is_transit":false,"transit":false,"distance":2727,"station_name":"Pondok Cina","i_long":106.831114,"time":4},{"i_lat":-6.360749,"time":2,"station_name":"Univ. Indonesia","station_id":"UI","transit":false,"is_transit":false,"distance":1109,"i_long":106.831474,"line":2},{"i_lat":-6.339291,"distance":2264,"station_name":"Univ. Pancasila","line":2,"station_id":"UP","transit":false,"is_transit":false,"time":3,"i_long":106.834175},{"i_lat":-6.330363,"transit":false,"station_id":"LNA","station_name":"Lenteng Agung","is_transit":false,"i_long":106.832616,"line":2,"time":2,"distance":1029},{"station_name":"Tanjung Barat","line":2,"distance":2671,"is_transit":false,"i_lat":-6.3080680000000005,"i_long":106.838896,"station_id":"TNT","time":3,"transit":false},{"distance":2820,"line":2,"time":4,"i_lat":-6.2842400000000005,"is_transit":false,"i_long":106.843999,"station_id":"PSM","station_name":"Pasar Minggu","transit":false},{"transit":false,"line":2,"station_name":"Pasar Minggu Baru","i_long":106.851577,"is_transit":false,"i_lat":-6.263214,"time":2,"station_id":"PSMB","distance":2380},{"time":2,"is_transit":false,"station_id":"DRN","i_long":106.85449,"distance":824,"line":2,"i_lat":-6.255332,"station_name":"Duren Kalibata","transit":false},{"time":3,"station_name":"Cawang","i_lat":-6.242512,"station_id":"CW","transit":false,"line":2,"i_long":106.856607,"distance":1546,"is_transit":false},{"i_long":106.857948,"station_id":"TEB","line":2,"time":2,"distance":1230,"station_name":"Tebet","transit":false,"is_transit":false,"i_lat":-6.226659},{"distance":2610,"transit":true,"line":2,"time":4,"is_transit":true,"station_name":"Manggarai","station_id":"MRI","i_lat":-6.209883,"i_long":106.84912},{"transit":false,"distance":3186,"station_name":"Sudirman","is_transit":false,"i_long":106.822649,"line":1,"station_id":"SUD","i_lat":-6.202263,"time":4},{"station_name":"Sudirman Baru","i_lat":-6.201433,"distance":280,"is_transit":false,"time":1,"station_id":"SUDB","transit":false,"line":1,"i_long":106.819881},{"line":1,"is_transit":false,"station_name":"Karet","time":1,"transit":false,"distance":471,"station_id":"KAT","i_lat":-6.20132,"i_long":106.816351},{"station_id":"THB","i_long":106.811091,"i_lat":-6.185545,"transit":false,"distance":2029,"line":1,"station_name":"Tanah Abang","time":5,"is_transit":false},{"station_name":"Duri","i_long":106.800832,"transit":true,"distance":3632,"time":8,"line":1,"is_transit":true,"station_id":"DU","i_lat":-6.155215},{"station_name":"Grogol","i_long":106.788277,"i_lat":-6.162021,"distance":1700,"transit":false,"time":3,"is_transit":false,"station_id":"GGL","line":5},{"distance":2036,"station_name":"Pesing","i_long":106.771379,"line":5,"time":2,"station_id":"PSG","transit":false,"i_lat":-6.161433,"is_transit":false},{"is_transit":false,"station_id":"TKO","i_lat":-6.1587309999999995,"time":2,"line":5,"distance":1614,"i_long":106.756522,"station_name":"Taman Kota","transit":false},{"station_name":"Bojongindah","is_transit":false,"station_id":"BOI","time":2,"transit":false,"i_long":106.737035,"line":5,"i_lat":-6.159876,"distance":2334},{"transit":false,"line":5,"is_transit":false,"i_lat":-6.162758,"time":4,"station_id":"RW","i_long":106.723064,"distance":1152,"station_name":"Rawa Buaya"},{"time":3,"i_lat":-6.166068,"is_transit":false,"i_long":106.701612,"transit":false,"distance":2504,"station_name":"Kalideres","station_id":"KDS","line":5},{"distance":2548,"i_lat":-6.169933,"transit":false,"is_transit":false,"i_long":106.679458,"time":3,"station_id":"PI","line":5,"station_name":"Poris"},{"transit":false,"i_lat":-6.171811,"time":3,"is_transit":false,"i_long":106.665036,"distance":1834,"line":5,"station_name":"Batuceper","station_id":"BPR"},{"station_id":"TTI","station_name":"Tanah Tinggi","transit":false,"line":5,"time":3,"i_long":106.64657,"i_lat":-6.17331,"distance":2028,"is_transit":false},{"station_name":"Tangerang","transit":false,"time":3,"station_id":"TNG","i_lat":-6.176583,"is_transit":false,"line":5,"distance":1547,"i_long":106.632761}],[{"line":2,"distance":0,"is_transit":false,"i_lat":-6.391065,"station_name":"Depokbaru","i_long":106.819451,"time":0,"station_id":"DPB","transit":false},{"line":2,"distance":2727,"i_lat":-6.369073,"station_id":"POC","station_name":"Pondok Cina","is_transit":false,"transit":false,"time":4,"i_long":106.831114},{"station_name":"Univ. Indonesia","i_long":106.831474,"time":2,"station_id":"UI","i_lat":-6.360749,"line":2,"distance":1109,"is_transit":false,"transit":false},{"station_id":"UP","transit":false,"distance":2264,"is_transit":false,"line":2,"time":3,"i_long":106.834175,"station_name":"Univ. Pancasila","i_lat":-6.339291},{"i_long":106.832616,"station_id":"LNA","line":2,"i_lat":-6.330363,"distance":1029,"time":2,"station_name":"Lenteng Agung","is_transit":false,"transit":false},{"is_transit":false,"i_long":106.838896,"i_lat":-6.3080680000000005,"line":2,"distance":2671,"time":3,"station_id":"TNT","transit":false,"station_name":"Tanjung Barat"},{"time":4,"transit":false,"i_long":106.843999,"distance":2820,"is_transit":false,"station_name":"Pasar Minggu","station_id":"PSM","i_lat":-6.2842400000000005,"line":2},{"i_lat":-6.263214,"transit":false,"i_long":106.851577,"distance":2380,"time":2,"station_name":"Pasar Minggu Baru","station_id":"PSMB","line":2,"is_transit":false},{"i_long":106.85449,"line":2,"i_lat":-6.255332,"station_id":"DRN","time":2,"is_transit":false,"transit":false,"distance":824,"station_name":"Duren Kalibata"},{"station_id":"CW","line":2,"distance":1546,"is_transit":false,"time":3,"station_name":"Cawang","transit":false,"i_lat":-6.242512,"i_long":106.856607},{"transit":false,"station_id":"TEB","i_long":106.857948,"i_lat":-6.226659,"station_name":"Tebet","line":2,"is_transit":false,"time":2,"distance":1230},{"line":2,"i_long":106.84912,"i_lat":-6.209883,"station_id":"MRI","distance":2610,"is_transit":false,"time":4,"station_name":"Manggarai","transit":false},{"i_lat":-6.198556,"i_long":106.840169,"station_name":"Cikini","time":4,"is_transit":false,"line":2,"distance":1590,"station_id":"CKI","transit":false},{"station_name":"Gondangdia","transit":false,"i_lat":-6.186295,"is_transit":false,"time":3,"distance":1750,"line":2,"station_id":"GDD","i_long":106.832183},{"i_lat":-6.166716,"transit":false,"i_long":106.828284,"distance":2015,"line":2,"is_transit":false,"station_id":"JUA","time":4,"station_name":"Juanda"},{"i_long":106.827103,"line":2,"station_name":"Sawah Besar","is_transit":false,"station_id":"SW","transit":false,"distance":1149,"time":2,"i_lat":-6.160725},{"distance":906,"is_transit":false,"transit":false,"i_lat":-6.149769,"station_name":"Manggabesar","station_id":"MGB","line":2,"time":2,"i_long":106.82482},{"station_id":"JAY","time":2,"station_name":"Jayakarta","is_transit":false,"i_lat":-6.141205,"transit":false,"i_long":106.820901,"line":2,"distance":1080},{"transit":true,"station_name":"Jakarta Kota","station_id":"JAKK","line":2,"distance":1264,"is_transit":true,"time":4,"i_lat":-6.137569,"i_long":106.812439},{"time":3,"transit":true,"i_long":106.826365,"is_transit":true,"station_id":"KPB","i_lat":-6.132549,"line":4,"distance":1364,"station_name":"Kampung Bandan"},{"transit":false,"station_name":"Angke","time":9,"line":1,"station_id":"AK","distance":4102,"i_lat":-6.144674,"i_long":106.79867,"is_transit":false},{"i_long":106.800832,"line":1,"is_transit":true,"station_name":"Duri","station_id":"DU","distance":1230,"transit":true,"i_lat":-6.155215,"time":4},{"station_name":"Grogol","i_lat":-6.162021,"distance":1700,"i_long":106.788277,"time":3,"transit":false,"station_id":"GGL","line":5,"is_transit":false},{"i_lat":-6.161433,"time":2,"is_transit":false,"i_long":106.771379,"line":5,"station_name":"Pesing","transit":false,"distance":2036,"station_id":"PSG"},{"station_id":"TKO","station_name":"Taman Kota","time":2,"distance":1614,"transit":false,"i_lat":-6.1587309999999995,"line":5,"i_long":106.756522,"is_transit":false},{"transit":false,"time":2,"distance":2334,"station_id":"BOI","is_transit":false,"i_lat":-6.159876,"station_name":"Bojongindah","i_long":106.737035,"line":5},{"transit":false,"is_transit":false,"station_id":"RW","i_lat":-6.162758,"line":5,"distance":1152,"time":4,"station_name":"Rawa Buaya","i_long":106.723064},{"transit":false,"distance":2504,"is_transit":false,"station_name":"Kalideres","station_id":"KDS","i_lat":-6.166068,"i_long":106.701612,"line":5,"time":3},{"distance":2548,"station_name":"Poris","line":5,"transit":false,"i_lat":-6.169933,"time":3,"is_transit":false,"i_long":106.679458,"station_id":"PI"},{"station_name":"Batuceper","is_transit":false,"distance":1834,"station_id":"BPR","line":5,"i_lat":-6.171811,"i_long":106.665036,"time":3,"transit":false},{"line":5,"transit":false,"is_transit":false,"time":3,"station_id":"TTI","distance":2028,"station_name":"Tanah Tinggi","i_long":106.64657,"i_lat":-6.17331},{"i_long":106.632761,"transit":false,"line":5,"time":3,"station_name":"Tangerang","station_id":"TNG","i_lat":-6.176583,"distance":1547,"is_transit":false}],[{"station_id":"DPB","i_long":106.819451,"is_transit":false,"line":2,"transit":false,"station_name":"Depokbaru","distance":0,"time":0,"i_lat":-6.391065},{"station_id":"POC","is_transit":false,"transit":false,"i_lat":-6.369073,"line":2,"i_long":106.831114,"station_name":"Pondok Cina","distance":2727,"time":4},{"station_name":"Univ. Indonesia","station_id":"UI","time":2,"i_long":106.831474,"transit":false,"is_transit":false,"line":2,"distance":1109,"i_lat":-6.360749},{"i_lat":-6.339291,"transit":false,"i_long":106.834175,"distance":2264,"station_name":"Univ. Pancasila","is_transit":false,"time":3,"station_id":"UP","line":2},{"station_name":"Lenteng Agung","is_transit":false,"i_long":106.832616,"station_id":"LNA","i_lat":-6.330363,"time":2,"transit":false,"line":2,"distance":1029},{"distance":2671,"is_transit":false,"station_name":"Tanjung Barat","station_id":"TNT","transit":false,"i_lat":-6.3080680000000005,"i_long":106.838896,"time":3,"line":2},{"line":2,"transit":false,"station_name":"Pasar Minggu","distance":2820,"is_transit":false,"time":4,"station_id":"PSM","i_long":106.843999,"i_lat":-6.2842400000000005},{"line":2,"distance":2380,"is_transit":false,"i_lat":-6.263214,"station_name":"Pasar Minggu Baru","time":2,"transit":false,"station_id":"PSMB","i_long":106.851577},{"distance":824,"i_lat":-6.255332,"line":2,"station_id":"DRN","station_name":"Duren Kalibata","time":2,"is_transit":false,"transit":false,"i_long":106.85449},{"station_id":"CW","is_transit":false,"i_long":106.856607,"time":3,"distance":1546,"i_lat":-6.242512,"station_name":"Cawang","transit":false,"line":2},{"station_name":"Tebet","is_transit":false,"i_long":106.857948,"transit":false,"distance":1230,"time":2,"i_lat":-6.226659,"line":2,"station_id":"TEB"},{"time":4,"transit":true,"distance":2610,"station_name":"Manggarai","station_id":"MRI","i_long":106.84912,"is_transit":true,"i_lat":-6.209883,"line":2},{"is_transit":false,"i_long":106.858896,"station_name":"Matraman","distance":1275,"transit":false,"i_lat":-6.212485,"line":1,"time":2,"station_id":"MTR"},{"is_transit":true,"station_id":"JNG","line":1,"i_long":106.86807400000001,"transit":true,"station_name":"Jatinegara","i_lat":-6.215091,"time":8,"distance":1377},{"time":2,"i_long":106.861737,"distance":1236,"is_transit":false,"station_name":"Pondok Jati","transit":false,"station_id":"POK","line":11,"i_lat":-6.209188},{"transit":false,"i_long":106.855437,"distance":1829,"station_name":"Kramat","time":2,"is_transit":false,"line":11,"i_lat":-6.193792,"station_id":"KMT"},{"i_long":106.850107,"time":1,"is_transit":false,"station_id":"GST","station_name":"Gang Sentiong","transit":false,"distance":973,"line":11,"i_lat":-6.185975},{"distance":1567,"time":8,"i_long":106.84368,"is_transit":false,"line":11,"station_id":"PSE","transit":false,"station_name":"Pasar Senen","i_lat":-6.174784},{"line":11,"i_lat":-6.161728,"distance":1436,"station_name":"Kemayoran","time":4,"station_id":"KMO","i_long":106.839204,"is_transit":false,"transit":false},{"station_id":"RJW","transit":false,"i_lat":-6.14505,"line":11,"i_long":106.836569,"station_name":"Rajawali","distance":1901,"is_transit":false,"time":5},{"is_transit":true,"station_id":"KPB","distance":1444,"station_name":"Kampung Bandan","i_lat":-6.132549,"i_long":106.826365,"line":4,"transit":true,"time":3},{"is_transit":false,"transit":false,"line":1,"i_long":106.79867,"distance":4102,"i_lat":-6.144674,"station_id":"AK","time":9,"station_name":"Angke"},{"is_transit":true,"transit":true,"distance":1230,"i_lat":-6.155215,"i_long":106.800832,"time":4,"line":1,"station_id":"DU","station_name":"Duri"},{"i_long":106.788277,"transit":false,"station_name":"Grogol","is_transit":false,"time":3,"line":5,"i_lat":-6.162021,"distance":1700,"station_id":"GGL"},{"is_transit":false,"station_id":"PSG","station_name":"Pesing","time":2,"i_long":106.771379,"transit":false,"i_lat":-6.161433,"line":5,"distance":2036},{"i_lat":-6.1587309999999995,"line":5,"station_id":"TKO","i_long":106.756522,"time":2,"distance":1614,"station_name":"Taman Kota","is_transit":false,"transit":false},{"i_long":106.737035,"is_transit":false,"station_id":"BOI","i_lat":-6.159876,"time":2,"distance":2334,"transit":false,"line":5,"station_name":"Bojongindah"},{"distance":1152,"station_id":"RW","is_transit":false,"i_lat":-6.162758,"transit":false,"time":4,"station_name":"Rawa Buaya","i_long":106.723064,"line":5},{"i_long":106.701612,"is_transit":false,"station_id":"KDS","transit":false,"distance":2504,"station_name":"Kalideres","i_lat":-6.166068,"line":5,"time":3},{"time":3,"station_id":"PI","station_name":"Poris","i_lat":-6.169933,"distance":2548,"i_long":106.679458,"line":5,"is_transit":false,"transit":false},{"is_transit":false,"transit":false,"i_long":106.665036,"line":5,"station_id":"BPR","station_name":"Batuceper","distance":1834,"i_lat":-6.171811,"time":3},{"station_id":"TTI","line":5,"distance":2028,"i_lat":-6.17331,"is_transit":false,"time":3,"transit":false,"station_name":"Tanah Tinggi","i_long":106.64657},{"distance":1547,"i_lat":-6.176583,"line":5,"time":3,"station_name":"Tangerang","station_id":"TNG","i_long":106.632761,"transit":false,"is_transit":false}]]}