{"data":[[{"time":0,"distance":0,"station_id":"DPB","line":2,"station_name":"Depokbaru","i_long":106.819451,"i_lat":-6.391065,"transit":false,"is_transit":false},{"i_long":106.831114,"station_id":"POC","transit":false,"station_name":"Pondok Cina","i_lat":-6.369073,"is_transit":false,"distance":2727,"time":4,"line":2},{"is_transit":false,"transit":false,"line":2,"i_long":106.831474,"distance":1109,"i_lat":-6.360749,"station_name":"Univ. Indonesia","time":2,"station_id":"UI"},{"is_transit":false,"station_id":"UP","time":3,"line":2,"i_lat":-6.339291,"station_name":"Univ. Pancasila","transit":false,"i_long":106.834175,"distance":2264},{"i_lat":-6.330363,"time":2,"is_transit":false,"i_long":106.832616,"station_id":"LNA","line":2,"transit":false,"distance":1029,"station_name":"Lenteng Agung"},{"station_id":"TNT","is_transit":false,"time":3,"i_long":106.838896,"distance":2671,"line":2,"transit":false,"i_lat":-6.3080680000000005,"station_name":"Tanjung Barat"},{"distance":2820,"transit":false,"i_long":106.843999,"station_name":"Pasar Minggu","i_lat":-6.2842400000000005,"line":2,"station_id":"PSM","time":4,"is_transit":false},{"is_transit":false,"time":2,"i_long":106.851577,"i_lat":-6.263214,"station_name":"Pasar Minggu Baru","station_id":"PSMB","distance":2380,"transit":false,"line":2}]]}