{"data":[[{"is_transit":false,"station_name":"Depokbaru","transit":false,"distance":0,"i_lat":-6.391065,"time":0,"i_long":106.819451,"station_id":"DPB","line":2},{"i_long":106.831114,"time":4,"line":2,"transit":false,"station_name":"Pondok Cina","i_lat":-6.369073,"distance":2727,"station_id":"POC","is_transit":false},{"is_transit":false,"time":2,"distance":1109,"station_name":"Univ. Indonesia","line":2,"i_lat":-6.360749,"station_id":"UI","i_long":106.831474,"transit":false},{"i_long":106.834175,"line":2,"is_transit":false,"i_lat":-6.339291,"transit":false,"station_id":"UP","distance":2264,"station_name":"Univ. Pancasila","time":3},{"station_name":"Lenteng Agung","is_transit":false,"line":2,"distance":1029,"station_id":"LNA","i_lat":-6.330363,"i_long":106.832616,"time":2,"transit":false},{"station_name":"Tanjung Barat","line":2,"distance":2671,"station_id":"TNT","is_transit":false,"i_lat":-6.3080680000000005,"time":3,"transit":false,"i_long":106.838896},{"line":2,"time":4,"station_name":"Pasar Minggu","station_id":"PSM","distance":2820,"transit":false,"i_long":106.843999,"is_transit":false,"i_lat":-6.2842400000000005},{"time":2,"station_name":"Pasar Minggu Baru","distance":2380,"i_lat":-6.263214,"i_long":106.851577,"station_id":"PSMB","line":2,"transit":false,"is_transit":false},{"i_long":106.85449,"station_id":"DRN","station_name":"Duren Kalibata","time":2,"i_lat":-6.255332,"line":2,"transit":false,"distance":824,"is_transit":false},{"is_transit":false,"station_id":"CW","station_name":"Cawang","time":3,"i_long":106.856607,"line":2,"transit":false,"i_lat":-6.242512,"distance":1546},{"distance":1230,"i_lat":-6.226659,"i_long":106.857948,"is_transit":false,"time":2,"transit":false,"station_name":"Tebet","line":2,"station_id":"TEB"},{"line":2,"station_id":"MRI","i_long":106.84912,"is_transit":false,"transit":false,"time":4,"distance":2610,"i_lat":-6.209883,"station_name":"Manggarai"},{"station_id":"CKI","i_lat":-6.198556,"time":4,"i_long":106.840169,"station_name":"Cikini","transit":false,"distance":1590,"is_transit":false,"line":2}],[{"i_long":106.819451,"line":2,"transit":false,"is_transit":false,"station_id":"DPB","distance":0,"i_lat":-6.391065,"time":0,"station_name":"Depokbaru"},{"distance":2727,"i_lat":-6.369073,"transit":false,"i_long":106.831114,"time":4,"station_name":"Pondok Cina","is_transit":false,"line":2,"station_id":"POC"},{"time":2,"station_name":"Univ. Indonesia","distance":1109,"station_id":"UI","i_lat":-6.360749,"i_long":106.831474,"line":2,"is_transit":false,"transit":false},{"i_lat":-6.339291,"distance":2264,"station_name":"Univ. Pancasila","is_transit":false,"time":3,"line":2,"transit":false,"station_id":"UP","i_long":106.834175},{"time":2,"line":2,"transit":false,"station_name":"Lenteng Agung","i_lat":-6.330363,"is_transit":false,"distance":1029,"i_long":106.832616,"station_id":"LNA"},{"i_long":106.838896,"distance":2671,"station_name":"Tanjung Barat","station_id":"TNT","time":3,"line":2,"is_transit":false,"i_lat":-6.3080680000000005,"transit":false},{"i_lat":-6.2842400000000005,"i_long":106.843999,"transit":false,"station_name":"Pasar Minggu","time":4,"line":2,"station_id":"PSM","is_transit":false,"distance":2820},{"distance":2380,"transit":false,"i_long":106.851577,"station_name":"Pasar Minggu Baru","i_lat":-6.263214,"is_transit":false,"station_id":"PSMB","time":2,"line":2},{"i_long":106.85449,"distance":824,"time":2,"station_id":"DRN","i_lat":-6.255332,"station_name":"Duren Kalibata","is_transit":false,"line":2,"transit":false},{"line":2,"station_name":"Cawang","i_long":106.856607,"i_lat":-6.242512,"transit":false,"is_transit":false,"time":3,"distance":1546,"station_id":"CW"},{"transit":false,"station_id":"TEB","i_lat":-6.226659,"line":2,"distance":1230,"i_long":106.857948,"is_transit":false,"station_name":"Tebet","time":2},{"i_lat":-6.209883,"time":4,"station_name":"Manggarai","i_long":106.84912,"line":2,"is_transit":true,"distance":2610,"transit":true,"station_id":"MRI"},{"station_id":"SUD","line":1,"time":4,"station_name":"Sudirman","i_lat":-6.202263,"is_transit":false,"transit":false,"distance":3186,"i_long":106.822649},{"i_long":106.819881,"line":1,"transit":false,"time":1,"station_id":"SUDB","station_name":"Sudirman Baru","distance":280,"i_lat":-6.201433,"is_transit":false},{"station_id":"KAT","time":1,"station_name":"Karet","line":1,"is_transit":false,"distance":471,"transit":false,"i_lat":-6.20132,"i_long":106.816351},{"transit":false,"i_lat":-6.185545,"station_name":"Tanah Abang","time":5,"i_long":106.811091,"is_transit":false,"station_id":"THB","distance":2029,"line":1},{"time":8,"is_transit":false,"line":1,"station_name":"Duri","distance":3632,"i_long":106.800832,"transit":false,"i_lat":-6.155215,"station_id":"DU"},{"is_transit":false,"station_name":"Angke","station_id":"AK","time":4,"i_lat":-6.144674,"i_long":106.79867,"line":1,"transit":false,"distance":1230},{"time":9,"i_lat":-6.132549,"distance":4102,"i_long":106.826365,"line":4,"transit":true,"station_name":"Kampung Bandan","station_id":"KPB","is_transit":true},{"distance":1364,"i_lat":-6.137569,"station_name":"Jakarta Kota","is_transit":true,"i_long":106.812439,"line":2,"station_id":"JAKK","transit":true,"time":3},{"station_id":"JAY","is_transit":false,"i_lat":-6.141205,"i_long":106.820901,"line":2,"time":4,"transit":false,"distance":1264,"station_name":"Jayakarta"},{"transit":false,"station_id":"MGB","station_name":"Manggabesar","distance":1080,"i_long":106.82482,"time":2,"line":2,"i_lat":-6.149769,"is_transit":false},{"station_id":"SW","i_long":106.827103,"transit":false,"is_transit":false,"time":2,"line":2,"distance":906,"station_name":"Sawah Besar","i_lat":-6.160725},{"station_name":"Juanda","is_transit":false,"i_lat":-6.166716,"i_long":106.828284,"transit":false,"station_id":"JUA","line":2,"distance":1149,"time":2},{"i_long":106.832183,"is_transit":false,"transit":false,"time":4,"distance":2015,"station_name":"Gondangdia","line":2,"i_lat":-6.186295,"station_id":"GDD"},{"distance":1750,"transit":false,"station_name":"Cikini","is_transit":false,"i_lat":-6.198556,"station_id":"CKI","time":3,"i_long":106.840169,"line":2}],[{"is_transit":false,"time":0,"line":2,"distance":0,"i_long":106.819451,"station_name":"Depokbaru","i_lat":-6.391065,"transit":false,"station_id":"DPB"},{"transit":false,"i_lat":-6.369073,"i_long":106.831114,"line":2,"station_id":"POC","time":4,"distance":2727,"is_transit":false,"station_name":"Pondok Cina"},{"time":2,"is_transit":false,"distance":1109,"i_long":106.831474,"line":2,"i_lat":-6.360749,"transit":false,"station_name":"Univ. Indonesia","station_id":"UI"},{"line":2,"transit":false,"station_name":"Univ. Pancasila","distance":2264,"i_lat":-6.339291,"i_long":106.834175,"is_transit":false,"station_id":"UP","time":3},{"time":2,"i_long":106.832616,"distance":1029,"station_name":"Lenteng Agung","i_lat":-6.330363,"is_transit":false,"line":2,"station_id":"LNA","transit":false},{"i_lat":-6.3080680000000005,"is_transit":false,"transit":false,"station_id":"TNT","line":2,"station_name":"Tanjung Barat","i_long":106.838896,"time":3,"distance":2671},{"line":2,"is_transit":false,"time":4,"distance":2820,"i_lat":-6.2842400000000005,"i_long":106.843999,"station_id":"PSM","transit":false,"station_name":"Pasar Minggu"},{"station_id":"PSMB","distance":2380,"i_lat":-6.263214,"transit":false,"time":2,"line":2,"i_long":106.851577,"is_transit":false,"station_name":"Pasar Minggu Baru"},{"station_id":"DRN","i_lat":-6.255332,"i_long":106.85449,"is_transit":false,"distance":824,"transit":false,"station_name":"Duren Kalibata","line":2,"time":2},{"station_id":"CW","is_transit":false,"time":3,"distance":1546,"transit":false,"i_lat":-6.242512,"i_long":106.856607,"line":2,"station_name":"Cawang"},{"i_long":106.857948,"distance":1230,"station_name":"Tebet","station_id":"TEB","is_transit":false,"time":2,"i_lat":-6.226659,"transit":false,"line":2},{"station_id":"MRI","transit":true,"time":4,"line":2,"i_long":106.84912,"is_transit":true,"i_lat":-6.209883,"distance":2610,"station_name":"Manggarai"},{"station_id":"MTR","transit":false,"is_transit":false,"station_name":"Matraman","line":1,"time":2,"distance":1275,"i_lat":-6.212485,"i_long":106.858896},{"i_long":106.86807400000001,"station_id":"JNG","transit":true,"line":1,"distance":1377,"station_name":"Jatinegara","i_lat":-6.215091,"time":8,"is_transit":true},{"is_transit":false,"time":2,"distance":1236,"transit":false,"station_id":"POK","i_lat":-6.209188,"i_long":106.861737,"line":11,"station_name":"Pondok Jati"},{"station_id":"KMT","transit":false,"time":2,"station_name":"Kramat","distance":1829,"is_transit":false,"line":11,"i_lat":-6.193792,"i_long":106.855437},{"i_lat":-6.185975,"transit":false,"i_long":106.850107,"time":1,"distance":973,"station_name":"Gang Sentiong","station_id":"GST","line":11,"is_transit":false},{"time":8,"i_lat":-6.174784,"transit":false,"station_name":"Pasar Senen","station_id":"PSE","distance":1567,"is_transit":false,"i_long":106.84368,"line":11},{"station_id":"KMO","time":4,"distance":1436,"i_lat":-6.161728,"line":11,"is_transit":false,"transit":false,"i_long":106.839204,"station_name":"Kemayoran"},{"transit":false,"station_name":"Rajawali","line":11,"i_long":106.836569,"distance":1901,"is_transit":false,"time":5,"station_id":"RJW","i_lat":-6.14505},{"station_name":"Kampung Bandan","is_transit":true,"distance":1444,"i_long":106.826365,"time":3,"line":4,"station_id":"KPB","transit":true,"i_lat":-6.132549},{"station_name":"Jakarta Kota","transit":true,"time":3,"i_lat":-6.137569,"i_long":106.812439,"station_id":"JAKK","distance":1364,"is_transit":true,"line":2},{"distance":1264,"station_id":"JAY","is_transit":false,"i_lat":-6.141205,"i_long":106.820901,"line":2,"station_name":"Jayakarta","time":4,"transit":false},{"is_transit":false,"time":2,"station_name":"Manggabesar","distance":1080,"i_long":106.82482,"line":2,"station_id":"MGB","i_lat":-6.149769,"transit":false},{"i_long":106.827103,"station_name":"Sawah Besar","distance":906,"is_transit":false,"transit":false,"station_id":"SW","i_lat":-6.160725,"time":2,"line":2},{"station_name":"Juanda","distance":1149,"i_lat":-6.166716,"is_transit":false,"line":2,"time":2,"transit":false,"i_long":106.828284,"station_id":"JUA"},{"station_name":"Gondangdia","i_lat":-6.186295,"time":4,"distance":2015,"i_long":106.832183,"transit":false,"station_id":"GDD","is_transit":false,"line":2},{"station_id":"CKI","transit":false,"i_lat":-6.198556,"line":2,"time":3,"i_long":106.840169,"is_transit":false,"distance":1750,"station_name":"Cikini"}]]}