{"data":[[{"is_transit":false,"i_lat":-6.391065,"i_long":106.819451,"station_name":"Depokbaru","transit":false,"time":0,"station_id":"DPB","line":2,"distance":0},{"is_transit":false,"transit":false,"station_name":"Pondok Cina","distance":2727,"station_id":"POC","i_long":106.831114,"line":2,"i_lat":-6.369073,"time":4},{"is_transit":false,"distance":1109,"station_name":"Univ. Indonesia","line":2,"station_id":"UI","time":2,"transit":false,"i_long":106.831474,"i_lat":-6.360749},{"i_long":106.834175,"i_lat":-6.339291,"distance":2264,"line":2,"time":3,"transit":false,"station_name":"Univ. Pancasila","is_transit":false,"station_id":"UP"},{"distance":1029,"station_id":"LNA","i_lat":-6.330363,"i_long":106.832616,"time":2,"line":2,"is_transit":false,"transit":false,"station_name":"Lenteng Agung"},{"station_id":"TNT","time":3,"transit":false,"station_name":"Tanjung Barat","i_lat":-6.3080680000000005,"is_transit":false,"distance":2671,"i_long":106.838896,"line":2},{"line":2,"station_id":"PSM","i_long":106.843999,"station_name":"Pasar Minggu","is_transit":false,"time":4,"distance":2820,"i_lat":-6.2842400000000005,"transit":false},{"is_transit":false,"i_long":106.851577,"station_id":"PSMB","i_lat":-6.263214,"distance":2380,"transit":false,"time":2,"station_name":"Pasar Minggu Baru","line":2},{"time":2,"transit":false,"station_name":"Duren Kalibata","i_lat":-6.255332,"distance":824,"station_id":"DRN","i_long":106.85449,"is_transit":false,"line":2},{"is_transit":false,"transit":false,"line":2,"i_lat":-6.242512,"i_long":106.856607,"time":3,"distance":1546,"station_id":"CW","station_name":"Cawang"},{"time":2,"i_lat":-6.226659,"is_transit":false,"station_name":"Tebet","transit":false,"station_id":"TEB","i_long":106.857948,"line":2,"distance":1230},{"time":4,"transit":true,"station_name":"Manggarai","distance":2610,"is_transit":true,"station_id":"MRI","i_lat":-6.209883,"i_long":106.84912,"line":2},{"i_lat":-6.212485,"i_long":106.858896,"time":2,"distance":1275,"station_name":"Matraman","transit":false,"line":1,"station_id":"MTR","is_transit":false},{"time":8,"station_name":"Jatinegara","station_id":"JNG","transit":false,"line":1,"i_lat":-6.215091,"i_long":106.86807400000001,"is_transit":false,"distance":1377},{"line":1,"station_id":"KLD","distance":3395,"station_name":"Klender","transit":false,"time":3,"i_lat":-6.2135,"i_long":106.899548,"is_transit":false},{"is_transit":false,"station_name":"Buaran","i_lat":-6.215568,"i_long":106.922662,"time":2,"distance":3100,"transit":false,"line":1,"station_id":"BUA"},{"distance":1305,"is_transit":false,"transit":false,"station_id":"KLDB","i_long":106.939679,"station_name":"Klenderbaru","line":1,"time":1,"i_lat":-6.217455},{"station_id":"CUK","i_long":106.951283,"transit":false,"time":8,"line":1,"station_name":"Cakung","i_lat":-6.219053,"distance":1385,"is_transit":false},{"is_transit":false,"station_id":"KRI","distance":3097,"station_name":"Kranji","i_lat":-6.224515,"i_long":106.977657,"transit":false,"time":3,"line":1},{"transit":false,"distance":2520,"station_id":"BKS","is_transit":false,"time":4,"station_name":"Bekasi","i_long":106.997013,"i_lat":-6.236616,"line":1},{"station_name":"Bekasi Timur","i_long":107.016735,"is_transit":false,"time":2,"line":1,"i_lat":-6.248029,"distance":2368,"transit":false,"station_id":"BKST"},{"transit":false,"station_id":"TB","distance":4460,"line":1,"i_lat":-6.258864,"i_long":107.055722,"station_name":"Tambun","is_transit":false,"time":7}],[{"i_lat":-6.391065,"is_transit":false,"distance":0,"i_long":106.819451,"transit":false,"line":2,"station_name":"Depokbaru","time":0,"station_id":"DPB"},{"transit":false,"time":4,"station_id":"POC","i_long":106.831114,"distance":2727,"line":2,"is_transit":false,"station_name":"Pondok Cina","i_lat":-6.369073},{"i_lat":-6.360749,"is_transit":false,"transit":false,"station_id":"UI","i_long":106.831474,"time":2,"station_name":"Univ. Indonesia","line":2,"distance":1109},{"station_name":"Univ. Pancasila","line":2,"station_id":"UP","i_long":106.834175,"time":3,"transit":false,"i_lat":-6.339291,"distance":2264,"is_transit":false},{"station_id":"LNA","time":2,"transit":false,"is_transit":false,"station_name":"Lenteng Agung","distance":1029,"line":2,"i_lat":-6.330363,"i_long":106.832616},{"is_transit":false,"distance":2671,"station_id":"TNT","time":3,"transit":false,"station_name":"Tanjung Barat","i_lat":-6.3080680000000005,"line":2,"i_long":106.838896},{"i_long":106.843999,"time":4,"distance":2820,"station_id":"PSM","line":2,"is_transit":false,"transit":false,"i_lat":-6.2842400000000005,"station_name":"Pasar Minggu"},{"distance":2380,"transit":false,"line":2,"is_transit":false,"time":2,"station_name":"Pasar Minggu Baru","i_lat":-6.263214,"station_id":"PSMB","i_long":106.851577},{"is_transit":false,"i_lat":-6.255332,"time":2,"transit":false,"distance":824,"line":2,"station_name":"Duren Kalibata","station_id":"DRN","i_long":106.85449},{"station_id":"CW","line":2,"distance":1546,"transit":false,"i_lat":-6.242512,"time":3,"is_transit":false,"i_long":106.856607,"station_name":"Cawang"},{"station_name":"Tebet","transit":false,"station_id":"TEB","line":2,"i_lat":-6.226659,"distance":1230,"is_transit":false,"time":2,"i_long":106.857948},{"station_id":"MRI","i_lat":-6.209883,"i_long":106.84912,"line":2,"is_transit":true,"distance":2610,"time":4,"transit":true,"station_name":"Manggarai"},{"is_transit":false,"station_id":"SUD","line":1,"i_lat":-6.202263,"i_long":106.822649,"distance":3186,"time":4,"transit":false,"station_name":"Sudirman"},{"i_lat":-6.201433,"station_name":"Sudirman Baru","is_transit":false,"transit":false,"station_id":"SUDB","time":1,"i_long":106.819881,"line":1,"distance":280},{"station_name":"Karet","i_long":106.816351,"time":1,"transit":false,"distance":471,"i_lat":-6.20132,"is_transit":false,"station_id":"KAT","line":1},{"time":5,"i_lat":-6.185545,"station_id":"THB","distance":2029,"line":1,"station_name":"Tanah Abang","is_transit":false,"transit":false,"i_long":106.811091},{"i_lat":-6.155215,"i_long":106.800832,"station_id":"DU","distance":3632,"transit":false,"station_name":"Duri","time":8,"line":1,"is_transit":false},{"is_transit":false,"transit":false,"station_name":"Angke","i_lat":-6.144674,"time":4,"line":1,"station_id":"AK","distance":1230,"i_long":106.79867},{"distance":4102,"station_name":"Kampung Bandan","i_long":106.826365,"i_lat":-6.132549,"line":4,"time":9,"station_id":"KPB","is_transit":true,"transit":true},{"station_id":"RJW","line":11,"transit":false,"station_name":"Rajawali","i_lat":-6.14505,"is_transit":false,"i_long":106.836569,"distance":1444,"time":3},{"transit":false,"distance":1901,"i_lat":-6.161728,"time":5,"is_transit":false,"station_id":"KMO","station_name":"Kemayoran","i_long":106.839204,"line":11},{"time":4,"line":11,"is_transit":false,"i_long":106.84368,"distance":1436,"transit":false,"station_id":"PSE","station_name":"Pasar Senen","i_lat":-6.174784},{"distance":1567,"transit":false,"i_lat":-6.185975,"station_id":"GST","i_long":106.850107,"line":11,"is_transit":false,"station_name":"Gang Sentiong","time":8},{"time":1,"transit":false,"line":11,"i_lat":-6.193792,"i_long":106.855437,"is_transit":false,"station_name":"Kramat","station_id":"KMT","distance":973},{"time":2,"i_lat":-6.209188,"distance":1829,"station_name":"Pondok Jati","station_id":"POK","transit":false,"i_long":106.861737,"line":11,"is_transit":false},{"transit":true,"i_long":106.86807400000001,"i_lat":-6.215091,"is_transit":true,"line":1,"time":9,"station_id":"JNG","distance":1236,"station_name":"Jatinegara"},{"transit":false,"i_lat":-6.2135,"is_transit":false,"i_long":106.899548,"line":1,"station_name":"Klender","time":3,"station_id":"KLD","distance":3395},{"i_long":106.922662,"is_transit":false,"distance":3100,"transit":false,"station_id":"BUA","i_lat":-6.215568,"time":2,"station_name":"Buaran","line":1},{"i_long":106.939679,"is_transit":false,"time":1,"line":1,"transit":false,"i_lat":-6.217455,"distance":1305,"station_id":"KLDB","station_name":"Klenderbaru"},{"time":8,"line":1,"transit":false,"i_lat":-6.219053,"station_name":"Cakung","distance":1385,"station_id":"CUK","i_long":106.951283,"is_transit":false},{"transit":false,"station_id":"KRI","station_name":"Kranji","line":1,"time":3,"distance":3097,"i_lat":-6.224515,"is_transit":false,"i_long":106.977657},{"distance":2520,"i_long":106.997013,"station_name":"Bekasi","is_transit":false,"station_id":"BKS","transit":false,"i_lat":-6.236616,"time":4,"line":1},{"station_id":"BKST","i_long":107.016735,"is_transit":false,"distance":2368,"i_lat":-6.248029,"station_name":"Bekasi Timur","line":1,"time":2,"transit":false},{"time":7,"is_transit":false,"distance":4460,"transit":false,"station_id":"TB","i_lat":-6.258864,"i_long":107.055722,"line":1,"station_name":"Tambun"}],[{"distance":0,"time":0,"i_long":106.819451,"station_id":"DPB","i_lat":-6.391065,"transit":false,"station_name":"Depokbaru","is_transit":false,"line":2},{"is_transit":false,"transit":false,"time":4,"i_lat":-6.369073,"i_long":106.831114,"station_name":"Pondok Cina","line":2,"station_id":"POC","distance":2727},{"i_lat":-6.360749,"transit":false,"station_id":"UI","time":2,"station_name":"Univ. Indonesia","distance":1109,"i_long":106.831474,"is_transit":false,"line":2},{"transit":false,"station_name":"Univ. Pancasila","distance":2264,"time":3,"i_long":106.834175,"i_lat":-6.339291,"station_id":"UP","line":2,"is_transit":false},{"distance":1029,"i_lat":-6.330363,"line":2,"station_name":"Lenteng Agung","station_id":"LNA","time":2,"is_transit":false,"i_long":106.832616,"transit":false},{"is_transit":false,"time":3,"line":2,"transit":false,"station_name":"Tanjung Barat","station_id":"TNT","distance":2671,"i_long":106.838896,"i_lat":-6.3080680000000005},{"station_name":"Pasar Minggu","is_transit":false,"line":2,"transit":false,"i_lat":-6.2842400000000005,"distance":2820,"station_id":"PSM","time":4,"i_long":106.843999},{"i_long":106.851577,"transit":false,"time":2,"station_id":"PSMB","station_name":"Pasar Minggu Baru","i_lat":-6.263214,"line":2,"distance":2380,"is_transit":false},{"is_transit":false,"transit":false,"i_long":106.85449,"station_id":"DRN","distance":824,"time":2,"station_name":"Duren Kalibata","i_lat":-6.255332,"line":2},{"line":2,"distance":1546,"i_lat":-6.242512,"is_transit":false,"station_name":"Cawang","i_long":106.856607,"station_id":"CW","transit":false,"time":3},{"distance":1230,"i_lat":-6.226659,"is_transit":false,"time":2,"station_id":"TEB","transit":false,"station_name":"Tebet","line":2,"i_long":106.857948},{"i_long":106.84912,"time":4,"line":2,"i_lat":-6.209883,"station_name":"Manggarai","transit":false,"is_transit":false,"distance":2610,"station_id":"MRI"},{"station_id":"CKI","time":4,"i_long":106.840169,"i_lat":-6.198556,"is_transit":false,"line":2,"transit":false,"station_name":"Cikini","distance":1590},{"is_transit":false,"i_long":106.832183,"transit":false,"distance":1750,"station_id":"GDD","station_name":"Gondangdia","time":3,"i_lat":-6.186295,"line":2},{"line":2,"i_lat":-6.166716,"time":4,"transit":false,"station_id":"JUA","i_long":106.828284,"station_name":"Juanda","is_transit":false,"distance":2015},{"time":2,"is_transit":false,"transit":false,"line":2,"i_long":106.827103,"station_id":"SW","station_name":"Sawah Besar","distance":1149,"i_lat":-6.160725},{"is_transit":false,"i_long":106.82482,"time":2,"distance":906,"line":2,"transit":false,"station_id":"MGB","station_name":"Manggabesar","i_lat":-6.149769},{"station_name":"Jayakarta","i_long":106.820901,"time":2,"distance":1080,"i_lat":-6.141205,"line":2,"is_transit":false,"station_id":"JAY","transit":false},{"i_long":106.812439,"station_name":"Jakarta Kota","i_lat":-6.137569,"time":4,"transit":true,"line":2,"distance":1264,"station_id":"JAKK","is_transit":true},{"time":3,"line":4,"distance":1364,"i_long":106.826365,"transit":true,"station_id":"KPB","i_lat":-6.132549,"is_transit":true,"station_name":"Kampung Bandan"},{"i_long":106.836569,"transit":false,"distance":1444,"is_transit":false,"time":3,"station_id":"RJW","station_name":"Rajawali","i_lat":-6.14505,"line":11},{"distance":1901,"is_transit":false,"station_id":"KMO","i_long":106.839204,"line":11,"time":5,"station_name":"Kemayoran","transit":false,"i_lat":-6.161728},{"i_long":106.84368,"i_lat":-6.174784,"line":11,"time":4,"station_name":"Pasar Senen","transit":false,"is_transit":false,"distance":1436,"station_id":"PSE"},{"transit":false,"i_long":106.850107,"time":8,"station_name":"Gang Sentiong","is_transit":false,"distance":1567,"line":11,"station_id":"GST","i_lat":-6.185975},{"station_name":"Kramat","transit":false,"line":11,"i_lat":-6.193792,"is_transit":false,"i_long":106.855437,"time":1,"distance":973,"station_id":"KMT"},{"time":2,"is_transit":false,"station_id":"POK","station_name":"Pondok Jati","i_long":106.861737,"distance":1829,"line":11,"transit":false,"i_lat":-6.209188},{"station_id":"JNG","is_transit":true,"time":9,"station_name":"Jatinegara","i_lat":-6.215091,"distance":1236,"transit":true,"line":1,"i_long":106.86807400000001},{"distance":3395,"line":1,"is_transit":false,"transit":false,"station_id":"KLD","station_name":"Klender","i_lat":-6.2135,"time":3,"i_long":106.899548},{"is_transit":false,"transit":false,"i_long":106.922662,"line":1,"distance":3100,"i_lat":-6.215568,"time":2,"station_id":"BUA","station_name":"Buaran"},{"station_id":"KLDB","line":1,"distance":1305,"is_transit":false,"time":1,"transit":false,"i_lat":-6.217455,"station_name":"Klenderbaru","i_long":106.939679},{"i_lat":-6.219053,"distance":1385,"transit":false,"station_name":"Cakung","is_transit":false,"line":1,"station_id":"CUK","time":8,"i_long":106.951283},{"time":3,"line":1,"station_name":"Kranji","is_transit":false,"distance":3097,"transit":false,"station_id":"KRI","i_long":106.977657,"i_lat":-6.224515},{"is_transit":false,"line":1,"i_lat":-6.236616,"time":4,"station_id":"BKS","distance":2520,"station_name":"Bekasi","transit":false,"i_long":106.997013},{"line":1,"time":2,"is_transit":false,"station_name":"Bekasi Timur","station_id":"BKST","i_lat":-6.248029,"transit":false,"i_long":107.016735,"distance":2368},{"i_lat":-6.258864,"transit":false,"line":1,"distance":4460,"time":7,"station_name":"Tambun","station_id":"TB","i_long":107.055722,"is_transit":false}]]}