{"data":[[{"is_transit":false,"distance":0,"station_id":"DPB","time":0,"i_lat":-6.391065,"transit":false,"i_long":106.819451,"line":2,"station_name":"Depokbaru"},{"transit":false,"distance":2727,"line":2,"station_name":"Pondok Cina","time":4,"is_transit":false,"station_id":"POC","i_long":106.831114,"i_lat":-6.369073},{"is_transit":false,"i_lat":-6.360749,"time":2,"station_name":"Univ. Indonesia","transit":false,"i_long":106.831474,"distance":1109,"line":2,"station_id":"UI"},{"station_id":"UP","is_transit":false,"distance":2264,"transit":false,"station_name":"Univ. Pancasila","i_lat":-6.339291,"time":3,"i_long":106.834175,"line":2},{"station_name":"Lenteng Agung","line":2,"transit":false,"station_id":"LNA","i_lat":-6.330363,"is_transit":false,"distance":1029,"time":2,"i_long":106.832616},{"station_id":"TNT","is_transit":false,"i_long":106.838896,"line":2,"time":3,"station_name":"Tanjung Barat","transit":false,"i_lat":-6.3080680000000005,"distance":2671},{"time":4,"station_id":"PSM","is_transit":false,"transit":false,"i_long":106.843999,"i_lat":-6.2842400000000005,"line":2,"distance":2820,"station_name":"Pasar Minggu"},{"line":2,"is_transit":false,"station_id":"PSMB","station_name":"Pasar Minggu Baru","i_lat":-6.263214,"distance":2380,"transit":false,"i_long":106.851577,"time":2},{"i_lat":-6.255332,"line":2,"time":2,"is_transit":false,"i_long":106.85449,"station_id":"DRN","station_name":"Duren Kalibata","distance":824,"transit":false},{"station_name":"Cawang","i_lat":-6.242512,"station_id":"CW","distance":1546,"is_transit":false,"i_long":106.856607,"line":2,"time":3,"transit":false},{"time":2,"station_id":"TEB","is_transit":false,"i_long":106.857948,"i_lat":-6.226659,"transit":false,"distance":1230,"station_name":"Tebet","line":2},{"distance":2610,"is_transit":false,"transit":false,"i_long":106.84912,"line":2,"station_name":"Manggarai","time":4,"station_id":"MRI","i_lat":-6.209883},{"station_name":"Cikini","time":4,"i_lat":-6.198556,"i_long":106.840169,"transit":false,"station_id":"CKI","is_transit":false,"line":2,"distance":1590}],[{"time":0,"line":2,"distance":0,"i_lat":-6.391065,"transit":false,"station_id":"DPB","i_long":106.819451,"station_name":"Depokbaru","is_transit":false},{"is_transit":false,"i_long":106.831114,"line":2,"time":4,"station_id":"POC","distance":2727,"station_name":"Pondok Cina","i_lat":-6.369073,"transit":false},{"is_transit":false,"i_long":106.831474,"line":2,"distance":1109,"station_name":"Univ. Indonesia","station_id":"UI","transit":false,"i_lat":-6.360749,"time":2},{"i_long":106.834175,"distance":2264,"is_transit":false,"transit":false,"i_lat":-6.339291,"station_name":"Univ. Pancasila","station_id":"UP","line":2,"time":3},{"time":2,"transit":false,"station_id":"LNA","distance":1029,"i_lat":-6.330363,"i_long":106.832616,"is_transit":false,"station_name":"Lenteng Agung","line":2},{"station_name":"Tanjung Barat","station_id":"TNT","i_lat":-6.3080680000000005,"line":2,"is_transit":false,"transit":false,"i_long":106.838896,"time":3,"distance":2671},{"transit":false,"i_lat":-6.2842400000000005,"distance":2820,"line":2,"station_id":"PSM","station_name":"Pasar Minggu","is_transit":false,"time":4,"i_long":106.843999},{"i_long":106.851577,"distance":2380,"station_name":"Pasar Minggu Baru","time":2,"line":2,"is_transit":false,"transit":false,"i_lat":-6.263214,"station_id":"PSMB"},{"time":2,"distance":824,"station_id":"DRN","is_transit":false,"station_name":"Duren Kalibata","transit":false,"i_lat":-6.255332,"i_long":106.85449,"line":2},{"station_name":"Cawang","time":3,"transit":false,"i_long":106.856607,"station_id":"CW","is_transit":false,"distance":1546,"line":2,"i_lat":-6.242512},{"distance":1230,"is_transit":false,"i_lat":-6.226659,"i_long":106.857948,"transit":false,"station_id":"TEB","station_name":"Tebet","line":2,"time":2},{"is_transit":true,"time":4,"station_id":"MRI","i_lat":-6.209883,"distance":2610,"station_name":"Manggarai","transit":true,"i_long":106.84912,"line":2},{"station_id":"SUD","transit":false,"time":4,"station_name":"Sudirman","distance":3186,"is_transit":false,"i_lat":-6.202263,"line":1,"i_long":106.822649},{"time":1,"station_id":"SUDB","line":1,"distance":280,"is_transit":false,"station_name":"Sudirman Baru","i_long":106.819881,"i_lat":-6.201433,"transit":false},{"is_transit":false,"transit":false,"i_long":106.816351,"distance":471,"time":1,"station_name":"Karet","station_id":"KAT","i_lat":-6.20132,"line":1},{"time":5,"transit":false,"distance":2029,"is_transit":false,"line":1,"station_id":"THB","i_lat":-6.185545,"i_long":106.811091,"station_name":"Tanah Abang"},{"station_name":"Duri","distance":3632,"is_transit":false,"station_id":"DU","i_long":106.800832,"line":1,"i_lat":-6.155215,"transit":false,"time":8},{"distance":1230,"transit":false,"is_transit":false,"station_name":"Angke","i_lat":-6.144674,"line":1,"station_id":"AK","i_long":106.79867,"time":4},{"transit":true,"line":4,"station_name":"Kampung Bandan","i_lat":-6.132549,"distance":4102,"i_long":106.826365,"time":9,"is_transit":true,"station_id":"KPB"},{"transit":true,"i_long":106.812439,"is_transit":true,"distance":1364,"station_id":"JAKK","station_name":"Jakarta Kota","i_lat":-6.137569,"line":2,"time":3},{"i_lat":-6.141205,"i_long":106.820901,"transit":false,"time":4,"station_id":"JAY","line":2,"is_transit":false,"distance":1264,"station_name":"Jayakarta"},{"is_transit":false,"station_name":"Manggabesar","i_lat":-6.149769,"time":2,"i_long":106.82482,"distance":1080,"station_id":"MGB","transit":false,"line":2},{"distance":906,"transit":false,"is_transit":false,"i_long":106.827103,"time":2,"station_id":"SW","i_lat":-6.160725,"line":2,"station_name":"Sawah Besar"},{"transit":false,"line":2,"distance":1149,"station_id":"JUA","time":2,"i_long":106.828284,"station_name":"Juanda","i_lat":-6.166716,"is_transit":false},{"i_lat":-6.186295,"transit":false,"i_long":106.832183,"station_id":"GDD","line":2,"station_name":"Gondangdia","is_transit":false,"time":4,"distance":2015},{"i_long":106.840169,"station_name":"Cikini","transit":false,"line":2,"station_id":"CKI","time":3,"distance":1750,"is_transit":false,"i_lat":-6.198556}],[{"station_name":"Depokbaru","station_id":"DPB","transit":false,"i_lat":-6.391065,"i_long":106.819451,"time":0,"distance":0,"line":2,"is_transit":false},{"distance":2727,"station_id":"POC","time":4,"is_transit":false,"station_name":"Pondok Cina","i_long":106.831114,"transit":false,"line":2,"i_lat":-6.369073},{"i_long":106.831474,"time":2,"line":2,"station_id":"UI","is_transit":false,"distance":1109,"station_name":"Univ. Indonesia","i_lat":-6.360749,"transit":false},{"i_long":106.834175,"time":3,"station_id":"UP","transit":false,"station_name":"Univ. Pancasila","distance":2264,"line":2,"is_transit":false,"i_lat":-6.339291},{"distance":1029,"station_id":"LNA","line":2,"i_lat":-6.330363,"is_transit":false,"station_name":"Lenteng Agung","i_long":106.832616,"time":2,"transit":false},{"line":2,"distance":2671,"i_lat":-6.3080680000000005,"station_id":"TNT","is_transit":false,"transit":false,"i_long":106.838896,"station_name":"Tanjung Barat","time":3},{"station_id":"PSM","time":4,"line":2,"i_long":106.843999,"i_lat":-6.2842400000000005,"is_transit":false,"station_name":"Pasar Minggu","distance":2820,"transit":false},{"distance":2380,"station_id":"PSMB","station_name":"Pasar Minggu Baru","transit":false,"i_long":106.851577,"i_lat":-6.263214,"is_transit":false,"line":2,"time":2},{"station_id":"DRN","transit":false,"time":2,"station_name":"Duren Kalibata","line":2,"i_long":106.85449,"is_transit":false,"distance":824,"i_lat":-6.255332},{"i_lat":-6.242512,"station_name":"Cawang","station_id":"CW","distance":1546,"is_transit":false,"transit":false,"i_long":106.856607,"time":3,"line":2},{"is_transit":false,"i_lat":-6.226659,"station_id":"TEB","transit":false,"station_name":"Tebet","distance":1230,"line":2,"time":2,"i_long":106.857948},{"station_name":"Manggarai","i_lat":-6.209883,"line":2,"station_id":"MRI","distance":2610,"is_transit":true,"time":4,"i_long":106.84912,"transit":true},{"distance":1275,"line":1,"is_transit":false,"i_long":106.858896,"station_name":"Matraman","station_id":"MTR","transit":false,"i_lat":-6.212485,"time":2},{"station_name":"Jatinegara","transit":true,"i_long":106.86807400000001,"i_lat":-6.215091,"line":1,"time":8,"station_id":"JNG","distance":1377,"is_transit":true},{"transit":false,"is_transit":false,"line":11,"station_id":"POK","distance":1236,"i_long":106.861737,"time":2,"i_lat":-6.209188,"station_name":"Pondok Jati"},{"i_lat":-6.193792,"station_name":"Kramat","line":11,"time":2,"distance":1829,"is_transit":false,"transit":false,"i_long":106.855437,"station_id":"KMT"},{"transit":false,"line":11,"station_name":"Gang Sentiong","i_long":106.850107,"i_lat":-6.185975,"time":1,"distance":973,"is_transit":false,"station_id":"GST"},{"time":8,"distance":1567,"station_id":"PSE","transit":false,"line":11,"is_transit":false,"i_long":106.84368,"station_name":"Pasar Senen","i_lat":-6.174784},{"is_transit":false,"i_long":106.839204,"station_name":"Kemayoran","line":11,"transit":false,"i_lat":-6.161728,"station_id":"KMO","time":4,"distance":1436},{"transit":false,"i_long":106.836569,"time":5,"line":11,"station_id":"RJW","station_name":"Rajawali","is_transit":false,"distance":1901,"i_lat":-6.14505},{"distance":1444,"time":3,"is_transit":true,"station_name":"Kampung Bandan","i_lat":-6.132549,"transit":true,"i_long":106.826365,"line":4,"station_id":"KPB"},{"line":2,"time":3,"transit":true,"station_name":"Jakarta Kota","i_lat":-6.137569,"distance":1364,"station_id":"JAKK","is_transit":true,"i_long":106.812439},{"time":4,"distance":1264,"is_transit":false,"station_name":"Jayakarta","transit":false,"i_long":106.820901,"station_id":"JAY","i_lat":-6.141205,"line":2},{"time":2,"is_transit":false,"transit":false,"line":2,"i_lat":-6.149769,"i_long":106.82482,"station_id":"MGB","distance":1080,"station_name":"Manggabesar"},{"station_name":"Sawah Besar","station_id":"SW","is_transit":false,"time":2,"i_long":106.827103,"line":2,"distance":906,"transit":false,"i_lat":-6.160725},{"i_lat":-6.166716,"i_long":106.828284,"line":2,"station_id":"JUA","is_transit":false,"transit":false,"station_name":"Juanda","time":2,"distance":1149},{"i_lat":-6.186295,"line":2,"transit":false,"is_transit":false,"i_long":106.832183,"distance":2015,"time":4,"station_id":"GDD","station_name":"Gondangdia"},{"i_long":106.840169,"distance":1750,"line":2,"time":3,"i_lat":-6.198556,"station_name":"Cikini","transit":false,"station_id":"CKI","is_transit":false}]]}