{"data":[[{"is_transit":false,"transit":false,"time":0,"station_id":"DPB","distance":0,"i_lat":-6.391065,"i_long":106.819451,"line":2,"station_name":"Depokbaru"},{"i_lat":-6.369073,"transit":false,"station_name":"Pondok Cina","is_transit":false,"line":2,"station_id":"POC","time":4,"i_long":106.831114,"distance":2727},{"distance":1109,"time":2,"i_long":106.831474,"i_lat":-6.360749,"line":2,"is_transit":false,"transit":false,"station_id":"UI","station_name":"Univ. Indonesia"},{"i_lat":-6.339291,"is_transit":false,"i_long":106.834175,"station_id":"UP","line":2,"time":3,"transit":false,"distance":2264,"station_name":"Univ. Pancasila"},{"station_name":"Lenteng Agung","i_lat":-6.330363,"is_transit":false,"time":2,"distance":1029,"station_id":"LNA","line":2,"i_long":106.832616,"transit":false},{"transit":false,"station_name":"Tanjung Barat","time":3,"distance":2671,"i_long":106.838896,"station_id":"TNT","is_transit":false,"line":2,"i_lat":-6.3080680000000005},{"station_id":"PSM","is_transit":false,"transit":false,"i_long":106.843999,"time":4,"station_name":"Pasar Minggu","distance":2820,"i_lat":-6.2842400000000005,"line":2},{"line":2,"time":2,"transit":false,"i_lat":-6.263214,"station_id":"PSMB","distance":2380,"station_name":"Pasar Minggu Baru","is_transit":false,"i_long":106.851577},{"time":2,"line":2,"is_transit":false,"i_lat":-6.255332,"i_long":106.85449,"station_name":"Duren Kalibata","station_id":"DRN","transit":false,"distance":824},{"is_transit":false,"distance":1546,"transit":false,"i_lat":-6.242512,"line":2,"time":3,"station_name":"Cawang","station_id":"CW","i_long":106.856607},{"i_long":106.857948,"distance":1230,"line":2,"station_id":"TEB","time":2,"station_name":"Tebet","transit":false,"is_transit":false,"i_lat":-6.226659},{"is_transit":true,"i_lat":-6.209883,"station_id":"MRI","time":4,"transit":true,"distance":2610,"station_name":"Manggarai","i_long":106.84912,"line":2},{"transit":false,"is_transit":false,"distance":1275,"line":1,"station_id":"MTR","time":2,"station_name":"Matraman","i_lat":-6.212485,"i_long":106.858896},{"is_transit":false,"station_id":"JNG","line":1,"time":8,"transit":false,"station_name":"Jatinegara","distance":1377,"i_lat":-6.215091,"i_long":106.86807400000001},{"transit":false,"line":1,"station_id":"KLD","time":3,"i_long":106.899548,"i_lat":-6.2135,"distance":3395,"station_name":"Klender","is_transit":false},{"distance":3100,"transit":false,"i_lat":-6.215568,"time":2,"station_name":"Buaran","is_transit":false,"i_long":106.922662,"line":1,"station_id":"BUA"},{"distance":1305,"transit":false,"i_long":106.939679,"line":1,"station_id":"KLDB","i_lat":-6.217455,"station_name":"Klenderbaru","time":1,"is_transit":false},{"time":8,"line":1,"distance":1385,"transit":false,"station_name":"Cakung","i_lat":-6.219053,"i_long":106.951283,"station_id":"CUK","is_transit":false},{"station_name":"Kranji","station_id":"KRI","time":3,"is_transit":false,"transit":false,"i_long":106.977657,"i_lat":-6.224515,"distance":3097,"line":1},{"transit":false,"distance":2520,"station_id":"BKS","station_name":"Bekasi","is_transit":false,"line":1,"i_lat":-6.236616,"i_long":106.997013,"time":4},{"transit":false,"station_name":"Bekasi Timur","line":1,"is_transit":false,"i_long":107.016735,"distance":2368,"time":2,"station_id":"BKST","i_lat":-6.248029},{"station_name":"Tambun","i_lat":-6.258864,"distance":4460,"line":1,"is_transit":false,"transit":false,"i_long":107.055722,"time":7,"station_id":"TB"},{"i_lat":-6.261877,"distance":3420,"transit":false,"line":1,"is_transit":false,"i_long":107.083084,"station_name":"Cibitung","station_id":"CIT","time":3}],[{"line":2,"transit":false,"station_name":"Depokbaru","distance":0,"i_lat":-6.391065,"station_id":"DPB","is_transit":false,"time":0,"i_long":106.819451},{"distance":2727,"i_long":106.831114,"line":2,"station_name":"Pondok Cina","i_lat":-6.369073,"is_transit":false,"transit":false,"time":4,"station_id":"POC"},{"distance":1109,"is_transit":false,"i_long":106.831474,"transit":false,"station_name":"Univ. Indonesia","line":2,"time":2,"i_lat":-6.360749,"station_id":"UI"},{"i_lat":-6.339291,"line":2,"i_long":106.834175,"station_name":"Univ. Pancasila","is_transit":false,"transit":false,"distance":2264,"time":3,"station_id":"UP"},{"i_lat":-6.330363,"transit":false,"station_name":"Lenteng Agung","line":2,"distance":1029,"i_long":106.832616,"is_transit":false,"station_id":"LNA","time":2},{"i_long":106.838896,"station_name":"Tanjung Barat","station_id":"TNT","time":3,"line":2,"distance":2671,"i_lat":-6.3080680000000005,"transit":false,"is_transit":false},{"i_long":106.843999,"i_lat":-6.2842400000000005,"station_id":"PSM","transit":false,"station_name":"Pasar Minggu","line":2,"time":4,"is_transit":false,"distance":2820},{"station_name":"Pasar Minggu Baru","i_lat":-6.263214,"distance":2380,"time":2,"is_transit":false,"transit":false,"i_long":106.851577,"station_id":"PSMB","line":2},{"station_name":"Duren Kalibata","time":2,"line":2,"distance":824,"station_id":"DRN","transit":false,"is_transit":false,"i_lat":-6.255332,"i_long":106.85449},{"is_transit":false,"line":2,"distance":1546,"transit":false,"station_name":"Cawang","station_id":"CW","i_lat":-6.242512,"i_long":106.856607,"time":3},{"distance":1230,"time":2,"station_id":"TEB","i_long":106.857948,"is_transit":false,"transit":false,"line":2,"station_name":"Tebet","i_lat":-6.226659},{"time":4,"transit":true,"distance":2610,"i_lat":-6.209883,"i_long":106.84912,"line":2,"is_transit":true,"station_id":"MRI","station_name":"Manggarai"},{"line":1,"i_long":106.822649,"transit":false,"is_transit":false,"i_lat":-6.202263,"time":4,"station_id":"SUD","distance":3186,"station_name":"Sudirman"},{"transit":false,"distance":280,"time":1,"is_transit":false,"station_name":"Sudirman Baru","station_id":"SUDB","i_long":106.819881,"line":1,"i_lat":-6.201433},{"distance":471,"i_lat":-6.20132,"station_name":"Karet","transit":false,"is_transit":false,"i_long":106.816351,"line":1,"station_id":"KAT","time":1},{"time":5,"station_id":"THB","distance":2029,"transit":false,"is_transit":false,"station_name":"Tanah Abang","i_lat":-6.185545,"i_long":106.811091,"line":1},{"station_name":"Duri","station_id":"DU","is_transit":false,"distance":3632,"i_lat":-6.155215,"time":8,"line":1,"i_long":106.800832,"transit":false},{"distance":1230,"line":1,"i_lat":-6.144674,"station_id":"AK","i_long":106.79867,"time":4,"transit":false,"is_transit":false,"station_name":"Angke"},{"station_id":"KPB","station_name":"Kampung Bandan","distance":4102,"i_long":106.826365,"transit":true,"is_transit":true,"i_lat":-6.132549,"line":4,"time":9},{"distance":1444,"i_long":106.836569,"i_lat":-6.14505,"time":3,"line":11,"is_transit":false,"station_name":"Rajawali","station_id":"RJW","transit":false},{"time":5,"is_transit":false,"i_long":106.839204,"transit":false,"i_lat":-6.161728,"station_id":"KMO","distance":1901,"station_name":"Kemayoran","line":11},{"i_lat":-6.174784,"time":4,"i_long":106.84368,"station_id":"PSE","is_transit":false,"distance":1436,"transit":false,"station_name":"Pasar Senen","line":11},{"station_name":"Gang Sentiong","is_transit":false,"i_lat":-6.185975,"time":8,"i_long":106.850107,"distance":1567,"station_id":"GST","transit":false,"line":11},{"station_name":"Kramat","time":1,"i_long":106.855437,"station_id":"KMT","i_lat":-6.193792,"line":11,"is_transit":false,"distance":973,"transit":false},{"is_transit":false,"time":2,"distance":1829,"station_id":"POK","i_lat":-6.209188,"transit":false,"i_long":106.861737,"station_name":"Pondok Jati","line":11},{"station_name":"Jatinegara","i_lat":-6.215091,"i_long":106.86807400000001,"distance":1236,"is_transit":true,"transit":true,"time":9,"line":1,"station_id":"JNG"},{"transit":false,"i_long":106.899548,"line":1,"station_id":"KLD","is_transit":false,"i_lat":-6.2135,"distance":3395,"time":3,"station_name":"Klender"},{"distance":3100,"transit":false,"line":1,"station_id":"BUA","is_transit":false,"station_name":"Buaran","i_long":106.922662,"i_lat":-6.215568,"time":2},{"line":1,"is_transit":false,"transit":false,"station_name":"Klenderbaru","time":1,"distance":1305,"station_id":"KLDB","i_lat":-6.217455,"i_long":106.939679},{"line":1,"distance":1385,"station_id":"CUK","transit":false,"i_lat":-6.219053,"station_name":"Cakung","time":8,"i_long":106.951283,"is_transit":false},{"i_long":106.977657,"line":1,"station_id":"KRI","time":3,"is_transit":false,"distance":3097,"i_lat":-6.224515,"transit":false,"station_name":"Kranji"},{"is_transit":false,"time":4,"station_id":"BKS","distance":2520,"line":1,"station_name":"Bekasi","transit":false,"i_lat":-6.236616,"i_long":106.997013},{"station_name":"Bekasi Timur","station_id":"BKST","time":2,"distance":2368,"transit":false,"i_lat":-6.248029,"is_transit":false,"i_long":107.016735,"line":1},{"time":7,"i_lat":-6.258864,"is_transit":false,"transit":false,"station_name":"Tambun","i_long":107.055722,"station_id":"TB","distance":4460,"line":1},{"distance":3420,"is_transit":false,"station_id":"CIT","i_lat":-6.261877,"line":1,"time":3,"transit":false,"i_long":107.083084,"station_name":"Cibitung"}],[{"i_long":106.819451,"time":0,"station_name":"Depokbaru","line":2,"is_transit":false,"transit":false,"distance":0,"i_lat":-6.391065,"station_id":"DPB"},{"time":4,"line":2,"station_id":"POC","i_lat":-6.369073,"distance":2727,"i_long":106.831114,"is_transit":false,"station_name":"Pondok Cina","transit":false},{"line":2,"i_long":106.831474,"i_lat":-6.360749,"transit":false,"station_id":"UI","distance":1109,"time":2,"station_name":"Univ. Indonesia","is_transit":false},{"station_id":"UP","transit":false,"i_lat":-6.339291,"is_transit":false,"distance":2264,"i_long":106.834175,"time":3,"station_name":"Univ. Pancasila","line":2},{"line":2,"transit":false,"station_id":"LNA","i_long":106.832616,"station_name":"Lenteng Agung","is_transit":false,"distance":1029,"i_lat":-6.330363,"time":2},{"station_name":"Tanjung Barat","line":2,"distance":2671,"is_transit":false,"i_lat":-6.3080680000000005,"station_id":"TNT","transit":false,"time":3,"i_long":106.838896},{"time":4,"i_lat":-6.2842400000000005,"station_id":"PSM","is_transit":false,"i_long":106.843999,"line":2,"transit":false,"distance":2820,"station_name":"Pasar Minggu"},{"time":2,"station_name":"Pasar Minggu Baru","is_transit":false,"station_id":"PSMB","distance":2380,"i_lat":-6.263214,"transit":false,"i_long":106.851577,"line":2},{"i_long":106.85449,"transit":false,"station_name":"Duren Kalibata","is_transit":false,"station_id":"DRN","time":2,"distance":824,"i_lat":-6.255332,"line":2},{"line":2,"i_lat":-6.242512,"station_name":"Cawang","distance":1546,"station_id":"CW","transit":false,"is_transit":false,"time":3,"i_long":106.856607},{"station_name":"Tebet","i_lat":-6.226659,"line":2,"time":2,"station_id":"TEB","distance":1230,"i_long":106.857948,"transit":false,"is_transit":false},{"station_id":"MRI","is_transit":false,"i_long":106.84912,"station_name":"Manggarai","i_lat":-6.209883,"line":2,"time":4,"transit":false,"distance":2610},{"i_lat":-6.198556,"distance":1590,"station_id":"CKI","transit":false,"station_name":"Cikini","is_transit":false,"i_long":106.840169,"line":2,"time":4},{"transit":false,"station_name":"Gondangdia","distance":1750,"time":3,"i_long":106.832183,"line":2,"is_transit":false,"station_id":"GDD","i_lat":-6.186295},{"i_lat":-6.166716,"line":2,"i_long":106.828284,"distance":2015,"station_name":"Juanda","time":4,"station_id":"JUA","is_transit":false,"transit":false},{"i_lat":-6.160725,"i_long":106.827103,"station_name":"Sawah Besar","time":2,"transit":false,"station_id":"SW","is_transit":false,"distance":1149,"line":2},{"station_name":"Manggabesar","distance":906,"transit":false,"is_transit":false,"i_long":106.82482,"i_lat":-6.149769,"time":2,"line":2,"station_id":"MGB"},{"distance":1080,"time":2,"transit":false,"station_name":"Jayakarta","i_lat":-6.141205,"is_transit":false,"station_id":"JAY","i_long":106.820901,"line":2},{"transit":true,"time":4,"line":2,"station_id":"JAKK","station_name":"Jakarta Kota","is_transit":true,"distance":1264,"i_lat":-6.137569,"i_long":106.812439},{"station_id":"KPB","is_transit":true,"i_lat":-6.132549,"time":3,"line":4,"transit":true,"i_long":106.826365,"distance":1364,"station_name":"Kampung Bandan"},{"i_long":106.836569,"is_transit":false,"time":3,"i_lat":-6.14505,"station_id":"RJW","transit":false,"line":11,"station_name":"Rajawali","distance":1444},{"line":11,"is_transit":false,"i_long":106.839204,"station_name":"Kemayoran","i_lat":-6.161728,"time":5,"transit":false,"distance":1901,"station_id":"KMO"},{"station_id":"PSE","i_long":106.84368,"time":4,"is_transit":false,"distance":1436,"transit":false,"i_lat":-6.174784,"line":11,"station_name":"Pasar Senen"},{"line":11,"station_id":"GST","transit":false,"distance":1567,"i_lat":-6.185975,"time":8,"i_long":106.850107,"is_transit":false,"station_name":"Gang Sentiong"},{"distance":973,"station_id":"KMT","station_name":"Kramat","time":1,"is_transit":false,"transit":false,"i_long":106.855437,"i_lat":-6.193792,"line":11},{"distance":1829,"i_lat":-6.209188,"i_long":106.861737,"station_name":"Pondok Jati","time":2,"line":11,"station_id":"POK","transit":false,"is_transit":false},{"station_name":"Jatinegara","distance":1236,"i_long":106.86807400000001,"time":9,"i_lat":-6.215091,"line":1,"station_id":"JNG","transit":true,"is_transit":true},{"i_lat":-6.2135,"i_long":106.899548,"station_id":"KLD","transit":false,"station_name":"Klender","is_transit":false,"time":3,"distance":3395,"line":1},{"distance":3100,"i_lat":-6.215568,"station_name":"Buaran","station_id":"BUA","i_long":106.922662,"line":1,"is_transit":false,"time":2,"transit":false},{"time":1,"line":1,"station_id":"KLDB","is_transit":false,"i_long":106.939679,"transit":false,"i_lat":-6.217455,"distance":1305,"station_name":"Klenderbaru"},{"i_lat":-6.219053,"is_transit":false,"line":1,"station_name":"Cakung","distance":1385,"station_id":"CUK","time":8,"i_long":106.951283,"transit":false},{"i_long":106.977657,"transit":false,"line":1,"station_id":"KRI","is_transit":false,"station_name":"Kranji","i_lat":-6.224515,"time":3,"distance":3097},{"transit":false,"distance":2520,"line":1,"station_name":"Bekasi","is_transit":false,"i_long":106.997013,"time":4,"i_lat":-6.236616,"station_id":"BKS"},{"is_transit":false,"time":2,"i_long":107.016735,"transit":false,"i_lat":-6.248029,"station_name":"Bekasi Timur","line":1,"distance":2368,"station_id":"BKST"},{"distance":4460,"i_lat":-6.258864,"i_long":107.055722,"line":1,"transit":false,"is_transit":false,"time":7,"station_name":"Tambun","station_id":"TB"},{"i_lat":-6.261877,"station_id":"CIT","station_name":"Cibitung","i_long":107.083084,"line":1,"is_transit":false,"distance":3420,"transit":false,"time":3}]]}