{"data":[[{"i_lat":-6.391065,"i_long":106.819451,"line":2,"transit":false,"is_transit":false,"station_id":"DPB","station_name":"Depokbaru","time":0,"distance":0},{"time":4,"station_name":"Pondok Cina","distance":2727,"i_long":106.831114,"i_lat":-6.369073,"line":2,"transit":false,"station_id":"POC","is_transit":false},{"station_id":"UI","is_transit":false,"distance":1109,"i_lat":-6.360749,"station_name":"Univ. Indonesia","time":2,"line":2,"i_long":106.831474,"transit":false},{"time":3,"transit":false,"distance":2264,"station_name":"Univ. Pancasila","i_lat":-6.339291,"is_transit":false,"line":2,"station_id":"UP","i_long":106.834175},{"station_id":"LNA","i_lat":-6.330363,"time":2,"distance":1029,"is_transit":false,"station_name":"Lenteng Agung","line":2,"transit":false,"i_long":106.832616},{"distance":2671,"transit":false,"station_name":"Tanjung Barat","time":3,"i_lat":-6.3080680000000005,"is_transit":false,"i_long":106.838896,"station_id":"TNT","line":2},{"line":2,"distance":2820,"station_name":"Pasar Minggu","time":4,"is_transit":false,"i_lat":-6.2842400000000005,"i_long":106.843999,"station_id":"PSM","transit":false},{"i_lat":-6.263214,"transit":false,"time":2,"i_long":106.851577,"is_transit":false,"distance":2380,"line":2,"station_name":"Pasar Minggu Baru","station_id":"PSMB"},{"i_long":106.85449,"distance":824,"time":2,"station_id":"DRN","i_lat":-6.255332,"line":2,"is_transit":false,"transit":false,"station_name":"Duren Kalibata"},{"i_long":106.856607,"is_transit":false,"station_name":"Cawang","i_lat":-6.242512,"station_id":"CW","distance":1546,"line":2,"time":3,"transit":false},{"line":2,"station_id":"TEB","i_lat":-6.226659,"i_long":106.857948,"distance":1230,"is_transit":false,"transit":false,"station_name":"Tebet","time":2},{"distance":2610,"transit":true,"is_transit":true,"line":2,"time":4,"i_lat":-6.209883,"station_id":"MRI","i_long":106.84912,"station_name":"Manggarai"},{"is_transit":false,"distance":1275,"station_id":"MTR","i_lat":-6.212485,"time":2,"i_long":106.858896,"line":1,"station_name":"Matraman","transit":false},{"station_id":"JNG","transit":false,"station_name":"Jatinegara","is_transit":false,"distance":1377,"time":8,"i_lat":-6.215091,"i_long":106.86807400000001,"line":1},{"i_long":106.899548,"transit":false,"line":1,"is_transit":false,"station_name":"Klender","time":3,"station_id":"KLD","distance":3395,"i_lat":-6.2135},{"line":1,"station_id":"BUA","i_long":106.922662,"transit":false,"station_name":"Buaran","is_transit":false,"time":2,"distance":3100,"i_lat":-6.215568},{"station_name":"Klenderbaru","is_transit":false,"i_lat":-6.217455,"station_id":"KLDB","line":1,"distance":1305,"time":1,"transit":false,"i_long":106.939679},{"line":1,"time":8,"i_long":106.951283,"transit":false,"station_id":"CUK","distance":1385,"is_transit":false,"i_lat":-6.219053,"station_name":"Cakung"},{"i_lat":-6.224515,"station_id":"KRI","distance":3097,"i_long":106.977657,"is_transit":false,"line":1,"transit":false,"station_name":"Kranji","time":3},{"station_id":"BKS","distance":2520,"line":1,"is_transit":false,"transit":false,"station_name":"Bekasi","time":4,"i_lat":-6.236616,"i_long":106.997013},{"station_id":"BKST","i_lat":-6.248029,"line":1,"station_name":"Bekasi Timur","is_transit":false,"i_long":107.016735,"transit":false,"time":2,"distance":2368},{"line":1,"station_id":"TB","i_long":107.055722,"i_lat":-6.258864,"station_name":"Tambun","time":7,"transit":false,"distance":4460,"is_transit":false}],[{"distance":0,"i_lat":-6.391065,"time":0,"line":2,"station_name":"Depokbaru","transit":false,"is_transit":false,"i_long":106.819451,"station_id":"DPB"},{"line":2,"station_id":"POC","is_transit":false,"i_lat":-6.369073,"transit":false,"station_name":"Pondok Cina","time":4,"distance":2727,"i_long":106.831114},{"i_long":106.831474,"distance":1109,"station_name":"Univ. Indonesia","is_transit":false,"transit":false,"time":2,"line":2,"i_lat":-6.360749,"station_id":"UI"},{"transit":false,"station_name":"Univ. Pancasila","time":3,"line":2,"i_lat":-6.339291,"station_id":"UP","is_transit":false,"distance":2264,"i_long":106.834175},{"distance":1029,"time":2,"i_lat":-6.330363,"transit":false,"station_id":"LNA","is_transit":false,"station_name":"Lenteng Agung","i_long":106.832616,"line":2},{"transit":false,"station_name":"Tanjung Barat","time":3,"distance":2671,"i_lat":-6.3080680000000005,"is_transit":false,"i_long":106.838896,"line":2,"station_id":"TNT"},{"i_long":106.843999,"station_name":"Pasar Minggu","is_transit":false,"distance":2820,"i_lat":-6.2842400000000005,"station_id":"PSM","transit":false,"time":4,"line":2},{"station_name":"Pasar Minggu Baru","i_long":106.851577,"is_transit":false,"station_id":"PSMB","distance":2380,"time":2,"transit":false,"i_lat":-6.263214,"line":2},{"station_id":"DRN","station_name":"Duren Kalibata","time":2,"is_transit":false,"transit":false,"distance":824,"i_long":106.85449,"line":2,"i_lat":-6.255332},{"transit":false,"station_name":"Cawang","i_lat":-6.242512,"distance":1546,"i_long":106.856607,"is_transit":false,"line":2,"time":3,"station_id":"CW"},{"station_name":"Tebet","is_transit":false,"time":2,"i_lat":-6.226659,"i_long":106.857948,"line":2,"distance":1230,"transit":false,"station_id":"TEB"},{"is_transit":true,"distance":2610,"time":4,"line":2,"transit":true,"station_name":"Manggarai","i_long":106.84912,"station_id":"MRI","i_lat":-6.209883},{"time":4,"distance":3186,"i_long":106.822649,"i_lat":-6.202263,"station_name":"Sudirman","transit":false,"station_id":"SUD","line":1,"is_transit":false},{"i_lat":-6.201433,"station_name":"Sudirman Baru","i_long":106.819881,"transit":false,"line":1,"station_id":"SUDB","distance":280,"time":1,"is_transit":false},{"time":1,"is_transit":false,"station_name":"Karet","line":1,"transit":false,"distance":471,"i_long":106.816351,"i_lat":-6.20132,"station_id":"KAT"},{"distance":2029,"line":1,"station_id":"THB","station_name":"Tanah Abang","time":5,"i_lat":-6.185545,"i_long":106.811091,"transit":false,"is_transit":false},{"i_long":106.800832,"time":8,"station_id":"DU","line":1,"station_name":"Duri","is_transit":false,"transit":false,"distance":3632,"i_lat":-6.155215},{"is_transit":false,"station_id":"AK","i_lat":-6.144674,"i_long":106.79867,"transit":false,"line":1,"station_name":"Angke","distance":1230,"time":4},{"line":4,"distance":4102,"transit":true,"i_long":106.826365,"i_lat":-6.132549,"time":9,"station_name":"Kampung Bandan","station_id":"KPB","is_transit":true},{"i_long":106.836569,"distance":1444,"is_transit":false,"i_lat":-6.14505,"line":11,"station_id":"RJW","transit":false,"time":3,"station_name":"Rajawali"},{"is_transit":false,"station_name":"Kemayoran","i_long":106.839204,"distance":1901,"time":5,"station_id":"KMO","line":11,"i_lat":-6.161728,"transit":false},{"transit":false,"station_name":"Pasar Senen","distance":1436,"is_transit":false,"time":4,"i_long":106.84368,"station_id":"PSE","i_lat":-6.174784,"line":11},{"station_id":"GST","distance":1567,"time":8,"transit":false,"station_name":"Gang Sentiong","is_transit":false,"i_lat":-6.185975,"i_long":106.850107,"line":11},{"i_lat":-6.193792,"station_id":"KMT","distance":973,"i_long":106.855437,"line":11,"is_transit":false,"time":1,"station_name":"Kramat","transit":false},{"station_name":"Pondok Jati","i_lat":-6.209188,"time":2,"distance":1829,"is_transit":false,"transit":false,"station_id":"POK","line":11,"i_long":106.861737},{"station_id":"JNG","i_lat":-6.215091,"distance":1236,"i_long":106.86807400000001,"station_name":"Jatinegara","is_transit":true,"line":1,"transit":true,"time":9},{"station_name":"Klender","time":3,"distance":3395,"line":1,"transit":false,"is_transit":false,"i_lat":-6.2135,"i_long":106.899548,"station_id":"KLD"},{"station_name":"Buaran","station_id":"BUA","i_lat":-6.215568,"time":2,"transit":false,"distance":3100,"i_long":106.922662,"line":1,"is_transit":false},{"line":1,"station_name":"Klenderbaru","i_lat":-6.217455,"is_transit":false,"station_id":"KLDB","distance":1305,"transit":false,"time":1,"i_long":106.939679},{"station_id":"CUK","is_transit":false,"distance":1385,"transit":false,"station_name":"Cakung","time":8,"i_lat":-6.219053,"i_long":106.951283,"line":1},{"transit":false,"station_id":"KRI","station_name":"Kranji","distance":3097,"i_long":106.977657,"is_transit":false,"line":1,"i_lat":-6.224515,"time":3},{"distance":2520,"i_long":106.997013,"station_id":"BKS","line":1,"station_name":"Bekasi","time":4,"transit":false,"i_lat":-6.236616,"is_transit":false},{"is_transit":false,"time":2,"distance":2368,"station_name":"Bekasi Timur","transit":false,"station_id":"BKST","i_long":107.016735,"i_lat":-6.248029,"line":1},{"transit":false,"i_long":107.055722,"station_name":"Tambun","i_lat":-6.258864,"time":7,"distance":4460,"line":1,"is_transit":false,"station_id":"TB"}],[{"i_long":106.819451,"transit":false,"line":2,"time":0,"station_name":"Depokbaru","is_transit":false,"distance":0,"station_id":"DPB","i_lat":-6.391065},{"is_transit":false,"i_long":106.831114,"line":2,"time":4,"i_lat":-6.369073,"distance":2727,"station_name":"Pondok Cina","station_id":"POC","transit":false},{"i_long":106.831474,"transit":false,"i_lat":-6.360749,"is_transit":false,"line":2,"station_name":"Univ. Indonesia","station_id":"UI","distance":1109,"time":2},{"station_id":"UP","line":2,"i_lat":-6.339291,"is_transit":false,"transit":false,"station_name":"Univ. Pancasila","time":3,"distance":2264,"i_long":106.834175},{"time":2,"is_transit":false,"transit":false,"distance":1029,"i_lat":-6.330363,"line":2,"station_name":"Lenteng Agung","i_long":106.832616,"station_id":"LNA"},{"distance":2671,"i_lat":-6.3080680000000005,"line":2,"transit":false,"station_name":"Tanjung Barat","station_id":"TNT","is_transit":false,"i_long":106.838896,"time":3},{"i_lat":-6.2842400000000005,"time":4,"i_long":106.843999,"station_name":"Pasar Minggu","distance":2820,"line":2,"is_transit":false,"transit":false,"station_id":"PSM"},{"time":2,"station_name":"Pasar Minggu Baru","line":2,"i_long":106.851577,"i_lat":-6.263214,"station_id":"PSMB","transit":false,"is_transit":false,"distance":2380},{"i_lat":-6.255332,"transit":false,"station_name":"Duren Kalibata","is_transit":false,"time":2,"distance":824,"i_long":106.85449,"station_id":"DRN","line":2},{"time":3,"i_long":106.856607,"is_transit":false,"distance":1546,"i_lat":-6.242512,"transit":false,"station_id":"CW","line":2,"station_name":"Cawang"},{"i_long":106.857948,"distance":1230,"time":2,"line":2,"station_id":"TEB","station_name":"Tebet","is_transit":false,"transit":false,"i_lat":-6.226659},{"station_name":"Manggarai","i_long":106.84912,"time":4,"line":2,"station_id":"MRI","is_transit":false,"transit":false,"i_lat":-6.209883,"distance":2610},{"is_transit":false,"time":4,"station_name":"Cikini","transit":false,"station_id":"CKI","distance":1590,"i_lat":-6.198556,"i_long":106.840169,"line":2},{"time":3,"station_name":"Gondangdia","i_lat":-6.186295,"distance":1750,"transit":false,"line":2,"is_transit":false,"i_long":106.832183,"station_id":"GDD"},{"i_long":106.828284,"is_transit":false,"station_id":"JUA","transit":false,"distance":2015,"i_lat":-6.166716,"line":2,"time":4,"station_name":"Juanda"},{"station_id":"SW","station_name":"Sawah Besar","is_transit":false,"distance":1149,"i_lat":-6.160725,"i_long":106.827103,"transit":false,"line":2,"time":2},{"time":2,"station_id":"MGB","station_name":"Manggabesar","is_transit":false,"transit":false,"i_long":106.82482,"i_lat":-6.149769,"distance":906,"line":2},{"i_lat":-6.141205,"distance":1080,"i_long":106.820901,"is_transit":false,"station_id":"JAY","time":2,"transit":false,"line":2,"station_name":"Jayakarta"},{"station_name":"Jakarta Kota","i_long":106.812439,"transit":true,"station_id":"JAKK","line":2,"i_lat":-6.137569,"time":4,"distance":1264,"is_transit":true},{"is_transit":true,"distance":1364,"station_name":"Kampung Bandan","transit":true,"i_long":106.826365,"line":4,"time":3,"station_id":"KPB","i_lat":-6.132549},{"line":11,"station_id":"RJW","time":3,"is_transit":false,"transit":false,"station_name":"Rajawali","distance":1444,"i_lat":-6.14505,"i_long":106.836569},{"i_lat":-6.161728,"i_long":106.839204,"time":5,"station_id":"KMO","distance":1901,"station_name":"Kemayoran","line":11,"is_transit":false,"transit":false},{"distance":1436,"time":4,"station_id":"PSE","i_long":106.84368,"i_lat":-6.174784,"line":11,"transit":false,"station_name":"Pasar Senen","is_transit":false},{"distance":1567,"is_transit":false,"i_lat":-6.185975,"station_name":"Gang Sentiong","time":8,"line":11,"transit":false,"station_id":"GST","i_long":106.850107},{"transit":false,"is_transit":false,"i_lat":-6.193792,"distance":973,"i_long":106.855437,"line":11,"station_name":"Kramat","station_id":"KMT","time":1},{"transit":false,"distance":1829,"i_lat":-6.209188,"station_name":"Pondok Jati","time":2,"i_long":106.861737,"is_transit":false,"station_id":"POK","line":11},{"time":9,"i_long":106.86807400000001,"station_name":"Jatinegara","station_id":"JNG","is_transit":true,"transit":true,"distance":1236,"i_lat":-6.215091,"line":1},{"i_long":106.899548,"distance":3395,"station_name":"Klender","time":3,"transit":false,"i_lat":-6.2135,"station_id":"KLD","line":1,"is_transit":false},{"i_lat":-6.215568,"station_id":"BUA","time":2,"is_transit":false,"i_long":106.922662,"transit":false,"distance":3100,"line":1,"station_name":"Buaran"},{"distance":1305,"station_id":"KLDB","i_lat":-6.217455,"transit":false,"is_transit":false,"i_long":106.939679,"station_name":"Klenderbaru","line":1,"time":1},{"station_name":"Cakung","transit":false,"station_id":"CUK","time":8,"distance":1385,"is_transit":false,"i_lat":-6.219053,"i_long":106.951283,"line":1},{"time":3,"i_long":106.977657,"distance":3097,"station_name":"Kranji","line":1,"is_transit":false,"station_id":"KRI","transit":false,"i_lat":-6.224515},{"line":1,"is_transit":false,"station_name":"Bekasi","time":4,"transit":false,"i_lat":-6.236616,"station_id":"BKS","distance":2520,"i_long":106.997013},{"station_name":"Bekasi Timur","is_transit":false,"time":2,"i_long":107.016735,"station_id":"BKST","transit":false,"line":1,"distance":2368,"i_lat":-6.248029},{"distance":4460,"time":7,"transit":false,"i_lat":-6.258864,"line":1,"station_id":"TB","station_name":"Tambun","i_long":107.055722,"is_transit":false}]]}