{"data":[[{"i_lat":-6.391065,"line":2,"distance":0,"i_long":106.819451,"transit":false,"station_id":"DPB","station_name":"Depokbaru","time":0,"is_transit":false},{"transit":false,"is_transit":false,"station_name":"Pondok Cina","time":4,"distance":2727,"station_id":"POC","i_lat":-6.369073,"i_long":106.831114,"line":2},{"is_transit":false,"transit":false,"line":2,"station_name":"Univ. Indonesia","distance":1109,"time":2,"i_long":106.831474,"station_id":"UI","i_lat":-6.360749},{"transit":false,"is_transit":false,"i_long":106.834175,"distance":2264,"i_lat":-6.339291,"time":3,"station_name":"Univ. Pancasila","line":2,"station_id":"UP"},{"time":2,"station_id":"LNA","station_name":"Lenteng Agung","distance":1029,"is_transit":false,"transit":false,"i_lat":-6.330363,"i_long":106.832616,"line":2},{"station_name":"Tanjung Barat","transit":false,"time":3,"distance":2671,"i_lat":-6.3080680000000005,"i_long":106.838896,"station_id":"TNT","line":2,"is_transit":false},{"is_transit":false,"station_id":"PSM","i_long":106.843999,"station_name":"Pasar Minggu","time":4,"i_lat":-6.2842400000000005,"distance":2820,"line":2,"transit":false},{"station_name":"Pasar Minggu Baru","station_id":"PSMB","line":2,"i_lat":-6.263214,"i_long":106.851577,"transit":false,"distance":2380,"is_transit":false,"time":2},{"station_name":"Duren Kalibata","distance":824,"i_long":106.85449,"line":2,"station_id":"DRN","is_transit":false,"i_lat":-6.255332,"time":2,"transit":false},{"distance":1546,"station_name":"Cawang","i_long":106.856607,"time":3,"is_transit":false,"transit":false,"station_id":"CW","i_lat":-6.242512,"line":2},{"station_name":"Tebet","distance":1230,"station_id":"TEB","is_transit":false,"time":2,"i_long":106.857948,"line":2,"transit":false,"i_lat":-6.226659},{"i_long":106.84912,"station_id":"MRI","station_name":"Manggarai","time":4,"is_transit":true,"distance":2610,"i_lat":-6.209883,"line":2,"transit":true},{"i_long":106.822649,"station_id":"SUD","is_transit":false,"distance":3186,"time":4,"station_name":"Sudirman","line":1,"i_lat":-6.202263,"transit":false},{"time":1,"transit":false,"station_id":"SUDB","distance":280,"i_long":106.819881,"station_name":"Sudirman Baru","line":1,"i_lat":-6.201433,"is_transit":false},{"i_lat":-6.20132,"i_long":106.816351,"line":1,"transit":false,"time":1,"is_transit":false,"distance":471,"station_name":"Karet","station_id":"KAT"},{"line":1,"transit":true,"time":5,"station_id":"THB","distance":2029,"i_long":106.811091,"is_transit":true,"station_name":"Tanah Abang","i_lat":-6.185545},{"transit":false,"time":6,"is_transit":false,"station_id":"PLM","i_long":106.79689,"line":6,"i_lat":-6.207404,"distance":3191,"station_name":"Palmerah"},{"transit":false,"station_id":"KBY","distance":3737,"station_name":"Kebayoran","i_lat":-6.237242,"is_transit":false,"i_long":106.780334,"line":6,"time":7},{"station_name":"Pondokranji","i_long":106.74273,"line":6,"distance":6218,"transit":false,"i_lat":-6.276362,"time":8,"station_id":"PDJ","is_transit":false}],[{"station_id":"DPB","is_transit":false,"distance":0,"i_long":106.819451,"transit":false,"time":0,"i_lat":-6.391065,"station_name":"Depokbaru","line":2},{"station_name":"Pondok Cina","transit":false,"station_id":"POC","distance":2727,"is_transit":false,"i_lat":-6.369073,"i_long":106.831114,"time":4,"line":2},{"is_transit":false,"time":2,"i_lat":-6.360749,"distance":1109,"station_name":"Univ. Indonesia","transit":false,"i_long":106.831474,"station_id":"UI","line":2},{"line":2,"distance":2264,"station_id":"UP","i_lat":-6.339291,"time":3,"station_name":"Univ. Pancasila","i_long":106.834175,"is_transit":false,"transit":false},{"transit":false,"i_long":106.832616,"is_transit":false,"line":2,"station_name":"Lenteng Agung","time":2,"distance":1029,"i_lat":-6.330363,"station_id":"LNA"},{"i_long":106.838896,"line":2,"station_id":"TNT","is_transit":false,"distance":2671,"station_name":"Tanjung Barat","time":3,"transit":false,"i_lat":-6.3080680000000005},{"distance":2820,"station_name":"Pasar Minggu","line":2,"transit":false,"i_long":106.843999,"time":4,"station_id":"PSM","is_transit":false,"i_lat":-6.2842400000000005},{"i_lat":-6.263214,"station_name":"Pasar Minggu Baru","transit":false,"distance":2380,"is_transit":false,"station_id":"PSMB","time":2,"i_long":106.851577,"line":2},{"station_name":"Duren Kalibata","i_long":106.85449,"is_transit":false,"transit":false,"i_lat":-6.255332,"time":2,"line":2,"station_id":"DRN","distance":824},{"distance":1546,"transit":false,"line":2,"station_id":"CW","i_long":106.856607,"time":3,"i_lat":-6.242512,"is_transit":false,"station_name":"Cawang"},{"distance":1230,"time":2,"station_id":"TEB","line":2,"transit":false,"is_transit":false,"i_long":106.857948,"i_lat":-6.226659,"station_name":"Tebet"},{"distance":2610,"station_name":"Manggarai","line":2,"i_long":106.84912,"station_id":"MRI","i_lat":-6.209883,"time":4,"is_transit":false,"transit":false},{"i_lat":-6.198556,"distance":1590,"i_long":106.840169,"station_name":"Cikini","time":4,"line":2,"transit":false,"station_id":"CKI","is_transit":false},{"transit":false,"distance":1750,"is_transit":false,"station_name":"Gondangdia","station_id":"GDD","i_long":106.832183,"time":3,"line":2,"i_lat":-6.186295},{"i_long":106.828284,"transit":false,"station_id":"JUA","time":4,"i_lat":-6.166716,"line":2,"distance":2015,"station_name":"Juanda","is_transit":false},{"time":2,"i_long":106.827103,"station_name":"Sawah Besar","i_lat":-6.160725,"line":2,"station_id":"SW","is_transit":false,"transit":false,"distance":1149},{"distance":906,"line":2,"time":2,"i_long":106.82482,"station_id":"MGB","transit":false,"station_name":"Manggabesar","i_lat":-6.149769,"is_transit":false},{"i_lat":-6.141205,"time":2,"station_id":"JAY","station_name":"Jayakarta","distance":1080,"transit":false,"i_long":106.820901,"is_transit":false,"line":2},{"station_name":"Jakarta Kota","time":4,"distance":1264,"i_lat":-6.137569,"i_long":106.812439,"is_transit":true,"station_id":"JAKK","line":2,"transit":true},{"distance":1364,"transit":true,"is_transit":true,"station_name":"Kampung Bandan","i_long":106.826365,"time":3,"i_lat":-6.132549,"line":4,"station_id":"KPB"},{"line":1,"station_name":"Angke","distance":4102,"is_transit":false,"i_lat":-6.144674,"time":9,"station_id":"AK","transit":false,"i_long":106.79867},{"time":4,"distance":1230,"i_long":106.800832,"transit":false,"station_name":"Duri","is_transit":false,"i_lat":-6.155215,"line":1,"station_id":"DU"},{"i_lat":-6.185545,"i_long":106.811091,"line":1,"time":8,"station_name":"Tanah Abang","distance":3632,"transit":true,"station_id":"THB","is_transit":true},{"distance":3191,"station_id":"PLM","line":6,"i_lat":-6.207404,"i_long":106.79689,"transit":false,"time":6,"station_name":"Palmerah","is_transit":false},{"distance":3737,"i_long":106.780334,"station_id":"KBY","time":7,"station_name":"Kebayoran","transit":false,"is_transit":false,"i_lat":-6.237242,"line":6},{"distance":6218,"is_transit":false,"station_name":"Pondokranji","i_long":106.74273,"time":8,"transit":false,"station_id":"PDJ","i_lat":-6.276362,"line":6}],[{"i_long":106.819451,"station_name":"Depokbaru","i_lat":-6.391065,"distance":0,"station_id":"DPB","is_transit":false,"transit":false,"line":2,"time":0},{"transit":false,"time":4,"station_id":"POC","i_lat":-6.369073,"i_long":106.831114,"line":2,"is_transit":false,"station_name":"Pondok Cina","distance":2727},{"i_lat":-6.360749,"transit":false,"line":2,"station_name":"Univ. Indonesia","is_transit":false,"distance":1109,"time":2,"station_id":"UI","i_long":106.831474},{"line":2,"time":3,"i_lat":-6.339291,"station_name":"Univ. Pancasila","transit":false,"station_id":"UP","is_transit":false,"i_long":106.834175,"distance":2264},{"transit":false,"i_long":106.832616,"station_id":"LNA","time":2,"distance":1029,"is_transit":false,"i_lat":-6.330363,"station_name":"Lenteng Agung","line":2},{"station_name":"Tanjung Barat","i_lat":-6.3080680000000005,"time":3,"i_long":106.838896,"distance":2671,"station_id":"TNT","transit":false,"is_transit":false,"line":2},{"line":2,"distance":2820,"station_name":"Pasar Minggu","transit":false,"time":4,"is_transit":false,"i_lat":-6.2842400000000005,"i_long":106.843999,"station_id":"PSM"},{"station_id":"PSMB","i_long":106.851577,"is_transit":false,"i_lat":-6.263214,"time":2,"line":2,"distance":2380,"transit":false,"station_name":"Pasar Minggu Baru"},{"time":2,"distance":824,"station_name":"Duren Kalibata","station_id":"DRN","is_transit":false,"transit":false,"i_lat":-6.255332,"i_long":106.85449,"line":2},{"i_long":106.856607,"transit":false,"station_id":"CW","line":2,"station_name":"Cawang","i_lat":-6.242512,"is_transit":false,"time":3,"distance":1546},{"distance":1230,"is_transit":false,"i_lat":-6.226659,"i_long":106.857948,"transit":false,"line":2,"station_name":"Tebet","station_id":"TEB","time":2},{"distance":2610,"transit":true,"i_lat":-6.209883,"station_id":"MRI","station_name":"Manggarai","line":2,"is_transit":true,"time":4,"i_long":106.84912},{"time":2,"station_id":"MTR","distance":1275,"is_transit":false,"i_long":106.858896,"i_lat":-6.212485,"station_name":"Matraman","line":1,"transit":false},{"station_id":"JNG","transit":true,"station_name":"Jatinegara","time":8,"i_long":106.86807400000001,"i_lat":-6.215091,"line":1,"distance":1377,"is_transit":true},{"i_long":106.861737,"time":2,"station_id":"POK","is_transit":false,"station_name":"Pondok Jati","line":11,"distance":1236,"transit":false,"i_lat":-6.209188},{"i_lat":-6.193792,"time":2,"transit":false,"distance":1829,"i_long":106.855437,"station_name":"Kramat","station_id":"KMT","line":11,"is_transit":false},{"time":1,"station_id":"GST","is_transit":false,"line":11,"distance":973,"i_lat":-6.185975,"transit":false,"i_long":106.850107,"station_name":"Gang Sentiong"},{"transit":false,"i_long":106.84368,"is_transit":false,"station_name":"Pasar Senen","line":11,"time":8,"distance":1567,"i_lat":-6.174784,"station_id":"PSE"},{"transit":false,"i_lat":-6.161728,"line":11,"is_transit":false,"distance":1436,"station_name":"Kemayoran","time":4,"i_long":106.839204,"station_id":"KMO"},{"station_id":"RJW","transit":false,"station_name":"Rajawali","i_lat":-6.14505,"line":11,"is_transit":false,"distance":1901,"time":5,"i_long":106.836569},{"transit":true,"is_transit":true,"station_id":"KPB","distance":1444,"i_lat":-6.132549,"line":4,"i_long":106.826365,"time":3,"station_name":"Kampung Bandan"},{"distance":4102,"station_name":"Angke","i_lat":-6.144674,"time":9,"line":1,"transit":false,"is_transit":false,"station_id":"AK","i_long":106.79867},{"line":1,"distance":1230,"transit":false,"station_name":"Duri","station_id":"DU","time":4,"is_transit":false,"i_long":106.800832,"i_lat":-6.155215},{"time":8,"line":1,"i_long":106.811091,"transit":true,"i_lat":-6.185545,"is_transit":true,"station_id":"THB","distance":3632,"station_name":"Tanah Abang"},{"station_id":"PLM","station_name":"Palmerah","i_long":106.79689,"distance":3191,"i_lat":-6.207404,"transit":false,"time":6,"is_transit":false,"line":6},{"i_long":106.780334,"i_lat":-6.237242,"distance":3737,"time":7,"line":6,"station_id":"KBY","station_name":"Kebayoran","is_transit":false,"transit":false},{"i_long":106.74273,"station_name":"Pondokranji","time":8,"distance":6218,"i_lat":-6.276362,"station_id":"PDJ","transit":false,"is_transit":false,"line":6}]]}