{"data":[[{"i_long":106.819451,"i_lat":-6.391065,"station_name":"Depokbaru","time":0,"line":0,"station_id":"DPB","transit":false,"is_transit":false,"distance":0},{"station_id":"POC","line":2,"is_transit":false,"station_name":"Pondok Cina","transit":false,"time":4,"distance":2727,"i_lat":-6.369073,"i_long":106.831114},{"is_transit":false,"time":2,"transit":false,"distance":1109,"station_name":"Univ. Indonesia","i_long":106.831474,"i_lat":-6.360749,"station_id":"UI","line":2},{"time":3,"station_name":"Univ. Pancasila","is_transit":false,"transit":false,"i_lat":-6.339291,"i_long":106.834175,"station_id":"UP","line":2,"distance":2264},{"i_long":106.832616,"line":2,"time":2,"station_id":"LNA","i_lat":-6.330363,"is_transit":false,"transit":false,"station_name":"Lenteng Agung","distance":1029},{"i_long":106.838896,"line":2,"is_transit":false,"station_id":"TNT","station_name":"Tanjung Barat","transit":false,"time":3,"distance":2671,"i_lat":-6.3080680000000005},{"time":4,"i_lat":-6.2842400000000005,"line":2,"distance":2820,"station_id":"PSM","i_long":106.843999,"transit":false,"station_name":"Pasar Minggu","is_transit":false},{"i_long":106.851577,"distance":2380,"station_id":"PSMB","time":2,"transit":false,"is_transit":false,"station_name":"Pasar Minggu Baru","line":2,"i_lat":-6.263214},{"i_lat":-6.255332,"distance":824,"station_name":"Duren Kalibata","station_id":"DRN","is_transit":false,"time":2,"transit":false,"i_long":106.85449,"line":0},{"station_name":"Cawang","line":0,"i_lat":-6.242512,"i_long":106.856607,"time":3,"distance":1546,"is_transit":false,"transit":false,"station_id":"CW"},{"station_id":"TEB","line":2,"is_transit":false,"i_long":106.857948,"station_name":"Tebet","time":2,"transit":false,"i_lat":-6.226659,"distance":1230},{"station_id":"MRI","transit":true,"i_lat":-6.209883,"is_transit":true,"line":0,"distance":2610,"time":4,"station_name":"Manggarai","i_long":106.84912},{"transit":false,"i_long":106.822649,"line":1,"distance":3186,"time":4,"station_id":"SUD","station_name":"Sudirman","is_transit":false,"i_lat":-6.202263},{"station_id":"SUDB","transit":false,"distance":280,"i_lat":-6.201433,"i_long":106.819881,"line":1,"station_name":"Sudirman Baru","is_transit":false,"time":1},{"distance":471,"time":1,"station_id":"KAT","transit":false,"i_lat":-6.20132,"station_name":"Karet","line":1,"i_long":106.816351,"is_transit":false},{"i_long":106.811091,"line":1,"distance":2029,"time":5,"station_id":"THB","transit":true,"is_transit":true,"i_lat":-6.185545,"station_name":"Tanah Abang"},{"station_name":"Palmerah","distance":3191,"i_lat":-6.207404,"is_transit":false,"station_id":"PLM","time":6,"transit":false,"line":6,"i_long":106.79689},{"i_long":106.780334,"station_id":"KBY","is_transit":false,"distance":3737,"i_lat":-6.237242,"time":7,"transit":false,"station_name":"Kebayoran","line":6},{"station_id":"PDJ","station_name":"Pondokranji","time":8,"distance":6218,"line":6,"i_lat":-6.276362,"transit":false,"i_long":106.74273,"is_transit":false}],[{"station_id":"DPB","distance":0,"transit":false,"time":0,"i_lat":-6.391065,"is_transit":false,"i_long":106.819451,"line":0,"station_name":"Depokbaru"},{"transit":false,"i_lat":-6.369073,"is_transit":false,"station_id":"POC","i_long":106.831114,"line":2,"station_name":"Pondok Cina","distance":2727,"time":4},{"time":2,"is_transit":false,"line":2,"distance":1109,"station_name":"Univ. Indonesia","i_lat":-6.360749,"transit":false,"i_long":106.831474,"station_id":"UI"},{"is_transit":false,"distance":2264,"station_id":"UP","time":3,"i_long":106.834175,"station_name":"Univ. Pancasila","i_lat":-6.339291,"line":2,"transit":false},{"distance":1029,"time":2,"transit":false,"i_lat":-6.330363,"line":2,"station_id":"LNA","i_long":106.832616,"station_name":"Lenteng Agung","is_transit":false},{"i_lat":-6.3080680000000005,"station_name":"Tanjung Barat","is_transit":false,"line":2,"i_long":106.838896,"transit":false,"time":3,"station_id":"TNT","distance":2671},{"transit":false,"distance":2820,"line":2,"station_id":"PSM","station_name":"Pasar Minggu","i_long":106.843999,"is_transit":false,"time":4,"i_lat":-6.2842400000000005},{"is_transit":false,"distance":2380,"transit":false,"i_lat":-6.263214,"i_long":106.851577,"time":2,"station_id":"PSMB","line":2,"station_name":"Pasar Minggu Baru"},{"time":2,"distance":824,"station_id":"DRN","i_long":106.85449,"is_transit":false,"line":0,"station_name":"Duren Kalibata","i_lat":-6.255332,"transit":false},{"time":3,"is_transit":false,"i_long":106.856607,"distance":1546,"station_id":"CW","i_lat":-6.242512,"line":0,"transit":false,"station_name":"Cawang"},{"is_transit":false,"time":2,"distance":1230,"station_name":"Tebet","line":2,"station_id":"TEB","transit":false,"i_lat":-6.226659,"i_long":106.857948},{"station_id":"MRI","time":4,"transit":true,"i_lat":-6.209883,"i_long":106.84912,"is_transit":true,"station_name":"Manggarai","line":0,"distance":2610},{"time":4,"distance":1590,"station_id":"CKI","transit":false,"i_long":106.840169,"i_lat":-6.198556,"line":0,"station_name":"Cikini","is_transit":false},{"line":2,"station_name":"Gondangdia","i_lat":-6.186295,"is_transit":false,"time":3,"station_id":"GDD","transit":false,"distance":1750,"i_long":106.832183},{"transit":false,"distance":2015,"i_lat":-6.166716,"line":2,"station_id":"JUA","time":4,"station_name":"Juanda","is_transit":false,"i_long":106.828284},{"i_long":106.827103,"distance":1149,"i_lat":-6.160725,"time":2,"line":2,"station_id":"SW","station_name":"Sawah Besar","is_transit":false,"transit":false},{"station_id":"MGB","distance":906,"transit":false,"time":2,"i_lat":-6.149769,"is_transit":false,"line":2,"i_long":106.82482,"station_name":"Manggabesar"},{"station_id":"JAY","i_long":106.820901,"line":7,"i_lat":-6.141205,"station_name":"Jayakarta","is_transit":false,"time":2,"transit":false,"distance":1080},{"distance":1264,"station_id":"JAKK","time":4,"station_name":"Jakarta Kota","is_transit":true,"i_lat":-6.137569,"i_long":106.812439,"line":0,"transit":true},{"distance":1364,"line":0,"i_long":106.826365,"station_name":"Kampung Bandan","time":3,"station_id":"KPB","transit":false,"i_lat":-6.132549,"is_transit":true},{"i_lat":-6.144674,"line":0,"distance":4102,"is_transit":false,"station_id":"AK","time":9,"station_name":"Angke","i_long":106.79867,"transit":false},{"time":4,"line":1,"i_long":106.800832,"station_id":"DU","is_transit":true,"i_lat":-6.155215,"transit":true,"station_name":"Duri","distance":1230},{"i_long":106.811091,"is_transit":true,"time":8,"distance":3632,"station_id":"THB","line":1,"station_name":"Tanah Abang","transit":true,"i_lat":-6.185545},{"transit":false,"station_name":"Palmerah","line":6,"station_id":"PLM","distance":3191,"is_transit":false,"i_long":106.79689,"time":6,"i_lat":-6.207404},{"time":7,"is_transit":false,"transit":false,"station_name":"Kebayoran","i_long":106.780334,"station_id":"KBY","distance":3737,"i_lat":-6.237242,"line":6},{"line":6,"is_transit":false,"transit":false,"i_lat":-6.276362,"station_id":"PDJ","distance":6218,"i_long":106.74273,"time":8,"station_name":"Pondokranji"}],[{"i_long":106.819451,"station_id":"DPB","transit":false,"is_transit":false,"time":0,"station_name":"Depokbaru","i_lat":-6.391065,"line":0,"distance":0},{"i_lat":-6.369073,"line":2,"station_name":"Pondok Cina","station_id":"POC","transit":false,"is_transit":false,"i_long":106.831114,"time":4,"distance":2727},{"is_transit":false,"distance":1109,"i_long":106.831474,"transit":false,"station_id":"UI","time":2,"i_lat":-6.360749,"line":2,"station_name":"Univ. Indonesia"},{"is_transit":false,"station_id":"UP","transit":false,"time":3,"i_long":106.834175,"distance":2264,"station_name":"Univ. Pancasila","line":2,"i_lat":-6.339291},{"i_lat":-6.330363,"time":2,"i_long":106.832616,"station_name":"Lenteng Agung","distance":1029,"transit":false,"line":2,"is_transit":false,"station_id":"LNA"},{"i_long":106.838896,"station_id":"TNT","i_lat":-6.3080680000000005,"station_name":"Tanjung Barat","transit":false,"line":2,"time":3,"is_transit":false,"distance":2671},{"line":2,"time":4,"i_long":106.843999,"station_id":"PSM","is_transit":false,"i_lat":-6.2842400000000005,"station_name":"Pasar Minggu","transit":false,"distance":2820},{"station_name":"Pasar Minggu Baru","transit":false,"is_transit":false,"i_long":106.851577,"line":2,"i_lat":-6.263214,"station_id":"PSMB","distance":2380,"time":2},{"time":2,"i_long":106.85449,"is_transit":false,"station_name":"Duren Kalibata","line":0,"station_id":"DRN","i_lat":-6.255332,"transit":false,"distance":824},{"time":3,"line":0,"station_name":"Cawang","transit":false,"distance":1546,"is_transit":false,"i_lat":-6.242512,"station_id":"CW","i_long":106.856607},{"i_long":106.857948,"distance":1230,"i_lat":-6.226659,"transit":false,"line":2,"is_transit":false,"station_name":"Tebet","station_id":"TEB","time":2},{"is_transit":true,"distance":2610,"time":4,"i_lat":-6.209883,"i_long":106.84912,"line":0,"station_id":"MRI","station_name":"Manggarai","transit":true},{"i_lat":-6.212485,"i_long":106.858896,"station_name":"Matraman","is_transit":false,"distance":1275,"line":1,"time":2,"transit":false,"station_id":"MTR"},{"transit":true,"time":8,"station_name":"Jatinegara","is_transit":true,"distance":1377,"station_id":"JNG","line":0,"i_lat":-6.215091,"i_long":106.86807400000001},{"i_lat":-6.209188,"time":2,"is_transit":false,"line":11,"station_id":"POK","distance":1236,"station_name":"Pondok Jati","transit":false,"i_long":106.861737},{"transit":false,"is_transit":false,"station_id":"KMT","line":11,"i_long":106.855437,"station_name":"Kramat","i_lat":-6.193792,"distance":1829,"time":2},{"line":11,"transit":false,"i_long":106.850107,"station_id":"GST","distance":973,"is_transit":false,"station_name":"Gang Sentiong","i_lat":-6.185975,"time":1},{"station_name":"Pasar Senen","station_id":"PSE","transit":false,"is_transit":false,"time":8,"distance":1567,"i_lat":-6.174784,"i_long":106.84368,"line":11},{"distance":1436,"station_name":"Kemayoran","station_id":"KMO","transit":false,"is_transit":false,"time":4,"i_long":106.839204,"i_lat":-6.161728,"line":11},{"is_transit":false,"station_id":"RJW","line":11,"time":5,"station_name":"Rajawali","i_long":106.836569,"transit":false,"distance":1901,"i_lat":-6.14505},{"i_long":106.826365,"distance":1444,"i_lat":-6.132549,"is_transit":true,"station_id":"KPB","line":0,"station_name":"Kampung Bandan","time":3,"transit":true},{"is_transit":false,"transit":false,"station_id":"AK","i_long":106.79867,"line":0,"i_lat":-6.144674,"time":9,"station_name":"Angke","distance":4102},{"station_id":"DU","distance":1230,"transit":true,"line":1,"time":4,"i_lat":-6.155215,"station_name":"Duri","is_transit":true,"i_long":106.800832},{"transit":true,"time":8,"station_name":"Tanah Abang","station_id":"THB","i_lat":-6.185545,"is_transit":true,"line":1,"distance":3632,"i_long":106.811091},{"line":6,"i_long":106.79689,"is_transit":false,"station_name":"Palmerah","station_id":"PLM","time":6,"distance":3191,"transit":false,"i_lat":-6.207404},{"station_name":"Kebayoran","is_transit":false,"transit":false,"time":7,"i_long":106.780334,"distance":3737,"line":6,"i_lat":-6.237242,"station_id":"KBY"},{"station_name":"Pondokranji","distance":6218,"is_transit":false,"i_long":106.74273,"time":8,"station_id":"PDJ","line":6,"i_lat":-6.276362,"transit":false}]]}