{"data":[[{"station_name":"Depokbaru","i_long":106.819451,"distance":0,"time":0,"line":2,"is_transit":false,"transit":false,"station_id":"DPB","i_lat":-6.391065},{"is_transit":false,"station_name":"Pondok Cina","transit":false,"time":4,"i_lat":-6.369073,"distance":2727,"i_long":106.831114,"station_id":"POC","line":2},{"distance":1109,"line":2,"i_lat":-6.360749,"transit":false,"i_long":106.831474,"time":2,"station_id":"UI","is_transit":false,"station_name":"Univ. Indonesia"},{"i_long":106.834175,"distance":2264,"station_name":"Univ. Pancasila","time":3,"line":2,"station_id":"UP","transit":false,"i_lat":-6.339291,"is_transit":false},{"station_id":"LNA","is_transit":false,"distance":1029,"line":2,"time":2,"transit":false,"station_name":"Lenteng Agung","i_lat":-6.330363,"i_long":106.832616},{"station_id":"TNT","i_lat":-6.3080680000000005,"line":2,"transit":false,"distance":2671,"time":3,"i_long":106.838896,"station_name":"Tanjung Barat","is_transit":false},{"distance":2820,"transit":false,"station_id":"PSM","time":4,"station_name":"Pasar Minggu","is_transit":false,"line":2,"i_lat":-6.2842400000000005,"i_long":106.843999},{"line":2,"station_id":"PSMB","station_name":"Pasar Minggu Baru","distance":2380,"i_long":106.851577,"is_transit":false,"time":2,"transit":false,"i_lat":-6.263214},{"is_transit":false,"distance":824,"station_name":"Duren Kalibata","transit":false,"line":2,"i_long":106.85449,"time":2,"station_id":"DRN","i_lat":-6.255332},{"distance":1546,"station_name":"Cawang","line":2,"time":3,"station_id":"CW","is_transit":false,"i_lat":-6.242512,"transit":false,"i_long":106.856607},{"station_id":"TEB","i_long":106.857948,"time":2,"line":2,"transit":false,"distance":1230,"station_name":"Tebet","is_transit":false,"i_lat":-6.226659},{"is_transit":true,"time":4,"distance":2610,"station_name":"Manggarai","i_lat":-6.209883,"station_id":"MRI","transit":true,"i_long":106.84912,"line":2},{"station_name":"Sudirman","time":4,"i_long":106.822649,"i_lat":-6.202263,"distance":3186,"is_transit":false,"station_id":"SUD","line":1,"transit":false},{"i_lat":-6.201433,"is_transit":false,"station_name":"Sudirman Baru","time":1,"transit":false,"station_id":"SUDB","i_long":106.819881,"line":1,"distance":280},{"is_transit":false,"distance":471,"i_lat":-6.20132,"station_id":"KAT","transit":false,"time":1,"i_long":106.816351,"line":1,"station_name":"Karet"},{"station_name":"Tanah Abang","station_id":"THB","i_long":106.811091,"distance":2029,"i_lat":-6.185545,"time":5,"transit":false,"is_transit":false,"line":1}],[{"line":2,"i_lat":-6.391065,"station_name":"Depokbaru","is_transit":false,"time":0,"i_long":106.819451,"station_id":"DPB","transit":false,"distance":0},{"station_name":"Pondok Cina","i_lat":-6.369073,"distance":2727,"i_long":106.831114,"station_id":"POC","time":4,"transit":false,"is_transit":false,"line":2},{"is_transit":false,"time":2,"line":2,"i_long":106.831474,"station_id":"UI","station_name":"Univ. Indonesia","distance":1109,"i_lat":-6.360749,"transit":false},{"i_lat":-6.339291,"line":2,"station_id":"UP","distance":2264,"time":3,"i_long":106.834175,"station_name":"Univ. Pancasila","transit":false,"is_transit":false},{"station_name":"Lenteng Agung","distance":1029,"is_transit":false,"time":2,"i_lat":-6.330363,"station_id":"LNA","line":2,"transit":false,"i_long":106.832616},{"i_lat":-6.3080680000000005,"transit":false,"is_transit":false,"station_id":"TNT","distance":2671,"station_name":"Tanjung Barat","time":3,"line":2,"i_long":106.838896},{"station_name":"Pasar Minggu","transit":false,"time":4,"i_lat":-6.2842400000000005,"i_long":106.843999,"station_id":"PSM","is_transit":false,"distance":2820,"line":2},{"station_name":"Pasar Minggu Baru","i_lat":-6.263214,"i_long":106.851577,"is_transit":false,"time":2,"station_id":"PSMB","distance":2380,"line":2,"transit":false},{"i_long":106.85449,"station_id":"DRN","station_name":"Duren Kalibata","transit":false,"distance":824,"i_lat":-6.255332,"time":2,"is_transit":false,"line":2},{"time":3,"i_long":106.856607,"i_lat":-6.242512,"transit":false,"line":2,"station_id":"CW","distance":1546,"is_transit":false,"station_name":"Cawang"},{"i_lat":-6.226659,"transit":false,"i_long":106.857948,"distance":1230,"station_id":"TEB","is_transit":false,"time":2,"station_name":"Tebet","line":2},{"distance":2610,"line":2,"transit":false,"station_name":"Manggarai","i_lat":-6.209883,"time":4,"is_transit":false,"station_id":"MRI","i_long":106.84912},{"distance":1590,"station_name":"Cikini","transit":false,"i_lat":-6.198556,"is_transit":false,"i_long":106.840169,"time":4,"station_id":"CKI","line":2},{"station_name":"Gondangdia","i_long":106.832183,"time":3,"is_transit":false,"distance":1750,"transit":false,"i_lat":-6.186295,"line":2,"station_id":"GDD"},{"i_lat":-6.166716,"line":2,"distance":2015,"i_long":106.828284,"station_id":"JUA","station_name":"Juanda","transit":false,"is_transit":false,"time":4},{"is_transit":false,"distance":1149,"line":2,"i_long":106.827103,"transit":false,"time":2,"station_id":"SW","i_lat":-6.160725,"station_name":"Sawah Besar"},{"station_id":"MGB","time":2,"i_lat":-6.149769,"i_long":106.82482,"station_name":"Manggabesar","distance":906,"is_transit":false,"line":2,"transit":false},{"i_lat":-6.141205,"time":2,"i_long":106.820901,"transit":false,"station_name":"Jayakarta","station_id":"JAY","is_transit":false,"line":2,"distance":1080},{"line":2,"transit":true,"station_name":"Jakarta Kota","i_lat":-6.137569,"is_transit":true,"time":4,"i_long":106.812439,"station_id":"JAKK","distance":1264},{"station_name":"Kampung Bandan","distance":1364,"line":4,"is_transit":true,"transit":true,"i_lat":-6.132549,"time":3,"station_id":"KPB","i_long":106.826365},{"is_transit":false,"station_name":"Angke","i_lat":-6.144674,"station_id":"AK","distance":4102,"i_long":106.79867,"line":1,"time":9,"transit":false},{"i_long":106.800832,"transit":false,"is_transit":false,"time":4,"line":1,"distance":1230,"i_lat":-6.155215,"station_name":"Duri","station_id":"DU"},{"i_lat":-6.185545,"distance":3632,"i_long":106.811091,"line":1,"is_transit":false,"transit":false,"station_name":"Tanah Abang","station_id":"THB","time":8}],[{"station_id":"DPB","is_transit":false,"i_long":106.819451,"transit":false,"time":0,"i_lat":-6.391065,"line":2,"station_name":"Depokbaru","distance":0},{"transit":false,"i_lat":-6.369073,"time":4,"station_name":"Pondok Cina","station_id":"POC","distance":2727,"line":2,"is_transit":false,"i_long":106.831114},{"station_id":"UI","i_long":106.831474,"transit":false,"is_transit":false,"time":2,"distance":1109,"i_lat":-6.360749,"station_name":"Univ. Indonesia","line":2},{"distance":2264,"i_lat":-6.339291,"line":2,"station_id":"UP","station_name":"Univ. Pancasila","time":3,"is_transit":false,"transit":false,"i_long":106.834175},{"station_name":"Lenteng Agung","station_id":"LNA","is_transit":false,"i_long":106.832616,"distance":1029,"i_lat":-6.330363,"time":2,"transit":false,"line":2},{"station_name":"Tanjung Barat","is_transit":false,"transit":false,"distance":2671,"i_lat":-6.3080680000000005,"station_id":"TNT","time":3,"i_long":106.838896,"line":2},{"station_id":"PSM","transit":false,"is_transit":false,"line":2,"i_long":106.843999,"i_lat":-6.2842400000000005,"distance":2820,"time":4,"station_name":"Pasar Minggu"},{"i_long":106.851577,"line":2,"transit":false,"station_name":"Pasar Minggu Baru","station_id":"PSMB","is_transit":false,"time":2,"distance":2380,"i_lat":-6.263214},{"time":2,"station_name":"Duren Kalibata","transit":false,"i_long":106.85449,"i_lat":-6.255332,"station_id":"DRN","distance":824,"line":2,"is_transit":false},{"station_name":"Cawang","line":2,"distance":1546,"i_lat":-6.242512,"transit":false,"is_transit":false,"station_id":"CW","i_long":106.856607,"time":3},{"time":2,"distance":1230,"i_lat":-6.226659,"i_long":106.857948,"transit":false,"station_name":"Tebet","line":2,"station_id":"TEB","is_transit":false},{"transit":true,"station_name":"Manggarai","i_lat":-6.209883,"is_transit":true,"distance":2610,"station_id":"MRI","i_long":106.84912,"time":4,"line":2},{"line":1,"distance":1275,"is_transit":false,"station_name":"Matraman","i_long":106.858896,"time":2,"station_id":"MTR","i_lat":-6.212485,"transit":false},{"line":1,"transit":true,"distance":1377,"is_transit":true,"time":8,"i_long":106.86807400000001,"i_lat":-6.215091,"station_id":"JNG","station_name":"Jatinegara"},{"i_long":106.861737,"transit":false,"station_name":"Pondok Jati","time":2,"i_lat":-6.209188,"distance":1236,"is_transit":false,"station_id":"POK","line":11},{"line":11,"station_id":"KMT","station_name":"Kramat","transit":false,"i_lat":-6.193792,"is_transit":false,"time":2,"distance":1829,"i_long":106.855437},{"transit":false,"station_id":"GST","i_long":106.850107,"is_transit":false,"time":1,"distance":973,"line":11,"i_lat":-6.185975,"station_name":"Gang Sentiong"},{"station_name":"Pasar Senen","line":11,"transit":false,"time":8,"is_transit":false,"i_long":106.84368,"i_lat":-6.174784,"distance":1567,"station_id":"PSE"},{"time":4,"i_lat":-6.161728,"station_name":"Kemayoran","station_id":"KMO","line":11,"distance":1436,"i_long":106.839204,"transit":false,"is_transit":false},{"i_lat":-6.14505,"station_id":"RJW","is_transit":false,"time":5,"station_name":"Rajawali","distance":1901,"i_long":106.836569,"transit":false,"line":11},{"i_lat":-6.132549,"distance":1444,"transit":true,"i_long":106.826365,"station_id":"KPB","time":3,"line":4,"station_name":"Kampung Bandan","is_transit":true},{"transit":false,"is_transit":false,"station_name":"Angke","station_id":"AK","i_lat":-6.144674,"i_long":106.79867,"time":9,"line":1,"distance":4102},{"i_lat":-6.155215,"i_long":106.800832,"line":1,"transit":false,"is_transit":false,"time":4,"station_name":"Duri","distance":1230,"station_id":"DU"},{"time":8,"i_long":106.811091,"transit":false,"station_name":"Tanah Abang","i_lat":-6.185545,"station_id":"THB","distance":3632,"line":1,"is_transit":false}]]}