{"data":[[{"transit":false,"is_transit":false,"i_lat":-6.391065,"distance":0,"line":0,"station_id":"DPB","time":0,"i_long":106.819451,"station_name":"Depokbaru"},{"i_long":106.831114,"transit":false,"station_id":"POC","is_transit":false,"time":4,"line":2,"i_lat":-6.369073,"distance":2727,"station_name":"Pondok Cina"},{"is_transit":false,"station_name":"Univ. Indonesia","transit":false,"time":2,"i_lat":-6.360749,"distance":1109,"i_long":106.831474,"station_id":"UI","line":2},{"i_long":106.834175,"transit":false,"distance":2264,"station_id":"UP","station_name":"Univ. Pancasila","i_lat":-6.339291,"line":2,"is_transit":false,"time":3},{"is_transit":false,"station_name":"Lenteng Agung","i_long":106.832616,"distance":1029,"line":2,"station_id":"LNA","time":2,"transit":false,"i_lat":-6.330363},{"distance":2671,"line":2,"station_id":"TNT","time":3,"is_transit":false,"transit":false,"station_name":"Tanjung Barat","i_long":106.838896,"i_lat":-6.3080680000000005}]]}