{"data":[[{"is_transit":false,"time":0,"transit":false,"i_long":106.819451,"i_lat":-6.391065,"line":0,"distance":0,"station_id":"DPB","station_name":"Depokbaru"},{"station_id":"POC","station_name":"Pondok Cina","i_long":106.831114,"time":4,"distance":2727,"is_transit":false,"transit":false,"line":2,"i_lat":-6.369073},{"transit":false,"i_lat":-6.360749,"station_id":"UI","is_transit":false,"station_name":"Univ. Indonesia","distance":1109,"i_long":106.831474,"line":2,"time":2},{"transit":false,"is_transit":false,"i_lat":-6.339291,"line":2,"distance":2264,"station_name":"Univ. Pancasila","time":3,"i_long":106.834175,"station_id":"UP"},{"i_long":106.832616,"line":2,"is_transit":false,"time":2,"station_id":"LNA","transit":false,"station_name":"Lenteng Agung","i_lat":-6.330363,"distance":1029},{"is_transit":false,"i_long":106.838896,"transit":false,"i_lat":-6.3080680000000005,"line":2,"distance":2671,"station_name":"Tanjung Barat","station_id":"TNT","time":3},{"transit":false,"is_transit":false,"i_lat":-6.2842400000000005,"time":4,"station_name":"Pasar Minggu","i_long":106.843999,"station_id":"PSM","distance":2820,"line":2},{"line":2,"transit":false,"is_transit":false,"station_id":"PSMB","i_lat":-6.263214,"distance":2380,"time":2,"i_long":106.851577,"station_name":"Pasar Minggu Baru"},{"i_lat":-6.255332,"is_transit":false,"i_long":106.85449,"station_id":"DRN","time":2,"line":0,"distance":824,"station_name":"Duren Kalibata","transit":false},{"transit":false,"station_id":"CW","line":0,"i_lat":-6.242512,"station_name":"Cawang","time":3,"is_transit":false,"distance":1546,"i_long":106.856607},{"line":2,"station_id":"TEB","distance":1230,"is_transit":false,"time":2,"station_name":"Tebet","transit":false,"i_lat":-6.226659,"i_long":106.857948},{"line":0,"distance":2610,"i_lat":-6.209883,"is_transit":true,"i_long":106.84912,"time":4,"station_name":"Manggarai","transit":true,"station_id":"MRI"},{"distance":1590,"station_id":"CKI","line":0,"time":4,"transit":false,"station_name":"Cikini","i_lat":-6.198556,"is_transit":false,"i_long":106.840169}],[{"i_long":106.819451,"is_transit":false,"time":0,"i_lat":-6.391065,"line":0,"station_id":"DPB","distance":0,"station_name":"Depokbaru","transit":false},{"distance":2727,"is_transit":false,"station_id":"POC","time":4,"line":2,"transit":false,"station_name":"Pondok Cina","i_lat":-6.369073,"i_long":106.831114},{"i_long":106.831474,"distance":1109,"time":2,"transit":false,"is_transit":false,"line":2,"station_id":"UI","i_lat":-6.360749,"station_name":"Univ. Indonesia"},{"transit":false,"i_long":106.834175,"station_name":"Univ. Pancasila","time":3,"is_transit":false,"i_lat":-6.339291,"station_id":"UP","distance":2264,"line":2},{"station_name":"Lenteng Agung","i_lat":-6.330363,"station_id":"LNA","distance":1029,"line":2,"transit":false,"i_long":106.832616,"is_transit":false,"time":2},{"is_transit":false,"station_id":"TNT","station_name":"Tanjung Barat","time":3,"line":2,"i_long":106.838896,"distance":2671,"i_lat":-6.3080680000000005,"transit":false},{"line":2,"is_transit":false,"i_lat":-6.2842400000000005,"transit":false,"time":4,"distance":2820,"i_long":106.843999,"station_id":"PSM","station_name":"Pasar Minggu"},{"station_name":"Pasar Minggu Baru","is_transit":false,"line":2,"time":2,"i_lat":-6.263214,"transit":false,"distance":2380,"station_id":"PSMB","i_long":106.851577},{"transit":false,"time":2,"i_long":106.85449,"distance":824,"station_name":"Duren Kalibata","station_id":"DRN","is_transit":false,"i_lat":-6.255332,"line":0},{"time":3,"distance":1546,"is_transit":false,"station_id":"CW","i_long":106.856607,"transit":false,"line":0,"station_name":"Cawang","i_lat":-6.242512},{"is_transit":false,"distance":1230,"station_name":"Tebet","i_lat":-6.226659,"station_id":"TEB","transit":false,"i_long":106.857948,"line":2,"time":2},{"station_id":"MRI","time":4,"is_transit":true,"station_name":"Manggarai","transit":true,"distance":2610,"i_lat":-6.209883,"i_long":106.84912,"line":0},{"line":1,"time":4,"distance":3186,"is_transit":false,"station_name":"Sudirman","transit":false,"i_long":106.822649,"station_id":"SUD","i_lat":-6.202263},{"i_long":106.819881,"time":1,"station_name":"Sudirman Baru","distance":280,"is_transit":false,"i_lat":-6.201433,"transit":false,"station_id":"SUDB","line":1},{"distance":471,"station_name":"Karet","is_transit":false,"i_lat":-6.20132,"time":1,"transit":false,"line":1,"i_long":106.816351,"station_id":"KAT"},{"time":5,"station_id":"THB","i_lat":-6.185545,"line":1,"i_long":106.811091,"is_transit":true,"station_name":"Tanah Abang","transit":false,"distance":2029},{"time":8,"station_name":"Duri","i_lat":-6.155215,"distance":3632,"i_long":106.800832,"line":1,"is_transit":true,"transit":true,"station_id":"DU"},{"i_long":106.79867,"transit":false,"distance":1230,"time":4,"i_lat":-6.144674,"station_id":"AK","station_name":"Angke","is_transit":false,"line":0},{"distance":4102,"time":9,"station_id":"KPB","i_long":106.826365,"is_transit":true,"transit":false,"station_name":"Kampung Bandan","line":0,"i_lat":-6.132549},{"time":3,"i_lat":-6.137569,"station_name":"Jakarta Kota","distance":1364,"is_transit":true,"station_id":"JAKK","transit":true,"i_long":106.812439,"line":0},{"station_id":"JAY","i_long":106.820901,"is_transit":false,"line":7,"distance":1264,"time":4,"i_lat":-6.141205,"transit":false,"station_name":"Jayakarta"},{"time":2,"i_lat":-6.149769,"i_long":106.82482,"line":2,"station_name":"Manggabesar","distance":1080,"transit":false,"is_transit":false,"station_id":"MGB"},{"is_transit":false,"transit":false,"line":2,"distance":906,"station_id":"SW","station_name":"Sawah Besar","time":2,"i_lat":-6.160725,"i_long":106.827103},{"line":2,"i_long":106.828284,"station_name":"Juanda","i_lat":-6.166716,"station_id":"JUA","transit":false,"time":2,"distance":1149,"is_transit":false},{"time":4,"transit":false,"line":2,"station_name":"Gondangdia","is_transit":false,"i_lat":-6.186295,"station_id":"GDD","i_long":106.832183,"distance":2015},{"is_transit":false,"transit":false,"i_long":106.840169,"distance":1750,"line":0,"station_id":"CKI","station_name":"Cikini","time":3,"i_lat":-6.198556}],[{"time":0,"distance":0,"station_name":"Depokbaru","i_long":106.819451,"is_transit":false,"transit":false,"i_lat":-6.391065,"station_id":"DPB","line":0},{"transit":false,"station_id":"POC","distance":2727,"line":2,"is_transit":false,"station_name":"Pondok Cina","time":4,"i_long":106.831114,"i_lat":-6.369073},{"distance":1109,"station_name":"Univ. Indonesia","is_transit":false,"i_lat":-6.360749,"station_id":"UI","time":2,"transit":false,"i_long":106.831474,"line":2},{"station_name":"Univ. Pancasila","i_lat":-6.339291,"is_transit":false,"distance":2264,"line":2,"station_id":"UP","i_long":106.834175,"time":3,"transit":false},{"distance":1029,"is_transit":false,"time":2,"i_lat":-6.330363,"transit":false,"line":2,"station_name":"Lenteng Agung","i_long":106.832616,"station_id":"LNA"},{"station_id":"TNT","time":3,"distance":2671,"station_name":"Tanjung Barat","is_transit":false,"transit":false,"line":2,"i_long":106.838896,"i_lat":-6.3080680000000005},{"distance":2820,"is_transit":false,"transit":false,"time":4,"i_long":106.843999,"station_id":"PSM","station_name":"Pasar Minggu","i_lat":-6.2842400000000005,"line":2},{"line":2,"station_id":"PSMB","time":2,"is_transit":false,"station_name":"Pasar Minggu Baru","transit":false,"i_long":106.851577,"distance":2380,"i_lat":-6.263214},{"time":2,"distance":824,"station_name":"Duren Kalibata","line":0,"station_id":"DRN","transit":false,"i_long":106.85449,"is_transit":false,"i_lat":-6.255332},{"i_long":106.856607,"line":0,"is_transit":false,"transit":false,"station_id":"CW","distance":1546,"time":3,"i_lat":-6.242512,"station_name":"Cawang"},{"i_long":106.857948,"station_id":"TEB","time":2,"i_lat":-6.226659,"transit":false,"line":2,"station_name":"Tebet","is_transit":false,"distance":1230},{"station_name":"Manggarai","line":0,"time":4,"station_id":"MRI","is_transit":true,"transit":true,"i_long":106.84912,"i_lat":-6.209883,"distance":2610},{"is_transit":false,"station_id":"MTR","time":2,"station_name":"Matraman","i_lat":-6.212485,"transit":false,"i_long":106.858896,"line":1,"distance":1275},{"station_name":"Jatinegara","i_lat":-6.215091,"station_id":"JNG","time":8,"i_long":106.86807400000001,"is_transit":true,"transit":true,"distance":1377,"line":0},{"i_lat":-6.209188,"station_id":"POK","is_transit":false,"time":2,"i_long":106.861737,"station_name":"Pondok Jati","line":11,"distance":1236,"transit":false},{"i_lat":-6.193792,"distance":1829,"transit":false,"line":11,"time":2,"is_transit":false,"station_id":"KMT","i_long":106.855437,"station_name":"Kramat"},{"station_id":"GST","time":1,"station_name":"Gang Sentiong","transit":false,"line":11,"i_long":106.850107,"i_lat":-6.185975,"distance":973,"is_transit":false},{"transit":false,"distance":1567,"time":8,"station_id":"PSE","station_name":"Pasar Senen","i_long":106.84368,"is_transit":false,"line":11,"i_lat":-6.174784},{"station_name":"Kemayoran","time":4,"i_long":106.839204,"line":11,"is_transit":false,"i_lat":-6.161728,"distance":1436,"station_id":"KMO","transit":false},{"distance":1901,"station_id":"RJW","i_long":106.836569,"transit":false,"time":5,"i_lat":-6.14505,"is_transit":false,"station_name":"Rajawali","line":11},{"station_id":"KPB","time":3,"transit":true,"is_transit":true,"line":0,"i_long":106.826365,"distance":1444,"station_name":"Kampung Bandan","i_lat":-6.132549},{"station_id":"JAKK","distance":1364,"is_transit":true,"transit":true,"i_long":106.812439,"i_lat":-6.137569,"time":3,"line":0,"station_name":"Jakarta Kota"},{"transit":false,"distance":1264,"station_id":"JAY","station_name":"Jayakarta","line":7,"i_lat":-6.141205,"is_transit":false,"time":4,"i_long":106.820901},{"station_id":"MGB","distance":1080,"time":2,"i_lat":-6.149769,"station_name":"Manggabesar","line":2,"is_transit":false,"i_long":106.82482,"transit":false},{"time":2,"i_long":106.827103,"i_lat":-6.160725,"is_transit":false,"station_name":"Sawah Besar","line":2,"station_id":"SW","transit":false,"distance":906},{"station_name":"Juanda","is_transit":false,"time":2,"i_lat":-6.166716,"station_id":"JUA","line":2,"distance":1149,"transit":false,"i_long":106.828284},{"i_lat":-6.186295,"station_id":"GDD","distance":2015,"transit":false,"is_transit":false,"time":4,"station_name":"Gondangdia","line":2,"i_long":106.832183},{"i_lat":-6.198556,"line":0,"is_transit":false,"station_id":"CKI","i_long":106.840169,"transit":false,"time":3,"station_name":"Cikini","distance":1750}]]}