{"data":[[{"station_name":"Depokbaru","transit":false,"is_transit":false,"time":0,"station_id":"DPB","i_lat":-6.391065,"line":2,"i_long":106.819451,"distance":0},{"distance":2727,"station_id":"POC","line":2,"station_name":"Pondok Cina","time":4,"i_long":106.831114,"transit":false,"i_lat":-6.369073,"is_transit":false},{"i_lat":-6.360749,"station_name":"Univ. Indonesia","station_id":"UI","is_transit":false,"i_long":106.831474,"line":2,"distance":1109,"time":2,"transit":false},{"station_id":"UP","i_long":106.834175,"station_name":"Univ. Pancasila","line":2,"time":3,"transit":false,"distance":2264,"is_transit":false,"i_lat":-6.339291},{"time":2,"station_id":"LNA","line":2,"i_lat":-6.330363,"transit":false,"i_long":106.832616,"station_name":"Lenteng Agung","distance":1029,"is_transit":false},{"station_id":"TNT","is_transit":false,"station_name":"Tanjung Barat","i_lat":-6.3080680000000005,"distance":2671,"time":3,"transit":false,"i_long":106.838896,"line":2},{"i_lat":-6.2842400000000005,"line":2,"time":4,"is_transit":false,"transit":false,"distance":2820,"station_name":"Pasar Minggu","i_long":106.843999,"station_id":"PSM"},{"i_long":106.851577,"station_id":"PSMB","time":2,"line":2,"is_transit":false,"transit":false,"station_name":"Pasar Minggu Baru","distance":2380,"i_lat":-6.263214},{"i_long":106.85449,"station_id":"DRN","i_lat":-6.255332,"station_name":"Duren Kalibata","time":2,"line":2,"distance":824,"transit":false,"is_transit":false},{"line":2,"station_id":"CW","time":3,"station_name":"Cawang","distance":1546,"is_transit":false,"i_lat":-6.242512,"i_long":106.856607,"transit":false},{"distance":1230,"i_lat":-6.226659,"time":2,"transit":false,"i_long":106.857948,"line":2,"is_transit":false,"station_name":"Tebet","station_id":"TEB"},{"transit":true,"station_name":"Manggarai","time":4,"i_lat":-6.209883,"station_id":"MRI","distance":2610,"is_transit":true,"i_long":106.84912,"line":2},{"time":4,"distance":3186,"i_lat":-6.202263,"transit":false,"station_name":"Sudirman","station_id":"SUD","line":1,"i_long":106.822649,"is_transit":false},{"station_id":"SUDB","transit":false,"distance":280,"is_transit":false,"time":1,"i_lat":-6.201433,"line":1,"station_name":"Sudirman Baru","i_long":106.819881},{"i_lat":-6.20132,"distance":471,"time":1,"i_long":106.816351,"station_name":"Karet","line":1,"is_transit":false,"station_id":"KAT","transit":false},{"is_transit":true,"time":5,"i_long":106.811091,"station_name":"Tanah Abang","distance":2029,"transit":true,"line":1,"i_lat":-6.185545,"station_id":"THB"},{"distance":3191,"transit":false,"is_transit":false,"time":6,"station_id":"PLM","i_lat":-6.207404,"i_long":106.79689,"station_name":"Palmerah","line":6},{"time":7,"distance":3737,"i_lat":-6.237242,"station_id":"KBY","station_name":"Kebayoran","i_long":106.780334,"is_transit":false,"line":6,"transit":false},{"distance":6218,"transit":false,"line":6,"station_id":"PDJ","i_lat":-6.276362,"is_transit":false,"station_name":"Pondokranji","time":8,"i_long":106.74273},{"station_name":"Jurangmangu","time":3,"line":6,"i_lat":-6.288927,"station_id":"JMU","distance":2179,"i_long":106.728916,"transit":false,"is_transit":false},{"time":4,"station_id":"SDM","station_name":"Sudimara","is_transit":false,"line":6,"distance":1994,"i_long":106.712277,"i_lat":-6.296963,"transit":false},{"distance":4566,"station_name":"Rawa Buntu","time":6,"transit":false,"i_long":106.675475,"is_transit":false,"line":6,"i_lat":-6.314823,"station_id":"RU"},{"line":6,"station_name":"Serpong","i_long":106.66566,"distance":2413,"transit":false,"station_id":"SRP","is_transit":false,"i_lat":-6.319871,"time":4},{"line":3,"is_transit":false,"i_lat":-6.32484,"transit":false,"i_long":106.640411,"station_id":"CSK","station_name":"Cisauk","distance":1784,"time":4}],[{"is_transit":false,"line":2,"i_lat":-6.391065,"time":0,"station_id":"DPB","i_long":106.819451,"distance":0,"transit":false,"station_name":"Depokbaru"},{"i_lat":-6.369073,"time":4,"station_id":"POC","line":2,"is_transit":false,"transit":false,"i_long":106.831114,"distance":2727,"station_name":"Pondok Cina"},{"station_id":"UI","line":2,"time":2,"i_long":106.831474,"distance":1109,"is_transit":false,"i_lat":-6.360749,"transit":false,"station_name":"Univ. Indonesia"},{"i_lat":-6.339291,"i_long":106.834175,"is_transit":false,"distance":2264,"line":2,"station_id":"UP","transit":false,"station_name":"Univ. Pancasila","time":3},{"station_id":"LNA","is_transit":false,"distance":1029,"transit":false,"time":2,"i_long":106.832616,"line":2,"station_name":"Lenteng Agung","i_lat":-6.330363},{"time":3,"distance":2671,"transit":false,"is_transit":false,"i_lat":-6.3080680000000005,"station_name":"Tanjung Barat","station_id":"TNT","i_long":106.838896,"line":2},{"i_long":106.843999,"station_id":"PSM","line":2,"station_name":"Pasar Minggu","is_transit":false,"i_lat":-6.2842400000000005,"transit":false,"distance":2820,"time":4},{"i_lat":-6.263214,"i_long":106.851577,"station_name":"Pasar Minggu Baru","is_transit":false,"time":2,"station_id":"PSMB","line":2,"distance":2380,"transit":false},{"distance":824,"i_lat":-6.255332,"is_transit":false,"station_id":"DRN","line":2,"i_long":106.85449,"station_name":"Duren Kalibata","transit":false,"time":2},{"i_lat":-6.242512,"is_transit":false,"i_long":106.856607,"station_id":"CW","distance":1546,"line":2,"time":3,"transit":false,"station_name":"Cawang"},{"station_id":"TEB","line":2,"i_lat":-6.226659,"distance":1230,"i_long":106.857948,"transit":false,"is_transit":false,"station_name":"Tebet","time":2},{"transit":false,"i_lat":-6.209883,"station_name":"Manggarai","line":2,"time":4,"is_transit":false,"i_long":106.84912,"station_id":"MRI","distance":2610},{"distance":1590,"i_long":106.840169,"station_name":"Cikini","transit":false,"station_id":"CKI","time":4,"line":2,"is_transit":false,"i_lat":-6.198556},{"transit":false,"is_transit":false,"i_long":106.832183,"line":2,"i_lat":-6.186295,"station_name":"Gondangdia","station_id":"GDD","time":3,"distance":1750},{"i_long":106.828284,"line":2,"transit":false,"station_id":"JUA","distance":2015,"time":4,"i_lat":-6.166716,"is_transit":false,"station_name":"Juanda"},{"is_transit":false,"distance":1149,"station_name":"Sawah Besar","station_id":"SW","i_lat":-6.160725,"transit":false,"i_long":106.827103,"time":2,"line":2},{"time":2,"station_name":"Manggabesar","transit":false,"is_transit":false,"i_lat":-6.149769,"line":2,"station_id":"MGB","i_long":106.82482,"distance":906},{"i_lat":-6.141205,"is_transit":false,"i_long":106.820901,"time":2,"transit":false,"station_name":"Jayakarta","distance":1080,"station_id":"JAY","line":2},{"station_id":"JAKK","is_transit":true,"i_lat":-6.137569,"line":2,"time":4,"station_name":"Jakarta Kota","i_long":106.812439,"transit":true,"distance":1264},{"line":4,"i_lat":-6.132549,"i_long":106.826365,"station_id":"KPB","is_transit":true,"station_name":"Kampung Bandan","distance":1364,"time":3,"transit":true},{"i_lat":-6.144674,"time":9,"line":1,"transit":false,"is_transit":false,"i_long":106.79867,"station_id":"AK","station_name":"Angke","distance":4102},{"is_transit":false,"station_name":"Duri","distance":1230,"transit":false,"line":1,"i_long":106.800832,"i_lat":-6.155215,"time":4,"station_id":"DU"},{"station_name":"Tanah Abang","time":8,"station_id":"THB","i_lat":-6.185545,"transit":true,"distance":3632,"line":1,"is_transit":true,"i_long":106.811091},{"line":6,"station_name":"Palmerah","i_long":106.79689,"station_id":"PLM","time":6,"is_transit":false,"distance":3191,"transit":false,"i_lat":-6.207404},{"station_name":"Kebayoran","time":7,"is_transit":false,"transit":false,"i_long":106.780334,"line":6,"i_lat":-6.237242,"distance":3737,"station_id":"KBY"},{"station_id":"PDJ","distance":6218,"time":8,"transit":false,"station_name":"Pondokranji","is_transit":false,"i_lat":-6.276362,"i_long":106.74273,"line":6},{"time":3,"i_long":106.728916,"transit":false,"is_transit":false,"line":6,"station_name":"Jurangmangu","distance":2179,"station_id":"JMU","i_lat":-6.288927},{"station_id":"SDM","line":6,"distance":1994,"transit":false,"is_transit":false,"i_lat":-6.296963,"time":4,"station_name":"Sudimara","i_long":106.712277},{"transit":false,"distance":4566,"station_id":"RU","time":6,"is_transit":false,"i_lat":-6.314823,"line":6,"i_long":106.675475,"station_name":"Rawa Buntu"},{"transit":false,"is_transit":false,"i_long":106.66566,"distance":2413,"i_lat":-6.319871,"line":6,"station_name":"Serpong","time":4,"station_id":"SRP"},{"is_transit":false,"transit":false,"i_lat":-6.32484,"time":4,"i_long":106.640411,"distance":1784,"station_id":"CSK","station_name":"Cisauk","line":3}],[{"i_long":106.819451,"distance":0,"is_transit":false,"line":2,"time":0,"station_id":"DPB","transit":false,"i_lat":-6.391065,"station_name":"Depokbaru"},{"distance":2727,"station_id":"POC","transit":false,"time":4,"i_lat":-6.369073,"i_long":106.831114,"line":2,"is_transit":false,"station_name":"Pondok Cina"},{"station_id":"UI","time":2,"station_name":"Univ. Indonesia","distance":1109,"i_long":106.831474,"transit":false,"is_transit":false,"i_lat":-6.360749,"line":2},{"line":2,"transit":false,"station_id":"UP","time":3,"i_lat":-6.339291,"distance":2264,"i_long":106.834175,"is_transit":false,"station_name":"Univ. Pancasila"},{"station_name":"Lenteng Agung","distance":1029,"transit":false,"i_lat":-6.330363,"line":2,"station_id":"LNA","i_long":106.832616,"is_transit":false,"time":2},{"transit":false,"time":3,"station_id":"TNT","i_lat":-6.3080680000000005,"station_name":"Tanjung Barat","distance":2671,"i_long":106.838896,"is_transit":false,"line":2},{"station_id":"PSM","station_name":"Pasar Minggu","distance":2820,"i_lat":-6.2842400000000005,"i_long":106.843999,"line":2,"transit":false,"is_transit":false,"time":4},{"i_lat":-6.263214,"transit":false,"distance":2380,"is_transit":false,"station_name":"Pasar Minggu Baru","line":2,"time":2,"i_long":106.851577,"station_id":"PSMB"},{"is_transit":false,"i_long":106.85449,"time":2,"station_id":"DRN","transit":false,"line":2,"distance":824,"station_name":"Duren Kalibata","i_lat":-6.255332},{"station_id":"CW","time":3,"i_lat":-6.242512,"line":2,"station_name":"Cawang","transit":false,"distance":1546,"i_long":106.856607,"is_transit":false},{"time":2,"i_long":106.857948,"station_name":"Tebet","distance":1230,"line":2,"transit":false,"is_transit":false,"i_lat":-6.226659,"station_id":"TEB"},{"distance":2610,"station_name":"Manggarai","i_long":106.84912,"station_id":"MRI","line":2,"time":4,"transit":true,"is_transit":true,"i_lat":-6.209883},{"i_lat":-6.212485,"line":1,"station_id":"MTR","transit":false,"i_long":106.858896,"distance":1275,"time":2,"is_transit":false,"station_name":"Matraman"},{"i_lat":-6.215091,"station_name":"Jatinegara","distance":1377,"is_transit":true,"i_long":106.86807400000001,"time":8,"transit":true,"station_id":"JNG","line":1},{"i_lat":-6.209188,"is_transit":false,"time":2,"line":11,"transit":false,"i_long":106.861737,"station_name":"Pondok Jati","station_id":"POK","distance":1236},{"station_name":"Kramat","time":2,"line":11,"distance":1829,"i_lat":-6.193792,"transit":false,"is_transit":false,"i_long":106.855437,"station_id":"KMT"},{"is_transit":false,"i_lat":-6.185975,"station_id":"GST","line":11,"station_name":"Gang Sentiong","transit":false,"time":1,"i_long":106.850107,"distance":973},{"is_transit":false,"time":8,"station_name":"Pasar Senen","transit":false,"line":11,"station_id":"PSE","i_long":106.84368,"i_lat":-6.174784,"distance":1567},{"i_long":106.839204,"is_transit":false,"distance":1436,"station_id":"KMO","time":4,"transit":false,"i_lat":-6.161728,"station_name":"Kemayoran","line":11},{"line":11,"is_transit":false,"station_name":"Rajawali","i_lat":-6.14505,"distance":1901,"i_long":106.836569,"station_id":"RJW","transit":false,"time":5},{"distance":1444,"station_id":"KPB","transit":true,"i_long":106.826365,"station_name":"Kampung Bandan","time":3,"is_transit":true,"i_lat":-6.132549,"line":4},{"station_name":"Angke","i_long":106.79867,"distance":4102,"time":9,"line":1,"station_id":"AK","transit":false,"is_transit":false,"i_lat":-6.144674},{"transit":false,"i_long":106.800832,"station_id":"DU","line":1,"station_name":"Duri","distance":1230,"is_transit":false,"time":4,"i_lat":-6.155215},{"is_transit":true,"i_long":106.811091,"station_id":"THB","i_lat":-6.185545,"time":8,"station_name":"Tanah Abang","line":1,"distance":3632,"transit":true},{"distance":3191,"is_transit":false,"line":6,"station_name":"Palmerah","i_long":106.79689,"time":6,"station_id":"PLM","i_lat":-6.207404,"transit":false},{"i_lat":-6.237242,"transit":false,"station_id":"KBY","station_name":"Kebayoran","distance":3737,"time":7,"is_transit":false,"i_long":106.780334,"line":6},{"time":8,"i_long":106.74273,"is_transit":false,"i_lat":-6.276362,"station_name":"Pondokranji","distance":6218,"station_id":"PDJ","transit":false,"line":6},{"time":3,"i_long":106.728916,"station_name":"Jurangmangu","transit":false,"i_lat":-6.288927,"is_transit":false,"distance":2179,"station_id":"JMU","line":6},{"time":4,"distance":1994,"is_transit":false,"i_long":106.712277,"line":6,"transit":false,"i_lat":-6.296963,"station_id":"SDM","station_name":"Sudimara"},{"station_id":"RU","station_name":"Rawa Buntu","is_transit":false,"transit":false,"i_long":106.675475,"distance":4566,"line":6,"i_lat":-6.314823,"time":6},{"i_long":106.66566,"is_transit":false,"distance":2413,"station_id":"SRP","station_name":"Serpong","i_lat":-6.319871,"transit":false,"line":6,"time":4},{"transit":false,"is_transit":false,"i_lat":-6.32484,"i_long":106.640411,"station_id":"CSK","distance":1784,"station_name":"Cisauk","line":3,"time":4}]]}