{"data":[[{"station_id":"DPB","time":0,"i_long":106.819451,"is_transit":false,"distance":0,"station_name":"Depokbaru","i_lat":-6.391065,"line":2,"transit":false},{"transit":false,"station_id":"POC","i_lat":-6.369073,"line":2,"is_transit":false,"station_name":"Pondok Cina","i_long":106.831114,"distance":2727,"time":4},{"time":2,"station_name":"Univ. Indonesia","transit":false,"station_id":"UI","distance":1109,"i_long":106.831474,"i_lat":-6.360749,"is_transit":false,"line":2},{"i_lat":-6.339291,"station_name":"Univ. Pancasila","distance":2264,"station_id":"UP","transit":false,"time":3,"line":2,"i_long":106.834175,"is_transit":false},{"station_name":"Lenteng Agung","time":2,"transit":false,"station_id":"LNA","is_transit":false,"distance":1029,"i_long":106.832616,"i_lat":-6.330363,"line":2},{"station_id":"TNT","station_name":"Tanjung Barat","transit":false,"is_transit":false,"i_long":106.838896,"line":2,"time":3,"distance":2671,"i_lat":-6.3080680000000005}]]}