{"data":[[{"distance":0,"station_id":"DPB","station_name":"Depokbaru","i_long":106.819451,"line":2,"is_transit":false,"transit":false,"i_lat":-6.391065,"time":0},{"transit":false,"i_long":106.831114,"station_name":"Pondok Cina","station_id":"POC","i_lat":-6.369073,"is_transit":false,"time":4,"distance":2727,"line":2},{"time":2,"station_id":"UI","is_transit":false,"transit":false,"i_lat":-6.360749,"distance":1109,"station_name":"Univ. Indonesia","line":2,"i_long":106.831474},{"time":3,"distance":2264,"transit":false,"station_id":"UP","i_long":106.834175,"is_transit":false,"i_lat":-6.339291,"station_name":"Univ. Pancasila","line":2},{"i_long":106.832616,"station_name":"Lenteng Agung","station_id":"LNA","time":2,"i_lat":-6.330363,"line":2,"is_transit":false,"transit":false,"distance":1029},{"station_name":"Tanjung Barat","i_lat":-6.3080680000000005,"time":3,"is_transit":false,"distance":2671,"line":2,"station_id":"TNT","i_long":106.838896,"transit":false}]]}