{"data":[[{"station_id":"DPB","line":0,"is_transit":false,"time":0,"distance":0,"i_long":106.819451,"transit":false,"station_name":"Depokbaru","i_lat":-6.391065},{"line":2,"i_lat":-6.369073,"distance":2727,"station_name":"Pondok Cina","is_transit":false,"transit":false,"time":4,"station_id":"POC","i_long":106.831114},{"i_long":106.831474,"time":2,"i_lat":-6.360749,"transit":false,"station_id":"UI","distance":1109,"is_transit":false,"line":2,"station_name":"Univ. Indonesia"},{"time":3,"i_lat":-6.339291,"is_transit":false,"i_long":106.834175,"line":2,"distance":2264,"station_name":"Univ. Pancasila","station_id":"UP","transit":false},{"transit":false,"line":2,"i_long":106.832616,"is_transit":false,"station_name":"Lenteng Agung","station_id":"LNA","time":2,"distance":1029,"i_lat":-6.330363},{"station_id":"TNT","i_lat":-6.3080680000000005,"is_transit":false,"line":2,"time":3,"station_name":"Tanjung Barat","transit":false,"i_long":106.838896,"distance":2671},{"is_transit":false,"station_id":"PSM","time":4,"distance":2820,"station_name":"Pasar Minggu","i_lat":-6.2842400000000005,"i_long":106.843999,"transit":false,"line":2},{"station_id":"PSMB","distance":2380,"line":2,"i_lat":-6.263214,"i_long":106.851577,"is_transit":false,"transit":false,"time":2,"station_name":"Pasar Minggu Baru"},{"i_lat":-6.255332,"transit":false,"station_name":"Duren Kalibata","line":0,"station_id":"DRN","is_transit":false,"distance":824,"time":2,"i_long":106.85449},{"i_long":106.856607,"station_id":"CW","i_lat":-6.242512,"line":0,"transit":false,"is_transit":false,"time":3,"station_name":"Cawang","distance":1546},{"station_name":"Tebet","i_long":106.857948,"line":2,"transit":false,"is_transit":false,"i_lat":-6.226659,"time":2,"station_id":"TEB","distance":1230},{"i_long":106.84912,"time":4,"i_lat":-6.209883,"is_transit":true,"station_id":"MRI","station_name":"Manggarai","transit":true,"distance":2610,"line":0},{"transit":false,"station_name":"Sudirman","i_lat":-6.202263,"station_id":"SUD","time":4,"i_long":106.822649,"is_transit":false,"line":1,"distance":3186},{"station_name":"Sudirman Baru","is_transit":false,"time":1,"transit":false,"distance":280,"i_lat":-6.201433,"i_long":106.819881,"line":1,"station_id":"SUDB"},{"station_id":"KAT","i_lat":-6.20132,"line":1,"transit":false,"time":1,"station_name":"Karet","is_transit":false,"distance":471,"i_long":106.816351},{"distance":2029,"i_lat":-6.185545,"station_id":"THB","time":5,"transit":false,"line":1,"i_long":106.811091,"station_name":"Tanah Abang","is_transit":true},{"station_id":"DU","time":8,"transit":true,"i_lat":-6.155215,"i_long":106.800832,"is_transit":true,"line":1,"station_name":"Duri","distance":3632},{"distance":1700,"i_lat":-6.162021,"is_transit":false,"line":5,"station_id":"GGL","transit":false,"time":3,"i_long":106.788277,"station_name":"Grogol"},{"i_lat":-6.161433,"station_name":"Pesing","station_id":"PSG","time":2,"line":5,"transit":false,"distance":2036,"i_long":106.771379,"is_transit":false},{"distance":1614,"i_lat":-6.1587309999999995,"time":2,"transit":false,"station_name":"Taman Kota","line":5,"station_id":"TKO","i_long":106.756522,"is_transit":false},{"transit":false,"station_name":"Bojongindah","station_id":"BOI","i_lat":-6.159876,"line":0,"i_long":106.737035,"is_transit":false,"time":2,"distance":2334},{"distance":1152,"transit":false,"station_name":"Rawa Buaya","i_lat":-6.162758,"line":5,"time":4,"is_transit":false,"station_id":"RW","i_long":106.723064},{"i_lat":-6.166068,"station_name":"Kalideres","distance":2504,"station_id":"KDS","is_transit":false,"i_long":106.701612,"transit":false,"time":3,"line":5},{"is_transit":false,"i_long":106.679458,"station_name":"Poris","station_id":"PI","time":3,"distance":2548,"transit":false,"i_lat":-6.169933,"line":5},{"i_lat":-6.171811,"time":3,"line":0,"is_transit":false,"station_name":"Batuceper","station_id":"BPR","transit":false,"distance":1834,"i_long":106.665036},{"station_name":"Tanah Tinggi","is_transit":false,"station_id":"TTI","time":3,"distance":2028,"line":5,"transit":false,"i_lat":-6.17331,"i_long":106.64657},{"station_id":"TNG","distance":1547,"is_transit":false,"line":5,"transit":false,"station_name":"Tangerang","i_lat":-6.176583,"i_long":106.632761,"time":3}],[{"station_id":"DPB","distance":0,"i_long":106.819451,"transit":false,"i_lat":-6.391065,"station_name":"Depokbaru","is_transit":false,"time":0,"line":0},{"distance":2727,"station_name":"Pondok Cina","transit":false,"is_transit":false,"i_lat":-6.369073,"i_long":106.831114,"station_id":"POC","line":2,"time":4},{"time":2,"distance":1109,"transit":false,"station_name":"Univ. Indonesia","line":2,"i_long":106.831474,"station_id":"UI","is_transit":false,"i_lat":-6.360749},{"is_transit":false,"i_long":106.834175,"i_lat":-6.339291,"station_id":"UP","distance":2264,"station_name":"Univ. Pancasila","transit":false,"line":2,"time":3},{"transit":false,"station_id":"LNA","station_name":"Lenteng Agung","distance":1029,"line":2,"i_lat":-6.330363,"i_long":106.832616,"time":2,"is_transit":false},{"i_long":106.838896,"station_id":"TNT","station_name":"Tanjung Barat","time":3,"transit":false,"i_lat":-6.3080680000000005,"distance":2671,"is_transit":false,"line":2},{"distance":2820,"i_lat":-6.2842400000000005,"i_long":106.843999,"time":4,"line":2,"transit":false,"station_name":"Pasar Minggu","station_id":"PSM","is_transit":false},{"station_name":"Pasar Minggu Baru","i_long":106.851577,"distance":2380,"line":2,"station_id":"PSMB","is_transit":false,"transit":false,"i_lat":-6.263214,"time":2},{"station_name":"Duren Kalibata","is_transit":false,"time":2,"station_id":"DRN","line":0,"i_long":106.85449,"transit":false,"distance":824,"i_lat":-6.255332},{"station_name":"Cawang","is_transit":false,"time":3,"line":0,"transit":false,"i_long":106.856607,"i_lat":-6.242512,"distance":1546,"station_id":"CW"},{"station_id":"TEB","transit":false,"i_lat":-6.226659,"is_transit":false,"distance":1230,"line":2,"time":2,"i_long":106.857948,"station_name":"Tebet"},{"station_id":"MRI","transit":true,"distance":2610,"i_lat":-6.209883,"i_long":106.84912,"line":0,"time":4,"is_transit":true,"station_name":"Manggarai"},{"distance":1590,"station_name":"Cikini","i_long":106.840169,"transit":false,"is_transit":false,"time":4,"i_lat":-6.198556,"line":0,"station_id":"CKI"},{"distance":1750,"line":2,"is_transit":false,"i_lat":-6.186295,"time":3,"station_name":"Gondangdia","i_long":106.832183,"transit":false,"station_id":"GDD"},{"is_transit":false,"station_name":"Juanda","station_id":"JUA","distance":2015,"i_lat":-6.166716,"i_long":106.828284,"transit":false,"time":4,"line":2},{"line":2,"distance":1149,"i_long":106.827103,"station_id":"SW","time":2,"station_name":"Sawah Besar","i_lat":-6.160725,"is_transit":false,"transit":false},{"station_id":"MGB","station_name":"Manggabesar","line":2,"distance":906,"transit":false,"is_transit":false,"i_lat":-6.149769,"time":2,"i_long":106.82482},{"is_transit":false,"transit":false,"distance":1080,"station_id":"JAY","station_name":"Jayakarta","i_lat":-6.141205,"time":2,"i_long":106.820901,"line":7},{"time":4,"i_long":106.812439,"line":0,"transit":true,"station_name":"Jakarta Kota","is_transit":true,"station_id":"JAKK","distance":1264,"i_lat":-6.137569},{"time":3,"is_transit":true,"station_id":"KPB","line":0,"station_name":"Kampung Bandan","transit":false,"i_long":106.826365,"distance":1364,"i_lat":-6.132549},{"transit":false,"distance":4102,"line":0,"station_id":"AK","i_long":106.79867,"time":9,"station_name":"Angke","i_lat":-6.144674,"is_transit":false},{"station_id":"DU","line":1,"is_transit":true,"time":4,"transit":true,"distance":1230,"station_name":"Duri","i_lat":-6.155215,"i_long":106.800832},{"i_lat":-6.162021,"is_transit":false,"station_name":"Grogol","i_long":106.788277,"distance":1700,"station_id":"GGL","time":3,"transit":false,"line":5},{"distance":2036,"is_transit":false,"station_name":"Pesing","station_id":"PSG","i_lat":-6.161433,"time":2,"line":5,"transit":false,"i_long":106.771379},{"i_long":106.756522,"transit":false,"i_lat":-6.1587309999999995,"time":2,"station_name":"Taman Kota","station_id":"TKO","line":5,"distance":1614,"is_transit":false},{"time":2,"i_lat":-6.159876,"transit":false,"is_transit":false,"line":0,"distance":2334,"station_name":"Bojongindah","i_long":106.737035,"station_id":"BOI"},{"station_name":"Rawa Buaya","station_id":"RW","distance":1152,"line":5,"is_transit":false,"i_lat":-6.162758,"transit":false,"time":4,"i_long":106.723064},{"station_id":"KDS","time":3,"i_long":106.701612,"distance":2504,"station_name":"Kalideres","line":5,"transit":false,"i_lat":-6.166068,"is_transit":false},{"station_id":"PI","distance":2548,"is_transit":false,"station_name":"Poris","transit":false,"i_lat":-6.169933,"time":3,"i_long":106.679458,"line":5},{"station_id":"BPR","i_long":106.665036,"time":3,"i_lat":-6.171811,"station_name":"Batuceper","is_transit":false,"line":0,"distance":1834,"transit":false},{"time":3,"is_transit":false,"transit":false,"line":5,"i_long":106.64657,"station_name":"Tanah Tinggi","distance":2028,"i_lat":-6.17331,"station_id":"TTI"},{"transit":false,"distance":1547,"i_lat":-6.176583,"station_name":"Tangerang","is_transit":false,"time":3,"station_id":"TNG","i_long":106.632761,"line":5}],[{"distance":0,"line":0,"station_id":"DPB","i_long":106.819451,"transit":false,"i_lat":-6.391065,"is_transit":false,"station_name":"Depokbaru","time":0},{"i_long":106.831114,"line":2,"station_name":"Pondok Cina","is_transit":false,"station_id":"POC","transit":false,"time":4,"distance":2727,"i_lat":-6.369073},{"i_lat":-6.360749,"i_long":106.831474,"station_name":"Univ. Indonesia","line":2,"transit":false,"distance":1109,"time":2,"is_transit":false,"station_id":"UI"},{"time":3,"i_long":106.834175,"i_lat":-6.339291,"line":2,"station_id":"UP","transit":false,"distance":2264,"is_transit":false,"station_name":"Univ. Pancasila"},{"line":2,"i_long":106.832616,"distance":1029,"i_lat":-6.330363,"transit":false,"is_transit":false,"time":2,"station_name":"Lenteng Agung","station_id":"LNA"},{"i_lat":-6.3080680000000005,"i_long":106.838896,"is_transit":false,"line":2,"transit":false,"station_name":"Tanjung Barat","distance":2671,"time":3,"station_id":"TNT"},{"line":2,"station_id":"PSM","i_long":106.843999,"is_transit":false,"distance":2820,"time":4,"station_name":"Pasar Minggu","transit":false,"i_lat":-6.2842400000000005},{"station_name":"Pasar Minggu Baru","distance":2380,"is_transit":false,"transit":false,"line":2,"station_id":"PSMB","time":2,"i_lat":-6.263214,"i_long":106.851577},{"distance":824,"is_transit":false,"line":0,"station_name":"Duren Kalibata","transit":false,"station_id":"DRN","i_lat":-6.255332,"i_long":106.85449,"time":2},{"i_lat":-6.242512,"i_long":106.856607,"transit":false,"station_name":"Cawang","is_transit":false,"distance":1546,"station_id":"CW","time":3,"line":0},{"i_long":106.857948,"transit":false,"station_id":"TEB","distance":1230,"time":2,"station_name":"Tebet","is_transit":false,"i_lat":-6.226659,"line":2},{"time":4,"distance":2610,"station_name":"Manggarai","transit":true,"station_id":"MRI","is_transit":true,"i_lat":-6.209883,"i_long":106.84912,"line":0},{"transit":false,"i_lat":-6.212485,"is_transit":false,"i_long":106.858896,"station_id":"MTR","line":1,"time":2,"distance":1275,"station_name":"Matraman"},{"distance":1377,"i_lat":-6.215091,"i_long":106.86807400000001,"time":8,"station_id":"JNG","is_transit":true,"line":0,"station_name":"Jatinegara","transit":true},{"station_id":"POK","station_name":"Pondok Jati","transit":false,"is_transit":false,"line":11,"time":2,"i_lat":-6.209188,"distance":1236,"i_long":106.861737},{"station_name":"Kramat","i_long":106.855437,"distance":1829,"line":11,"time":2,"i_lat":-6.193792,"station_id":"KMT","is_transit":false,"transit":false},{"i_long":106.850107,"is_transit":false,"i_lat":-6.185975,"time":1,"station_id":"GST","transit":false,"distance":973,"line":11,"station_name":"Gang Sentiong"},{"transit":false,"time":8,"station_name":"Pasar Senen","is_transit":false,"distance":1567,"station_id":"PSE","i_lat":-6.174784,"i_long":106.84368,"line":11},{"station_name":"Kemayoran","station_id":"KMO","transit":false,"distance":1436,"i_lat":-6.161728,"time":4,"is_transit":false,"i_long":106.839204,"line":11},{"time":5,"line":11,"i_lat":-6.14505,"station_id":"RJW","is_transit":false,"distance":1901,"station_name":"Rajawali","i_long":106.836569,"transit":false},{"line":0,"transit":true,"time":3,"station_id":"KPB","i_long":106.826365,"i_lat":-6.132549,"is_transit":true,"station_name":"Kampung Bandan","distance":1444},{"distance":4102,"station_name":"Angke","i_long":106.79867,"is_transit":false,"i_lat":-6.144674,"station_id":"AK","time":9,"line":0,"transit":false},{"station_id":"DU","transit":true,"i_long":106.800832,"time":4,"i_lat":-6.155215,"station_name":"Duri","distance":1230,"is_transit":true,"line":1},{"distance":1700,"is_transit":false,"station_id":"GGL","time":3,"station_name":"Grogol","i_long":106.788277,"transit":false,"i_lat":-6.162021,"line":5},{"station_name":"Pesing","station_id":"PSG","transit":false,"time":2,"distance":2036,"is_transit":false,"i_long":106.771379,"line":5,"i_lat":-6.161433},{"transit":false,"is_transit":false,"i_lat":-6.1587309999999995,"station_id":"TKO","distance":1614,"i_long":106.756522,"station_name":"Taman Kota","time":2,"line":5},{"station_id":"BOI","station_name":"Bojongindah","transit":false,"is_transit":false,"i_lat":-6.159876,"line":0,"distance":2334,"i_long":106.737035,"time":2},{"line":5,"station_id":"RW","is_transit":false,"i_lat":-6.162758,"time":4,"i_long":106.723064,"transit":false,"distance":1152,"station_name":"Rawa Buaya"},{"station_name":"Kalideres","station_id":"KDS","distance":2504,"i_lat":-6.166068,"time":3,"line":5,"transit":false,"i_long":106.701612,"is_transit":false},{"is_transit":false,"station_id":"PI","distance":2548,"i_long":106.679458,"line":5,"station_name":"Poris","i_lat":-6.169933,"transit":false,"time":3},{"time":3,"transit":false,"distance":1834,"i_long":106.665036,"station_name":"Batuceper","is_transit":false,"station_id":"BPR","line":0,"i_lat":-6.171811},{"station_id":"TTI","time":3,"distance":2028,"line":5,"station_name":"Tanah Tinggi","i_lat":-6.17331,"transit":false,"is_transit":false,"i_long":106.64657},{"is_transit":false,"time":3,"i_lat":-6.176583,"station_id":"TNG","line":5,"transit":false,"i_long":106.632761,"station_name":"Tangerang","distance":1547}]]}