{"data":[[{"time":0,"distance":0,"is_transit":false,"transit":false,"station_id":"DPB","station_name":"Depokbaru","i_lat":-6.391065,"line":2,"i_long":106.819451},{"distance":2727,"time":4,"station_id":"POC","i_long":106.831114,"line":2,"station_name":"Pondok Cina","transit":false,"is_transit":false,"i_lat":-6.369073},{"transit":false,"distance":1109,"station_name":"Univ. Indonesia","i_long":106.831474,"line":2,"time":2,"station_id":"UI","i_lat":-6.360749,"is_transit":false},{"is_transit":false,"transit":false,"time":3,"station_name":"Univ. Pancasila","line":2,"i_long":106.834175,"distance":2264,"station_id":"UP","i_lat":-6.339291},{"station_name":"Lenteng Agung","time":2,"is_transit":false,"line":2,"transit":false,"i_lat":-6.330363,"i_long":106.832616,"distance":1029,"station_id":"LNA"},{"station_id":"TNT","is_transit":false,"time":3,"transit":false,"i_long":106.838896,"i_lat":-6.3080680000000005,"line":2,"station_name":"Tanjung Barat","distance":2671},{"station_name":"Pasar Minggu","i_lat":-6.2842400000000005,"line":2,"is_transit":false,"transit":false,"distance":2820,"station_id":"PSM","i_long":106.843999,"time":4},{"is_transit":false,"distance":2380,"station_id":"PSMB","time":2,"station_name":"Pasar Minggu Baru","transit":false,"i_lat":-6.263214,"i_long":106.851577,"line":2},{"is_transit":false,"distance":824,"station_id":"DRN","transit":false,"i_lat":-6.255332,"station_name":"Duren Kalibata","i_long":106.85449,"line":2,"time":2},{"station_name":"Cawang","time":3,"is_transit":false,"transit":false,"i_lat":-6.242512,"station_id":"CW","i_long":106.856607,"distance":1546,"line":2},{"station_id":"TEB","i_lat":-6.226659,"distance":1230,"station_name":"Tebet","is_transit":false,"transit":false,"i_long":106.857948,"line":2,"time":2},{"station_id":"MRI","station_name":"Manggarai","time":4,"i_lat":-6.209883,"is_transit":true,"transit":true,"distance":2610,"line":2,"i_long":106.84912},{"time":4,"station_id":"SUD","station_name":"Sudirman","transit":false,"i_lat":-6.202263,"distance":3186,"i_long":106.822649,"is_transit":false,"line":1},{"station_id":"SUDB","line":1,"station_name":"Sudirman Baru","transit":false,"time":1,"is_transit":false,"i_lat":-6.201433,"distance":280,"i_long":106.819881},{"i_lat":-6.20132,"i_long":106.816351,"station_name":"Karet","transit":false,"distance":471,"is_transit":false,"station_id":"KAT","line":1,"time":1},{"transit":true,"is_transit":true,"distance":2029,"i_lat":-6.185545,"i_long":106.811091,"line":1,"time":5,"station_name":"Tanah Abang","station_id":"THB"},{"station_id":"PLM","distance":3191,"i_long":106.79689,"line":6,"i_lat":-6.207404,"time":6,"station_name":"Palmerah","is_transit":false,"transit":false},{"i_long":106.780334,"is_transit":false,"i_lat":-6.237242,"distance":3737,"transit":false,"line":6,"station_name":"Kebayoran","station_id":"KBY","time":7},{"time":8,"transit":false,"station_id":"PDJ","i_lat":-6.276362,"line":6,"station_name":"Pondokranji","is_transit":false,"distance":6218,"i_long":106.74273},{"is_transit":false,"transit":false,"i_lat":-6.288927,"i_long":106.728916,"line":6,"time":3,"distance":2179,"station_name":"Jurangmangu","station_id":"JMU"},{"time":4,"is_transit":false,"i_lat":-6.296963,"i_long":106.712277,"line":6,"station_id":"SDM","transit":false,"station_name":"Sudimara","distance":1994},{"i_long":106.675475,"station_id":"RU","transit":false,"time":6,"line":6,"station_name":"Rawa Buntu","distance":4566,"is_transit":false,"i_lat":-6.314823},{"transit":false,"distance":2413,"station_name":"Serpong","line":6,"station_id":"SRP","is_transit":false,"i_long":106.66566,"i_lat":-6.319871,"time":4},{"distance":1784,"transit":false,"is_transit":false,"i_lat":-6.32484,"station_id":"CSK","station_name":"Cisauk","i_long":106.640411,"time":4,"line":3}],[{"distance":0,"i_long":106.819451,"station_name":"Depokbaru","station_id":"DPB","is_transit":false,"line":2,"i_lat":-6.391065,"transit":false,"time":0},{"i_long":106.831114,"station_name":"Pondok Cina","line":2,"distance":2727,"time":4,"is_transit":false,"i_lat":-6.369073,"transit":false,"station_id":"POC"},{"distance":1109,"station_name":"Univ. Indonesia","is_transit":false,"transit":false,"i_lat":-6.360749,"time":2,"station_id":"UI","line":2,"i_long":106.831474},{"is_transit":false,"time":3,"i_lat":-6.339291,"station_name":"Univ. Pancasila","i_long":106.834175,"transit":false,"station_id":"UP","line":2,"distance":2264},{"time":2,"line":2,"i_long":106.832616,"station_name":"Lenteng Agung","i_lat":-6.330363,"station_id":"LNA","distance":1029,"transit":false,"is_transit":false},{"station_id":"TNT","is_transit":false,"line":2,"i_lat":-6.3080680000000005,"time":3,"station_name":"Tanjung Barat","i_long":106.838896,"distance":2671,"transit":false},{"i_long":106.843999,"distance":2820,"line":2,"i_lat":-6.2842400000000005,"transit":false,"is_transit":false,"time":4,"station_id":"PSM","station_name":"Pasar Minggu"},{"station_id":"PSMB","transit":false,"is_transit":false,"distance":2380,"i_long":106.851577,"time":2,"station_name":"Pasar Minggu Baru","i_lat":-6.263214,"line":2},{"i_lat":-6.255332,"distance":824,"transit":false,"station_id":"DRN","line":2,"time":2,"i_long":106.85449,"is_transit":false,"station_name":"Duren Kalibata"},{"is_transit":false,"transit":false,"i_long":106.856607,"distance":1546,"time":3,"line":2,"station_name":"Cawang","station_id":"CW","i_lat":-6.242512},{"distance":1230,"station_id":"TEB","i_lat":-6.226659,"station_name":"Tebet","line":2,"time":2,"transit":false,"is_transit":false,"i_long":106.857948},{"transit":false,"station_name":"Manggarai","line":2,"i_long":106.84912,"distance":2610,"is_transit":false,"time":4,"station_id":"MRI","i_lat":-6.209883},{"transit":false,"i_lat":-6.198556,"i_long":106.840169,"time":4,"line":2,"station_id":"CKI","station_name":"Cikini","distance":1590,"is_transit":false},{"i_lat":-6.186295,"is_transit":false,"line":2,"station_id":"GDD","station_name":"Gondangdia","transit":false,"i_long":106.832183,"time":3,"distance":1750},{"i_long":106.828284,"station_id":"JUA","is_transit":false,"i_lat":-6.166716,"line":2,"distance":2015,"transit":false,"time":4,"station_name":"Juanda"},{"station_id":"SW","i_lat":-6.160725,"transit":false,"distance":1149,"is_transit":false,"station_name":"Sawah Besar","i_long":106.827103,"line":2,"time":2},{"i_long":106.82482,"station_id":"MGB","is_transit":false,"station_name":"Manggabesar","line":2,"i_lat":-6.149769,"distance":906,"transit":false,"time":2},{"is_transit":false,"line":2,"i_long":106.820901,"station_id":"JAY","station_name":"Jayakarta","time":2,"transit":false,"i_lat":-6.141205,"distance":1080},{"distance":1264,"station_id":"JAKK","transit":true,"is_transit":true,"time":4,"i_lat":-6.137569,"station_name":"Jakarta Kota","i_long":106.812439,"line":2},{"i_long":106.826365,"is_transit":true,"line":4,"station_id":"KPB","transit":true,"station_name":"Kampung Bandan","distance":1364,"time":3,"i_lat":-6.132549},{"station_name":"Angke","distance":4102,"station_id":"AK","line":1,"time":9,"i_long":106.79867,"transit":false,"is_transit":false,"i_lat":-6.144674},{"time":4,"station_id":"DU","transit":false,"i_lat":-6.155215,"line":1,"i_long":106.800832,"is_transit":false,"distance":1230,"station_name":"Duri"},{"is_transit":true,"time":8,"i_lat":-6.185545,"i_long":106.811091,"transit":true,"station_name":"Tanah Abang","line":1,"station_id":"THB","distance":3632},{"i_long":106.79689,"line":6,"station_id":"PLM","is_transit":false,"i_lat":-6.207404,"time":6,"transit":false,"distance":3191,"station_name":"Palmerah"},{"i_long":106.780334,"line":6,"i_lat":-6.237242,"is_transit":false,"station_id":"KBY","time":7,"distance":3737,"station_name":"Kebayoran","transit":false},{"i_lat":-6.276362,"i_long":106.74273,"line":6,"time":8,"station_id":"PDJ","is_transit":false,"distance":6218,"station_name":"Pondokranji","transit":false},{"i_long":106.728916,"transit":false,"time":3,"distance":2179,"i_lat":-6.288927,"line":6,"station_name":"Jurangmangu","station_id":"JMU","is_transit":false},{"station_name":"Sudimara","time":4,"i_lat":-6.296963,"line":6,"i_long":106.712277,"distance":1994,"transit":false,"station_id":"SDM","is_transit":false},{"station_name":"Rawa Buntu","is_transit":false,"i_long":106.675475,"transit":false,"station_id":"RU","i_lat":-6.314823,"line":6,"distance":4566,"time":6},{"transit":false,"station_name":"Serpong","distance":2413,"time":4,"i_lat":-6.319871,"station_id":"SRP","line":6,"is_transit":false,"i_long":106.66566},{"i_long":106.640411,"distance":1784,"time":4,"transit":false,"line":3,"station_id":"CSK","station_name":"Cisauk","is_transit":false,"i_lat":-6.32484}],[{"station_name":"Depokbaru","i_long":106.819451,"is_transit":false,"time":0,"line":2,"station_id":"DPB","transit":false,"i_lat":-6.391065,"distance":0},{"line":2,"station_id":"POC","distance":2727,"transit":false,"is_transit":false,"i_lat":-6.369073,"i_long":106.831114,"time":4,"station_name":"Pondok Cina"},{"station_id":"UI","transit":false,"station_name":"Univ. Indonesia","is_transit":false,"i_lat":-6.360749,"time":2,"i_long":106.831474,"distance":1109,"line":2},{"station_id":"UP","station_name":"Univ. Pancasila","is_transit":false,"i_lat":-6.339291,"line":2,"distance":2264,"transit":false,"time":3,"i_long":106.834175},{"time":2,"i_lat":-6.330363,"i_long":106.832616,"line":2,"transit":false,"station_id":"LNA","station_name":"Lenteng Agung","is_transit":false,"distance":1029},{"is_transit":false,"station_name":"Tanjung Barat","transit":false,"i_long":106.838896,"time":3,"distance":2671,"i_lat":-6.3080680000000005,"station_id":"TNT","line":2},{"i_lat":-6.2842400000000005,"time":4,"is_transit":false,"distance":2820,"transit":false,"i_long":106.843999,"station_id":"PSM","line":2,"station_name":"Pasar Minggu"},{"transit":false,"station_id":"PSMB","i_lat":-6.263214,"distance":2380,"time":2,"is_transit":false,"station_name":"Pasar Minggu Baru","i_long":106.851577,"line":2},{"station_id":"DRN","distance":824,"is_transit":false,"time":2,"transit":false,"line":2,"i_lat":-6.255332,"i_long":106.85449,"station_name":"Duren Kalibata"},{"distance":1546,"i_lat":-6.242512,"station_id":"CW","i_long":106.856607,"station_name":"Cawang","line":2,"time":3,"is_transit":false,"transit":false},{"distance":1230,"station_name":"Tebet","is_transit":false,"i_long":106.857948,"line":2,"time":2,"transit":false,"i_lat":-6.226659,"station_id":"TEB"},{"transit":true,"station_name":"Manggarai","time":4,"i_long":106.84912,"station_id":"MRI","distance":2610,"i_lat":-6.209883,"is_transit":true,"line":2},{"time":2,"station_id":"MTR","distance":1275,"station_name":"Matraman","is_transit":false,"line":1,"transit":false,"i_lat":-6.212485,"i_long":106.858896},{"transit":true,"i_lat":-6.215091,"is_transit":true,"time":8,"line":1,"distance":1377,"i_long":106.86807400000001,"station_id":"JNG","station_name":"Jatinegara"},{"distance":1236,"station_name":"Pondok Jati","i_lat":-6.209188,"station_id":"POK","is_transit":false,"line":11,"time":2,"i_long":106.861737,"transit":false},{"station_name":"Kramat","is_transit":false,"station_id":"KMT","i_lat":-6.193792,"line":11,"i_long":106.855437,"time":2,"transit":false,"distance":1829},{"station_id":"GST","i_lat":-6.185975,"transit":false,"distance":973,"station_name":"Gang Sentiong","is_transit":false,"line":11,"i_long":106.850107,"time":1},{"station_id":"PSE","distance":1567,"transit":false,"is_transit":false,"i_long":106.84368,"line":11,"station_name":"Pasar Senen","time":8,"i_lat":-6.174784},{"transit":false,"i_lat":-6.161728,"is_transit":false,"distance":1436,"station_id":"KMO","time":4,"station_name":"Kemayoran","i_long":106.839204,"line":11},{"station_name":"Rajawali","station_id":"RJW","transit":false,"is_transit":false,"distance":1901,"time":5,"line":11,"i_lat":-6.14505,"i_long":106.836569},{"line":4,"station_name":"Kampung Bandan","time":3,"transit":true,"is_transit":true,"station_id":"KPB","i_lat":-6.132549,"distance":1444,"i_long":106.826365},{"i_long":106.79867,"station_id":"AK","transit":false,"is_transit":false,"line":1,"time":9,"station_name":"Angke","i_lat":-6.144674,"distance":4102},{"time":4,"is_transit":false,"station_id":"DU","station_name":"Duri","distance":1230,"i_lat":-6.155215,"i_long":106.800832,"transit":false,"line":1},{"station_id":"THB","i_long":106.811091,"distance":3632,"i_lat":-6.185545,"line":1,"time":8,"station_name":"Tanah Abang","is_transit":true,"transit":true},{"transit":false,"distance":3191,"station_name":"Palmerah","is_transit":false,"station_id":"PLM","i_lat":-6.207404,"time":6,"i_long":106.79689,"line":6},{"line":6,"distance":3737,"transit":false,"i_lat":-6.237242,"station_id":"KBY","station_name":"Kebayoran","is_transit":false,"time":7,"i_long":106.780334},{"transit":false,"station_name":"Pondokranji","is_transit":false,"time":8,"i_long":106.74273,"distance":6218,"i_lat":-6.276362,"line":6,"station_id":"PDJ"},{"distance":2179,"i_lat":-6.288927,"line":6,"station_name":"Jurangmangu","is_transit":false,"i_long":106.728916,"time":3,"station_id":"JMU","transit":false},{"i_lat":-6.296963,"i_long":106.712277,"station_id":"SDM","is_transit":false,"distance":1994,"transit":false,"time":4,"station_name":"Sudimara","line":6},{"transit":false,"distance":4566,"station_name":"Rawa Buntu","i_lat":-6.314823,"i_long":106.675475,"is_transit":false,"station_id":"RU","time":6,"line":6},{"station_id":"SRP","line":6,"i_lat":-6.319871,"transit":false,"station_name":"Serpong","is_transit":false,"time":4,"distance":2413,"i_long":106.66566},{"line":3,"distance":1784,"station_name":"Cisauk","i_lat":-6.32484,"transit":false,"is_transit":false,"i_long":106.640411,"station_id":"CSK","time":4}]]}