{"data":[[{"i_lat":-6.391065,"i_long":106.819451,"station_id":"DPB","transit":false,"is_transit":false,"station_name":"Depokbaru","line":2,"time":0,"distance":0},{"line":2,"i_lat":-6.369073,"distance":2727,"transit":false,"station_name":"Pondok Cina","time":4,"i_long":106.831114,"station_id":"POC","is_transit":false},{"is_transit":false,"time":2,"i_lat":-6.360749,"distance":1109,"i_long":106.831474,"transit":false,"station_id":"UI","line":2,"station_name":"Univ. Indonesia"},{"transit":false,"is_transit":false,"station_name":"Univ. Pancasila","time":3,"station_id":"UP","line":2,"i_lat":-6.339291,"distance":2264,"i_long":106.834175},{"line":2,"station_name":"Lenteng Agung","station_id":"LNA","time":2,"i_lat":-6.330363,"is_transit":false,"i_long":106.832616,"distance":1029,"transit":false},{"transit":false,"station_name":"Tanjung Barat","i_long":106.838896,"time":3,"distance":2671,"i_lat":-6.3080680000000005,"line":2,"station_id":"TNT","is_transit":false},{"i_lat":-6.2842400000000005,"is_transit":false,"line":2,"transit":false,"i_long":106.843999,"time":4,"distance":2820,"station_id":"PSM","station_name":"Pasar Minggu"},{"station_name":"Pasar Minggu Baru","i_long":106.851577,"time":2,"distance":2380,"is_transit":false,"transit":false,"i_lat":-6.263214,"station_id":"PSMB","line":2}]]}