{"data":[[{"time":0,"station_name":"Depokbaru","i_long":106.819451,"transit":false,"line":0,"i_lat":-6.391065,"distance":0,"station_id":"DPB","is_transit":false},{"distance":2727,"station_name":"Pondok Cina","is_transit":false,"i_lat":-6.369073,"transit":false,"i_long":106.831114,"station_id":"POC","time":4,"line":2},{"distance":1109,"is_transit":false,"time":2,"transit":false,"i_lat":-6.360749,"line":2,"station_name":"Univ. Indonesia","i_long":106.831474,"station_id":"UI"},{"line":2,"is_transit":false,"station_id":"UP","transit":false,"i_long":106.834175,"station_name":"Univ. Pancasila","time":3,"distance":2264,"i_lat":-6.339291},{"station_name":"Lenteng Agung","line":2,"i_lat":-6.330363,"transit":false,"distance":1029,"time":2,"i_long":106.832616,"is_transit":false,"station_id":"LNA"},{"line":2,"distance":2671,"is_transit":false,"station_name":"Tanjung Barat","station_id":"TNT","transit":false,"time":3,"i_lat":-6.3080680000000005,"i_long":106.838896},{"i_lat":-6.2842400000000005,"line":2,"station_name":"Pasar Minggu","i_long":106.843999,"distance":2820,"time":4,"transit":false,"is_transit":false,"station_id":"PSM"}]]}