{"data":[[{"is_transit":false,"time":0,"i_long":106.819451,"i_lat":-6.391065,"transit":false,"line":2,"station_id":"DPB","station_name":"Depokbaru","distance":0},{"time":4,"station_name":"Pondok Cina","is_transit":false,"distance":2727,"transit":false,"i_long":106.831114,"station_id":"POC","i_lat":-6.369073,"line":2},{"distance":1109,"i_long":106.831474,"line":2,"is_transit":false,"station_name":"Univ. Indonesia","time":2,"station_id":"UI","transit":false,"i_lat":-6.360749},{"line":2,"time":3,"distance":2264,"transit":false,"station_name":"Univ. Pancasila","i_lat":-6.339291,"station_id":"UP","i_long":106.834175,"is_transit":false},{"transit":false,"distance":1029,"station_id":"LNA","is_transit":false,"station_name":"Lenteng Agung","time":2,"i_lat":-6.330363,"i_long":106.832616,"line":2},{"line":2,"i_lat":-6.3080680000000005,"time":3,"transit":false,"distance":2671,"i_long":106.838896,"station_id":"TNT","is_transit":false,"station_name":"Tanjung Barat"},{"time":4,"is_transit":false,"station_name":"Pasar Minggu","transit":false,"i_lat":-6.2842400000000005,"i_long":106.843999,"line":2,"distance":2820,"station_id":"PSM"},{"i_lat":-6.263214,"line":2,"is_transit":false,"transit":false,"station_id":"PSMB","distance":2380,"station_name":"Pasar Minggu Baru","i_long":106.851577,"time":2},{"i_lat":-6.255332,"line":2,"station_name":"Duren Kalibata","transit":false,"station_id":"DRN","is_transit":false,"distance":824,"i_long":106.85449,"time":2},{"time":3,"station_id":"CW","station_name":"Cawang","distance":1546,"is_transit":false,"i_lat":-6.242512,"i_long":106.856607,"transit":false,"line":2},{"transit":false,"i_long":106.857948,"time":2,"station_id":"TEB","i_lat":-6.226659,"distance":1230,"line":2,"station_name":"Tebet","is_transit":false},{"is_transit":false,"i_lat":-6.209883,"line":2,"i_long":106.84912,"station_name":"Manggarai","station_id":"MRI","time":4,"transit":false,"distance":2610},{"station_name":"Cikini","transit":false,"i_long":106.840169,"line":2,"station_id":"CKI","is_transit":false,"distance":1590,"i_lat":-6.198556,"time":4},{"line":2,"transit":false,"station_name":"Gondangdia","is_transit":false,"i_long":106.832183,"i_lat":-6.186295,"distance":1750,"time":3,"station_id":"GDD"}],[{"station_id":"DPB","i_long":106.819451,"is_transit":false,"time":0,"station_name":"Depokbaru","distance":0,"transit":false,"line":2,"i_lat":-6.391065},{"station_name":"Pondok Cina","i_long":106.831114,"i_lat":-6.369073,"is_transit":false,"distance":2727,"time":4,"station_id":"POC","transit":false,"line":2},{"is_transit":false,"transit":false,"i_long":106.831474,"station_id":"UI","line":2,"station_name":"Univ. Indonesia","time":2,"distance":1109,"i_lat":-6.360749},{"distance":2264,"station_name":"Univ. Pancasila","transit":false,"is_transit":false,"time":3,"station_id":"UP","i_long":106.834175,"i_lat":-6.339291,"line":2},{"distance":1029,"station_id":"LNA","transit":false,"i_lat":-6.330363,"station_name":"Lenteng Agung","line":2,"time":2,"is_transit":false,"i_long":106.832616},{"is_transit":false,"i_long":106.838896,"distance":2671,"station_name":"Tanjung Barat","time":3,"station_id":"TNT","transit":false,"line":2,"i_lat":-6.3080680000000005},{"is_transit":false,"line":2,"station_id":"PSM","time":4,"transit":false,"i_lat":-6.2842400000000005,"i_long":106.843999,"distance":2820,"station_name":"Pasar Minggu"},{"transit":false,"distance":2380,"time":2,"is_transit":false,"i_lat":-6.263214,"station_id":"PSMB","station_name":"Pasar Minggu Baru","i_long":106.851577,"line":2},{"i_long":106.85449,"line":2,"transit":false,"is_transit":false,"time":2,"i_lat":-6.255332,"station_name":"Duren Kalibata","station_id":"DRN","distance":824},{"station_id":"CW","station_name":"Cawang","distance":1546,"i_lat":-6.242512,"line":2,"time":3,"i_long":106.856607,"transit":false,"is_transit":false},{"station_id":"TEB","i_lat":-6.226659,"transit":false,"line":2,"station_name":"Tebet","is_transit":false,"i_long":106.857948,"time":2,"distance":1230},{"line":2,"time":4,"distance":2610,"transit":true,"i_lat":-6.209883,"station_name":"Manggarai","station_id":"MRI","i_long":106.84912,"is_transit":true},{"i_lat":-6.202263,"distance":3186,"transit":false,"line":1,"station_name":"Sudirman","is_transit":false,"station_id":"SUD","time":4,"i_long":106.822649},{"distance":280,"station_id":"SUDB","time":1,"station_name":"Sudirman Baru","transit":false,"i_lat":-6.201433,"is_transit":false,"i_long":106.819881,"line":1},{"is_transit":false,"transit":false,"i_lat":-6.20132,"line":1,"station_id":"KAT","i_long":106.816351,"distance":471,"station_name":"Karet","time":1},{"station_name":"Tanah Abang","transit":false,"i_lat":-6.185545,"time":5,"station_id":"THB","is_transit":false,"line":1,"distance":2029,"i_long":106.811091},{"distance":3632,"line":1,"station_name":"Duri","transit":false,"i_long":106.800832,"time":8,"is_transit":false,"station_id":"DU","i_lat":-6.155215},{"is_transit":false,"i_lat":-6.144674,"i_long":106.79867,"time":4,"distance":1230,"station_name":"Angke","transit":false,"line":1,"station_id":"AK"},{"time":9,"line":4,"station_name":"Kampung Bandan","distance":4102,"i_long":106.826365,"station_id":"KPB","i_lat":-6.132549,"is_transit":true,"transit":true},{"transit":true,"line":2,"i_lat":-6.137569,"is_transit":true,"i_long":106.812439,"distance":1364,"station_id":"JAKK","station_name":"Jakarta Kota","time":3},{"distance":1264,"station_name":"Jayakarta","station_id":"JAY","is_transit":false,"time":4,"i_long":106.820901,"line":2,"transit":false,"i_lat":-6.141205},{"transit":false,"distance":1080,"i_lat":-6.149769,"i_long":106.82482,"is_transit":false,"time":2,"station_name":"Manggabesar","station_id":"MGB","line":2},{"transit":false,"station_name":"Sawah Besar","station_id":"SW","line":2,"distance":906,"is_transit":false,"i_long":106.827103,"i_lat":-6.160725,"time":2},{"station_id":"JUA","i_long":106.828284,"distance":1149,"station_name":"Juanda","time":2,"i_lat":-6.166716,"is_transit":false,"transit":false,"line":2},{"i_lat":-6.186295,"line":2,"time":4,"transit":false,"distance":2015,"station_name":"Gondangdia","is_transit":false,"station_id":"GDD","i_long":106.832183}],[{"i_lat":-6.391065,"i_long":106.819451,"transit":false,"line":2,"time":0,"distance":0,"station_name":"Depokbaru","station_id":"DPB","is_transit":false},{"transit":false,"distance":2727,"station_id":"POC","i_long":106.831114,"i_lat":-6.369073,"station_name":"Pondok Cina","is_transit":false,"line":2,"time":4},{"line":2,"station_name":"Univ. Indonesia","i_lat":-6.360749,"distance":1109,"i_long":106.831474,"transit":false,"time":2,"station_id":"UI","is_transit":false},{"transit":false,"station_name":"Univ. Pancasila","time":3,"distance":2264,"is_transit":false,"station_id":"UP","i_lat":-6.339291,"i_long":106.834175,"line":2},{"line":2,"station_id":"LNA","transit":false,"is_transit":false,"distance":1029,"station_name":"Lenteng Agung","time":2,"i_lat":-6.330363,"i_long":106.832616},{"time":3,"line":2,"is_transit":false,"station_id":"TNT","i_long":106.838896,"distance":2671,"transit":false,"station_name":"Tanjung Barat","i_lat":-6.3080680000000005},{"time":4,"station_name":"Pasar Minggu","distance":2820,"station_id":"PSM","is_transit":false,"transit":false,"i_lat":-6.2842400000000005,"i_long":106.843999,"line":2},{"station_id":"PSMB","line":2,"i_lat":-6.263214,"transit":false,"time":2,"station_name":"Pasar Minggu Baru","distance":2380,"i_long":106.851577,"is_transit":false},{"distance":824,"station_name":"Duren Kalibata","time":2,"i_lat":-6.255332,"i_long":106.85449,"line":2,"station_id":"DRN","transit":false,"is_transit":false},{"is_transit":false,"station_id":"CW","transit":false,"station_name":"Cawang","i_lat":-6.242512,"line":2,"i_long":106.856607,"distance":1546,"time":3},{"distance":1230,"line":2,"i_lat":-6.226659,"station_id":"TEB","transit":false,"time":2,"i_long":106.857948,"is_transit":false,"station_name":"Tebet"},{"i_lat":-6.209883,"line":2,"transit":true,"station_id":"MRI","is_transit":true,"i_long":106.84912,"distance":2610,"station_name":"Manggarai","time":4},{"is_transit":false,"i_lat":-6.212485,"distance":1275,"station_id":"MTR","i_long":106.858896,"station_name":"Matraman","time":2,"line":1,"transit":false},{"transit":true,"distance":1377,"station_id":"JNG","i_lat":-6.215091,"line":1,"is_transit":true,"time":8,"i_long":106.86807400000001,"station_name":"Jatinegara"},{"i_long":106.861737,"station_id":"POK","transit":false,"distance":1236,"time":2,"i_lat":-6.209188,"station_name":"Pondok Jati","is_transit":false,"line":11},{"is_transit":false,"line":11,"time":2,"i_long":106.855437,"distance":1829,"station_name":"Kramat","transit":false,"i_lat":-6.193792,"station_id":"KMT"},{"station_name":"Gang Sentiong","i_lat":-6.185975,"time":1,"i_long":106.850107,"line":11,"transit":false,"station_id":"GST","is_transit":false,"distance":973},{"station_id":"PSE","i_long":106.84368,"distance":1567,"time":8,"line":11,"i_lat":-6.174784,"station_name":"Pasar Senen","transit":false,"is_transit":false},{"is_transit":false,"station_id":"KMO","line":11,"transit":false,"time":4,"distance":1436,"i_long":106.839204,"i_lat":-6.161728,"station_name":"Kemayoran"},{"i_long":106.836569,"is_transit":false,"line":11,"transit":false,"i_lat":-6.14505,"distance":1901,"time":5,"station_id":"RJW","station_name":"Rajawali"},{"distance":1444,"i_lat":-6.132549,"i_long":106.826365,"line":4,"station_name":"Kampung Bandan","station_id":"KPB","transit":true,"is_transit":true,"time":3},{"station_name":"Jakarta Kota","distance":1364,"i_lat":-6.137569,"station_id":"JAKK","i_long":106.812439,"transit":true,"time":3,"is_transit":true,"line":2},{"line":2,"distance":1264,"transit":false,"is_transit":false,"time":4,"station_id":"JAY","i_long":106.820901,"station_name":"Jayakarta","i_lat":-6.141205},{"transit":false,"station_name":"Manggabesar","time":2,"i_lat":-6.149769,"is_transit":false,"station_id":"MGB","distance":1080,"i_long":106.82482,"line":2},{"station_name":"Sawah Besar","transit":false,"distance":906,"i_lat":-6.160725,"i_long":106.827103,"line":2,"station_id":"SW","time":2,"is_transit":false},{"transit":false,"station_name":"Juanda","distance":1149,"time":2,"i_long":106.828284,"i_lat":-6.166716,"is_transit":false,"line":2,"station_id":"JUA"},{"time":4,"is_transit":false,"i_lat":-6.186295,"station_id":"GDD","i_long":106.832183,"distance":2015,"line":2,"transit":false,"station_name":"Gondangdia"}]]}