{"data":[[{"line":2,"i_long":106.819451,"station_id":"DPB","distance":0,"transit":false,"i_lat":-6.391065,"station_name":"Depokbaru","time":0,"is_transit":false},{"is_transit":false,"station_id":"POC","time":4,"distance":2727,"station_name":"Pondok Cina","i_lat":-6.369073,"i_long":106.831114,"line":2,"transit":false},{"i_lat":-6.360749,"station_id":"UI","time":2,"i_long":106.831474,"transit":false,"line":2,"is_transit":false,"distance":1109,"station_name":"Univ. Indonesia"},{"line":2,"i_long":106.834175,"station_name":"Univ. Pancasila","distance":2264,"time":3,"transit":false,"i_lat":-6.339291,"station_id":"UP","is_transit":false},{"distance":1029,"i_lat":-6.330363,"is_transit":false,"station_name":"Lenteng Agung","transit":false,"time":2,"line":2,"station_id":"LNA","i_long":106.832616},{"time":3,"station_name":"Tanjung Barat","i_lat":-6.3080680000000005,"i_long":106.838896,"is_transit":false,"distance":2671,"transit":false,"line":2,"station_id":"TNT"},{"line":2,"transit":false,"station_id":"PSM","i_lat":-6.2842400000000005,"is_transit":false,"time":4,"distance":2820,"i_long":106.843999,"station_name":"Pasar Minggu"},{"i_lat":-6.263214,"time":2,"transit":false,"station_id":"PSMB","line":2,"station_name":"Pasar Minggu Baru","i_long":106.851577,"distance":2380,"is_transit":false},{"distance":824,"station_id":"DRN","is_transit":false,"transit":false,"i_lat":-6.255332,"line":2,"i_long":106.85449,"time":2,"station_name":"Duren Kalibata"},{"station_name":"Cawang","is_transit":false,"line":2,"transit":false,"time":3,"i_lat":-6.242512,"station_id":"CW","i_long":106.856607,"distance":1546},{"distance":1230,"station_name":"Tebet","transit":false,"i_lat":-6.226659,"station_id":"TEB","is_transit":false,"time":2,"i_long":106.857948,"line":2},{"transit":true,"is_transit":true,"time":4,"distance":2610,"i_lat":-6.209883,"i_long":106.84912,"station_id":"MRI","station_name":"Manggarai","line":2},{"i_lat":-6.212485,"line":1,"time":2,"station_id":"MTR","is_transit":false,"distance":1275,"i_long":106.858896,"station_name":"Matraman","transit":false},{"i_lat":-6.215091,"i_long":106.86807400000001,"station_id":"JNG","station_name":"Jatinegara","is_transit":false,"distance":1377,"transit":false,"time":8,"line":1},{"station_name":"Klender","distance":3395,"time":3,"station_id":"KLD","is_transit":false,"transit":false,"line":1,"i_lat":-6.2135,"i_long":106.899548},{"time":2,"transit":false,"i_long":106.922662,"distance":3100,"station_name":"Buaran","station_id":"BUA","i_lat":-6.215568,"line":1,"is_transit":false},{"is_transit":false,"distance":1305,"station_id":"KLDB","i_lat":-6.217455,"line":1,"time":1,"transit":false,"i_long":106.939679,"station_name":"Klenderbaru"},{"i_lat":-6.219053,"i_long":106.951283,"station_name":"Cakung","transit":false,"station_id":"CUK","line":1,"distance":1385,"time":8,"is_transit":false},{"i_lat":-6.224515,"time":3,"i_long":106.977657,"station_name":"Kranji","station_id":"KRI","line":1,"transit":false,"is_transit":false,"distance":3097},{"i_long":106.997013,"time":4,"is_transit":false,"transit":false,"station_name":"Bekasi","distance":2520,"station_id":"BKS","i_lat":-6.236616,"line":1},{"time":2,"i_lat":-6.248029,"is_transit":false,"transit":false,"distance":2368,"line":1,"i_long":107.016735,"station_id":"BKST","station_name":"Bekasi Timur"},{"i_lat":-6.258864,"is_transit":false,"i_long":107.055722,"station_name":"Tambun","distance":4460,"transit":false,"station_id":"TB","line":1,"time":7},{"station_id":"CIT","i_long":107.083084,"transit":false,"time":3,"is_transit":false,"i_lat":-6.261877,"distance":3420,"station_name":"Cibitung","line":1}],[{"transit":false,"station_name":"Depokbaru","time":0,"line":2,"is_transit":false,"station_id":"DPB","distance":0,"i_long":106.819451,"i_lat":-6.391065},{"station_name":"Pondok Cina","i_long":106.831114,"line":2,"time":4,"transit":false,"i_lat":-6.369073,"station_id":"POC","distance":2727,"is_transit":false},{"i_lat":-6.360749,"line":2,"station_name":"Univ. Indonesia","distance":1109,"transit":false,"station_id":"UI","i_long":106.831474,"time":2,"is_transit":false},{"i_lat":-6.339291,"i_long":106.834175,"transit":false,"station_name":"Univ. Pancasila","time":3,"distance":2264,"is_transit":false,"line":2,"station_id":"UP"},{"station_name":"Lenteng Agung","distance":1029,"is_transit":false,"i_lat":-6.330363,"transit":false,"i_long":106.832616,"time":2,"line":2,"station_id":"LNA"},{"i_long":106.838896,"station_name":"Tanjung Barat","is_transit":false,"distance":2671,"transit":false,"time":3,"i_lat":-6.3080680000000005,"line":2,"station_id":"TNT"},{"i_long":106.843999,"line":2,"transit":false,"time":4,"i_lat":-6.2842400000000005,"station_name":"Pasar Minggu","is_transit":false,"distance":2820,"station_id":"PSM"},{"line":2,"i_long":106.851577,"transit":false,"i_lat":-6.263214,"distance":2380,"time":2,"is_transit":false,"station_id":"PSMB","station_name":"Pasar Minggu Baru"},{"time":2,"station_name":"Duren Kalibata","is_transit":false,"i_lat":-6.255332,"i_long":106.85449,"transit":false,"station_id":"DRN","distance":824,"line":2},{"distance":1546,"station_id":"CW","line":2,"is_transit":false,"i_lat":-6.242512,"station_name":"Cawang","i_long":106.856607,"time":3,"transit":false},{"i_long":106.857948,"station_name":"Tebet","distance":1230,"transit":false,"i_lat":-6.226659,"is_transit":false,"line":2,"time":2,"station_id":"TEB"},{"time":4,"line":2,"station_name":"Manggarai","is_transit":true,"distance":2610,"i_lat":-6.209883,"station_id":"MRI","transit":true,"i_long":106.84912},{"station_name":"Sudirman","station_id":"SUD","distance":3186,"i_lat":-6.202263,"i_long":106.822649,"time":4,"line":1,"transit":false,"is_transit":false},{"distance":280,"station_id":"SUDB","line":1,"transit":false,"i_long":106.819881,"station_name":"Sudirman Baru","time":1,"i_lat":-6.201433,"is_transit":false},{"i_lat":-6.20132,"is_transit":false,"transit":false,"distance":471,"i_long":106.816351,"line":1,"station_name":"Karet","time":1,"station_id":"KAT"},{"station_name":"Tanah Abang","distance":2029,"transit":false,"time":5,"is_transit":false,"i_lat":-6.185545,"station_id":"THB","i_long":106.811091,"line":1},{"transit":false,"station_id":"DU","line":1,"time":8,"i_long":106.800832,"distance":3632,"is_transit":false,"station_name":"Duri","i_lat":-6.155215},{"i_long":106.79867,"transit":false,"station_id":"AK","line":1,"station_name":"Angke","time":4,"i_lat":-6.144674,"is_transit":false,"distance":1230},{"line":4,"station_name":"Kampung Bandan","time":9,"distance":4102,"is_transit":true,"station_id":"KPB","i_lat":-6.132549,"i_long":106.826365,"transit":true},{"time":3,"station_name":"Rajawali","station_id":"RJW","distance":1444,"is_transit":false,"i_lat":-6.14505,"transit":false,"line":11,"i_long":106.836569},{"line":11,"time":5,"station_id":"KMO","i_long":106.839204,"distance":1901,"i_lat":-6.161728,"is_transit":false,"transit":false,"station_name":"Kemayoran"},{"station_name":"Pasar Senen","transit":false,"is_transit":false,"distance":1436,"station_id":"PSE","i_long":106.84368,"time":4,"i_lat":-6.174784,"line":11},{"i_lat":-6.185975,"distance":1567,"transit":false,"time":8,"i_long":106.850107,"line":11,"station_name":"Gang Sentiong","is_transit":false,"station_id":"GST"},{"i_lat":-6.193792,"time":1,"i_long":106.855437,"transit":false,"distance":973,"line":11,"is_transit":false,"station_id":"KMT","station_name":"Kramat"},{"line":11,"station_name":"Pondok Jati","time":2,"is_transit":false,"distance":1829,"station_id":"POK","i_long":106.861737,"transit":false,"i_lat":-6.209188},{"transit":true,"line":1,"time":9,"station_id":"JNG","i_lat":-6.215091,"distance":1236,"station_name":"Jatinegara","i_long":106.86807400000001,"is_transit":true},{"time":3,"is_transit":false,"station_name":"Klender","station_id":"KLD","i_long":106.899548,"distance":3395,"transit":false,"i_lat":-6.2135,"line":1},{"is_transit":false,"station_id":"BUA","i_lat":-6.215568,"i_long":106.922662,"time":2,"transit":false,"line":1,"distance":3100,"station_name":"Buaran"},{"i_long":106.939679,"station_name":"Klenderbaru","time":1,"distance":1305,"station_id":"KLDB","i_lat":-6.217455,"is_transit":false,"transit":false,"line":1},{"station_id":"CUK","is_transit":false,"i_long":106.951283,"transit":false,"line":1,"i_lat":-6.219053,"station_name":"Cakung","distance":1385,"time":8},{"distance":3097,"line":1,"station_name":"Kranji","time":3,"station_id":"KRI","i_lat":-6.224515,"i_long":106.977657,"is_transit":false,"transit":false},{"transit":false,"station_id":"BKS","station_name":"Bekasi","distance":2520,"line":1,"is_transit":false,"time":4,"i_lat":-6.236616,"i_long":106.997013},{"time":2,"transit":false,"distance":2368,"i_long":107.016735,"i_lat":-6.248029,"line":1,"station_id":"BKST","station_name":"Bekasi Timur","is_transit":false},{"transit":false,"time":7,"line":1,"station_id":"TB","i_long":107.055722,"is_transit":false,"station_name":"Tambun","distance":4460,"i_lat":-6.258864},{"i_long":107.083084,"station_id":"CIT","transit":false,"distance":3420,"is_transit":false,"i_lat":-6.261877,"line":1,"station_name":"Cibitung","time":3}],[{"station_name":"Depokbaru","distance":0,"i_lat":-6.391065,"transit":false,"line":2,"station_id":"DPB","i_long":106.819451,"is_transit":false,"time":0},{"i_long":106.831114,"transit":false,"station_name":"Pondok Cina","time":4,"is_transit":false,"i_lat":-6.369073,"line":2,"station_id":"POC","distance":2727},{"line":2,"transit":false,"station_id":"UI","i_long":106.831474,"distance":1109,"time":2,"is_transit":false,"i_lat":-6.360749,"station_name":"Univ. Indonesia"},{"distance":2264,"time":3,"transit":false,"station_id":"UP","station_name":"Univ. Pancasila","i_lat":-6.339291,"line":2,"is_transit":false,"i_long":106.834175},{"station_name":"Lenteng Agung","i_lat":-6.330363,"transit":false,"line":2,"distance":1029,"i_long":106.832616,"is_transit":false,"station_id":"LNA","time":2},{"station_name":"Tanjung Barat","time":3,"transit":false,"station_id":"TNT","i_lat":-6.3080680000000005,"i_long":106.838896,"is_transit":false,"distance":2671,"line":2},{"distance":2820,"station_id":"PSM","time":4,"i_long":106.843999,"line":2,"transit":false,"station_name":"Pasar Minggu","is_transit":false,"i_lat":-6.2842400000000005},{"transit":false,"is_transit":false,"i_lat":-6.263214,"i_long":106.851577,"station_id":"PSMB","line":2,"distance":2380,"station_name":"Pasar Minggu Baru","time":2},{"distance":824,"line":2,"i_lat":-6.255332,"is_transit":false,"transit":false,"station_id":"DRN","i_long":106.85449,"station_name":"Duren Kalibata","time":2},{"station_id":"CW","line":2,"i_lat":-6.242512,"distance":1546,"station_name":"Cawang","is_transit":false,"transit":false,"time":3,"i_long":106.856607},{"transit":false,"station_id":"TEB","station_name":"Tebet","distance":1230,"line":2,"i_lat":-6.226659,"i_long":106.857948,"time":2,"is_transit":false},{"line":2,"station_name":"Manggarai","i_lat":-6.209883,"distance":2610,"is_transit":false,"transit":false,"time":4,"i_long":106.84912,"station_id":"MRI"},{"station_name":"Cikini","station_id":"CKI","transit":false,"i_lat":-6.198556,"distance":1590,"is_transit":false,"time":4,"line":2,"i_long":106.840169},{"transit":false,"is_transit":false,"time":3,"i_lat":-6.186295,"station_name":"Gondangdia","station_id":"GDD","distance":1750,"i_long":106.832183,"line":2},{"station_name":"Juanda","time":4,"is_transit":false,"i_lat":-6.166716,"station_id":"JUA","transit":false,"i_long":106.828284,"distance":2015,"line":2},{"distance":1149,"station_name":"Sawah Besar","transit":false,"station_id":"SW","line":2,"i_lat":-6.160725,"is_transit":false,"time":2,"i_long":106.827103},{"time":2,"is_transit":false,"line":2,"station_id":"MGB","i_lat":-6.149769,"i_long":106.82482,"transit":false,"station_name":"Manggabesar","distance":906},{"i_long":106.820901,"time":2,"is_transit":false,"i_lat":-6.141205,"station_name":"Jayakarta","distance":1080,"transit":false,"station_id":"JAY","line":2},{"is_transit":true,"i_lat":-6.137569,"distance":1264,"time":4,"station_name":"Jakarta Kota","transit":true,"i_long":106.812439,"line":2,"station_id":"JAKK"},{"time":3,"is_transit":true,"station_name":"Kampung Bandan","distance":1364,"i_lat":-6.132549,"line":4,"i_long":106.826365,"transit":true,"station_id":"KPB"},{"station_id":"RJW","time":3,"transit":false,"station_name":"Rajawali","i_long":106.836569,"line":11,"distance":1444,"i_lat":-6.14505,"is_transit":false},{"i_long":106.839204,"transit":false,"line":11,"station_name":"Kemayoran","time":5,"is_transit":false,"station_id":"KMO","i_lat":-6.161728,"distance":1901},{"i_long":106.84368,"distance":1436,"i_lat":-6.174784,"transit":false,"station_name":"Pasar Senen","line":11,"is_transit":false,"time":4,"station_id":"PSE"},{"line":11,"transit":false,"station_name":"Gang Sentiong","station_id":"GST","i_long":106.850107,"distance":1567,"time":8,"i_lat":-6.185975,"is_transit":false},{"i_long":106.855437,"station_name":"Kramat","transit":false,"is_transit":false,"line":11,"distance":973,"time":1,"station_id":"KMT","i_lat":-6.193792},{"is_transit":false,"i_long":106.861737,"line":11,"time":2,"transit":false,"station_id":"POK","i_lat":-6.209188,"distance":1829,"station_name":"Pondok Jati"},{"transit":true,"i_long":106.86807400000001,"station_name":"Jatinegara","time":9,"is_transit":true,"station_id":"JNG","i_lat":-6.215091,"distance":1236,"line":1},{"i_long":106.899548,"line":1,"station_id":"KLD","time":3,"distance":3395,"transit":false,"station_name":"Klender","is_transit":false,"i_lat":-6.2135},{"station_name":"Buaran","time":2,"is_transit":false,"transit":false,"station_id":"BUA","i_lat":-6.215568,"i_long":106.922662,"distance":3100,"line":1},{"time":1,"line":1,"station_id":"KLDB","distance":1305,"is_transit":false,"transit":false,"i_lat":-6.217455,"station_name":"Klenderbaru","i_long":106.939679},{"distance":1385,"station_name":"Cakung","time":8,"is_transit":false,"station_id":"CUK","i_lat":-6.219053,"line":1,"transit":false,"i_long":106.951283},{"line":1,"time":3,"i_lat":-6.224515,"station_name":"Kranji","is_transit":false,"i_long":106.977657,"transit":false,"station_id":"KRI","distance":3097},{"i_long":106.997013,"station_id":"BKS","time":4,"is_transit":false,"transit":false,"station_name":"Bekasi","i_lat":-6.236616,"line":1,"distance":2520},{"transit":false,"is_transit":false,"line":1,"station_name":"Bekasi Timur","distance":2368,"i_long":107.016735,"station_id":"BKST","i_lat":-6.248029,"time":2},{"station_name":"Tambun","line":1,"distance":4460,"transit":false,"i_lat":-6.258864,"i_long":107.055722,"is_transit":false,"time":7,"station_id":"TB"},{"transit":false,"station_id":"CIT","time":3,"i_lat":-6.261877,"station_name":"Cibitung","i_long":107.083084,"line":1,"distance":3420,"is_transit":false}]]}