{"data":[[{"i_lat":-6.391065,"is_transit":false,"station_id":"DPB","line":0,"transit":false,"i_long":106.819451,"time":0,"distance":0,"station_name":"Depokbaru"},{"distance":2727,"station_name":"Pondok Cina","station_id":"POC","i_lat":-6.369073,"time":4,"i_long":106.831114,"is_transit":false,"line":2,"transit":false},{"is_transit":false,"transit":false,"time":2,"line":2,"station_id":"UI","i_lat":-6.360749,"i_long":106.831474,"station_name":"Univ. Indonesia","distance":1109},{"i_lat":-6.339291,"station_name":"Univ. Pancasila","station_id":"UP","is_transit":false,"line":2,"transit":false,"i_long":106.834175,"time":3,"distance":2264},{"i_long":106.832616,"station_name":"Lenteng Agung","distance":1029,"i_lat":-6.330363,"is_transit":false,"time":2,"transit":false,"line":2,"station_id":"LNA"},{"is_transit":false,"time":3,"station_name":"Tanjung Barat","distance":2671,"i_long":106.838896,"transit":false,"i_lat":-6.3080680000000005,"station_id":"TNT","line":2},{"is_transit":false,"time":4,"i_long":106.843999,"station_id":"PSM","line":2,"station_name":"Pasar Minggu","transit":false,"distance":2820,"i_lat":-6.2842400000000005},{"transit":false,"station_id":"PSMB","i_lat":-6.263214,"line":2,"i_long":106.851577,"is_transit":false,"station_name":"Pasar Minggu Baru","time":2,"distance":2380},{"transit":false,"i_long":106.85449,"station_name":"Duren Kalibata","station_id":"DRN","is_transit":false,"distance":824,"line":0,"time":2,"i_lat":-6.255332},{"is_transit":false,"transit":false,"station_id":"CW","i_lat":-6.242512,"station_name":"Cawang","i_long":106.856607,"time":3,"distance":1546,"line":0},{"distance":1230,"i_long":106.857948,"line":2,"i_lat":-6.226659,"station_name":"Tebet","transit":false,"station_id":"TEB","is_transit":false,"time":2},{"i_long":106.84912,"transit":true,"i_lat":-6.209883,"station_name":"Manggarai","time":4,"distance":2610,"is_transit":true,"line":0,"station_id":"MRI"},{"distance":3186,"transit":false,"line":1,"i_long":106.822649,"station_id":"SUD","station_name":"Sudirman","time":4,"i_lat":-6.202263,"is_transit":false},{"station_name":"Sudirman Baru","i_lat":-6.201433,"station_id":"SUDB","line":1,"distance":280,"i_long":106.819881,"transit":false,"is_transit":false,"time":1},{"station_name":"Karet","i_long":106.816351,"is_transit":false,"time":1,"line":1,"distance":471,"i_lat":-6.20132,"station_id":"KAT","transit":false},{"i_lat":-6.185545,"time":5,"i_long":106.811091,"line":1,"is_transit":true,"distance":2029,"transit":false,"station_name":"Tanah Abang","station_id":"THB"},{"time":8,"line":1,"is_transit":true,"transit":true,"i_lat":-6.155215,"station_name":"Duri","i_long":106.800832,"distance":3632,"station_id":"DU"},{"station_id":"GGL","time":3,"i_lat":-6.162021,"transit":false,"station_name":"Grogol","i_long":106.788277,"line":5,"distance":1700,"is_transit":false},{"distance":2036,"line":5,"i_long":106.771379,"transit":false,"station_id":"PSG","i_lat":-6.161433,"is_transit":false,"time":2,"station_name":"Pesing"},{"station_id":"TKO","is_transit":false,"distance":1614,"time":2,"transit":false,"i_lat":-6.1587309999999995,"line":5,"i_long":106.756522,"station_name":"Taman Kota"}],[{"station_id":"DPB","distance":0,"time":0,"is_transit":false,"station_name":"Depokbaru","transit":false,"i_long":106.819451,"line":0,"i_lat":-6.391065},{"is_transit":false,"time":4,"distance":2727,"station_id":"POC","station_name":"Pondok Cina","i_lat":-6.369073,"transit":false,"i_long":106.831114,"line":2},{"line":2,"distance":1109,"is_transit":false,"station_name":"Univ. Indonesia","station_id":"UI","time":2,"i_lat":-6.360749,"i_long":106.831474,"transit":false},{"station_id":"UP","is_transit":false,"line":2,"station_name":"Univ. Pancasila","distance":2264,"i_long":106.834175,"transit":false,"time":3,"i_lat":-6.339291},{"is_transit":false,"distance":1029,"time":2,"i_lat":-6.330363,"transit":false,"station_id":"LNA","line":2,"station_name":"Lenteng Agung","i_long":106.832616},{"transit":false,"time":3,"i_long":106.838896,"i_lat":-6.3080680000000005,"station_id":"TNT","station_name":"Tanjung Barat","line":2,"is_transit":false,"distance":2671},{"station_name":"Pasar Minggu","is_transit":false,"distance":2820,"station_id":"PSM","i_long":106.843999,"time":4,"line":2,"transit":false,"i_lat":-6.2842400000000005},{"station_id":"PSMB","line":2,"is_transit":false,"transit":false,"station_name":"Pasar Minggu Baru","i_lat":-6.263214,"distance":2380,"time":2,"i_long":106.851577},{"station_name":"Duren Kalibata","time":2,"transit":false,"i_long":106.85449,"line":0,"is_transit":false,"distance":824,"station_id":"DRN","i_lat":-6.255332},{"i_lat":-6.242512,"station_id":"CW","time":3,"transit":false,"i_long":106.856607,"is_transit":false,"line":0,"distance":1546,"station_name":"Cawang"},{"station_id":"TEB","station_name":"Tebet","is_transit":false,"time":2,"i_long":106.857948,"distance":1230,"line":2,"i_lat":-6.226659,"transit":false},{"station_name":"Manggarai","i_long":106.84912,"is_transit":true,"i_lat":-6.209883,"distance":2610,"time":4,"transit":true,"line":0,"station_id":"MRI"},{"i_lat":-6.198556,"line":0,"i_long":106.840169,"station_id":"CKI","is_transit":false,"time":4,"station_name":"Cikini","distance":1590,"transit":false},{"is_transit":false,"distance":1750,"station_id":"GDD","time":3,"station_name":"Gondangdia","transit":false,"i_long":106.832183,"line":2,"i_lat":-6.186295},{"i_long":106.828284,"time":4,"line":2,"is_transit":false,"distance":2015,"station_name":"Juanda","i_lat":-6.166716,"transit":false,"station_id":"JUA"},{"time":2,"i_long":106.827103,"line":2,"distance":1149,"station_id":"SW","i_lat":-6.160725,"station_name":"Sawah Besar","is_transit":false,"transit":false},{"transit":false,"is_transit":false,"station_name":"Manggabesar","station_id":"MGB","i_lat":-6.149769,"line":2,"time":2,"distance":906,"i_long":106.82482},{"station_id":"JAY","i_lat":-6.141205,"is_transit":false,"station_name":"Jayakarta","time":2,"transit":false,"i_long":106.820901,"line":7,"distance":1080},{"station_id":"JAKK","station_name":"Jakarta Kota","is_transit":true,"distance":1264,"i_lat":-6.137569,"i_long":106.812439,"line":0,"transit":true,"time":4},{"transit":false,"distance":1364,"i_lat":-6.132549,"station_id":"KPB","i_long":106.826365,"time":3,"station_name":"Kampung Bandan","line":0,"is_transit":true},{"line":0,"time":9,"transit":false,"i_lat":-6.144674,"station_name":"Angke","is_transit":false,"distance":4102,"i_long":106.79867,"station_id":"AK"},{"transit":true,"distance":1230,"station_name":"Duri","station_id":"DU","i_long":106.800832,"time":4,"is_transit":true,"line":1,"i_lat":-6.155215},{"station_name":"Grogol","i_long":106.788277,"line":5,"is_transit":false,"time":3,"i_lat":-6.162021,"distance":1700,"station_id":"GGL","transit":false},{"i_lat":-6.161433,"station_id":"PSG","transit":false,"i_long":106.771379,"station_name":"Pesing","line":5,"distance":2036,"is_transit":false,"time":2},{"time":2,"station_name":"Taman Kota","is_transit":false,"distance":1614,"transit":false,"i_lat":-6.1587309999999995,"i_long":106.756522,"line":5,"station_id":"TKO"}],[{"is_transit":false,"i_long":106.819451,"time":0,"distance":0,"transit":false,"station_id":"DPB","station_name":"Depokbaru","line":0,"i_lat":-6.391065},{"station_name":"Pondok Cina","distance":2727,"station_id":"POC","is_transit":false,"time":4,"i_long":106.831114,"i_lat":-6.369073,"transit":false,"line":2},{"station_name":"Univ. Indonesia","distance":1109,"time":2,"transit":false,"station_id":"UI","i_long":106.831474,"is_transit":false,"line":2,"i_lat":-6.360749},{"i_long":106.834175,"is_transit":false,"distance":2264,"station_id":"UP","station_name":"Univ. Pancasila","time":3,"i_lat":-6.339291,"transit":false,"line":2},{"i_long":106.832616,"station_name":"Lenteng Agung","time":2,"distance":1029,"station_id":"LNA","is_transit":false,"line":2,"transit":false,"i_lat":-6.330363},{"is_transit":false,"station_name":"Tanjung Barat","i_lat":-6.3080680000000005,"i_long":106.838896,"transit":false,"line":2,"station_id":"TNT","distance":2671,"time":3},{"transit":false,"i_lat":-6.2842400000000005,"line":2,"station_id":"PSM","is_transit":false,"distance":2820,"i_long":106.843999,"time":4,"station_name":"Pasar Minggu"},{"time":2,"transit":false,"is_transit":false,"station_id":"PSMB","station_name":"Pasar Minggu Baru","line":2,"distance":2380,"i_long":106.851577,"i_lat":-6.263214},{"time":2,"i_lat":-6.255332,"distance":824,"station_name":"Duren Kalibata","i_long":106.85449,"station_id":"DRN","transit":false,"line":0,"is_transit":false},{"transit":false,"line":0,"i_long":106.856607,"time":3,"distance":1546,"is_transit":false,"station_id":"CW","station_name":"Cawang","i_lat":-6.242512},{"time":2,"line":2,"i_lat":-6.226659,"i_long":106.857948,"station_name":"Tebet","transit":false,"distance":1230,"is_transit":false,"station_id":"TEB"},{"is_transit":true,"i_long":106.84912,"time":4,"station_id":"MRI","i_lat":-6.209883,"station_name":"Manggarai","line":0,"transit":true,"distance":2610},{"distance":1275,"station_name":"Matraman","station_id":"MTR","is_transit":false,"transit":false,"i_lat":-6.212485,"time":2,"i_long":106.858896,"line":1},{"line":0,"time":8,"is_transit":true,"distance":1377,"station_id":"JNG","i_long":106.86807400000001,"transit":true,"station_name":"Jatinegara","i_lat":-6.215091},{"transit":false,"line":11,"is_transit":false,"station_id":"POK","station_name":"Pondok Jati","i_lat":-6.209188,"time":2,"i_long":106.861737,"distance":1236},{"station_name":"Kramat","i_long":106.855437,"line":11,"time":2,"is_transit":false,"station_id":"KMT","distance":1829,"i_lat":-6.193792,"transit":false},{"station_name":"Gang Sentiong","transit":false,"i_lat":-6.185975,"i_long":106.850107,"line":11,"is_transit":false,"time":1,"station_id":"GST","distance":973},{"distance":1567,"is_transit":false,"station_id":"PSE","station_name":"Pasar Senen","line":11,"time":8,"i_lat":-6.174784,"transit":false,"i_long":106.84368},{"transit":false,"station_id":"KMO","i_long":106.839204,"is_transit":false,"distance":1436,"station_name":"Kemayoran","time":4,"i_lat":-6.161728,"line":11},{"line":11,"is_transit":false,"distance":1901,"i_long":106.836569,"station_id":"RJW","time":5,"station_name":"Rajawali","i_lat":-6.14505,"transit":false},{"station_id":"KPB","is_transit":true,"line":0,"time":3,"distance":1444,"i_long":106.826365,"transit":true,"station_name":"Kampung Bandan","i_lat":-6.132549},{"distance":4102,"station_id":"AK","is_transit":false,"time":9,"transit":false,"station_name":"Angke","i_long":106.79867,"line":0,"i_lat":-6.144674},{"station_id":"DU","is_transit":true,"station_name":"Duri","distance":1230,"line":1,"transit":true,"i_long":106.800832,"time":4,"i_lat":-6.155215},{"station_name":"Grogol","is_transit":false,"i_long":106.788277,"i_lat":-6.162021,"line":5,"time":3,"distance":1700,"transit":false,"station_id":"GGL"},{"i_long":106.771379,"transit":false,"station_name":"Pesing","is_transit":false,"time":2,"distance":2036,"station_id":"PSG","line":5,"i_lat":-6.161433},{"line":5,"station_name":"Taman Kota","distance":1614,"time":2,"i_long":106.756522,"i_lat":-6.1587309999999995,"is_transit":false,"station_id":"TKO","transit":false}]]}