{"data":[[{"is_transit":false,"i_long":106.819451,"distance":0,"i_lat":-6.391065,"station_id":"DPB","line":2,"transit":false,"time":0,"station_name":"Depokbaru"},{"distance":2727,"time":4,"transit":false,"station_name":"Pondok Cina","i_long":106.831114,"line":2,"i_lat":-6.369073,"is_transit":false,"station_id":"POC"},{"distance":1109,"line":2,"time":2,"is_transit":false,"station_name":"Univ. Indonesia","i_lat":-6.360749,"i_long":106.831474,"station_id":"UI","transit":false},{"transit":false,"is_transit":false,"time":3,"distance":2264,"i_long":106.834175,"i_lat":-6.339291,"line":2,"station_name":"Univ. Pancasila","station_id":"UP"},{"station_name":"Lenteng Agung","is_transit":false,"distance":1029,"line":2,"i_lat":-6.330363,"station_id":"LNA","i_long":106.832616,"transit":false,"time":2},{"transit":false,"i_long":106.838896,"time":3,"line":2,"is_transit":false,"i_lat":-6.3080680000000005,"station_id":"TNT","station_name":"Tanjung Barat","distance":2671},{"line":2,"i_lat":-6.2842400000000005,"is_transit":false,"time":4,"distance":2820,"i_long":106.843999,"station_name":"Pasar Minggu","transit":false,"station_id":"PSM"},{"transit":false,"station_name":"Pasar Minggu Baru","i_lat":-6.263214,"line":2,"i_long":106.851577,"station_id":"PSMB","is_transit":false,"time":2,"distance":2380},{"i_lat":-6.255332,"is_transit":false,"time":2,"station_id":"DRN","station_name":"Duren Kalibata","line":2,"distance":824,"i_long":106.85449,"transit":false},{"time":3,"i_long":106.856607,"line":2,"is_transit":false,"station_name":"Cawang","distance":1546,"transit":false,"station_id":"CW","i_lat":-6.242512},{"transit":false,"distance":1230,"i_lat":-6.226659,"i_long":106.857948,"station_id":"TEB","time":2,"line":2,"is_transit":false,"station_name":"Tebet"},{"is_transit":false,"time":4,"i_lat":-6.209883,"distance":2610,"i_long":106.84912,"line":2,"transit":false,"station_id":"MRI","station_name":"Manggarai"},{"distance":1590,"transit":false,"line":2,"i_lat":-6.198556,"station_name":"Cikini","time":4,"station_id":"CKI","i_long":106.840169,"is_transit":false},{"i_lat":-6.186295,"station_id":"GDD","station_name":"Gondangdia","i_long":106.832183,"line":2,"transit":false,"is_transit":false,"distance":1750,"time":3}],[{"i_lat":-6.391065,"time":0,"station_name":"Depokbaru","distance":0,"i_long":106.819451,"line":2,"station_id":"DPB","is_transit":false,"transit":false},{"i_long":106.831114,"line":2,"distance":2727,"is_transit":false,"transit":false,"time":4,"i_lat":-6.369073,"station_name":"Pondok Cina","station_id":"POC"},{"station_name":"Univ. Indonesia","is_transit":false,"time":2,"distance":1109,"station_id":"UI","i_lat":-6.360749,"transit":false,"i_long":106.831474,"line":2},{"station_name":"Univ. Pancasila","transit":false,"line":2,"time":3,"is_transit":false,"distance":2264,"i_lat":-6.339291,"station_id":"UP","i_long":106.834175},{"station_name":"Lenteng Agung","transit":false,"station_id":"LNA","is_transit":false,"time":2,"distance":1029,"i_long":106.832616,"line":2,"i_lat":-6.330363},{"distance":2671,"line":2,"time":3,"i_lat":-6.3080680000000005,"transit":false,"i_long":106.838896,"station_id":"TNT","station_name":"Tanjung Barat","is_transit":false},{"is_transit":false,"i_long":106.843999,"line":2,"transit":false,"time":4,"distance":2820,"i_lat":-6.2842400000000005,"station_name":"Pasar Minggu","station_id":"PSM"},{"station_id":"PSMB","i_lat":-6.263214,"line":2,"is_transit":false,"distance":2380,"transit":false,"station_name":"Pasar Minggu Baru","time":2,"i_long":106.851577},{"i_long":106.85449,"line":2,"transit":false,"station_id":"DRN","i_lat":-6.255332,"is_transit":false,"station_name":"Duren Kalibata","time":2,"distance":824},{"distance":1546,"transit":false,"i_long":106.856607,"line":2,"i_lat":-6.242512,"station_name":"Cawang","is_transit":false,"station_id":"CW","time":3},{"i_lat":-6.226659,"line":2,"transit":false,"i_long":106.857948,"station_name":"Tebet","station_id":"TEB","time":2,"is_transit":false,"distance":1230},{"line":2,"distance":2610,"i_long":106.84912,"station_name":"Manggarai","station_id":"MRI","is_transit":true,"i_lat":-6.209883,"time":4,"transit":true},{"time":4,"transit":false,"i_long":106.822649,"line":1,"is_transit":false,"distance":3186,"station_id":"SUD","i_lat":-6.202263,"station_name":"Sudirman"},{"transit":false,"distance":280,"i_long":106.819881,"station_id":"SUDB","station_name":"Sudirman Baru","i_lat":-6.201433,"is_transit":false,"time":1,"line":1},{"i_lat":-6.20132,"line":1,"station_name":"Karet","transit":false,"station_id":"KAT","is_transit":false,"i_long":106.816351,"time":1,"distance":471},{"distance":2029,"line":1,"station_id":"THB","i_long":106.811091,"transit":false,"i_lat":-6.185545,"station_name":"Tanah Abang","is_transit":false,"time":5},{"station_name":"Duri","transit":false,"time":8,"distance":3632,"line":1,"station_id":"DU","i_long":106.800832,"is_transit":false,"i_lat":-6.155215},{"is_transit":false,"distance":1230,"line":1,"station_name":"Angke","station_id":"AK","time":4,"transit":false,"i_lat":-6.144674,"i_long":106.79867},{"is_transit":true,"transit":true,"i_long":106.826365,"line":4,"station_name":"Kampung Bandan","station_id":"KPB","time":9,"distance":4102,"i_lat":-6.132549},{"is_transit":true,"line":2,"station_id":"JAKK","time":3,"i_lat":-6.137569,"distance":1364,"station_name":"Jakarta Kota","i_long":106.812439,"transit":true},{"station_id":"JAY","is_transit":false,"i_long":106.820901,"station_name":"Jayakarta","time":4,"i_lat":-6.141205,"distance":1264,"line":2,"transit":false},{"i_lat":-6.149769,"station_name":"Manggabesar","transit":false,"station_id":"MGB","line":2,"is_transit":false,"time":2,"i_long":106.82482,"distance":1080},{"distance":906,"i_lat":-6.160725,"line":2,"station_name":"Sawah Besar","i_long":106.827103,"transit":false,"is_transit":false,"station_id":"SW","time":2},{"transit":false,"is_transit":false,"distance":1149,"i_lat":-6.166716,"station_name":"Juanda","i_long":106.828284,"station_id":"JUA","line":2,"time":2},{"transit":false,"station_id":"GDD","line":2,"station_name":"Gondangdia","is_transit":false,"i_lat":-6.186295,"i_long":106.832183,"distance":2015,"time":4}],[{"distance":0,"i_lat":-6.391065,"i_long":106.819451,"is_transit":false,"station_name":"Depokbaru","line":2,"transit":false,"time":0,"station_id":"DPB"},{"line":2,"station_id":"POC","is_transit":false,"distance":2727,"i_lat":-6.369073,"station_name":"Pondok Cina","transit":false,"i_long":106.831114,"time":4},{"i_long":106.831474,"i_lat":-6.360749,"station_id":"UI","line":2,"time":2,"station_name":"Univ. Indonesia","distance":1109,"transit":false,"is_transit":false},{"line":2,"distance":2264,"transit":false,"is_transit":false,"i_long":106.834175,"station_name":"Univ. Pancasila","time":3,"station_id":"UP","i_lat":-6.339291},{"transit":false,"time":2,"i_lat":-6.330363,"station_name":"Lenteng Agung","station_id":"LNA","is_transit":false,"i_long":106.832616,"line":2,"distance":1029},{"line":2,"distance":2671,"is_transit":false,"i_lat":-6.3080680000000005,"transit":false,"time":3,"station_name":"Tanjung Barat","station_id":"TNT","i_long":106.838896},{"i_lat":-6.2842400000000005,"distance":2820,"transit":false,"station_name":"Pasar Minggu","i_long":106.843999,"station_id":"PSM","time":4,"is_transit":false,"line":2},{"distance":2380,"station_name":"Pasar Minggu Baru","i_lat":-6.263214,"transit":false,"station_id":"PSMB","time":2,"line":2,"i_long":106.851577,"is_transit":false},{"distance":824,"line":2,"station_name":"Duren Kalibata","station_id":"DRN","time":2,"i_long":106.85449,"transit":false,"is_transit":false,"i_lat":-6.255332},{"i_long":106.856607,"transit":false,"time":3,"station_id":"CW","line":2,"distance":1546,"i_lat":-6.242512,"station_name":"Cawang","is_transit":false},{"is_transit":false,"station_name":"Tebet","line":2,"transit":false,"i_lat":-6.226659,"time":2,"station_id":"TEB","distance":1230,"i_long":106.857948},{"station_name":"Manggarai","is_transit":true,"time":4,"line":2,"i_long":106.84912,"transit":true,"distance":2610,"i_lat":-6.209883,"station_id":"MRI"},{"distance":1275,"station_name":"Matraman","i_lat":-6.212485,"i_long":106.858896,"station_id":"MTR","time":2,"line":1,"transit":false,"is_transit":false},{"i_lat":-6.215091,"transit":true,"distance":1377,"i_long":106.86807400000001,"line":1,"is_transit":true,"station_name":"Jatinegara","station_id":"JNG","time":8},{"transit":false,"i_lat":-6.209188,"line":11,"station_id":"POK","distance":1236,"i_long":106.861737,"time":2,"is_transit":false,"station_name":"Pondok Jati"},{"time":2,"station_id":"KMT","i_long":106.855437,"i_lat":-6.193792,"distance":1829,"line":11,"station_name":"Kramat","is_transit":false,"transit":false},{"station_name":"Gang Sentiong","station_id":"GST","distance":973,"transit":false,"is_transit":false,"i_long":106.850107,"i_lat":-6.185975,"time":1,"line":11},{"time":8,"line":11,"is_transit":false,"station_name":"Pasar Senen","distance":1567,"i_lat":-6.174784,"i_long":106.84368,"station_id":"PSE","transit":false},{"is_transit":false,"i_lat":-6.161728,"distance":1436,"station_name":"Kemayoran","transit":false,"station_id":"KMO","line":11,"time":4,"i_long":106.839204},{"i_long":106.836569,"station_id":"RJW","distance":1901,"station_name":"Rajawali","transit":false,"line":11,"is_transit":false,"time":5,"i_lat":-6.14505},{"time":3,"distance":1444,"station_name":"Kampung Bandan","station_id":"KPB","line":4,"transit":true,"i_long":106.826365,"is_transit":true,"i_lat":-6.132549},{"i_lat":-6.137569,"station_name":"Jakarta Kota","transit":true,"line":2,"i_long":106.812439,"station_id":"JAKK","time":3,"is_transit":true,"distance":1364},{"transit":false,"line":2,"is_transit":false,"time":4,"i_lat":-6.141205,"i_long":106.820901,"station_name":"Jayakarta","distance":1264,"station_id":"JAY"},{"station_id":"MGB","line":2,"station_name":"Manggabesar","i_long":106.82482,"is_transit":false,"transit":false,"time":2,"i_lat":-6.149769,"distance":1080},{"distance":906,"i_long":106.827103,"station_name":"Sawah Besar","transit":false,"time":2,"i_lat":-6.160725,"line":2,"station_id":"SW","is_transit":false},{"transit":false,"time":2,"i_lat":-6.166716,"station_id":"JUA","i_long":106.828284,"distance":1149,"line":2,"station_name":"Juanda","is_transit":false},{"i_long":106.832183,"station_name":"Gondangdia","station_id":"GDD","transit":false,"time":4,"distance":2015,"i_lat":-6.186295,"line":2,"is_transit":false}]]}