{"data":[[{"station_id":"DPB","station_name":"Depokbaru","i_long":106.819451,"i_lat":-6.391065,"distance":0,"is_transit":false,"transit":false,"line":2,"time":0},{"time":4,"is_transit":false,"station_id":"POC","station_name":"Pondok Cina","i_long":106.831114,"transit":false,"distance":2727,"i_lat":-6.369073,"line":2},{"station_name":"Univ. Indonesia","is_transit":false,"i_lat":-6.360749,"distance":1109,"line":2,"time":2,"station_id":"UI","transit":false,"i_long":106.831474},{"i_long":106.834175,"i_lat":-6.339291,"distance":2264,"time":3,"station_name":"Univ. Pancasila","is_transit":false,"line":2,"station_id":"UP","transit":false},{"is_transit":false,"i_long":106.832616,"station_id":"LNA","line":2,"i_lat":-6.330363,"distance":1029,"transit":false,"station_name":"Lenteng Agung","time":2},{"time":3,"station_id":"TNT","distance":2671,"i_long":106.838896,"i_lat":-6.3080680000000005,"is_transit":false,"station_name":"Tanjung Barat","line":2,"transit":false},{"i_lat":-6.2842400000000005,"transit":false,"distance":2820,"is_transit":false,"i_long":106.843999,"station_name":"Pasar Minggu","line":2,"time":4,"station_id":"PSM"},{"transit":false,"i_lat":-6.263214,"time":2,"distance":2380,"line":2,"station_name":"Pasar Minggu Baru","i_long":106.851577,"is_transit":false,"station_id":"PSMB"},{"is_transit":false,"i_lat":-6.255332,"station_id":"DRN","transit":false,"line":2,"i_long":106.85449,"distance":824,"time":2,"station_name":"Duren Kalibata"},{"i_lat":-6.242512,"station_id":"CW","i_long":106.856607,"station_name":"Cawang","time":3,"is_transit":false,"distance":1546,"transit":false,"line":2},{"line":2,"i_long":106.857948,"time":2,"distance":1230,"station_id":"TEB","station_name":"Tebet","is_transit":false,"transit":false,"i_lat":-6.226659},{"i_long":106.84912,"distance":2610,"station_id":"MRI","i_lat":-6.209883,"line":2,"station_name":"Manggarai","is_transit":true,"transit":true,"time":4},{"station_name":"Sudirman","transit":false,"time":4,"i_lat":-6.202263,"line":1,"distance":3186,"station_id":"SUD","is_transit":false,"i_long":106.822649},{"line":1,"station_id":"SUDB","i_lat":-6.201433,"station_name":"Sudirman Baru","distance":280,"time":1,"transit":false,"i_long":106.819881,"is_transit":false},{"transit":false,"station_id":"KAT","i_long":106.816351,"station_name":"Karet","distance":471,"is_transit":false,"time":1,"line":1,"i_lat":-6.20132},{"i_long":106.811091,"distance":2029,"line":1,"transit":true,"is_transit":true,"i_lat":-6.185545,"station_name":"Tanah Abang","time":5,"station_id":"THB"},{"is_transit":false,"i_lat":-6.207404,"time":6,"station_id":"PLM","line":6,"distance":3191,"station_name":"Palmerah","transit":false,"i_long":106.79689},{"line":6,"is_transit":false,"station_name":"Kebayoran","distance":3737,"time":7,"station_id":"KBY","i_lat":-6.237242,"i_long":106.780334,"transit":false},{"station_id":"PDJ","transit":false,"time":8,"i_lat":-6.276362,"distance":6218,"i_long":106.74273,"line":6,"is_transit":false,"station_name":"Pondokranji"},{"transit":false,"line":6,"i_long":106.728916,"time":3,"station_id":"JMU","is_transit":false,"station_name":"Jurangmangu","i_lat":-6.288927,"distance":2179},{"i_lat":-6.296963,"i_long":106.712277,"station_name":"Sudimara","is_transit":false,"time":4,"transit":false,"distance":1994,"line":6,"station_id":"SDM"},{"is_transit":false,"transit":false,"time":6,"distance":4566,"station_id":"RU","station_name":"Rawa Buntu","i_long":106.675475,"line":6,"i_lat":-6.314823},{"i_long":106.66566,"distance":2413,"transit":false,"is_transit":false,"i_lat":-6.319871,"line":6,"time":4,"station_id":"SRP","station_name":"Serpong"},{"is_transit":false,"transit":false,"line":3,"station_name":"Cisauk","time":4,"station_id":"CSK","i_long":106.640411,"distance":1784,"i_lat":-6.32484},{"line":3,"time":4,"station_id":"CC","station_name":"Cicayur","is_transit":false,"transit":false,"distance":2519,"i_long":106.617853,"i_lat":-6.329547},{"is_transit":false,"station_name":"Parung Panjang","line":6,"distance":5968,"station_id":"PRP","time":8,"transit":false,"i_lat":-6.3441410000000005,"i_long":106.568863},{"i_long":106.508482,"is_transit":false,"time":9,"i_lat":-6.354349,"transit":false,"line":3,"station_id":"CJT","distance":7025,"station_name":"Cilejit"},{"i_lat":-6.338021,"distance":2675,"is_transit":false,"line":0,"station_name":"Daru","transit":false,"i_long":106.491338,"time":6,"station_id":"DAR"},{"transit":false,"i_long":106.460812,"distance":3902,"time":5,"line":6,"i_lat":-6.327251,"station_name":"Tenjo","is_transit":false,"station_id":"TEJ"},{"is_transit":false,"station_id":"TGS","line":6,"time":5,"transit":false,"distance":2974,"i_long":106.425991,"i_lat":-6.328533,"station_name":"Tigaraksa"},{"i_long":106.411216,"is_transit":false,"line":3,"transit":false,"i_lat":-6.33561,"distance":2651,"time":3,"station_id":"CKY","station_name":"Cikoya"},{"distance":1853,"i_lat":-6.332307,"i_long":106.394373,"line":6,"station_name":"Maja","station_id":"MJ","transit":false,"is_transit":false,"time":4}],[{"station_name":"Depokbaru","distance":0,"i_lat":-6.391065,"station_id":"DPB","i_long":106.819451,"time":0,"transit":false,"is_transit":false,"line":2},{"line":2,"distance":2727,"is_transit":false,"time":4,"transit":false,"station_id":"POC","i_long":106.831114,"station_name":"Pondok Cina","i_lat":-6.369073},{"station_name":"Univ. Indonesia","time":2,"transit":false,"i_lat":-6.360749,"is_transit":false,"station_id":"UI","distance":1109,"i_long":106.831474,"line":2},{"station_name":"Univ. Pancasila","transit":false,"distance":2264,"i_lat":-6.339291,"i_long":106.834175,"line":2,"station_id":"UP","time":3,"is_transit":false},{"transit":false,"station_name":"Lenteng Agung","time":2,"distance":1029,"i_long":106.832616,"i_lat":-6.330363,"is_transit":false,"line":2,"station_id":"LNA"},{"time":3,"is_transit":false,"i_lat":-6.3080680000000005,"station_id":"TNT","i_long":106.838896,"distance":2671,"line":2,"transit":false,"station_name":"Tanjung Barat"},{"time":4,"transit":false,"station_name":"Pasar Minggu","i_long":106.843999,"station_id":"PSM","distance":2820,"line":2,"is_transit":false,"i_lat":-6.2842400000000005},{"is_transit":false,"station_id":"PSMB","line":2,"distance":2380,"station_name":"Pasar Minggu Baru","transit":false,"i_long":106.851577,"time":2,"i_lat":-6.263214},{"transit":false,"i_lat":-6.255332,"time":2,"station_name":"Duren Kalibata","is_transit":false,"i_long":106.85449,"station_id":"DRN","line":2,"distance":824},{"line":2,"station_id":"CW","i_long":106.856607,"is_transit":false,"time":3,"distance":1546,"transit":false,"i_lat":-6.242512,"station_name":"Cawang"},{"distance":1230,"time":2,"station_id":"TEB","i_lat":-6.226659,"is_transit":false,"transit":false,"station_name":"Tebet","i_long":106.857948,"line":2},{"is_transit":false,"i_lat":-6.209883,"station_id":"MRI","i_long":106.84912,"time":4,"line":2,"station_name":"Manggarai","distance":2610,"transit":false},{"station_name":"Cikini","station_id":"CKI","time":4,"transit":false,"is_transit":false,"distance":1590,"i_lat":-6.198556,"i_long":106.840169,"line":2},{"transit":false,"distance":1750,"i_lat":-6.186295,"station_id":"GDD","station_name":"Gondangdia","time":3,"is_transit":false,"line":2,"i_long":106.832183},{"station_name":"Juanda","time":4,"i_lat":-6.166716,"distance":2015,"line":2,"is_transit":false,"transit":false,"i_long":106.828284,"station_id":"JUA"},{"station_name":"Sawah Besar","line":2,"time":2,"transit":false,"distance":1149,"station_id":"SW","i_lat":-6.160725,"is_transit":false,"i_long":106.827103},{"i_long":106.82482,"is_transit":false,"distance":906,"station_name":"Manggabesar","transit":false,"time":2,"i_lat":-6.149769,"line":2,"station_id":"MGB"},{"line":2,"transit":false,"time":2,"distance":1080,"i_long":106.820901,"station_id":"JAY","is_transit":false,"station_name":"Jayakarta","i_lat":-6.141205},{"i_lat":-6.137569,"is_transit":true,"distance":1264,"station_id":"JAKK","time":4,"transit":true,"station_name":"Jakarta Kota","i_long":106.812439,"line":2},{"distance":1364,"time":3,"transit":true,"station_name":"Kampung Bandan","i_long":106.826365,"i_lat":-6.132549,"line":4,"is_transit":true,"station_id":"KPB"},{"i_lat":-6.144674,"time":9,"distance":4102,"i_long":106.79867,"is_transit":false,"line":1,"transit":false,"station_id":"AK","station_name":"Angke"},{"distance":1230,"station_name":"Duri","station_id":"DU","time":4,"line":1,"transit":false,"i_lat":-6.155215,"i_long":106.800832,"is_transit":false},{"line":1,"is_transit":true,"station_id":"THB","distance":3632,"transit":true,"time":8,"i_long":106.811091,"i_lat":-6.185545,"station_name":"Tanah Abang"},{"is_transit":false,"station_name":"Palmerah","line":6,"time":6,"distance":3191,"i_long":106.79689,"station_id":"PLM","transit":false,"i_lat":-6.207404},{"i_lat":-6.237242,"line":6,"time":7,"distance":3737,"station_id":"KBY","transit":false,"i_long":106.780334,"station_name":"Kebayoran","is_transit":false},{"station_name":"Pondokranji","station_id":"PDJ","is_transit":false,"line":6,"distance":6218,"time":8,"i_lat":-6.276362,"transit":false,"i_long":106.74273},{"station_name":"Jurangmangu","time":3,"i_lat":-6.288927,"i_long":106.728916,"distance":2179,"is_transit":false,"station_id":"JMU","transit":false,"line":6},{"distance":1994,"i_long":106.712277,"time":4,"line":6,"station_name":"Sudimara","transit":false,"is_transit":false,"station_id":"SDM","i_lat":-6.296963},{"i_long":106.675475,"station_name":"Rawa Buntu","distance":4566,"is_transit":false,"station_id":"RU","time":6,"transit":false,"i_lat":-6.314823,"line":6},{"time":4,"i_lat":-6.319871,"transit":false,"station_name":"Serpong","is_transit":false,"station_id":"SRP","i_long":106.66566,"distance":2413,"line":6},{"distance":1784,"line":3,"station_name":"Cisauk","is_transit":false,"time":4,"station_id":"CSK","transit":false,"i_long":106.640411,"i_lat":-6.32484},{"is_transit":false,"station_name":"Cicayur","time":4,"i_long":106.617853,"distance":2519,"i_lat":-6.329547,"transit":false,"station_id":"CC","line":3},{"transit":false,"station_id":"PRP","i_long":106.568863,"is_transit":false,"station_name":"Parung Panjang","time":8,"i_lat":-6.3441410000000005,"line":6,"distance":5968},{"i_long":106.508482,"i_lat":-6.354349,"station_id":"CJT","time":9,"distance":7025,"transit":false,"line":3,"station_name":"Cilejit","is_transit":false},{"station_name":"Daru","is_transit":false,"i_lat":-6.338021,"station_id":"DAR","time":6,"transit":false,"line":0,"i_long":106.491338,"distance":2675},{"is_transit":false,"station_id":"TEJ","i_long":106.460812,"time":5,"i_lat":-6.327251,"station_name":"Tenjo","line":6,"transit":false,"distance":3902},{"is_transit":false,"station_id":"TGS","line":6,"transit":false,"i_lat":-6.328533,"i_long":106.425991,"distance":2974,"station_name":"Tigaraksa","time":5},{"line":3,"time":3,"distance":2651,"station_id":"CKY","transit":false,"is_transit":false,"station_name":"Cikoya","i_lat":-6.33561,"i_long":106.411216},{"station_name":"Maja","i_lat":-6.332307,"is_transit":false,"line":6,"station_id":"MJ","distance":1853,"time":4,"transit":false,"i_long":106.394373}],[{"line":2,"i_lat":-6.391065,"i_long":106.819451,"distance":0,"transit":false,"station_name":"Depokbaru","time":0,"is_transit":false,"station_id":"DPB"},{"distance":2727,"time":4,"line":2,"i_long":106.831114,"station_id":"POC","transit":false,"is_transit":false,"station_name":"Pondok Cina","i_lat":-6.369073},{"time":2,"line":2,"distance":1109,"i_lat":-6.360749,"transit":false,"station_name":"Univ. Indonesia","is_transit":false,"i_long":106.831474,"station_id":"UI"},{"station_name":"Univ. Pancasila","i_long":106.834175,"distance":2264,"is_transit":false,"time":3,"station_id":"UP","i_lat":-6.339291,"line":2,"transit":false},{"time":2,"i_long":106.832616,"is_transit":false,"i_lat":-6.330363,"transit":false,"station_id":"LNA","station_name":"Lenteng Agung","distance":1029,"line":2},{"station_name":"Tanjung Barat","distance":2671,"station_id":"TNT","transit":false,"i_lat":-6.3080680000000005,"line":2,"is_transit":false,"i_long":106.838896,"time":3},{"i_long":106.843999,"station_name":"Pasar Minggu","distance":2820,"i_lat":-6.2842400000000005,"time":4,"station_id":"PSM","line":2,"is_transit":false,"transit":false},{"station_name":"Pasar Minggu Baru","time":2,"i_long":106.851577,"station_id":"PSMB","i_lat":-6.263214,"transit":false,"line":2,"is_transit":false,"distance":2380},{"distance":824,"i_long":106.85449,"line":2,"transit":false,"time":2,"station_name":"Duren Kalibata","is_transit":false,"station_id":"DRN","i_lat":-6.255332},{"transit":false,"station_name":"Cawang","is_transit":false,"i_lat":-6.242512,"station_id":"CW","i_long":106.856607,"line":2,"distance":1546,"time":3},{"is_transit":false,"i_long":106.857948,"line":2,"distance":1230,"station_id":"TEB","i_lat":-6.226659,"time":2,"station_name":"Tebet","transit":false},{"line":2,"is_transit":true,"i_long":106.84912,"distance":2610,"time":4,"transit":true,"i_lat":-6.209883,"station_id":"MRI","station_name":"Manggarai"},{"is_transit":false,"i_lat":-6.212485,"distance":1275,"line":1,"transit":false,"i_long":106.858896,"station_name":"Matraman","time":2,"station_id":"MTR"},{"i_long":106.86807400000001,"distance":1377,"station_id":"JNG","time":8,"transit":true,"i_lat":-6.215091,"line":1,"is_transit":true,"station_name":"Jatinegara"},{"i_lat":-6.209188,"station_name":"Pondok Jati","line":11,"station_id":"POK","transit":false,"i_long":106.861737,"distance":1236,"time":2,"is_transit":false},{"i_long":106.855437,"is_transit":false,"time":2,"transit":false,"station_name":"Kramat","distance":1829,"line":11,"station_id":"KMT","i_lat":-6.193792},{"i_long":106.850107,"line":11,"time":1,"distance":973,"is_transit":false,"station_id":"GST","station_name":"Gang Sentiong","transit":false,"i_lat":-6.185975},{"is_transit":false,"i_long":106.84368,"transit":false,"station_name":"Pasar Senen","line":11,"time":8,"distance":1567,"station_id":"PSE","i_lat":-6.174784},{"i_lat":-6.161728,"i_long":106.839204,"is_transit":false,"station_name":"Kemayoran","time":4,"distance":1436,"transit":false,"station_id":"KMO","line":11},{"time":5,"station_id":"RJW","transit":false,"station_name":"Rajawali","i_lat":-6.14505,"i_long":106.836569,"distance":1901,"is_transit":false,"line":11},{"station_id":"KPB","is_transit":true,"line":4,"station_name":"Kampung Bandan","distance":1444,"transit":true,"time":3,"i_lat":-6.132549,"i_long":106.826365},{"time":9,"distance":4102,"station_id":"AK","transit":false,"line":1,"station_name":"Angke","is_transit":false,"i_long":106.79867,"i_lat":-6.144674},{"i_lat":-6.155215,"i_long":106.800832,"time":4,"station_id":"DU","is_transit":false,"transit":false,"distance":1230,"line":1,"station_name":"Duri"},{"is_transit":true,"i_long":106.811091,"station_id":"THB","transit":true,"line":1,"station_name":"Tanah Abang","i_lat":-6.185545,"time":8,"distance":3632},{"distance":3191,"time":6,"transit":false,"is_transit":false,"station_name":"Palmerah","station_id":"PLM","i_long":106.79689,"i_lat":-6.207404,"line":6},{"distance":3737,"i_lat":-6.237242,"time":7,"i_long":106.780334,"is_transit":false,"transit":false,"line":6,"station_name":"Kebayoran","station_id":"KBY"},{"i_long":106.74273,"transit":false,"time":8,"is_transit":false,"line":6,"distance":6218,"station_name":"Pondokranji","station_id":"PDJ","i_lat":-6.276362},{"i_long":106.728916,"i_lat":-6.288927,"line":6,"station_name":"Jurangmangu","distance":2179,"station_id":"JMU","is_transit":false,"time":3,"transit":false},{"transit":false,"is_transit":false,"i_lat":-6.296963,"station_name":"Sudimara","i_long":106.712277,"station_id":"SDM","line":6,"distance":1994,"time":4},{"line":6,"station_name":"Rawa Buntu","time":6,"distance":4566,"i_long":106.675475,"i_lat":-6.314823,"is_transit":false,"station_id":"RU","transit":false},{"i_long":106.66566,"station_name":"Serpong","time":4,"distance":2413,"i_lat":-6.319871,"transit":false,"station_id":"SRP","is_transit":false,"line":6},{"time":4,"i_lat":-6.32484,"distance":1784,"transit":false,"i_long":106.640411,"station_name":"Cisauk","station_id":"CSK","is_transit":false,"line":3},{"is_transit":false,"time":4,"transit":false,"i_long":106.617853,"station_id":"CC","i_lat":-6.329547,"distance":2519,"station_name":"Cicayur","line":3},{"distance":5968,"station_id":"PRP","i_long":106.568863,"station_name":"Parung Panjang","transit":false,"is_transit":false,"time":8,"line":6,"i_lat":-6.3441410000000005},{"i_lat":-6.354349,"line":3,"i_long":106.508482,"time":9,"distance":7025,"is_transit":false,"transit":false,"station_id":"CJT","station_name":"Cilejit"},{"time":6,"i_long":106.491338,"transit":false,"distance":2675,"station_name":"Daru","is_transit":false,"i_lat":-6.338021,"line":0,"station_id":"DAR"},{"time":5,"station_id":"TEJ","distance":3902,"is_transit":false,"line":6,"transit":false,"station_name":"Tenjo","i_long":106.460812,"i_lat":-6.327251},{"i_long":106.425991,"i_lat":-6.328533,"line":6,"time":5,"station_name":"Tigaraksa","transit":false,"is_transit":false,"distance":2974,"station_id":"TGS"},{"is_transit":false,"transit":false,"i_lat":-6.33561,"distance":2651,"i_long":106.411216,"station_id":"CKY","station_name":"Cikoya","line":3,"time":3},{"transit":false,"line":6,"station_id":"MJ","i_lat":-6.332307,"station_name":"Maja","is_transit":false,"time":4,"distance":1853,"i_long":106.394373}]]}