{"data":[[{"i_long":106.819451,"station_name":"Depokbaru","transit":false,"distance":0,"i_lat":-6.391065,"is_transit":false,"time":0,"line":2,"station_id":"DPB"},{"i_lat":-6.405256,"station_name":"Depok","distance":1584,"i_long":106.816926,"line":2,"is_transit":false,"transit":false,"station_id":"DP","time":3},{"station_name":"Citayam","distance":5084,"i_lat":-6.448811,"i_long":106.800298,"station_id":"CTA","transit":true,"time":6,"line":2,"is_transit":true},{"time":0,"station_name":"Pondok Rajeg","i_lat":-6.460735,"station_id":"PDRG","distance":0,"line":21,"transit":false,"i_long":106.824374,"is_transit":false},{"transit":false,"time":0,"distance":0,"i_long":106.851978,"station_name":"Cibinong","is_transit":false,"i_lat":-6.46424,"line":21,"station_id":"CBN"},{"i_lat":-6.466285,"line":21,"is_transit":false,"distance":6527,"station_id":"NMO","i_long":106.905196,"time":10,"station_name":"Nambo","transit":false}]]}