{"data":[[{"station_name":"Depokbaru","station_id":"DPB","transit":false,"is_transit":false,"i_lat":-6.391065,"distance":0,"time":0,"i_long":106.819451,"line":2},{"i_lat":-6.369073,"i_long":106.831114,"time":4,"station_name":"Pondok Cina","line":2,"transit":false,"distance":2727,"is_transit":false,"station_id":"POC"},{"station_name":"Univ. Indonesia","time":2,"distance":1109,"i_lat":-6.360749,"i_long":106.831474,"transit":false,"is_transit":false,"line":2,"station_id":"UI"},{"transit":false,"station_id":"UP","distance":2264,"i_lat":-6.339291,"line":2,"i_long":106.834175,"station_name":"Univ. Pancasila","time":3,"is_transit":false},{"station_id":"LNA","distance":1029,"i_lat":-6.330363,"is_transit":false,"i_long":106.832616,"time":2,"line":2,"transit":false,"station_name":"Lenteng Agung"},{"time":3,"station_id":"TNT","is_transit":false,"i_lat":-6.3080680000000005,"transit":false,"i_long":106.838896,"distance":2671,"station_name":"Tanjung Barat","line":2},{"is_transit":false,"i_lat":-6.2842400000000005,"station_name":"Pasar Minggu","distance":2820,"transit":false,"station_id":"PSM","time":4,"i_long":106.843999,"line":2},{"time":2,"transit":false,"station_name":"Pasar Minggu Baru","is_transit":false,"station_id":"PSMB","i_lat":-6.263214,"distance":2380,"i_long":106.851577,"line":2},{"is_transit":false,"station_name":"Duren Kalibata","station_id":"DRN","transit":false,"time":2,"i_long":106.85449,"line":2,"distance":824,"i_lat":-6.255332},{"distance":1546,"is_transit":false,"station_id":"CW","i_lat":-6.242512,"time":3,"i_long":106.856607,"station_name":"Cawang","line":2,"transit":false},{"i_long":106.857948,"is_transit":false,"distance":1230,"station_id":"TEB","transit":false,"i_lat":-6.226659,"time":2,"station_name":"Tebet","line":2},{"station_name":"Manggarai","is_transit":true,"i_long":106.84912,"time":4,"i_lat":-6.209883,"line":2,"station_id":"MRI","transit":true,"distance":2610},{"time":4,"transit":false,"station_id":"SUD","distance":3186,"station_name":"Sudirman","is_transit":false,"i_lat":-6.202263,"i_long":106.822649,"line":1},{"station_name":"Sudirman Baru","line":1,"transit":false,"i_long":106.819881,"is_transit":false,"station_id":"SUDB","time":1,"i_lat":-6.201433,"distance":280},{"i_lat":-6.20132,"line":1,"transit":false,"distance":471,"station_id":"KAT","i_long":106.816351,"station_name":"Karet","is_transit":false,"time":1},{"distance":2029,"is_transit":true,"i_lat":-6.185545,"line":1,"transit":true,"station_id":"THB","i_long":106.811091,"station_name":"Tanah Abang","time":5},{"is_transit":false,"distance":3191,"line":6,"station_id":"PLM","i_long":106.79689,"i_lat":-6.207404,"transit":false,"time":6,"station_name":"Palmerah"},{"is_transit":false,"line":6,"i_long":106.780334,"station_name":"Kebayoran","time":7,"station_id":"KBY","transit":false,"i_lat":-6.237242,"distance":3737},{"time":8,"distance":6218,"transit":false,"station_id":"PDJ","i_long":106.74273,"station_name":"Pondokranji","line":6,"i_lat":-6.276362,"is_transit":false},{"transit":false,"is_transit":false,"distance":2179,"station_id":"JMU","line":6,"station_name":"Jurangmangu","time":3,"i_long":106.728916,"i_lat":-6.288927},{"transit":false,"station_id":"SDM","station_name":"Sudimara","time":4,"distance":1994,"i_lat":-6.296963,"i_long":106.712277,"is_transit":false,"line":6},{"station_name":"Rawa Buntu","time":6,"station_id":"RU","i_long":106.675475,"distance":4566,"i_lat":-6.314823,"line":6,"is_transit":false,"transit":false},{"i_lat":-6.319871,"station_name":"Serpong","time":4,"distance":2413,"is_transit":false,"station_id":"SRP","i_long":106.66566,"transit":false,"line":6},{"station_name":"Cisauk","is_transit":false,"i_lat":-6.32484,"i_long":106.640411,"line":3,"station_id":"CSK","distance":1784,"transit":false,"time":4},{"line":3,"i_lat":-6.329547,"station_name":"Cicayur","transit":false,"station_id":"CC","time":4,"i_long":106.617853,"distance":2519,"is_transit":false},{"i_long":106.568863,"time":8,"transit":false,"station_name":"Parung Panjang","i_lat":-6.3441410000000005,"line":6,"distance":5968,"is_transit":false,"station_id":"PRP"},{"time":9,"i_lat":-6.354349,"distance":7025,"station_id":"CJT","transit":false,"i_long":106.508482,"is_transit":false,"station_name":"Cilejit","line":3},{"line":0,"distance":2675,"is_transit":false,"station_id":"DAR","station_name":"Daru","transit":false,"i_lat":-6.338021,"time":6,"i_long":106.491338},{"transit":false,"time":5,"i_long":106.460812,"line":6,"station_name":"Tenjo","i_lat":-6.327251,"station_id":"TEJ","distance":3902,"is_transit":false},{"station_name":"Tigaraksa","station_id":"TGS","time":5,"is_transit":false,"i_long":106.425991,"transit":false,"i_lat":-6.328533,"distance":2974,"line":6},{"is_transit":false,"distance":2651,"station_name":"Cikoya","i_long":106.411216,"transit":false,"time":3,"station_id":"CKY","i_lat":-6.33561,"line":3},{"distance":1853,"station_id":"MJ","i_long":106.394373,"line":6,"is_transit":false,"time":4,"transit":false,"i_lat":-6.332307,"station_name":"Maja"}],[{"station_id":"DPB","i_long":106.819451,"is_transit":false,"distance":0,"transit":false,"time":0,"i_lat":-6.391065,"station_name":"Depokbaru","line":2},{"is_transit":false,"time":4,"station_name":"Pondok Cina","i_long":106.831114,"transit":false,"station_id":"POC","line":2,"distance":2727,"i_lat":-6.369073},{"line":2,"i_long":106.831474,"i_lat":-6.360749,"is_transit":false,"time":2,"transit":false,"distance":1109,"station_name":"Univ. Indonesia","station_id":"UI"},{"time":3,"is_transit":false,"line":2,"i_long":106.834175,"transit":false,"station_id":"UP","i_lat":-6.339291,"distance":2264,"station_name":"Univ. Pancasila"},{"i_long":106.832616,"distance":1029,"station_name":"Lenteng Agung","transit":false,"station_id":"LNA","i_lat":-6.330363,"time":2,"line":2,"is_transit":false},{"i_lat":-6.3080680000000005,"i_long":106.838896,"is_transit":false,"line":2,"station_name":"Tanjung Barat","transit":false,"station_id":"TNT","time":3,"distance":2671},{"is_transit":false,"line":2,"distance":2820,"station_name":"Pasar Minggu","transit":false,"i_lat":-6.2842400000000005,"i_long":106.843999,"time":4,"station_id":"PSM"},{"station_id":"PSMB","time":2,"i_lat":-6.263214,"station_name":"Pasar Minggu Baru","transit":false,"distance":2380,"is_transit":false,"line":2,"i_long":106.851577},{"is_transit":false,"station_name":"Duren Kalibata","transit":false,"distance":824,"i_lat":-6.255332,"i_long":106.85449,"station_id":"DRN","time":2,"line":2},{"transit":false,"i_lat":-6.242512,"i_long":106.856607,"station_name":"Cawang","line":2,"is_transit":false,"time":3,"station_id":"CW","distance":1546},{"i_lat":-6.226659,"time":2,"station_id":"TEB","station_name":"Tebet","distance":1230,"transit":false,"i_long":106.857948,"is_transit":false,"line":2},{"station_name":"Manggarai","time":4,"distance":2610,"i_lat":-6.209883,"i_long":106.84912,"is_transit":false,"station_id":"MRI","line":2,"transit":false},{"distance":1590,"transit":false,"is_transit":false,"station_name":"Cikini","i_long":106.840169,"time":4,"i_lat":-6.198556,"line":2,"station_id":"CKI"},{"line":2,"station_name":"Gondangdia","distance":1750,"is_transit":false,"i_lat":-6.186295,"time":3,"station_id":"GDD","transit":false,"i_long":106.832183},{"time":4,"distance":2015,"i_long":106.828284,"transit":false,"station_name":"Juanda","is_transit":false,"i_lat":-6.166716,"line":2,"station_id":"JUA"},{"i_lat":-6.160725,"i_long":106.827103,"line":2,"time":2,"transit":false,"distance":1149,"station_name":"Sawah Besar","station_id":"SW","is_transit":false},{"distance":906,"station_id":"MGB","line":2,"i_lat":-6.149769,"i_long":106.82482,"transit":false,"time":2,"station_name":"Manggabesar","is_transit":false},{"distance":1080,"i_long":106.820901,"station_id":"JAY","i_lat":-6.141205,"time":2,"line":2,"station_name":"Jayakarta","is_transit":false,"transit":false},{"station_id":"JAKK","transit":true,"time":4,"distance":1264,"i_long":106.812439,"i_lat":-6.137569,"line":2,"is_transit":true,"station_name":"Jakarta Kota"},{"station_name":"Kampung Bandan","line":4,"distance":1364,"time":3,"station_id":"KPB","i_long":106.826365,"transit":true,"i_lat":-6.132549,"is_transit":true},{"station_id":"AK","transit":false,"time":9,"i_lat":-6.144674,"distance":4102,"line":1,"station_name":"Angke","is_transit":false,"i_long":106.79867},{"station_id":"DU","distance":1230,"i_lat":-6.155215,"line":1,"i_long":106.800832,"time":4,"station_name":"Duri","is_transit":false,"transit":false},{"line":1,"i_long":106.811091,"time":8,"station_name":"Tanah Abang","is_transit":true,"i_lat":-6.185545,"station_id":"THB","transit":true,"distance":3632},{"i_long":106.79689,"station_id":"PLM","time":6,"line":6,"station_name":"Palmerah","transit":false,"distance":3191,"i_lat":-6.207404,"is_transit":false},{"i_long":106.780334,"line":6,"station_name":"Kebayoran","transit":false,"distance":3737,"station_id":"KBY","time":7,"i_lat":-6.237242,"is_transit":false},{"i_lat":-6.276362,"line":6,"station_id":"PDJ","transit":false,"is_transit":false,"time":8,"i_long":106.74273,"distance":6218,"station_name":"Pondokranji"},{"line":6,"station_id":"JMU","station_name":"Jurangmangu","time":3,"transit":false,"i_lat":-6.288927,"distance":2179,"i_long":106.728916,"is_transit":false},{"transit":false,"line":6,"i_long":106.712277,"distance":1994,"station_id":"SDM","station_name":"Sudimara","time":4,"i_lat":-6.296963,"is_transit":false},{"distance":4566,"station_id":"RU","time":6,"line":6,"i_lat":-6.314823,"i_long":106.675475,"is_transit":false,"transit":false,"station_name":"Rawa Buntu"},{"line":6,"transit":false,"i_lat":-6.319871,"is_transit":false,"i_long":106.66566,"station_id":"SRP","time":4,"distance":2413,"station_name":"Serpong"},{"line":3,"time":4,"station_name":"Cisauk","distance":1784,"station_id":"CSK","i_long":106.640411,"is_transit":false,"i_lat":-6.32484,"transit":false},{"time":4,"station_id":"CC","transit":false,"i_lat":-6.329547,"station_name":"Cicayur","distance":2519,"is_transit":false,"i_long":106.617853,"line":3},{"time":8,"i_long":106.568863,"line":6,"distance":5968,"station_id":"PRP","is_transit":false,"i_lat":-6.3441410000000005,"station_name":"Parung Panjang","transit":false},{"transit":false,"is_transit":false,"line":3,"station_id":"CJT","station_name":"Cilejit","distance":7025,"time":9,"i_long":106.508482,"i_lat":-6.354349},{"i_long":106.491338,"transit":false,"is_transit":false,"i_lat":-6.338021,"distance":2675,"station_name":"Daru","station_id":"DAR","time":6,"line":0},{"line":6,"i_long":106.460812,"time":5,"station_name":"Tenjo","i_lat":-6.327251,"transit":false,"is_transit":false,"station_id":"TEJ","distance":3902},{"station_name":"Tigaraksa","is_transit":false,"distance":2974,"station_id":"TGS","i_long":106.425991,"line":6,"time":5,"i_lat":-6.328533,"transit":false},{"is_transit":false,"station_name":"Cikoya","i_long":106.411216,"distance":2651,"line":3,"station_id":"CKY","transit":false,"time":3,"i_lat":-6.33561},{"i_lat":-6.332307,"station_id":"MJ","is_transit":false,"distance":1853,"line":6,"transit":false,"station_name":"Maja","i_long":106.394373,"time":4}],[{"time":0,"station_name":"Depokbaru","i_lat":-6.391065,"station_id":"DPB","line":2,"transit":false,"distance":0,"is_transit":false,"i_long":106.819451},{"time":4,"station_id":"POC","station_name":"Pondok Cina","is_transit":false,"line":2,"i_long":106.831114,"distance":2727,"i_lat":-6.369073,"transit":false},{"station_name":"Univ. Indonesia","i_lat":-6.360749,"distance":1109,"is_transit":false,"i_long":106.831474,"station_id":"UI","line":2,"time":2,"transit":false},{"i_long":106.834175,"distance":2264,"is_transit":false,"i_lat":-6.339291,"station_id":"UP","time":3,"transit":false,"station_name":"Univ. Pancasila","line":2},{"i_long":106.832616,"line":2,"i_lat":-6.330363,"station_name":"Lenteng Agung","distance":1029,"time":2,"station_id":"LNA","transit":false,"is_transit":false},{"transit":false,"station_id":"TNT","time":3,"line":2,"station_name":"Tanjung Barat","is_transit":false,"distance":2671,"i_long":106.838896,"i_lat":-6.3080680000000005},{"is_transit":false,"station_id":"PSM","distance":2820,"i_lat":-6.2842400000000005,"transit":false,"time":4,"line":2,"i_long":106.843999,"station_name":"Pasar Minggu"},{"station_id":"PSMB","distance":2380,"i_long":106.851577,"i_lat":-6.263214,"station_name":"Pasar Minggu Baru","transit":false,"is_transit":false,"time":2,"line":2},{"time":2,"transit":false,"i_long":106.85449,"line":2,"station_name":"Duren Kalibata","is_transit":false,"station_id":"DRN","i_lat":-6.255332,"distance":824},{"line":2,"distance":1546,"is_transit":false,"station_name":"Cawang","i_lat":-6.242512,"i_long":106.856607,"time":3,"transit":false,"station_id":"CW"},{"transit":false,"distance":1230,"station_name":"Tebet","is_transit":false,"time":2,"station_id":"TEB","i_lat":-6.226659,"i_long":106.857948,"line":2},{"distance":2610,"transit":true,"station_id":"MRI","station_name":"Manggarai","i_long":106.84912,"time":4,"line":2,"i_lat":-6.209883,"is_transit":true},{"line":1,"is_transit":false,"station_id":"MTR","station_name":"Matraman","transit":false,"i_long":106.858896,"distance":1275,"time":2,"i_lat":-6.212485},{"i_long":106.86807400000001,"transit":true,"is_transit":true,"station_id":"JNG","station_name":"Jatinegara","distance":1377,"i_lat":-6.215091,"line":1,"time":8},{"i_lat":-6.209188,"i_long":106.861737,"station_id":"POK","line":11,"is_transit":false,"distance":1236,"time":2,"transit":false,"station_name":"Pondok Jati"},{"i_long":106.855437,"distance":1829,"time":2,"transit":false,"i_lat":-6.193792,"line":11,"station_id":"KMT","is_transit":false,"station_name":"Kramat"},{"distance":973,"station_name":"Gang Sentiong","is_transit":false,"time":1,"i_long":106.850107,"line":11,"i_lat":-6.185975,"transit":false,"station_id":"GST"},{"transit":false,"i_lat":-6.174784,"i_long":106.84368,"is_transit":false,"distance":1567,"station_name":"Pasar Senen","time":8,"line":11,"station_id":"PSE"},{"station_id":"KMO","time":4,"distance":1436,"is_transit":false,"i_long":106.839204,"line":11,"station_name":"Kemayoran","i_lat":-6.161728,"transit":false},{"is_transit":false,"transit":false,"time":5,"station_id":"RJW","i_lat":-6.14505,"i_long":106.836569,"station_name":"Rajawali","line":11,"distance":1901},{"station_id":"KPB","i_long":106.826365,"time":3,"distance":1444,"is_transit":true,"i_lat":-6.132549,"line":4,"station_name":"Kampung Bandan","transit":true},{"line":1,"is_transit":false,"distance":4102,"time":9,"i_lat":-6.144674,"transit":false,"station_name":"Angke","station_id":"AK","i_long":106.79867},{"i_long":106.800832,"line":1,"station_name":"Duri","is_transit":false,"distance":1230,"transit":false,"time":4,"station_id":"DU","i_lat":-6.155215},{"transit":true,"station_name":"Tanah Abang","station_id":"THB","distance":3632,"i_lat":-6.185545,"time":8,"is_transit":true,"line":1,"i_long":106.811091},{"time":6,"station_id":"PLM","distance":3191,"i_lat":-6.207404,"i_long":106.79689,"line":6,"is_transit":false,"transit":false,"station_name":"Palmerah"},{"line":6,"station_name":"Kebayoran","i_long":106.780334,"i_lat":-6.237242,"transit":false,"distance":3737,"station_id":"KBY","time":7,"is_transit":false},{"transit":false,"time":8,"line":6,"is_transit":false,"station_id":"PDJ","i_long":106.74273,"distance":6218,"station_name":"Pondokranji","i_lat":-6.276362},{"transit":false,"station_name":"Jurangmangu","line":6,"i_lat":-6.288927,"i_long":106.728916,"station_id":"JMU","distance":2179,"time":3,"is_transit":false},{"i_lat":-6.296963,"station_name":"Sudimara","distance":1994,"transit":false,"time":4,"i_long":106.712277,"line":6,"is_transit":false,"station_id":"SDM"},{"time":6,"transit":false,"station_name":"Rawa Buntu","is_transit":false,"line":6,"i_long":106.675475,"distance":4566,"station_id":"RU","i_lat":-6.314823},{"i_long":106.66566,"station_name":"Serpong","station_id":"SRP","time":4,"line":6,"is_transit":false,"transit":false,"i_lat":-6.319871,"distance":2413},{"time":4,"station_id":"CSK","transit":false,"i_lat":-6.32484,"is_transit":false,"station_name":"Cisauk","distance":1784,"i_long":106.640411,"line":3},{"is_transit":false,"transit":false,"distance":2519,"station_name":"Cicayur","i_lat":-6.329547,"i_long":106.617853,"station_id":"CC","line":3,"time":4},{"is_transit":false,"station_id":"PRP","i_lat":-6.3441410000000005,"line":6,"time":8,"i_long":106.568863,"transit":false,"station_name":"Parung Panjang","distance":5968},{"time":9,"transit":false,"station_id":"CJT","distance":7025,"station_name":"Cilejit","i_lat":-6.354349,"is_transit":false,"line":3,"i_long":106.508482},{"station_id":"DAR","time":6,"is_transit":false,"transit":false,"station_name":"Daru","i_long":106.491338,"distance":2675,"line":0,"i_lat":-6.338021},{"line":6,"distance":3902,"station_name":"Tenjo","transit":false,"is_transit":false,"station_id":"TEJ","time":5,"i_lat":-6.327251,"i_long":106.460812},{"distance":2974,"line":6,"time":5,"i_lat":-6.328533,"is_transit":false,"station_id":"TGS","station_name":"Tigaraksa","transit":false,"i_long":106.425991},{"station_id":"CKY","line":3,"station_name":"Cikoya","is_transit":false,"time":3,"i_long":106.411216,"distance":2651,"i_lat":-6.33561,"transit":false},{"line":6,"i_long":106.394373,"distance":1853,"transit":false,"i_lat":-6.332307,"station_name":"Maja","is_transit":false,"time":4,"station_id":"MJ"}]]}