{"data":[[{"transit":false,"i_long":106.819451,"time":0,"i_lat":-6.391065,"station_id":"DPB","station_name":"Depokbaru","line":2,"is_transit":false,"distance":0},{"station_id":"POC","distance":2727,"is_transit":false,"transit":false,"station_name":"Pondok Cina","i_lat":-6.369073,"i_long":106.831114,"line":2,"time":4},{"i_long":106.831474,"is_transit":false,"line":2,"station_id":"UI","station_name":"Univ. Indonesia","transit":false,"time":2,"distance":1109,"i_lat":-6.360749},{"time":3,"distance":2264,"transit":false,"i_lat":-6.339291,"i_long":106.834175,"station_id":"UP","station_name":"Univ. Pancasila","is_transit":false,"line":2},{"station_id":"LNA","transit":false,"time":2,"station_name":"Lenteng Agung","distance":1029,"i_lat":-6.330363,"line":2,"i_long":106.832616,"is_transit":false},{"is_transit":false,"i_lat":-6.3080680000000005,"i_long":106.838896,"station_id":"TNT","time":3,"station_name":"Tanjung Barat","line":2,"distance":2671,"transit":false},{"transit":false,"distance":2820,"line":2,"station_name":"Pasar Minggu","i_long":106.843999,"time":4,"i_lat":-6.2842400000000005,"is_transit":false,"station_id":"PSM"},{"time":2,"is_transit":false,"i_long":106.851577,"line":2,"distance":2380,"station_id":"PSMB","i_lat":-6.263214,"transit":false,"station_name":"Pasar Minggu Baru"},{"line":2,"time":2,"i_lat":-6.255332,"i_long":106.85449,"station_id":"DRN","distance":824,"is_transit":false,"station_name":"Duren Kalibata","transit":false},{"distance":1546,"transit":false,"is_transit":false,"i_lat":-6.242512,"time":3,"i_long":106.856607,"line":2,"station_id":"CW","station_name":"Cawang"},{"station_name":"Tebet","i_long":106.857948,"station_id":"TEB","is_transit":false,"line":2,"time":2,"i_lat":-6.226659,"transit":false,"distance":1230},{"i_long":106.84912,"distance":2610,"is_transit":true,"transit":true,"time":4,"line":2,"i_lat":-6.209883,"station_id":"MRI","station_name":"Manggarai"},{"station_name":"Sudirman","station_id":"SUD","transit":false,"i_long":106.822649,"is_transit":false,"line":1,"distance":3186,"i_lat":-6.202263,"time":4},{"time":1,"station_id":"SUDB","station_name":"Sudirman Baru","is_transit":false,"line":1,"i_lat":-6.201433,"i_long":106.819881,"transit":false,"distance":280},{"time":1,"distance":471,"line":1,"is_transit":false,"station_id":"KAT","i_long":106.816351,"station_name":"Karet","transit":false,"i_lat":-6.20132},{"is_transit":true,"transit":true,"line":1,"station_id":"THB","i_lat":-6.185545,"time":5,"station_name":"Tanah Abang","i_long":106.811091,"distance":2029},{"line":6,"time":6,"distance":3191,"station_id":"PLM","i_lat":-6.207404,"i_long":106.79689,"station_name":"Palmerah","transit":false,"is_transit":false},{"station_id":"KBY","time":7,"transit":false,"is_transit":false,"i_long":106.780334,"distance":3737,"line":6,"station_name":"Kebayoran","i_lat":-6.237242},{"is_transit":false,"time":8,"station_id":"PDJ","i_lat":-6.276362,"distance":6218,"station_name":"Pondokranji","transit":false,"i_long":106.74273,"line":6}],[{"line":2,"time":0,"i_long":106.819451,"station_name":"Depokbaru","distance":0,"is_transit":false,"i_lat":-6.391065,"station_id":"DPB","transit":false},{"transit":false,"is_transit":false,"distance":2727,"i_long":106.831114,"time":4,"i_lat":-6.369073,"line":2,"station_id":"POC","station_name":"Pondok Cina"},{"is_transit":false,"station_name":"Univ. Indonesia","transit":false,"line":2,"i_long":106.831474,"time":2,"distance":1109,"station_id":"UI","i_lat":-6.360749},{"i_lat":-6.339291,"is_transit":false,"distance":2264,"time":3,"line":2,"station_name":"Univ. Pancasila","i_long":106.834175,"station_id":"UP","transit":false},{"time":2,"station_name":"Lenteng Agung","transit":false,"distance":1029,"line":2,"station_id":"LNA","is_transit":false,"i_lat":-6.330363,"i_long":106.832616},{"i_long":106.838896,"transit":false,"station_id":"TNT","is_transit":false,"station_name":"Tanjung Barat","time":3,"line":2,"distance":2671,"i_lat":-6.3080680000000005},{"transit":false,"line":2,"distance":2820,"time":4,"is_transit":false,"i_lat":-6.2842400000000005,"station_id":"PSM","i_long":106.843999,"station_name":"Pasar Minggu"},{"station_name":"Pasar Minggu Baru","transit":false,"station_id":"PSMB","is_transit":false,"i_lat":-6.263214,"distance":2380,"time":2,"line":2,"i_long":106.851577},{"station_id":"DRN","i_long":106.85449,"time":2,"transit":false,"distance":824,"line":2,"station_name":"Duren Kalibata","is_transit":false,"i_lat":-6.255332},{"station_id":"CW","transit":false,"station_name":"Cawang","i_lat":-6.242512,"i_long":106.856607,"distance":1546,"time":3,"is_transit":false,"line":2},{"transit":false,"i_lat":-6.226659,"line":2,"i_long":106.857948,"time":2,"is_transit":false,"station_id":"TEB","distance":1230,"station_name":"Tebet"},{"transit":false,"is_transit":false,"distance":2610,"time":4,"station_id":"MRI","i_lat":-6.209883,"station_name":"Manggarai","i_long":106.84912,"line":2},{"line":2,"i_long":106.840169,"transit":false,"is_transit":false,"i_lat":-6.198556,"station_id":"CKI","time":4,"distance":1590,"station_name":"Cikini"},{"i_lat":-6.186295,"station_id":"GDD","time":3,"transit":false,"i_long":106.832183,"station_name":"Gondangdia","distance":1750,"line":2,"is_transit":false},{"transit":false,"station_name":"Juanda","is_transit":false,"i_long":106.828284,"line":2,"distance":2015,"station_id":"JUA","time":4,"i_lat":-6.166716},{"is_transit":false,"i_long":106.827103,"transit":false,"station_id":"SW","station_name":"Sawah Besar","time":2,"i_lat":-6.160725,"distance":1149,"line":2},{"station_id":"MGB","i_long":106.82482,"line":2,"time":2,"distance":906,"station_name":"Manggabesar","transit":false,"is_transit":false,"i_lat":-6.149769},{"station_id":"JAY","is_transit":false,"station_name":"Jayakarta","i_long":106.820901,"i_lat":-6.141205,"distance":1080,"time":2,"line":2,"transit":false},{"distance":1264,"station_id":"JAKK","i_long":106.812439,"line":2,"time":4,"transit":true,"station_name":"Jakarta Kota","is_transit":true,"i_lat":-6.137569},{"line":4,"station_name":"Kampung Bandan","is_transit":true,"i_lat":-6.132549,"i_long":106.826365,"transit":true,"time":3,"distance":1364,"station_id":"KPB"},{"transit":false,"line":1,"time":9,"i_long":106.79867,"is_transit":false,"station_name":"Angke","station_id":"AK","distance":4102,"i_lat":-6.144674},{"line":1,"transit":false,"distance":1230,"i_long":106.800832,"station_id":"DU","is_transit":false,"station_name":"Duri","time":4,"i_lat":-6.155215},{"is_transit":true,"station_name":"Tanah Abang","transit":true,"i_lat":-6.185545,"distance":3632,"time":8,"i_long":106.811091,"line":1,"station_id":"THB"},{"time":6,"transit":false,"i_long":106.79689,"i_lat":-6.207404,"station_id":"PLM","is_transit":false,"distance":3191,"line":6,"station_name":"Palmerah"},{"distance":3737,"transit":false,"station_id":"KBY","i_long":106.780334,"line":6,"is_transit":false,"i_lat":-6.237242,"time":7,"station_name":"Kebayoran"},{"time":8,"line":6,"i_lat":-6.276362,"station_id":"PDJ","distance":6218,"is_transit":false,"station_name":"Pondokranji","i_long":106.74273,"transit":false}],[{"station_name":"Depokbaru","station_id":"DPB","is_transit":false,"i_long":106.819451,"time":0,"distance":0,"i_lat":-6.391065,"line":2,"transit":false},{"time":4,"transit":false,"station_name":"Pondok Cina","i_lat":-6.369073,"station_id":"POC","i_long":106.831114,"line":2,"is_transit":false,"distance":2727},{"i_lat":-6.360749,"i_long":106.831474,"distance":1109,"transit":false,"station_name":"Univ. Indonesia","line":2,"time":2,"station_id":"UI","is_transit":false},{"i_lat":-6.339291,"station_name":"Univ. Pancasila","station_id":"UP","transit":false,"line":2,"time":3,"is_transit":false,"i_long":106.834175,"distance":2264},{"distance":1029,"time":2,"line":2,"station_name":"Lenteng Agung","transit":false,"station_id":"LNA","i_lat":-6.330363,"i_long":106.832616,"is_transit":false},{"time":3,"station_id":"TNT","i_long":106.838896,"line":2,"distance":2671,"station_name":"Tanjung Barat","is_transit":false,"i_lat":-6.3080680000000005,"transit":false},{"station_id":"PSM","line":2,"distance":2820,"transit":false,"i_lat":-6.2842400000000005,"i_long":106.843999,"is_transit":false,"time":4,"station_name":"Pasar Minggu"},{"line":2,"time":2,"distance":2380,"station_name":"Pasar Minggu Baru","transit":false,"is_transit":false,"i_lat":-6.263214,"i_long":106.851577,"station_id":"PSMB"},{"is_transit":false,"time":2,"distance":824,"station_id":"DRN","station_name":"Duren Kalibata","i_long":106.85449,"line":2,"transit":false,"i_lat":-6.255332},{"distance":1546,"i_long":106.856607,"time":3,"transit":false,"line":2,"station_id":"CW","is_transit":false,"i_lat":-6.242512,"station_name":"Cawang"},{"line":2,"i_long":106.857948,"time":2,"is_transit":false,"distance":1230,"transit":false,"i_lat":-6.226659,"station_id":"TEB","station_name":"Tebet"},{"line":2,"station_name":"Manggarai","time":4,"i_lat":-6.209883,"station_id":"MRI","i_long":106.84912,"transit":true,"distance":2610,"is_transit":true},{"line":1,"station_name":"Matraman","transit":false,"is_transit":false,"station_id":"MTR","i_lat":-6.212485,"distance":1275,"i_long":106.858896,"time":2},{"is_transit":true,"i_long":106.86807400000001,"line":1,"station_id":"JNG","distance":1377,"time":8,"transit":true,"station_name":"Jatinegara","i_lat":-6.215091},{"distance":1236,"transit":false,"station_name":"Pondok Jati","time":2,"station_id":"POK","i_lat":-6.209188,"i_long":106.861737,"line":11,"is_transit":false},{"line":11,"station_name":"Kramat","transit":false,"distance":1829,"station_id":"KMT","time":2,"is_transit":false,"i_lat":-6.193792,"i_long":106.855437},{"time":1,"line":11,"station_id":"GST","is_transit":false,"station_name":"Gang Sentiong","distance":973,"transit":false,"i_lat":-6.185975,"i_long":106.850107},{"line":11,"distance":1567,"i_lat":-6.174784,"is_transit":false,"time":8,"transit":false,"i_long":106.84368,"station_name":"Pasar Senen","station_id":"PSE"},{"is_transit":false,"time":4,"distance":1436,"transit":false,"i_long":106.839204,"station_name":"Kemayoran","i_lat":-6.161728,"station_id":"KMO","line":11},{"i_long":106.836569,"line":11,"time":5,"distance":1901,"i_lat":-6.14505,"transit":false,"station_id":"RJW","is_transit":false,"station_name":"Rajawali"},{"station_id":"KPB","station_name":"Kampung Bandan","i_lat":-6.132549,"is_transit":true,"time":3,"line":4,"transit":true,"i_long":106.826365,"distance":1444},{"is_transit":false,"station_name":"Angke","line":1,"i_lat":-6.144674,"station_id":"AK","i_long":106.79867,"distance":4102,"transit":false,"time":9},{"distance":1230,"station_name":"Duri","i_lat":-6.155215,"i_long":106.800832,"is_transit":false,"station_id":"DU","line":1,"time":4,"transit":false},{"time":8,"transit":true,"i_long":106.811091,"distance":3632,"line":1,"i_lat":-6.185545,"station_name":"Tanah Abang","station_id":"THB","is_transit":true},{"station_name":"Palmerah","station_id":"PLM","is_transit":false,"i_long":106.79689,"time":6,"i_lat":-6.207404,"transit":false,"line":6,"distance":3191},{"time":7,"is_transit":false,"i_lat":-6.237242,"distance":3737,"station_name":"Kebayoran","station_id":"KBY","i_long":106.780334,"line":6,"transit":false},{"line":6,"i_long":106.74273,"distance":6218,"i_lat":-6.276362,"station_id":"PDJ","time":8,"is_transit":false,"transit":false,"station_name":"Pondokranji"}]]}