{"data":[[{"line":2,"i_lat":-6.391065,"distance":0,"station_id":"DPB","time":0,"station_name":"Depokbaru","i_long":106.819451,"is_transit":false,"transit":false},{"i_long":106.831114,"line":2,"station_id":"POC","is_transit":false,"station_name":"Pondok Cina","distance":2727,"transit":false,"time":4,"i_lat":-6.369073},{"is_transit":false,"station_name":"Univ. Indonesia","time":2,"transit":false,"i_long":106.831474,"distance":1109,"i_lat":-6.360749,"line":2,"station_id":"UI"},{"station_id":"UP","time":3,"is_transit":false,"distance":2264,"transit":false,"station_name":"Univ. Pancasila","line":2,"i_lat":-6.339291,"i_long":106.834175},{"station_name":"Lenteng Agung","i_lat":-6.330363,"distance":1029,"transit":false,"i_long":106.832616,"time":2,"line":2,"station_id":"LNA","is_transit":false},{"transit":false,"time":3,"station_id":"TNT","station_name":"Tanjung Barat","i_long":106.838896,"line":2,"is_transit":false,"i_lat":-6.3080680000000005,"distance":2671},{"is_transit":false,"i_lat":-6.2842400000000005,"i_long":106.843999,"distance":2820,"line":2,"transit":false,"station_name":"Pasar Minggu","station_id":"PSM","time":4},{"i_long":106.851577,"station_id":"PSMB","line":2,"station_name":"Pasar Minggu Baru","transit":false,"i_lat":-6.263214,"time":2,"is_transit":false,"distance":2380},{"i_lat":-6.255332,"i_long":106.85449,"station_name":"Duren Kalibata","time":2,"distance":824,"line":2,"is_transit":false,"transit":false,"station_id":"DRN"},{"line":2,"is_transit":false,"distance":1546,"time":3,"station_id":"CW","transit":false,"i_lat":-6.242512,"station_name":"Cawang","i_long":106.856607},{"i_lat":-6.226659,"i_long":106.857948,"time":2,"transit":false,"station_name":"Tebet","distance":1230,"line":2,"station_id":"TEB","is_transit":false},{"is_transit":true,"i_lat":-6.209883,"station_id":"MRI","i_long":106.84912,"time":4,"transit":true,"station_name":"Manggarai","line":2,"distance":2610},{"transit":false,"i_long":106.858896,"time":2,"station_id":"MTR","distance":1275,"is_transit":false,"i_lat":-6.212485,"line":1,"station_name":"Matraman"},{"station_name":"Jatinegara","station_id":"JNG","i_lat":-6.215091,"time":8,"transit":false,"i_long":106.86807400000001,"line":1,"is_transit":false,"distance":1377},{"transit":false,"i_long":106.899548,"is_transit":false,"distance":3395,"station_id":"KLD","time":3,"station_name":"Klender","i_lat":-6.2135,"line":1},{"i_lat":-6.215568,"line":1,"station_name":"Buaran","is_transit":false,"i_long":106.922662,"time":2,"transit":false,"station_id":"BUA","distance":3100},{"station_id":"KLDB","line":1,"time":1,"i_lat":-6.217455,"is_transit":false,"i_long":106.939679,"distance":1305,"station_name":"Klenderbaru","transit":false},{"i_lat":-6.219053,"station_id":"CUK","line":1,"station_name":"Cakung","time":8,"is_transit":false,"transit":false,"distance":1385,"i_long":106.951283},{"i_lat":-6.224515,"is_transit":false,"transit":false,"distance":3097,"line":1,"time":3,"station_id":"KRI","i_long":106.977657,"station_name":"Kranji"},{"i_lat":-6.236616,"line":1,"station_name":"Bekasi","station_id":"BKS","time":4,"is_transit":false,"transit":false,"distance":2520,"i_long":106.997013},{"station_name":"Bekasi Timur","distance":2368,"is_transit":false,"i_long":107.016735,"line":1,"station_id":"BKST","transit":false,"i_lat":-6.248029,"time":2},{"time":7,"station_id":"TB","is_transit":false,"line":1,"i_lat":-6.258864,"i_long":107.055722,"transit":false,"station_name":"Tambun","distance":4460}],[{"station_id":"DPB","i_long":106.819451,"time":0,"transit":false,"is_transit":false,"station_name":"Depokbaru","distance":0,"i_lat":-6.391065,"line":2},{"station_id":"POC","transit":false,"i_long":106.831114,"time":4,"station_name":"Pondok Cina","is_transit":false,"line":2,"distance":2727,"i_lat":-6.369073},{"i_long":106.831474,"time":2,"is_transit":false,"transit":false,"distance":1109,"i_lat":-6.360749,"station_name":"Univ. Indonesia","station_id":"UI","line":2},{"time":3,"i_long":106.834175,"station_id":"UP","station_name":"Univ. Pancasila","line":2,"distance":2264,"is_transit":false,"i_lat":-6.339291,"transit":false},{"line":2,"transit":false,"time":2,"i_lat":-6.330363,"is_transit":false,"station_name":"Lenteng Agung","station_id":"LNA","distance":1029,"i_long":106.832616},{"i_lat":-6.3080680000000005,"transit":false,"distance":2671,"i_long":106.838896,"is_transit":false,"time":3,"line":2,"station_name":"Tanjung Barat","station_id":"TNT"},{"station_id":"PSM","line":2,"transit":false,"time":4,"i_long":106.843999,"is_transit":false,"distance":2820,"i_lat":-6.2842400000000005,"station_name":"Pasar Minggu"},{"station_name":"Pasar Minggu Baru","station_id":"PSMB","time":2,"is_transit":false,"i_lat":-6.263214,"i_long":106.851577,"line":2,"distance":2380,"transit":false},{"station_name":"Duren Kalibata","is_transit":false,"line":2,"station_id":"DRN","i_long":106.85449,"distance":824,"transit":false,"i_lat":-6.255332,"time":2},{"is_transit":false,"i_lat":-6.242512,"transit":false,"time":3,"station_id":"CW","i_long":106.856607,"line":2,"station_name":"Cawang","distance":1546},{"distance":1230,"line":2,"station_name":"Tebet","is_transit":false,"i_lat":-6.226659,"station_id":"TEB","i_long":106.857948,"time":2,"transit":false},{"station_name":"Manggarai","transit":true,"i_long":106.84912,"distance":2610,"line":2,"time":4,"is_transit":true,"station_id":"MRI","i_lat":-6.209883},{"line":1,"distance":3186,"i_lat":-6.202263,"station_id":"SUD","time":4,"is_transit":false,"station_name":"Sudirman","i_long":106.822649,"transit":false},{"line":1,"is_transit":false,"i_long":106.819881,"station_id":"SUDB","station_name":"Sudirman Baru","time":1,"distance":280,"i_lat":-6.201433,"transit":false},{"is_transit":false,"distance":471,"transit":false,"station_name":"Karet","i_lat":-6.20132,"time":1,"line":1,"i_long":106.816351,"station_id":"KAT"},{"line":1,"i_long":106.811091,"is_transit":false,"station_id":"THB","distance":2029,"station_name":"Tanah Abang","i_lat":-6.185545,"time":5,"transit":false},{"is_transit":false,"station_id":"DU","i_long":106.800832,"i_lat":-6.155215,"transit":false,"distance":3632,"station_name":"Duri","line":1,"time":8},{"distance":1230,"is_transit":false,"line":1,"station_id":"AK","i_lat":-6.144674,"time":4,"i_long":106.79867,"transit":false,"station_name":"Angke"},{"line":4,"i_lat":-6.132549,"i_long":106.826365,"station_name":"Kampung Bandan","is_transit":true,"station_id":"KPB","distance":4102,"time":9,"transit":true},{"time":3,"station_id":"RJW","i_lat":-6.14505,"distance":1444,"line":11,"transit":false,"i_long":106.836569,"is_transit":false,"station_name":"Rajawali"},{"line":11,"i_lat":-6.161728,"station_name":"Kemayoran","station_id":"KMO","time":5,"distance":1901,"is_transit":false,"transit":false,"i_long":106.839204},{"transit":false,"station_id":"PSE","i_long":106.84368,"i_lat":-6.174784,"distance":1436,"time":4,"is_transit":false,"line":11,"station_name":"Pasar Senen"},{"is_transit":false,"time":8,"station_id":"GST","distance":1567,"station_name":"Gang Sentiong","i_lat":-6.185975,"transit":false,"i_long":106.850107,"line":11},{"transit":false,"line":11,"is_transit":false,"station_name":"Kramat","distance":973,"i_lat":-6.193792,"station_id":"KMT","time":1,"i_long":106.855437},{"i_lat":-6.209188,"i_long":106.861737,"transit":false,"line":11,"station_name":"Pondok Jati","station_id":"POK","is_transit":false,"distance":1829,"time":2},{"i_lat":-6.215091,"i_long":106.86807400000001,"station_name":"Jatinegara","is_transit":true,"distance":1236,"line":1,"station_id":"JNG","time":9,"transit":true},{"station_id":"KLD","distance":3395,"line":1,"i_long":106.899548,"i_lat":-6.2135,"is_transit":false,"time":3,"transit":false,"station_name":"Klender"},{"i_lat":-6.215568,"is_transit":false,"distance":3100,"line":1,"station_name":"Buaran","station_id":"BUA","transit":false,"i_long":106.922662,"time":2},{"i_lat":-6.217455,"distance":1305,"i_long":106.939679,"transit":false,"line":1,"time":1,"station_name":"Klenderbaru","is_transit":false,"station_id":"KLDB"},{"is_transit":false,"transit":false,"i_lat":-6.219053,"station_name":"Cakung","line":1,"station_id":"CUK","i_long":106.951283,"distance":1385,"time":8},{"station_name":"Kranji","station_id":"KRI","i_long":106.977657,"time":3,"distance":3097,"i_lat":-6.224515,"line":1,"transit":false,"is_transit":false},{"station_name":"Bekasi","time":4,"is_transit":false,"i_lat":-6.236616,"station_id":"BKS","i_long":106.997013,"transit":false,"line":1,"distance":2520},{"transit":false,"time":2,"station_id":"BKST","distance":2368,"i_long":107.016735,"i_lat":-6.248029,"line":1,"station_name":"Bekasi Timur","is_transit":false},{"time":7,"i_lat":-6.258864,"is_transit":false,"station_id":"TB","i_long":107.055722,"line":1,"station_name":"Tambun","transit":false,"distance":4460}],[{"i_long":106.819451,"line":2,"i_lat":-6.391065,"time":0,"transit":false,"distance":0,"station_name":"Depokbaru","is_transit":false,"station_id":"DPB"},{"line":2,"transit":false,"time":4,"distance":2727,"i_lat":-6.369073,"i_long":106.831114,"station_name":"Pondok Cina","is_transit":false,"station_id":"POC"},{"is_transit":false,"time":2,"transit":false,"distance":1109,"i_long":106.831474,"i_lat":-6.360749,"station_name":"Univ. Indonesia","line":2,"station_id":"UI"},{"is_transit":false,"transit":false,"station_name":"Univ. Pancasila","i_lat":-6.339291,"line":2,"distance":2264,"station_id":"UP","i_long":106.834175,"time":3},{"station_id":"LNA","transit":false,"i_lat":-6.330363,"time":2,"distance":1029,"i_long":106.832616,"station_name":"Lenteng Agung","line":2,"is_transit":false},{"station_id":"TNT","transit":false,"distance":2671,"time":3,"is_transit":false,"i_lat":-6.3080680000000005,"i_long":106.838896,"station_name":"Tanjung Barat","line":2},{"line":2,"station_name":"Pasar Minggu","station_id":"PSM","i_long":106.843999,"transit":false,"distance":2820,"time":4,"is_transit":false,"i_lat":-6.2842400000000005},{"i_lat":-6.263214,"line":2,"distance":2380,"station_id":"PSMB","i_long":106.851577,"is_transit":false,"time":2,"station_name":"Pasar Minggu Baru","transit":false},{"line":2,"i_lat":-6.255332,"station_id":"DRN","time":2,"is_transit":false,"distance":824,"station_name":"Duren Kalibata","transit":false,"i_long":106.85449},{"time":3,"station_id":"CW","i_lat":-6.242512,"station_name":"Cawang","transit":false,"is_transit":false,"distance":1546,"line":2,"i_long":106.856607},{"station_id":"TEB","line":2,"station_name":"Tebet","distance":1230,"i_long":106.857948,"time":2,"i_lat":-6.226659,"is_transit":false,"transit":false},{"time":4,"transit":false,"i_lat":-6.209883,"station_id":"MRI","line":2,"station_name":"Manggarai","distance":2610,"i_long":106.84912,"is_transit":false},{"transit":false,"is_transit":false,"station_id":"CKI","distance":1590,"i_lat":-6.198556,"time":4,"station_name":"Cikini","line":2,"i_long":106.840169},{"i_long":106.832183,"station_name":"Gondangdia","i_lat":-6.186295,"time":3,"line":2,"distance":1750,"station_id":"GDD","is_transit":false,"transit":false},{"transit":false,"line":2,"station_name":"Juanda","i_lat":-6.166716,"i_long":106.828284,"distance":2015,"station_id":"JUA","time":4,"is_transit":false},{"time":2,"i_long":106.827103,"is_transit":false,"station_id":"SW","station_name":"Sawah Besar","transit":false,"distance":1149,"line":2,"i_lat":-6.160725},{"is_transit":false,"time":2,"i_lat":-6.149769,"station_name":"Manggabesar","distance":906,"station_id":"MGB","i_long":106.82482,"transit":false,"line":2},{"is_transit":false,"station_name":"Jayakarta","distance":1080,"i_long":106.820901,"line":2,"station_id":"JAY","transit":false,"time":2,"i_lat":-6.141205},{"is_transit":true,"distance":1264,"i_long":106.812439,"line":2,"station_name":"Jakarta Kota","time":4,"i_lat":-6.137569,"station_id":"JAKK","transit":true},{"line":4,"i_lat":-6.132549,"distance":1364,"i_long":106.826365,"station_id":"KPB","time":3,"is_transit":true,"transit":true,"station_name":"Kampung Bandan"},{"is_transit":false,"transit":false,"distance":1444,"i_long":106.836569,"line":11,"i_lat":-6.14505,"station_name":"Rajawali","station_id":"RJW","time":3},{"transit":false,"line":11,"i_lat":-6.161728,"station_id":"KMO","distance":1901,"i_long":106.839204,"station_name":"Kemayoran","time":5,"is_transit":false},{"line":11,"station_id":"PSE","i_long":106.84368,"transit":false,"time":4,"station_name":"Pasar Senen","is_transit":false,"i_lat":-6.174784,"distance":1436},{"i_lat":-6.185975,"line":11,"i_long":106.850107,"is_transit":false,"time":8,"station_id":"GST","distance":1567,"station_name":"Gang Sentiong","transit":false},{"station_name":"Kramat","time":1,"i_long":106.855437,"i_lat":-6.193792,"distance":973,"station_id":"KMT","transit":false,"line":11,"is_transit":false},{"is_transit":false,"transit":false,"i_lat":-6.209188,"i_long":106.861737,"line":11,"distance":1829,"time":2,"station_name":"Pondok Jati","station_id":"POK"},{"i_lat":-6.215091,"is_transit":true,"time":9,"transit":true,"distance":1236,"line":1,"i_long":106.86807400000001,"station_id":"JNG","station_name":"Jatinegara"},{"i_long":106.899548,"line":1,"is_transit":false,"distance":3395,"i_lat":-6.2135,"time":3,"station_id":"KLD","station_name":"Klender","transit":false},{"station_name":"Buaran","i_lat":-6.215568,"i_long":106.922662,"line":1,"time":2,"is_transit":false,"station_id":"BUA","transit":false,"distance":3100},{"i_long":106.939679,"station_name":"Klenderbaru","time":1,"is_transit":false,"station_id":"KLDB","distance":1305,"line":1,"transit":false,"i_lat":-6.217455},{"transit":false,"time":8,"station_id":"CUK","i_lat":-6.219053,"i_long":106.951283,"is_transit":false,"station_name":"Cakung","distance":1385,"line":1},{"is_transit":false,"distance":3097,"i_lat":-6.224515,"station_name":"Kranji","transit":false,"i_long":106.977657,"line":1,"station_id":"KRI","time":3},{"transit":false,"time":4,"station_name":"Bekasi","is_transit":false,"distance":2520,"i_long":106.997013,"line":1,"i_lat":-6.236616,"station_id":"BKS"},{"i_long":107.016735,"station_name":"Bekasi Timur","i_lat":-6.248029,"is_transit":false,"transit":false,"time":2,"station_id":"BKST","distance":2368,"line":1},{"is_transit":false,"time":7,"station_id":"TB","distance":4460,"i_lat":-6.258864,"line":1,"i_long":107.055722,"transit":false,"station_name":"Tambun"}]]}