{"data":[[{"is_transit":false,"distance":0,"station_id":"DPB","line":2,"station_name":"Depokbaru","time":0,"i_long":106.819451,"i_lat":-6.391065,"transit":false},{"line":2,"station_id":"POC","is_transit":false,"i_lat":-6.369073,"transit":false,"i_long":106.831114,"time":4,"distance":2727,"station_name":"Pondok Cina"},{"station_id":"UI","time":2,"is_transit":false,"transit":false,"distance":1109,"station_name":"Univ. Indonesia","i_lat":-6.360749,"i_long":106.831474,"line":2},{"station_name":"Univ. Pancasila","station_id":"UP","transit":false,"is_transit":false,"line":2,"i_long":106.834175,"i_lat":-6.339291,"time":3,"distance":2264},{"distance":1029,"i_lat":-6.330363,"i_long":106.832616,"transit":false,"station_name":"Lenteng Agung","is_transit":false,"station_id":"LNA","line":2,"time":2},{"transit":false,"i_lat":-6.3080680000000005,"distance":2671,"station_id":"TNT","line":2,"station_name":"Tanjung Barat","time":3,"is_transit":false,"i_long":106.838896},{"distance":2820,"i_lat":-6.2842400000000005,"transit":false,"station_id":"PSM","is_transit":false,"i_long":106.843999,"station_name":"Pasar Minggu","time":4,"line":2},{"station_name":"Pasar Minggu Baru","is_transit":false,"distance":2380,"i_lat":-6.263214,"time":2,"transit":false,"i_long":106.851577,"line":2,"station_id":"PSMB"},{"transit":false,"station_id":"DRN","is_transit":false,"time":2,"line":2,"station_name":"Duren Kalibata","i_lat":-6.255332,"distance":824,"i_long":106.85449},{"time":3,"is_transit":false,"station_name":"Cawang","station_id":"CW","distance":1546,"i_lat":-6.242512,"i_long":106.856607,"line":2,"transit":false},{"i_long":106.857948,"station_id":"TEB","time":2,"is_transit":false,"line":2,"transit":false,"station_name":"Tebet","distance":1230,"i_lat":-6.226659},{"transit":true,"station_name":"Manggarai","station_id":"MRI","is_transit":true,"i_lat":-6.209883,"distance":2610,"line":2,"i_long":106.84912,"time":4},{"i_long":106.858896,"station_id":"MTR","transit":false,"line":1,"distance":1275,"is_transit":false,"i_lat":-6.212485,"station_name":"Matraman","time":2},{"transit":false,"distance":1377,"line":1,"is_transit":false,"station_id":"JNG","time":8,"i_lat":-6.215091,"i_long":106.86807400000001,"station_name":"Jatinegara"},{"time":3,"line":1,"station_id":"KLD","distance":3395,"i_long":106.899548,"transit":false,"is_transit":false,"station_name":"Klender","i_lat":-6.2135},{"i_lat":-6.215568,"transit":false,"station_id":"BUA","station_name":"Buaran","is_transit":false,"i_long":106.922662,"time":2,"distance":3100,"line":1},{"distance":1305,"time":1,"i_long":106.939679,"i_lat":-6.217455,"transit":false,"line":1,"station_id":"KLDB","station_name":"Klenderbaru","is_transit":false},{"line":1,"distance":1385,"is_transit":false,"transit":false,"station_name":"Cakung","time":8,"station_id":"CUK","i_lat":-6.219053,"i_long":106.951283},{"time":3,"line":1,"i_lat":-6.224515,"is_transit":false,"distance":3097,"station_id":"KRI","i_long":106.977657,"station_name":"Kranji","transit":false},{"time":4,"i_lat":-6.236616,"transit":false,"station_id":"BKS","is_transit":false,"line":1,"i_long":106.997013,"station_name":"Bekasi","distance":2520}],[{"time":0,"i_long":106.819451,"transit":false,"distance":0,"line":2,"i_lat":-6.391065,"station_id":"DPB","is_transit":false,"station_name":"Depokbaru"},{"transit":false,"distance":2727,"station_name":"Pondok Cina","i_lat":-6.369073,"is_transit":false,"line":2,"station_id":"POC","i_long":106.831114,"time":4},{"is_transit":false,"station_name":"Univ. Indonesia","station_id":"UI","i_lat":-6.360749,"transit":false,"time":2,"distance":1109,"i_long":106.831474,"line":2},{"i_lat":-6.339291,"i_long":106.834175,"distance":2264,"transit":false,"is_transit":false,"time":3,"line":2,"station_id":"UP","station_name":"Univ. Pancasila"},{"station_id":"LNA","time":2,"station_name":"Lenteng Agung","is_transit":false,"distance":1029,"i_lat":-6.330363,"line":2,"transit":false,"i_long":106.832616},{"station_name":"Tanjung Barat","time":3,"i_long":106.838896,"i_lat":-6.3080680000000005,"transit":false,"is_transit":false,"line":2,"distance":2671,"station_id":"TNT"},{"line":2,"i_long":106.843999,"i_lat":-6.2842400000000005,"transit":false,"is_transit":false,"time":4,"station_id":"PSM","distance":2820,"station_name":"Pasar Minggu"},{"line":2,"transit":false,"time":2,"station_name":"Pasar Minggu Baru","is_transit":false,"i_long":106.851577,"distance":2380,"i_lat":-6.263214,"station_id":"PSMB"},{"station_id":"DRN","time":2,"transit":false,"is_transit":false,"distance":824,"i_lat":-6.255332,"station_name":"Duren Kalibata","i_long":106.85449,"line":2},{"station_id":"CW","line":2,"time":3,"i_long":106.856607,"is_transit":false,"distance":1546,"i_lat":-6.242512,"transit":false,"station_name":"Cawang"},{"time":2,"distance":1230,"i_long":106.857948,"is_transit":false,"i_lat":-6.226659,"station_name":"Tebet","transit":false,"station_id":"TEB","line":2},{"station_id":"MRI","time":4,"station_name":"Manggarai","is_transit":true,"i_lat":-6.209883,"i_long":106.84912,"line":2,"distance":2610,"transit":true},{"line":1,"station_id":"SUD","station_name":"Sudirman","is_transit":false,"distance":3186,"i_lat":-6.202263,"transit":false,"time":4,"i_long":106.822649},{"station_name":"Sudirman Baru","station_id":"SUDB","transit":false,"is_transit":false,"distance":280,"i_lat":-6.201433,"i_long":106.819881,"time":1,"line":1},{"transit":false,"station_id":"KAT","time":1,"i_lat":-6.20132,"i_long":106.816351,"line":1,"distance":471,"is_transit":false,"station_name":"Karet"},{"station_id":"THB","is_transit":false,"time":5,"transit":false,"station_name":"Tanah Abang","distance":2029,"line":1,"i_long":106.811091,"i_lat":-6.185545},{"station_name":"Duri","is_transit":false,"distance":3632,"transit":false,"line":1,"i_lat":-6.155215,"station_id":"DU","time":8,"i_long":106.800832},{"i_lat":-6.144674,"station_name":"Angke","line":1,"i_long":106.79867,"distance":1230,"transit":false,"station_id":"AK","is_transit":false,"time":4},{"time":9,"i_long":106.826365,"station_id":"KPB","transit":true,"is_transit":true,"i_lat":-6.132549,"line":4,"station_name":"Kampung Bandan","distance":4102},{"i_lat":-6.14505,"line":11,"transit":false,"time":3,"station_id":"RJW","i_long":106.836569,"is_transit":false,"station_name":"Rajawali","distance":1444},{"is_transit":false,"line":11,"i_lat":-6.161728,"distance":1901,"station_id":"KMO","i_long":106.839204,"time":5,"transit":false,"station_name":"Kemayoran"},{"station_id":"PSE","time":4,"is_transit":false,"line":11,"i_lat":-6.174784,"transit":false,"i_long":106.84368,"distance":1436,"station_name":"Pasar Senen"},{"transit":false,"station_id":"GST","time":8,"distance":1567,"i_lat":-6.185975,"is_transit":false,"i_long":106.850107,"line":11,"station_name":"Gang Sentiong"},{"time":1,"station_name":"Kramat","transit":false,"i_lat":-6.193792,"station_id":"KMT","distance":973,"line":11,"i_long":106.855437,"is_transit":false},{"transit":false,"i_long":106.861737,"distance":1829,"is_transit":false,"time":2,"station_name":"Pondok Jati","station_id":"POK","line":11,"i_lat":-6.209188},{"time":9,"distance":1236,"station_name":"Jatinegara","station_id":"JNG","i_lat":-6.215091,"line":1,"i_long":106.86807400000001,"transit":true,"is_transit":true},{"distance":3395,"station_id":"KLD","i_lat":-6.2135,"transit":false,"is_transit":false,"time":3,"line":1,"station_name":"Klender","i_long":106.899548},{"i_long":106.922662,"transit":false,"station_name":"Buaran","is_transit":false,"distance":3100,"time":2,"i_lat":-6.215568,"line":1,"station_id":"BUA"},{"station_name":"Klenderbaru","is_transit":false,"i_long":106.939679,"distance":1305,"transit":false,"i_lat":-6.217455,"line":1,"station_id":"KLDB","time":1},{"is_transit":false,"station_name":"Cakung","time":8,"station_id":"CUK","transit":false,"i_lat":-6.219053,"i_long":106.951283,"line":1,"distance":1385},{"station_name":"Kranji","is_transit":false,"transit":false,"distance":3097,"station_id":"KRI","i_long":106.977657,"time":3,"line":1,"i_lat":-6.224515},{"i_lat":-6.236616,"station_name":"Bekasi","time":4,"distance":2520,"line":1,"i_long":106.997013,"transit":false,"station_id":"BKS","is_transit":false}],[{"i_long":106.819451,"i_lat":-6.391065,"station_name":"Depokbaru","line":2,"station_id":"DPB","transit":false,"is_transit":false,"time":0,"distance":0},{"station_name":"Pondok Cina","i_long":106.831114,"station_id":"POC","time":4,"distance":2727,"transit":false,"is_transit":false,"line":2,"i_lat":-6.369073},{"station_id":"UI","station_name":"Univ. Indonesia","line":2,"i_long":106.831474,"time":2,"distance":1109,"i_lat":-6.360749,"transit":false,"is_transit":false},{"is_transit":false,"time":3,"transit":false,"station_name":"Univ. Pancasila","i_long":106.834175,"station_id":"UP","line":2,"distance":2264,"i_lat":-6.339291},{"transit":false,"station_name":"Lenteng Agung","i_lat":-6.330363,"is_transit":false,"time":2,"distance":1029,"i_long":106.832616,"station_id":"LNA","line":2},{"line":2,"is_transit":false,"station_name":"Tanjung Barat","station_id":"TNT","i_long":106.838896,"time":3,"i_lat":-6.3080680000000005,"distance":2671,"transit":false},{"i_lat":-6.2842400000000005,"i_long":106.843999,"time":4,"station_name":"Pasar Minggu","station_id":"PSM","transit":false,"line":2,"distance":2820,"is_transit":false},{"station_id":"PSMB","is_transit":false,"transit":false,"i_lat":-6.263214,"station_name":"Pasar Minggu Baru","i_long":106.851577,"line":2,"distance":2380,"time":2},{"transit":false,"distance":824,"station_id":"DRN","is_transit":false,"time":2,"line":2,"station_name":"Duren Kalibata","i_long":106.85449,"i_lat":-6.255332},{"is_transit":false,"i_long":106.856607,"distance":1546,"station_id":"CW","time":3,"i_lat":-6.242512,"station_name":"Cawang","line":2,"transit":false},{"station_id":"TEB","line":2,"is_transit":false,"i_lat":-6.226659,"station_name":"Tebet","time":2,"distance":1230,"i_long":106.857948,"transit":false},{"i_long":106.84912,"i_lat":-6.209883,"time":4,"station_id":"MRI","station_name":"Manggarai","line":2,"transit":false,"is_transit":false,"distance":2610},{"transit":false,"station_id":"CKI","time":4,"is_transit":false,"i_lat":-6.198556,"distance":1590,"station_name":"Cikini","i_long":106.840169,"line":2},{"station_name":"Gondangdia","is_transit":false,"i_lat":-6.186295,"line":2,"station_id":"GDD","time":3,"transit":false,"i_long":106.832183,"distance":1750},{"i_long":106.828284,"distance":2015,"line":2,"is_transit":false,"transit":false,"station_name":"Juanda","station_id":"JUA","i_lat":-6.166716,"time":4},{"transit":false,"station_id":"SW","station_name":"Sawah Besar","line":2,"time":2,"is_transit":false,"distance":1149,"i_lat":-6.160725,"i_long":106.827103},{"line":2,"i_lat":-6.149769,"transit":false,"station_name":"Manggabesar","station_id":"MGB","distance":906,"is_transit":false,"time":2,"i_long":106.82482},{"i_lat":-6.141205,"line":2,"station_name":"Jayakarta","distance":1080,"station_id":"JAY","is_transit":false,"i_long":106.820901,"transit":false,"time":2},{"station_name":"Jakarta Kota","time":4,"i_lat":-6.137569,"i_long":106.812439,"distance":1264,"line":2,"station_id":"JAKK","transit":true,"is_transit":true},{"line":4,"i_long":106.826365,"station_id":"KPB","is_transit":true,"time":3,"transit":true,"station_name":"Kampung Bandan","distance":1364,"i_lat":-6.132549},{"transit":false,"distance":1444,"i_long":106.836569,"station_id":"RJW","station_name":"Rajawali","is_transit":false,"line":11,"i_lat":-6.14505,"time":3},{"station_name":"Kemayoran","i_lat":-6.161728,"transit":false,"station_id":"KMO","is_transit":false,"distance":1901,"i_long":106.839204,"line":11,"time":5},{"i_long":106.84368,"line":11,"is_transit":false,"station_name":"Pasar Senen","time":4,"distance":1436,"transit":false,"station_id":"PSE","i_lat":-6.174784},{"distance":1567,"time":8,"station_name":"Gang Sentiong","i_lat":-6.185975,"transit":false,"station_id":"GST","i_long":106.850107,"line":11,"is_transit":false},{"i_long":106.855437,"time":1,"distance":973,"is_transit":false,"i_lat":-6.193792,"station_name":"Kramat","line":11,"station_id":"KMT","transit":false},{"i_lat":-6.209188,"transit":false,"distance":1829,"i_long":106.861737,"time":2,"station_name":"Pondok Jati","station_id":"POK","is_transit":false,"line":11},{"station_name":"Jatinegara","i_long":106.86807400000001,"transit":true,"time":9,"station_id":"JNG","is_transit":true,"line":1,"distance":1236,"i_lat":-6.215091},{"time":3,"is_transit":false,"line":1,"station_name":"Klender","transit":false,"distance":3395,"i_long":106.899548,"i_lat":-6.2135,"station_id":"KLD"},{"station_id":"BUA","line":1,"transit":false,"time":2,"i_lat":-6.215568,"i_long":106.922662,"station_name":"Buaran","distance":3100,"is_transit":false},{"distance":1305,"is_transit":false,"i_long":106.939679,"station_id":"KLDB","time":1,"i_lat":-6.217455,"transit":false,"line":1,"station_name":"Klenderbaru"},{"distance":1385,"line":1,"station_name":"Cakung","station_id":"CUK","transit":false,"is_transit":false,"i_long":106.951283,"time":8,"i_lat":-6.219053},{"is_transit":false,"i_lat":-6.224515,"transit":false,"time":3,"station_name":"Kranji","station_id":"KRI","distance":3097,"i_long":106.977657,"line":1},{"station_id":"BKS","i_lat":-6.236616,"time":4,"line":1,"i_long":106.997013,"transit":false,"station_name":"Bekasi","is_transit":false,"distance":2520}]]}