{"data":[[{"time":0,"distance":0,"i_lat":-6.391065,"i_long":106.819451,"line":2,"transit":false,"is_transit":false,"station_id":"DPB","station_name":"Depokbaru"},{"station_name":"Pondok Cina","station_id":"POC","transit":false,"time":4,"i_long":106.831114,"distance":2727,"is_transit":false,"line":2,"i_lat":-6.369073},{"is_transit":false,"station_id":"UI","i_lat":-6.360749,"line":2,"station_name":"Univ. Indonesia","distance":1109,"time":2,"transit":false,"i_long":106.831474},{"station_name":"Univ. Pancasila","distance":2264,"is_transit":false,"time":3,"station_id":"UP","transit":false,"i_lat":-6.339291,"i_long":106.834175,"line":2},{"distance":1029,"station_id":"LNA","transit":false,"is_transit":false,"time":2,"station_name":"Lenteng Agung","i_lat":-6.330363,"i_long":106.832616,"line":2},{"station_name":"Tanjung Barat","distance":2671,"i_lat":-6.3080680000000005,"is_transit":false,"line":2,"transit":false,"time":3,"i_long":106.838896,"station_id":"TNT"},{"station_id":"PSM","station_name":"Pasar Minggu","distance":2820,"i_long":106.843999,"time":4,"i_lat":-6.2842400000000005,"line":2,"transit":false,"is_transit":false},{"i_long":106.851577,"is_transit":false,"distance":2380,"line":2,"station_name":"Pasar Minggu Baru","i_lat":-6.263214,"station_id":"PSMB","transit":false,"time":2},{"station_name":"Duren Kalibata","i_long":106.85449,"is_transit":false,"i_lat":-6.255332,"station_id":"DRN","line":2,"time":2,"distance":824,"transit":false},{"station_id":"CW","station_name":"Cawang","time":3,"is_transit":false,"i_lat":-6.242512,"distance":1546,"line":2,"i_long":106.856607,"transit":false},{"transit":false,"i_lat":-6.226659,"is_transit":false,"time":2,"station_id":"TEB","distance":1230,"i_long":106.857948,"line":2,"station_name":"Tebet"},{"time":4,"station_name":"Manggarai","line":2,"i_long":106.84912,"station_id":"MRI","i_lat":-6.209883,"is_transit":false,"distance":2610,"transit":false},{"distance":1590,"time":4,"station_name":"Cikini","i_long":106.840169,"is_transit":false,"line":2,"transit":false,"station_id":"CKI","i_lat":-6.198556},{"is_transit":false,"distance":1750,"station_name":"Gondangdia","transit":false,"station_id":"GDD","time":3,"line":2,"i_lat":-6.186295,"i_long":106.832183}],[{"is_transit":false,"distance":0,"station_name":"Depokbaru","i_lat":-6.391065,"i_long":106.819451,"time":0,"transit":false,"station_id":"DPB","line":2},{"transit":false,"is_transit":false,"station_id":"POC","time":4,"station_name":"Pondok Cina","distance":2727,"i_long":106.831114,"line":2,"i_lat":-6.369073},{"transit":false,"station_id":"UI","distance":1109,"i_lat":-6.360749,"line":2,"station_name":"Univ. Indonesia","is_transit":false,"time":2,"i_long":106.831474},{"station_name":"Univ. Pancasila","i_lat":-6.339291,"i_long":106.834175,"line":2,"transit":false,"is_transit":false,"distance":2264,"station_id":"UP","time":3},{"station_name":"Lenteng Agung","i_lat":-6.330363,"station_id":"LNA","distance":1029,"i_long":106.832616,"is_transit":false,"transit":false,"time":2,"line":2},{"time":3,"station_name":"Tanjung Barat","i_lat":-6.3080680000000005,"station_id":"TNT","line":2,"i_long":106.838896,"is_transit":false,"transit":false,"distance":2671},{"time":4,"distance":2820,"station_name":"Pasar Minggu","is_transit":false,"line":2,"i_lat":-6.2842400000000005,"transit":false,"i_long":106.843999,"station_id":"PSM"},{"transit":false,"is_transit":false,"i_lat":-6.263214,"time":2,"station_id":"PSMB","station_name":"Pasar Minggu Baru","i_long":106.851577,"distance":2380,"line":2},{"is_transit":false,"station_id":"DRN","station_name":"Duren Kalibata","time":2,"distance":824,"transit":false,"line":2,"i_long":106.85449,"i_lat":-6.255332},{"i_lat":-6.242512,"is_transit":false,"i_long":106.856607,"station_id":"CW","transit":false,"distance":1546,"time":3,"line":2,"station_name":"Cawang"},{"i_lat":-6.226659,"is_transit":false,"station_id":"TEB","time":2,"transit":false,"distance":1230,"i_long":106.857948,"line":2,"station_name":"Tebet"},{"i_lat":-6.209883,"station_id":"MRI","station_name":"Manggarai","is_transit":true,"transit":true,"distance":2610,"i_long":106.84912,"line":2,"time":4},{"station_name":"Sudirman","distance":3186,"time":4,"i_long":106.822649,"is_transit":false,"i_lat":-6.202263,"station_id":"SUD","transit":false,"line":1},{"i_long":106.819881,"line":1,"is_transit":false,"transit":false,"distance":280,"station_id":"SUDB","station_name":"Sudirman Baru","i_lat":-6.201433,"time":1},{"distance":471,"time":1,"line":1,"station_name":"Karet","transit":false,"is_transit":false,"station_id":"KAT","i_long":106.816351,"i_lat":-6.20132},{"transit":false,"line":1,"is_transit":false,"station_id":"THB","station_name":"Tanah Abang","i_long":106.811091,"i_lat":-6.185545,"time":5,"distance":2029},{"station_name":"Duri","i_lat":-6.155215,"is_transit":false,"transit":false,"station_id":"DU","distance":3632,"i_long":106.800832,"time":8,"line":1},{"line":1,"is_transit":false,"transit":false,"station_name":"Angke","distance":1230,"i_long":106.79867,"station_id":"AK","time":4,"i_lat":-6.144674},{"i_lat":-6.132549,"i_long":106.826365,"is_transit":true,"transit":true,"station_id":"KPB","station_name":"Kampung Bandan","time":9,"distance":4102,"line":4},{"i_long":106.812439,"line":2,"station_name":"Jakarta Kota","time":3,"is_transit":true,"distance":1364,"transit":true,"i_lat":-6.137569,"station_id":"JAKK"},{"transit":false,"station_name":"Jayakarta","distance":1264,"line":2,"station_id":"JAY","time":4,"is_transit":false,"i_lat":-6.141205,"i_long":106.820901},{"i_long":106.82482,"time":2,"station_name":"Manggabesar","station_id":"MGB","transit":false,"distance":1080,"is_transit":false,"i_lat":-6.149769,"line":2},{"transit":false,"distance":906,"station_name":"Sawah Besar","is_transit":false,"i_lat":-6.160725,"line":2,"time":2,"station_id":"SW","i_long":106.827103},{"time":2,"distance":1149,"station_name":"Juanda","is_transit":false,"station_id":"JUA","transit":false,"i_lat":-6.166716,"i_long":106.828284,"line":2},{"transit":false,"line":2,"station_id":"GDD","i_long":106.832183,"is_transit":false,"station_name":"Gondangdia","time":4,"distance":2015,"i_lat":-6.186295}],[{"transit":false,"station_id":"DPB","station_name":"Depokbaru","distance":0,"i_long":106.819451,"line":2,"time":0,"i_lat":-6.391065,"is_transit":false},{"i_lat":-6.369073,"i_long":106.831114,"time":4,"is_transit":false,"station_id":"POC","transit":false,"distance":2727,"line":2,"station_name":"Pondok Cina"},{"time":2,"station_id":"UI","i_lat":-6.360749,"i_long":106.831474,"line":2,"station_name":"Univ. Indonesia","is_transit":false,"transit":false,"distance":1109},{"station_name":"Univ. Pancasila","i_long":106.834175,"time":3,"line":2,"is_transit":false,"distance":2264,"transit":false,"station_id":"UP","i_lat":-6.339291},{"i_long":106.832616,"station_id":"LNA","station_name":"Lenteng Agung","i_lat":-6.330363,"is_transit":false,"transit":false,"time":2,"distance":1029,"line":2},{"is_transit":false,"i_lat":-6.3080680000000005,"transit":false,"distance":2671,"i_long":106.838896,"station_id":"TNT","station_name":"Tanjung Barat","time":3,"line":2},{"line":2,"transit":false,"station_name":"Pasar Minggu","is_transit":false,"distance":2820,"i_lat":-6.2842400000000005,"time":4,"station_id":"PSM","i_long":106.843999},{"station_name":"Pasar Minggu Baru","line":2,"transit":false,"i_long":106.851577,"time":2,"distance":2380,"station_id":"PSMB","i_lat":-6.263214,"is_transit":false},{"transit":false,"station_name":"Duren Kalibata","i_lat":-6.255332,"line":2,"is_transit":false,"station_id":"DRN","time":2,"distance":824,"i_long":106.85449},{"time":3,"i_lat":-6.242512,"i_long":106.856607,"is_transit":false,"station_id":"CW","line":2,"station_name":"Cawang","transit":false,"distance":1546},{"time":2,"is_transit":false,"distance":1230,"line":2,"i_long":106.857948,"transit":false,"station_name":"Tebet","station_id":"TEB","i_lat":-6.226659},{"transit":true,"station_name":"Manggarai","distance":2610,"station_id":"MRI","line":2,"i_long":106.84912,"time":4,"i_lat":-6.209883,"is_transit":true},{"station_id":"MTR","i_lat":-6.212485,"i_long":106.858896,"station_name":"Matraman","transit":false,"line":1,"distance":1275,"time":2,"is_transit":false},{"distance":1377,"is_transit":true,"i_lat":-6.215091,"time":8,"station_name":"Jatinegara","i_long":106.86807400000001,"station_id":"JNG","transit":true,"line":1},{"station_name":"Pondok Jati","time":2,"i_long":106.861737,"i_lat":-6.209188,"is_transit":false,"station_id":"POK","transit":false,"distance":1236,"line":11},{"i_long":106.855437,"time":2,"is_transit":false,"transit":false,"station_name":"Kramat","i_lat":-6.193792,"line":11,"distance":1829,"station_id":"KMT"},{"transit":false,"station_id":"GST","station_name":"Gang Sentiong","is_transit":false,"i_lat":-6.185975,"line":11,"i_long":106.850107,"distance":973,"time":1},{"distance":1567,"is_transit":false,"i_lat":-6.174784,"i_long":106.84368,"line":11,"station_id":"PSE","station_name":"Pasar Senen","time":8,"transit":false},{"station_name":"Kemayoran","i_long":106.839204,"station_id":"KMO","i_lat":-6.161728,"line":11,"transit":false,"time":4,"is_transit":false,"distance":1436},{"station_name":"Rajawali","line":11,"transit":false,"station_id":"RJW","distance":1901,"i_lat":-6.14505,"i_long":106.836569,"time":5,"is_transit":false},{"station_id":"KPB","station_name":"Kampung Bandan","is_transit":true,"line":4,"i_lat":-6.132549,"time":3,"transit":true,"i_long":106.826365,"distance":1444},{"i_long":106.812439,"distance":1364,"station_id":"JAKK","time":3,"is_transit":true,"station_name":"Jakarta Kota","line":2,"transit":true,"i_lat":-6.137569},{"i_lat":-6.141205,"time":4,"line":2,"station_id":"JAY","station_name":"Jayakarta","distance":1264,"transit":false,"i_long":106.820901,"is_transit":false},{"transit":false,"station_name":"Manggabesar","distance":1080,"i_long":106.82482,"is_transit":false,"line":2,"station_id":"MGB","i_lat":-6.149769,"time":2},{"station_id":"SW","station_name":"Sawah Besar","i_lat":-6.160725,"transit":false,"line":2,"distance":906,"time":2,"i_long":106.827103,"is_transit":false},{"time":2,"distance":1149,"i_lat":-6.166716,"is_transit":false,"i_long":106.828284,"station_id":"JUA","transit":false,"station_name":"Juanda","line":2},{"transit":false,"line":2,"is_transit":false,"station_id":"GDD","station_name":"Gondangdia","time":4,"distance":2015,"i_long":106.832183,"i_lat":-6.186295}]]}