{"data":[[{"station_name":"Depokbaru","station_id":"DPB","transit":false,"is_transit":false,"distance":0,"i_long":106.819451,"line":0,"i_lat":-6.391065,"time":0},{"line":2,"transit":false,"is_transit":false,"station_id":"POC","distance":2727,"i_long":106.831114,"i_lat":-6.369073,"time":4,"station_name":"Pondok Cina"},{"is_transit":false,"i_long":106.831474,"station_name":"Univ. Indonesia","time":2,"distance":1109,"line":2,"station_id":"UI","transit":false,"i_lat":-6.360749},{"distance":2264,"line":2,"station_name":"Univ. Pancasila","station_id":"UP","transit":false,"i_lat":-6.339291,"i_long":106.834175,"is_transit":false,"time":3},{"station_id":"LNA","station_name":"Lenteng Agung","distance":1029,"i_lat":-6.330363,"transit":false,"time":2,"line":2,"i_long":106.832616,"is_transit":false},{"i_long":106.838896,"station_name":"Tanjung Barat","line":2,"transit":false,"distance":2671,"i_lat":-6.3080680000000005,"is_transit":false,"station_id":"TNT","time":3},{"transit":false,"time":4,"is_transit":false,"distance":2820,"i_lat":-6.2842400000000005,"station_name":"Pasar Minggu","station_id":"PSM","line":2,"i_long":106.843999},{"is_transit":false,"i_lat":-6.263214,"time":2,"distance":2380,"station_name":"Pasar Minggu Baru","station_id":"PSMB","line":2,"i_long":106.851577,"transit":false},{"station_id":"DRN","time":2,"station_name":"Duren Kalibata","is_transit":false,"transit":false,"distance":824,"i_long":106.85449,"line":0,"i_lat":-6.255332},{"time":3,"transit":false,"i_lat":-6.242512,"line":0,"is_transit":false,"distance":1546,"station_id":"CW","i_long":106.856607,"station_name":"Cawang"},{"transit":false,"time":2,"line":2,"station_id":"TEB","i_lat":-6.226659,"is_transit":false,"i_long":106.857948,"station_name":"Tebet","distance":1230},{"distance":2610,"i_lat":-6.209883,"station_id":"MRI","station_name":"Manggarai","time":4,"transit":true,"line":0,"is_transit":true,"i_long":106.84912},{"time":4,"station_id":"SUD","transit":false,"i_lat":-6.202263,"station_name":"Sudirman","distance":3186,"i_long":106.822649,"line":1,"is_transit":false},{"transit":false,"line":1,"station_name":"Sudirman Baru","distance":280,"time":1,"station_id":"SUDB","i_lat":-6.201433,"is_transit":false,"i_long":106.819881},{"station_name":"Karet","i_long":106.816351,"station_id":"KAT","time":1,"is_transit":false,"distance":471,"i_lat":-6.20132,"transit":false,"line":1},{"station_id":"THB","station_name":"Tanah Abang","transit":true,"i_lat":-6.185545,"i_long":106.811091,"time":5,"is_transit":true,"line":1,"distance":2029},{"i_long":106.79689,"station_name":"Palmerah","is_transit":false,"station_id":"PLM","distance":3191,"time":6,"i_lat":-6.207404,"line":6,"transit":false},{"distance":3737,"is_transit":false,"transit":false,"station_name":"Kebayoran","station_id":"KBY","time":7,"line":6,"i_lat":-6.237242,"i_long":106.780334},{"transit":false,"station_id":"PDJ","is_transit":false,"time":8,"i_long":106.74273,"distance":6218,"station_name":"Pondokranji","line":6,"i_lat":-6.276362},{"line":6,"is_transit":false,"distance":2179,"time":3,"transit":false,"i_long":106.728916,"station_id":"JMU","i_lat":-6.288927,"station_name":"Jurangmangu"},{"distance":1994,"i_lat":-6.296963,"station_name":"Sudimara","i_long":106.712277,"line":6,"station_id":"SDM","is_transit":false,"transit":false,"time":4},{"station_name":"Rawa Buntu","i_lat":-6.314823,"i_long":106.675475,"station_id":"RU","line":6,"time":6,"transit":false,"distance":4566,"is_transit":false},{"transit":false,"is_transit":false,"time":4,"distance":2413,"i_lat":-6.319871,"station_id":"SRP","station_name":"Serpong","i_long":106.66566,"line":6},{"i_lat":-6.32484,"station_id":"CSK","is_transit":false,"transit":false,"time":4,"line":0,"station_name":"Cisauk","distance":1784,"i_long":106.640411},{"time":4,"line":0,"station_id":"CC","station_name":"Cicayur","i_long":106.617853,"distance":2519,"transit":false,"is_transit":false,"i_lat":-6.329547},{"i_lat":-6.3441410000000005,"i_long":106.568863,"station_id":"PRP","line":6,"station_name":"Parung Panjang","is_transit":false,"time":8,"transit":false,"distance":5968},{"is_transit":false,"time":9,"i_lat":-6.354349,"transit":false,"station_id":"CJT","line":0,"station_name":"Cilejit","distance":7025,"i_long":106.508482},{"i_long":106.491338,"line":0,"station_id":"DAR","is_transit":false,"station_name":"Daru","i_lat":-6.338021,"transit":false,"distance":2675,"time":6},{"time":5,"is_transit":false,"i_long":106.460812,"station_id":"TEJ","i_lat":-6.327251,"line":6,"station_name":"Tenjo","distance":3902,"transit":false},{"station_name":"Tigaraksa","station_id":"TGS","time":5,"i_long":106.425991,"is_transit":false,"distance":2974,"line":6,"i_lat":-6.328533,"transit":false},{"transit":false,"is_transit":false,"station_id":"CKY","distance":2651,"station_name":"Cikoya","time":3,"i_lat":-6.33561,"i_long":106.411216,"line":0},{"i_long":106.394373,"station_id":"MJ","line":6,"is_transit":false,"transit":false,"distance":1853,"station_name":"Maja","i_lat":-6.332307,"time":4}],[{"line":0,"station_id":"DPB","is_transit":false,"distance":0,"transit":false,"time":0,"station_name":"Depokbaru","i_lat":-6.391065,"i_long":106.819451},{"is_transit":false,"transit":false,"line":2,"station_name":"Pondok Cina","i_lat":-6.369073,"i_long":106.831114,"distance":2727,"station_id":"POC","time":4},{"i_lat":-6.360749,"distance":1109,"station_id":"UI","transit":false,"time":2,"i_long":106.831474,"line":2,"station_name":"Univ. Indonesia","is_transit":false},{"is_transit":false,"station_name":"Univ. Pancasila","line":2,"i_long":106.834175,"time":3,"station_id":"UP","i_lat":-6.339291,"transit":false,"distance":2264},{"station_id":"LNA","distance":1029,"transit":false,"i_lat":-6.330363,"line":2,"station_name":"Lenteng Agung","is_transit":false,"time":2,"i_long":106.832616},{"station_id":"TNT","i_long":106.838896,"is_transit":false,"distance":2671,"time":3,"station_name":"Tanjung Barat","line":2,"transit":false,"i_lat":-6.3080680000000005},{"transit":false,"i_long":106.843999,"station_name":"Pasar Minggu","is_transit":false,"distance":2820,"i_lat":-6.2842400000000005,"time":4,"line":2,"station_id":"PSM"},{"distance":2380,"station_name":"Pasar Minggu Baru","i_lat":-6.263214,"time":2,"line":2,"station_id":"PSMB","i_long":106.851577,"is_transit":false,"transit":false},{"transit":false,"time":2,"distance":824,"is_transit":false,"station_name":"Duren Kalibata","line":0,"station_id":"DRN","i_lat":-6.255332,"i_long":106.85449},{"station_id":"CW","line":0,"i_lat":-6.242512,"station_name":"Cawang","is_transit":false,"transit":false,"distance":1546,"i_long":106.856607,"time":3},{"is_transit":false,"i_long":106.857948,"time":2,"distance":1230,"line":2,"station_id":"TEB","i_lat":-6.226659,"transit":false,"station_name":"Tebet"},{"time":4,"is_transit":true,"distance":2610,"station_name":"Manggarai","i_long":106.84912,"i_lat":-6.209883,"transit":true,"station_id":"MRI","line":0},{"transit":false,"time":4,"station_id":"CKI","i_long":106.840169,"line":0,"i_lat":-6.198556,"is_transit":false,"distance":1590,"station_name":"Cikini"},{"transit":false,"is_transit":false,"time":3,"line":2,"distance":1750,"i_lat":-6.186295,"i_long":106.832183,"station_id":"GDD","station_name":"Gondangdia"},{"distance":2015,"is_transit":false,"i_lat":-6.166716,"station_name":"Juanda","station_id":"JUA","transit":false,"line":2,"i_long":106.828284,"time":4},{"station_id":"SW","transit":false,"distance":1149,"station_name":"Sawah Besar","time":2,"line":2,"i_lat":-6.160725,"i_long":106.827103,"is_transit":false},{"time":2,"station_name":"Manggabesar","is_transit":false,"line":2,"station_id":"MGB","distance":906,"transit":false,"i_lat":-6.149769,"i_long":106.82482},{"transit":false,"station_name":"Jayakarta","station_id":"JAY","time":2,"i_long":106.820901,"is_transit":false,"i_lat":-6.141205,"distance":1080,"line":7},{"is_transit":true,"distance":1264,"i_lat":-6.137569,"transit":true,"station_name":"Jakarta Kota","station_id":"JAKK","i_long":106.812439,"time":4,"line":0},{"transit":false,"time":3,"i_long":106.826365,"line":0,"station_name":"Kampung Bandan","i_lat":-6.132549,"station_id":"KPB","distance":1364,"is_transit":true},{"i_long":106.79867,"transit":false,"is_transit":false,"distance":4102,"time":9,"station_name":"Angke","i_lat":-6.144674,"line":0,"station_id":"AK"},{"distance":1230,"is_transit":true,"transit":true,"time":4,"i_lat":-6.155215,"station_name":"Duri","i_long":106.800832,"station_id":"DU","line":1},{"is_transit":true,"transit":true,"time":8,"i_long":106.811091,"i_lat":-6.185545,"line":1,"distance":3632,"station_id":"THB","station_name":"Tanah Abang"},{"transit":false,"i_long":106.79689,"i_lat":-6.207404,"is_transit":false,"station_name":"Palmerah","station_id":"PLM","distance":3191,"time":6,"line":6},{"transit":false,"distance":3737,"i_lat":-6.237242,"i_long":106.780334,"is_transit":false,"line":6,"time":7,"station_name":"Kebayoran","station_id":"KBY"},{"distance":6218,"transit":false,"station_id":"PDJ","line":6,"is_transit":false,"station_name":"Pondokranji","i_long":106.74273,"i_lat":-6.276362,"time":8},{"i_long":106.728916,"i_lat":-6.288927,"station_id":"JMU","distance":2179,"station_name":"Jurangmangu","transit":false,"is_transit":false,"line":6,"time":3},{"i_long":106.712277,"transit":false,"distance":1994,"i_lat":-6.296963,"station_name":"Sudimara","station_id":"SDM","time":4,"line":6,"is_transit":false},{"is_transit":false,"i_long":106.675475,"transit":false,"station_name":"Rawa Buntu","distance":4566,"i_lat":-6.314823,"station_id":"RU","time":6,"line":6},{"station_id":"SRP","distance":2413,"i_long":106.66566,"i_lat":-6.319871,"station_name":"Serpong","line":6,"transit":false,"is_transit":false,"time":4},{"i_long":106.640411,"i_lat":-6.32484,"line":0,"time":4,"transit":false,"is_transit":false,"distance":1784,"station_id":"CSK","station_name":"Cisauk"},{"line":0,"is_transit":false,"station_name":"Cicayur","station_id":"CC","distance":2519,"i_lat":-6.329547,"transit":false,"time":4,"i_long":106.617853},{"station_name":"Parung Panjang","i_long":106.568863,"i_lat":-6.3441410000000005,"transit":false,"station_id":"PRP","is_transit":false,"distance":5968,"line":6,"time":8},{"line":0,"station_id":"CJT","station_name":"Cilejit","is_transit":false,"time":9,"i_lat":-6.354349,"i_long":106.508482,"transit":false,"distance":7025},{"station_name":"Daru","is_transit":false,"transit":false,"distance":2675,"i_long":106.491338,"line":0,"station_id":"DAR","i_lat":-6.338021,"time":6},{"distance":3902,"i_lat":-6.327251,"i_long":106.460812,"station_name":"Tenjo","station_id":"TEJ","time":5,"line":6,"is_transit":false,"transit":false},{"is_transit":false,"station_name":"Tigaraksa","transit":false,"distance":2974,"time":5,"station_id":"TGS","i_lat":-6.328533,"i_long":106.425991,"line":6},{"distance":2651,"time":3,"i_lat":-6.33561,"line":0,"station_name":"Cikoya","station_id":"CKY","is_transit":false,"transit":false,"i_long":106.411216},{"distance":1853,"time":4,"station_name":"Maja","i_long":106.394373,"is_transit":false,"i_lat":-6.332307,"line":6,"station_id":"MJ","transit":false}],[{"i_lat":-6.391065,"is_transit":false,"station_name":"Depokbaru","i_long":106.819451,"line":0,"station_id":"DPB","distance":0,"transit":false,"time":0},{"distance":2727,"station_id":"POC","line":2,"time":4,"station_name":"Pondok Cina","transit":false,"i_lat":-6.369073,"is_transit":false,"i_long":106.831114},{"station_name":"Univ. Indonesia","transit":false,"distance":1109,"time":2,"i_lat":-6.360749,"i_long":106.831474,"station_id":"UI","is_transit":false,"line":2},{"transit":false,"time":3,"station_id":"UP","line":2,"is_transit":false,"distance":2264,"i_lat":-6.339291,"i_long":106.834175,"station_name":"Univ. Pancasila"},{"line":2,"is_transit":false,"transit":false,"distance":1029,"station_id":"LNA","time":2,"i_lat":-6.330363,"station_name":"Lenteng Agung","i_long":106.832616},{"time":3,"station_id":"TNT","i_lat":-6.3080680000000005,"i_long":106.838896,"line":2,"distance":2671,"is_transit":false,"transit":false,"station_name":"Tanjung Barat"},{"line":2,"station_id":"PSM","transit":false,"time":4,"i_lat":-6.2842400000000005,"i_long":106.843999,"distance":2820,"is_transit":false,"station_name":"Pasar Minggu"},{"station_name":"Pasar Minggu Baru","i_lat":-6.263214,"i_long":106.851577,"line":2,"distance":2380,"is_transit":false,"transit":false,"station_id":"PSMB","time":2},{"is_transit":false,"transit":false,"station_id":"DRN","time":2,"i_lat":-6.255332,"distance":824,"station_name":"Duren Kalibata","i_long":106.85449,"line":0},{"time":3,"station_id":"CW","is_transit":false,"distance":1546,"i_long":106.856607,"station_name":"Cawang","line":0,"transit":false,"i_lat":-6.242512},{"line":2,"is_transit":false,"transit":false,"distance":1230,"time":2,"station_id":"TEB","station_name":"Tebet","i_lat":-6.226659,"i_long":106.857948},{"i_long":106.84912,"line":0,"i_lat":-6.209883,"is_transit":true,"station_name":"Manggarai","time":4,"transit":true,"station_id":"MRI","distance":2610},{"station_name":"Matraman","transit":false,"is_transit":false,"distance":1275,"i_lat":-6.212485,"time":2,"i_long":106.858896,"line":1,"station_id":"MTR"},{"station_id":"JNG","distance":1377,"line":0,"i_long":106.86807400000001,"transit":true,"station_name":"Jatinegara","time":8,"i_lat":-6.215091,"is_transit":true},{"is_transit":false,"i_lat":-6.209188,"distance":1236,"i_long":106.861737,"station_name":"Pondok Jati","time":2,"line":11,"station_id":"POK","transit":false},{"time":2,"transit":false,"distance":1829,"i_long":106.855437,"i_lat":-6.193792,"line":11,"station_name":"Kramat","station_id":"KMT","is_transit":false},{"time":1,"station_name":"Gang Sentiong","line":11,"i_long":106.850107,"is_transit":false,"station_id":"GST","transit":false,"distance":973,"i_lat":-6.185975},{"i_lat":-6.174784,"time":8,"station_id":"PSE","distance":1567,"i_long":106.84368,"line":11,"station_name":"Pasar Senen","is_transit":false,"transit":false},{"distance":1436,"is_transit":false,"station_name":"Kemayoran","i_long":106.839204,"i_lat":-6.161728,"station_id":"KMO","transit":false,"time":4,"line":11},{"i_lat":-6.14505,"i_long":106.836569,"station_id":"RJW","transit":false,"line":11,"time":5,"station_name":"Rajawali","distance":1901,"is_transit":false},{"line":0,"station_id":"KPB","station_name":"Kampung Bandan","is_transit":true,"time":3,"i_lat":-6.132549,"distance":1444,"transit":true,"i_long":106.826365},{"transit":false,"time":9,"i_long":106.79867,"station_name":"Angke","line":0,"station_id":"AK","i_lat":-6.144674,"is_transit":false,"distance":4102},{"transit":true,"line":1,"time":4,"station_id":"DU","is_transit":true,"station_name":"Duri","distance":1230,"i_lat":-6.155215,"i_long":106.800832},{"time":8,"line":1,"i_lat":-6.185545,"transit":true,"station_name":"Tanah Abang","is_transit":true,"station_id":"THB","distance":3632,"i_long":106.811091},{"station_id":"PLM","station_name":"Palmerah","line":6,"transit":false,"i_long":106.79689,"is_transit":false,"i_lat":-6.207404,"distance":3191,"time":6},{"i_lat":-6.237242,"i_long":106.780334,"distance":3737,"transit":false,"station_name":"Kebayoran","is_transit":false,"time":7,"line":6,"station_id":"KBY"},{"i_long":106.74273,"station_name":"Pondokranji","station_id":"PDJ","distance":6218,"time":8,"is_transit":false,"transit":false,"line":6,"i_lat":-6.276362},{"i_long":106.728916,"is_transit":false,"station_id":"JMU","line":6,"transit":false,"station_name":"Jurangmangu","distance":2179,"time":3,"i_lat":-6.288927},{"transit":false,"station_name":"Sudimara","distance":1994,"time":4,"line":6,"station_id":"SDM","is_transit":false,"i_lat":-6.296963,"i_long":106.712277},{"i_lat":-6.314823,"i_long":106.675475,"is_transit":false,"distance":4566,"time":6,"line":6,"station_name":"Rawa Buntu","transit":false,"station_id":"RU"},{"transit":false,"distance":2413,"is_transit":false,"station_id":"SRP","station_name":"Serpong","time":4,"line":6,"i_lat":-6.319871,"i_long":106.66566},{"station_name":"Cisauk","station_id":"CSK","i_lat":-6.32484,"transit":false,"i_long":106.640411,"is_transit":false,"line":0,"distance":1784,"time":4},{"i_long":106.617853,"station_id":"CC","is_transit":false,"line":0,"station_name":"Cicayur","distance":2519,"i_lat":-6.329547,"time":4,"transit":false},{"distance":5968,"station_id":"PRP","station_name":"Parung Panjang","transit":false,"time":8,"i_lat":-6.3441410000000005,"line":6,"is_transit":false,"i_long":106.568863},{"station_name":"Cilejit","station_id":"CJT","is_transit":false,"transit":false,"time":9,"line":0,"distance":7025,"i_long":106.508482,"i_lat":-6.354349},{"is_transit":false,"distance":2675,"line":0,"transit":false,"i_long":106.491338,"station_id":"DAR","station_name":"Daru","time":6,"i_lat":-6.338021},{"transit":false,"i_long":106.460812,"distance":3902,"station_id":"TEJ","line":6,"station_name":"Tenjo","is_transit":false,"time":5,"i_lat":-6.327251},{"station_id":"TGS","distance":2974,"i_long":106.425991,"is_transit":false,"station_name":"Tigaraksa","i_lat":-6.328533,"time":5,"transit":false,"line":6},{"station_name":"Cikoya","i_lat":-6.33561,"distance":2651,"is_transit":false,"station_id":"CKY","time":3,"transit":false,"i_long":106.411216,"line":0},{"station_id":"MJ","line":6,"transit":false,"station_name":"Maja","is_transit":false,"time":4,"distance":1853,"i_lat":-6.332307,"i_long":106.394373}]]}