{"data":[[{"i_long":106.819451,"i_lat":-6.391065,"station_id":"DPB","distance":0,"is_transit":false,"line":2,"station_name":"Depokbaru","time":0,"transit":false},{"station_name":"Pondok Cina","i_lat":-6.369073,"line":2,"station_id":"POC","is_transit":false,"distance":2727,"transit":false,"time":4,"i_long":106.831114},{"station_id":"UI","i_lat":-6.360749,"station_name":"Univ. Indonesia","distance":1109,"i_long":106.831474,"line":2,"is_transit":false,"time":2,"transit":false},{"i_lat":-6.339291,"i_long":106.834175,"line":2,"distance":2264,"is_transit":false,"transit":false,"station_name":"Univ. Pancasila","station_id":"UP","time":3},{"transit":false,"time":2,"i_long":106.832616,"line":2,"distance":1029,"station_id":"LNA","is_transit":false,"i_lat":-6.330363,"station_name":"Lenteng Agung"},{"transit":false,"i_long":106.838896,"station_name":"Tanjung Barat","i_lat":-6.3080680000000005,"time":3,"distance":2671,"is_transit":false,"station_id":"TNT","line":2}]]}