{"data":[[{"time":0,"distance":0,"i_lat":-6.391065,"transit":false,"station_name":"Depokbaru","is_transit":false,"station_id":"DPB","i_long":106.819451,"line":0},{"is_transit":false,"distance":2727,"i_lat":-6.369073,"transit":false,"line":2,"i_long":106.831114,"station_id":"POC","station_name":"Pondok Cina","time":4},{"distance":1109,"station_id":"UI","is_transit":false,"time":2,"station_name":"Univ. Indonesia","transit":false,"i_long":106.831474,"line":2,"i_lat":-6.360749},{"station_name":"Univ. Pancasila","i_long":106.834175,"is_transit":false,"i_lat":-6.339291,"distance":2264,"line":2,"transit":false,"station_id":"UP","time":3},{"distance":1029,"i_long":106.832616,"transit":false,"line":2,"station_name":"Lenteng Agung","is_transit":false,"time":2,"station_id":"LNA","i_lat":-6.330363},{"time":3,"line":2,"i_long":106.838896,"station_id":"TNT","distance":2671,"i_lat":-6.3080680000000005,"is_transit":false,"station_name":"Tanjung Barat","transit":false},{"station_id":"PSM","station_name":"Pasar Minggu","time":4,"distance":2820,"i_lat":-6.2842400000000005,"is_transit":false,"i_long":106.843999,"transit":false,"line":2},{"i_long":106.851577,"time":2,"i_lat":-6.263214,"station_id":"PSMB","is_transit":false,"distance":2380,"line":2,"station_name":"Pasar Minggu Baru","transit":false},{"distance":824,"station_id":"DRN","i_lat":-6.255332,"line":0,"is_transit":false,"i_long":106.85449,"station_name":"Duren Kalibata","transit":false,"time":2},{"station_id":"CW","is_transit":false,"i_long":106.856607,"line":0,"time":3,"station_name":"Cawang","transit":false,"distance":1546,"i_lat":-6.242512},{"transit":false,"line":2,"distance":1230,"i_lat":-6.226659,"i_long":106.857948,"is_transit":false,"station_name":"Tebet","time":2,"station_id":"TEB"},{"i_long":106.84912,"station_name":"Manggarai","is_transit":true,"transit":true,"distance":2610,"station_id":"MRI","time":4,"i_lat":-6.209883,"line":0},{"i_long":106.840169,"is_transit":false,"station_id":"CKI","line":0,"distance":1590,"station_name":"Cikini","transit":false,"time":4,"i_lat":-6.198556},{"is_transit":false,"i_lat":-6.186295,"station_name":"Gondangdia","station_id":"GDD","transit":false,"i_long":106.832183,"line":2,"time":3,"distance":1750}],[{"i_long":106.819451,"line":0,"distance":0,"is_transit":false,"time":0,"station_id":"DPB","station_name":"Depokbaru","i_lat":-6.391065,"transit":false},{"transit":false,"time":4,"i_lat":-6.369073,"distance":2727,"i_long":106.831114,"line":2,"is_transit":false,"station_name":"Pondok Cina","station_id":"POC"},{"station_id":"UI","time":2,"station_name":"Univ. Indonesia","distance":1109,"transit":false,"i_lat":-6.360749,"i_long":106.831474,"is_transit":false,"line":2},{"time":3,"station_name":"Univ. Pancasila","i_lat":-6.339291,"i_long":106.834175,"distance":2264,"station_id":"UP","is_transit":false,"transit":false,"line":2},{"i_long":106.832616,"time":2,"station_name":"Lenteng Agung","i_lat":-6.330363,"line":2,"transit":false,"station_id":"LNA","is_transit":false,"distance":1029},{"is_transit":false,"i_lat":-6.3080680000000005,"station_id":"TNT","station_name":"Tanjung Barat","time":3,"line":2,"transit":false,"distance":2671,"i_long":106.838896},{"i_long":106.843999,"transit":false,"station_id":"PSM","station_name":"Pasar Minggu","i_lat":-6.2842400000000005,"is_transit":false,"time":4,"distance":2820,"line":2},{"distance":2380,"is_transit":false,"i_long":106.851577,"station_name":"Pasar Minggu Baru","transit":false,"line":2,"i_lat":-6.263214,"station_id":"PSMB","time":2},{"transit":false,"line":0,"i_long":106.85449,"station_id":"DRN","is_transit":false,"station_name":"Duren Kalibata","distance":824,"time":2,"i_lat":-6.255332},{"station_id":"CW","station_name":"Cawang","transit":false,"is_transit":false,"time":3,"i_lat":-6.242512,"line":0,"i_long":106.856607,"distance":1546},{"transit":false,"i_long":106.857948,"line":2,"is_transit":false,"station_id":"TEB","time":2,"i_lat":-6.226659,"station_name":"Tebet","distance":1230},{"is_transit":true,"i_lat":-6.209883,"station_name":"Manggarai","line":0,"transit":true,"time":4,"distance":2610,"i_long":106.84912,"station_id":"MRI"},{"i_lat":-6.202263,"station_name":"Sudirman","transit":false,"distance":3186,"station_id":"SUD","time":4,"is_transit":false,"i_long":106.822649,"line":1},{"station_name":"Sudirman Baru","i_lat":-6.201433,"line":1,"distance":280,"time":1,"is_transit":false,"transit":false,"station_id":"SUDB","i_long":106.819881},{"distance":471,"station_name":"Karet","i_lat":-6.20132,"i_long":106.816351,"line":1,"transit":false,"time":1,"station_id":"KAT","is_transit":false},{"time":5,"station_id":"THB","is_transit":true,"i_long":106.811091,"line":1,"distance":2029,"transit":false,"station_name":"Tanah Abang","i_lat":-6.185545},{"time":8,"station_id":"DU","i_lat":-6.155215,"distance":3632,"transit":true,"line":1,"is_transit":true,"station_name":"Duri","i_long":106.800832},{"transit":false,"station_id":"AK","i_lat":-6.144674,"line":0,"is_transit":false,"station_name":"Angke","distance":1230,"i_long":106.79867,"time":4},{"is_transit":true,"station_id":"KPB","station_name":"Kampung Bandan","distance":4102,"i_lat":-6.132549,"line":0,"transit":false,"time":9,"i_long":106.826365},{"station_name":"Jakarta Kota","i_lat":-6.137569,"transit":true,"time":3,"distance":1364,"i_long":106.812439,"is_transit":true,"station_id":"JAKK","line":0},{"time":4,"i_lat":-6.141205,"station_name":"Jayakarta","transit":false,"line":7,"is_transit":false,"distance":1264,"i_long":106.820901,"station_id":"JAY"},{"distance":1080,"i_lat":-6.149769,"station_id":"MGB","is_transit":false,"transit":false,"time":2,"i_long":106.82482,"line":2,"station_name":"Manggabesar"},{"i_long":106.827103,"transit":false,"i_lat":-6.160725,"station_id":"SW","station_name":"Sawah Besar","line":2,"distance":906,"is_transit":false,"time":2},{"i_lat":-6.166716,"station_id":"JUA","time":2,"distance":1149,"station_name":"Juanda","i_long":106.828284,"transit":false,"line":2,"is_transit":false},{"distance":2015,"line":2,"is_transit":false,"station_id":"GDD","i_lat":-6.186295,"i_long":106.832183,"station_name":"Gondangdia","time":4,"transit":false}],[{"distance":0,"station_id":"DPB","is_transit":false,"i_lat":-6.391065,"line":0,"station_name":"Depokbaru","i_long":106.819451,"transit":false,"time":0},{"is_transit":false,"transit":false,"i_long":106.831114,"station_name":"Pondok Cina","time":4,"station_id":"POC","line":2,"distance":2727,"i_lat":-6.369073},{"distance":1109,"transit":false,"time":2,"line":2,"is_transit":false,"i_long":106.831474,"station_name":"Univ. Indonesia","i_lat":-6.360749,"station_id":"UI"},{"line":2,"station_name":"Univ. Pancasila","time":3,"transit":false,"i_lat":-6.339291,"i_long":106.834175,"is_transit":false,"station_id":"UP","distance":2264},{"station_id":"LNA","line":2,"is_transit":false,"i_long":106.832616,"transit":false,"i_lat":-6.330363,"station_name":"Lenteng Agung","distance":1029,"time":2},{"i_lat":-6.3080680000000005,"i_long":106.838896,"transit":false,"is_transit":false,"station_id":"TNT","station_name":"Tanjung Barat","line":2,"time":3,"distance":2671},{"transit":false,"is_transit":false,"distance":2820,"i_lat":-6.2842400000000005,"i_long":106.843999,"station_name":"Pasar Minggu","station_id":"PSM","time":4,"line":2},{"transit":false,"station_id":"PSMB","distance":2380,"time":2,"station_name":"Pasar Minggu Baru","is_transit":false,"i_long":106.851577,"line":2,"i_lat":-6.263214},{"station_id":"DRN","time":2,"i_lat":-6.255332,"station_name":"Duren Kalibata","transit":false,"i_long":106.85449,"line":0,"is_transit":false,"distance":824},{"station_id":"CW","is_transit":false,"i_lat":-6.242512,"station_name":"Cawang","distance":1546,"i_long":106.856607,"transit":false,"time":3,"line":0},{"transit":false,"distance":1230,"is_transit":false,"line":2,"i_lat":-6.226659,"station_name":"Tebet","station_id":"TEB","time":2,"i_long":106.857948},{"station_id":"MRI","i_long":106.84912,"time":4,"transit":true,"distance":2610,"line":0,"is_transit":true,"station_name":"Manggarai","i_lat":-6.209883},{"distance":1275,"station_id":"MTR","is_transit":false,"transit":false,"line":1,"i_lat":-6.212485,"station_name":"Matraman","time":2,"i_long":106.858896},{"station_id":"JNG","i_long":106.86807400000001,"station_name":"Jatinegara","line":0,"time":8,"distance":1377,"is_transit":true,"transit":true,"i_lat":-6.215091},{"distance":1236,"is_transit":false,"i_lat":-6.209188,"station_id":"POK","station_name":"Pondok Jati","transit":false,"time":2,"i_long":106.861737,"line":11},{"i_lat":-6.193792,"time":2,"station_name":"Kramat","line":11,"station_id":"KMT","is_transit":false,"transit":false,"distance":1829,"i_long":106.855437},{"is_transit":false,"i_lat":-6.185975,"time":1,"transit":false,"distance":973,"i_long":106.850107,"line":11,"station_name":"Gang Sentiong","station_id":"GST"},{"is_transit":false,"station_name":"Pasar Senen","time":8,"distance":1567,"i_lat":-6.174784,"transit":false,"i_long":106.84368,"line":11,"station_id":"PSE"},{"time":4,"line":11,"station_id":"KMO","station_name":"Kemayoran","i_lat":-6.161728,"is_transit":false,"distance":1436,"i_long":106.839204,"transit":false},{"time":5,"line":11,"transit":false,"station_name":"Rajawali","station_id":"RJW","distance":1901,"i_lat":-6.14505,"i_long":106.836569,"is_transit":false},{"station_name":"Kampung Bandan","distance":1444,"is_transit":true,"i_long":106.826365,"i_lat":-6.132549,"transit":true,"line":0,"station_id":"KPB","time":3},{"i_lat":-6.137569,"time":3,"line":0,"station_id":"JAKK","distance":1364,"i_long":106.812439,"is_transit":true,"station_name":"Jakarta Kota","transit":true},{"i_lat":-6.141205,"i_long":106.820901,"line":7,"is_transit":false,"time":4,"transit":false,"distance":1264,"station_name":"Jayakarta","station_id":"JAY"},{"station_id":"MGB","time":2,"distance":1080,"i_lat":-6.149769,"station_name":"Manggabesar","is_transit":false,"i_long":106.82482,"transit":false,"line":2},{"time":2,"station_id":"SW","is_transit":false,"distance":906,"i_lat":-6.160725,"station_name":"Sawah Besar","transit":false,"line":2,"i_long":106.827103},{"is_transit":false,"distance":1149,"i_lat":-6.166716,"i_long":106.828284,"line":2,"transit":false,"time":2,"station_id":"JUA","station_name":"Juanda"},{"time":4,"i_long":106.832183,"distance":2015,"line":2,"station_name":"Gondangdia","station_id":"GDD","is_transit":false,"transit":false,"i_lat":-6.186295}]]}