{"data":[[{"time":0,"i_long":106.819451,"station_id":"DPB","distance":0,"station_name":"Depokbaru","is_transit":false,"transit":false,"i_lat":-6.391065,"line":2},{"station_id":"POC","is_transit":false,"transit":false,"line":2,"i_long":106.831114,"i_lat":-6.369073,"time":4,"station_name":"Pondok Cina","distance":2727},{"i_lat":-6.360749,"line":2,"time":2,"i_long":106.831474,"is_transit":false,"station_id":"UI","transit":false,"distance":1109,"station_name":"Univ. Indonesia"},{"is_transit":false,"time":3,"transit":false,"i_long":106.834175,"line":2,"station_name":"Univ. Pancasila","distance":2264,"station_id":"UP","i_lat":-6.339291},{"station_name":"Lenteng Agung","transit":false,"is_transit":false,"i_lat":-6.330363,"line":2,"distance":1029,"i_long":106.832616,"station_id":"LNA","time":2},{"transit":false,"station_id":"TNT","i_long":106.838896,"line":2,"i_lat":-6.3080680000000005,"time":3,"station_name":"Tanjung Barat","distance":2671,"is_transit":false},{"distance":2820,"i_lat":-6.2842400000000005,"is_transit":false,"station_id":"PSM","station_name":"Pasar Minggu","transit":false,"time":4,"line":2,"i_long":106.843999},{"i_long":106.851577,"line":2,"station_id":"PSMB","distance":2380,"transit":false,"i_lat":-6.263214,"station_name":"Pasar Minggu Baru","is_transit":false,"time":2},{"station_id":"DRN","is_transit":false,"line":2,"time":2,"station_name":"Duren Kalibata","i_lat":-6.255332,"distance":824,"i_long":106.85449,"transit":false},{"station_id":"CW","distance":1546,"station_name":"Cawang","i_lat":-6.242512,"time":3,"line":2,"transit":false,"is_transit":false,"i_long":106.856607},{"time":2,"is_transit":false,"station_name":"Tebet","distance":1230,"i_long":106.857948,"station_id":"TEB","line":2,"transit":false,"i_lat":-6.226659},{"i_lat":-6.209883,"distance":2610,"i_long":106.84912,"time":4,"station_id":"MRI","is_transit":false,"station_name":"Manggarai","transit":false,"line":2},{"i_long":106.840169,"transit":false,"distance":1590,"is_transit":false,"station_name":"Cikini","i_lat":-6.198556,"time":4,"line":2,"station_id":"CKI"}],[{"station_name":"Depokbaru","is_transit":false,"transit":false,"i_lat":-6.391065,"distance":0,"i_long":106.819451,"station_id":"DPB","line":2,"time":0},{"is_transit":false,"transit":false,"line":2,"time":4,"i_lat":-6.369073,"i_long":106.831114,"distance":2727,"station_id":"POC","station_name":"Pondok Cina"},{"i_long":106.831474,"station_id":"UI","is_transit":false,"station_name":"Univ. Indonesia","transit":false,"i_lat":-6.360749,"line":2,"time":2,"distance":1109},{"time":3,"line":2,"station_name":"Univ. Pancasila","distance":2264,"station_id":"UP","i_long":106.834175,"transit":false,"is_transit":false,"i_lat":-6.339291},{"station_id":"LNA","distance":1029,"is_transit":false,"i_lat":-6.330363,"station_name":"Lenteng Agung","transit":false,"line":2,"time":2,"i_long":106.832616},{"i_lat":-6.3080680000000005,"time":3,"line":2,"distance":2671,"station_id":"TNT","station_name":"Tanjung Barat","i_long":106.838896,"is_transit":false,"transit":false},{"i_lat":-6.2842400000000005,"line":2,"station_id":"PSM","i_long":106.843999,"station_name":"Pasar Minggu","is_transit":false,"time":4,"distance":2820,"transit":false},{"time":2,"distance":2380,"transit":false,"line":2,"station_name":"Pasar Minggu Baru","station_id":"PSMB","is_transit":false,"i_long":106.851577,"i_lat":-6.263214},{"i_long":106.85449,"transit":false,"line":2,"distance":824,"station_name":"Duren Kalibata","time":2,"is_transit":false,"i_lat":-6.255332,"station_id":"DRN"},{"station_id":"CW","station_name":"Cawang","line":2,"distance":1546,"transit":false,"time":3,"is_transit":false,"i_lat":-6.242512,"i_long":106.856607},{"i_long":106.857948,"station_name":"Tebet","time":2,"is_transit":false,"line":2,"i_lat":-6.226659,"station_id":"TEB","distance":1230,"transit":false},{"line":2,"station_id":"MRI","is_transit":true,"station_name":"Manggarai","distance":2610,"i_lat":-6.209883,"time":4,"transit":true,"i_long":106.84912},{"station_name":"Sudirman","time":4,"i_lat":-6.202263,"station_id":"SUD","distance":3186,"transit":false,"i_long":106.822649,"line":1,"is_transit":false},{"time":1,"station_id":"SUDB","distance":280,"i_lat":-6.201433,"station_name":"Sudirman Baru","transit":false,"i_long":106.819881,"is_transit":false,"line":1},{"i_long":106.816351,"station_name":"Karet","transit":false,"line":1,"distance":471,"i_lat":-6.20132,"time":1,"station_id":"KAT","is_transit":false},{"time":5,"transit":false,"i_long":106.811091,"station_name":"Tanah Abang","distance":2029,"is_transit":false,"line":1,"station_id":"THB","i_lat":-6.185545},{"is_transit":false,"station_id":"DU","transit":false,"i_lat":-6.155215,"i_long":106.800832,"line":1,"distance":3632,"station_name":"Duri","time":8},{"station_id":"AK","is_transit":false,"distance":1230,"transit":false,"station_name":"Angke","i_lat":-6.144674,"i_long":106.79867,"line":1,"time":4},{"is_transit":true,"transit":true,"station_name":"Kampung Bandan","line":4,"time":9,"station_id":"KPB","i_lat":-6.132549,"i_long":106.826365,"distance":4102},{"is_transit":true,"i_lat":-6.137569,"time":3,"line":2,"station_name":"Jakarta Kota","transit":true,"station_id":"JAKK","i_long":106.812439,"distance":1364},{"transit":false,"distance":1264,"line":2,"is_transit":false,"time":4,"i_long":106.820901,"station_id":"JAY","i_lat":-6.141205,"station_name":"Jayakarta"},{"is_transit":false,"time":2,"i_long":106.82482,"line":2,"station_name":"Manggabesar","station_id":"MGB","transit":false,"distance":1080,"i_lat":-6.149769},{"line":2,"time":2,"station_id":"SW","is_transit":false,"i_long":106.827103,"i_lat":-6.160725,"transit":false,"distance":906,"station_name":"Sawah Besar"},{"time":2,"i_lat":-6.166716,"i_long":106.828284,"station_name":"Juanda","is_transit":false,"transit":false,"line":2,"station_id":"JUA","distance":1149},{"distance":2015,"time":4,"station_id":"GDD","i_long":106.832183,"i_lat":-6.186295,"is_transit":false,"station_name":"Gondangdia","transit":false,"line":2},{"is_transit":false,"i_lat":-6.198556,"i_long":106.840169,"station_id":"CKI","line":2,"station_name":"Cikini","time":3,"distance":1750,"transit":false}],[{"time":0,"is_transit":false,"line":2,"station_name":"Depokbaru","distance":0,"station_id":"DPB","transit":false,"i_lat":-6.391065,"i_long":106.819451},{"time":4,"line":2,"transit":false,"i_lat":-6.369073,"station_id":"POC","i_long":106.831114,"station_name":"Pondok Cina","is_transit":false,"distance":2727},{"line":2,"time":2,"is_transit":false,"distance":1109,"i_lat":-6.360749,"transit":false,"station_name":"Univ. Indonesia","i_long":106.831474,"station_id":"UI"},{"line":2,"i_lat":-6.339291,"time":3,"distance":2264,"transit":false,"station_name":"Univ. Pancasila","is_transit":false,"i_long":106.834175,"station_id":"UP"},{"station_id":"LNA","distance":1029,"line":2,"time":2,"transit":false,"station_name":"Lenteng Agung","i_lat":-6.330363,"is_transit":false,"i_long":106.832616},{"station_id":"TNT","station_name":"Tanjung Barat","is_transit":false,"transit":false,"distance":2671,"i_lat":-6.3080680000000005,"time":3,"i_long":106.838896,"line":2},{"line":2,"time":4,"i_long":106.843999,"station_name":"Pasar Minggu","is_transit":false,"station_id":"PSM","distance":2820,"transit":false,"i_lat":-6.2842400000000005},{"transit":false,"station_name":"Pasar Minggu Baru","i_lat":-6.263214,"i_long":106.851577,"is_transit":false,"line":2,"time":2,"station_id":"PSMB","distance":2380},{"station_name":"Duren Kalibata","distance":824,"station_id":"DRN","i_long":106.85449,"line":2,"transit":false,"time":2,"is_transit":false,"i_lat":-6.255332},{"station_name":"Cawang","distance":1546,"line":2,"station_id":"CW","time":3,"i_lat":-6.242512,"i_long":106.856607,"is_transit":false,"transit":false},{"i_lat":-6.226659,"line":2,"station_id":"TEB","is_transit":false,"time":2,"station_name":"Tebet","transit":false,"distance":1230,"i_long":106.857948},{"transit":true,"is_transit":true,"station_id":"MRI","time":4,"i_lat":-6.209883,"distance":2610,"line":2,"i_long":106.84912,"station_name":"Manggarai"},{"distance":1275,"is_transit":false,"transit":false,"station_id":"MTR","station_name":"Matraman","time":2,"i_lat":-6.212485,"i_long":106.858896,"line":1},{"distance":1377,"station_name":"Jatinegara","i_long":106.86807400000001,"transit":true,"station_id":"JNG","line":1,"i_lat":-6.215091,"time":8,"is_transit":true},{"transit":false,"station_name":"Pondok Jati","is_transit":false,"time":2,"station_id":"POK","i_long":106.861737,"distance":1236,"line":11,"i_lat":-6.209188},{"line":11,"i_long":106.855437,"station_id":"KMT","time":2,"is_transit":false,"transit":false,"distance":1829,"i_lat":-6.193792,"station_name":"Kramat"},{"station_id":"GST","i_lat":-6.185975,"i_long":106.850107,"station_name":"Gang Sentiong","distance":973,"transit":false,"is_transit":false,"time":1,"line":11},{"line":11,"i_lat":-6.174784,"i_long":106.84368,"station_id":"PSE","time":8,"transit":false,"station_name":"Pasar Senen","is_transit":false,"distance":1567},{"distance":1436,"transit":false,"time":4,"station_name":"Kemayoran","line":11,"i_lat":-6.161728,"i_long":106.839204,"is_transit":false,"station_id":"KMO"},{"time":5,"distance":1901,"transit":false,"line":11,"is_transit":false,"station_id":"RJW","i_lat":-6.14505,"station_name":"Rajawali","i_long":106.836569},{"station_name":"Kampung Bandan","time":3,"station_id":"KPB","is_transit":true,"distance":1444,"transit":true,"i_long":106.826365,"line":4,"i_lat":-6.132549},{"time":3,"i_lat":-6.137569,"i_long":106.812439,"station_name":"Jakarta Kota","station_id":"JAKK","transit":true,"is_transit":true,"distance":1364,"line":2},{"line":2,"time":4,"is_transit":false,"distance":1264,"i_long":106.820901,"station_id":"JAY","station_name":"Jayakarta","transit":false,"i_lat":-6.141205},{"time":2,"station_id":"MGB","i_long":106.82482,"transit":false,"i_lat":-6.149769,"station_name":"Manggabesar","line":2,"distance":1080,"is_transit":false},{"station_id":"SW","i_lat":-6.160725,"is_transit":false,"station_name":"Sawah Besar","line":2,"time":2,"i_long":106.827103,"distance":906,"transit":false},{"distance":1149,"station_id":"JUA","station_name":"Juanda","is_transit":false,"line":2,"transit":false,"time":2,"i_long":106.828284,"i_lat":-6.166716},{"line":2,"station_id":"GDD","station_name":"Gondangdia","distance":2015,"transit":false,"i_lat":-6.186295,"is_transit":false,"i_long":106.832183,"time":4},{"line":2,"distance":1750,"is_transit":false,"time":3,"i_lat":-6.198556,"transit":false,"i_long":106.840169,"station_name":"Cikini","station_id":"CKI"}]]}