{"data":[[{"station_id":"DPB","time":0,"distance":0,"i_long":106.819451,"line":2,"i_lat":-6.391065,"is_transit":false,"transit":false,"station_name":"Depokbaru"},{"distance":2727,"is_transit":false,"station_name":"Pondok Cina","line":2,"station_id":"POC","transit":false,"time":4,"i_lat":-6.369073,"i_long":106.831114},{"is_transit":false,"distance":1109,"i_lat":-6.360749,"time":2,"line":2,"station_id":"UI","station_name":"Univ. Indonesia","i_long":106.831474,"transit":false},{"station_id":"UP","station_name":"Univ. Pancasila","distance":2264,"i_lat":-6.339291,"i_long":106.834175,"line":2,"transit":false,"time":3,"is_transit":false},{"time":2,"is_transit":false,"line":2,"station_name":"Lenteng Agung","transit":false,"i_long":106.832616,"station_id":"LNA","distance":1029,"i_lat":-6.330363},{"line":2,"station_name":"Tanjung Barat","station_id":"TNT","time":3,"i_long":106.838896,"is_transit":false,"transit":false,"distance":2671,"i_lat":-6.3080680000000005},{"is_transit":false,"distance":2820,"station_name":"Pasar Minggu","i_lat":-6.2842400000000005,"time":4,"station_id":"PSM","line":2,"i_long":106.843999,"transit":false},{"station_name":"Pasar Minggu Baru","line":2,"is_transit":false,"distance":2380,"station_id":"PSMB","i_long":106.851577,"time":2,"i_lat":-6.263214,"transit":false},{"line":2,"station_id":"DRN","distance":824,"transit":false,"station_name":"Duren Kalibata","is_transit":false,"i_long":106.85449,"time":2,"i_lat":-6.255332},{"line":2,"station_id":"CW","time":3,"station_name":"Cawang","distance":1546,"is_transit":false,"transit":false,"i_lat":-6.242512,"i_long":106.856607},{"station_name":"Tebet","line":2,"i_lat":-6.226659,"station_id":"TEB","distance":1230,"i_long":106.857948,"transit":false,"time":2,"is_transit":false},{"time":4,"transit":true,"station_name":"Manggarai","station_id":"MRI","i_long":106.84912,"line":2,"distance":2610,"is_transit":true,"i_lat":-6.209883},{"transit":false,"distance":3186,"station_name":"Sudirman","station_id":"SUD","i_long":106.822649,"line":1,"is_transit":false,"i_lat":-6.202263,"time":4},{"is_transit":false,"distance":280,"line":1,"station_name":"Sudirman Baru","station_id":"SUDB","time":1,"transit":false,"i_lat":-6.201433,"i_long":106.819881},{"is_transit":false,"transit":false,"i_long":106.816351,"line":1,"station_name":"Karet","station_id":"KAT","time":1,"distance":471,"i_lat":-6.20132},{"is_transit":true,"line":1,"station_id":"THB","time":5,"i_lat":-6.185545,"distance":2029,"station_name":"Tanah Abang","i_long":106.811091,"transit":true},{"station_id":"PLM","is_transit":false,"i_long":106.79689,"station_name":"Palmerah","time":6,"i_lat":-6.207404,"distance":3191,"line":6,"transit":false},{"station_name":"Kebayoran","is_transit":false,"distance":3737,"i_lat":-6.237242,"time":7,"transit":false,"i_long":106.780334,"line":6,"station_id":"KBY"},{"station_id":"PDJ","i_lat":-6.276362,"time":8,"is_transit":false,"distance":6218,"transit":false,"i_long":106.74273,"line":6,"station_name":"Pondokranji"}],[{"transit":false,"station_id":"DPB","is_transit":false,"time":0,"distance":0,"i_long":106.819451,"line":2,"station_name":"Depokbaru","i_lat":-6.391065},{"time":4,"station_id":"POC","line":2,"is_transit":false,"i_long":106.831114,"transit":false,"station_name":"Pondok Cina","distance":2727,"i_lat":-6.369073},{"i_long":106.831474,"i_lat":-6.360749,"transit":false,"station_name":"Univ. Indonesia","is_transit":false,"time":2,"distance":1109,"line":2,"station_id":"UI"},{"distance":2264,"i_lat":-6.339291,"line":2,"transit":false,"station_name":"Univ. Pancasila","station_id":"UP","is_transit":false,"time":3,"i_long":106.834175},{"station_name":"Lenteng Agung","is_transit":false,"i_lat":-6.330363,"time":2,"line":2,"station_id":"LNA","transit":false,"distance":1029,"i_long":106.832616},{"i_long":106.838896,"time":3,"line":2,"station_name":"Tanjung Barat","distance":2671,"is_transit":false,"station_id":"TNT","i_lat":-6.3080680000000005,"transit":false},{"station_name":"Pasar Minggu","i_long":106.843999,"station_id":"PSM","line":2,"time":4,"distance":2820,"transit":false,"is_transit":false,"i_lat":-6.2842400000000005},{"i_long":106.851577,"is_transit":false,"distance":2380,"line":2,"station_id":"PSMB","i_lat":-6.263214,"transit":false,"station_name":"Pasar Minggu Baru","time":2},{"station_name":"Duren Kalibata","transit":false,"is_transit":false,"time":2,"distance":824,"i_long":106.85449,"line":2,"station_id":"DRN","i_lat":-6.255332},{"distance":1546,"line":2,"transit":false,"i_lat":-6.242512,"station_name":"Cawang","is_transit":false,"station_id":"CW","i_long":106.856607,"time":3},{"distance":1230,"transit":false,"station_id":"TEB","station_name":"Tebet","time":2,"i_lat":-6.226659,"is_transit":false,"i_long":106.857948,"line":2},{"is_transit":false,"distance":2610,"time":4,"i_long":106.84912,"i_lat":-6.209883,"transit":false,"station_id":"MRI","line":2,"station_name":"Manggarai"},{"i_lat":-6.198556,"line":2,"transit":false,"station_id":"CKI","is_transit":false,"station_name":"Cikini","distance":1590,"time":4,"i_long":106.840169},{"i_lat":-6.186295,"line":2,"station_id":"GDD","i_long":106.832183,"station_name":"Gondangdia","distance":1750,"is_transit":false,"transit":false,"time":3},{"transit":false,"is_transit":false,"i_lat":-6.166716,"station_name":"Juanda","distance":2015,"i_long":106.828284,"line":2,"time":4,"station_id":"JUA"},{"transit":false,"i_long":106.827103,"line":2,"station_name":"Sawah Besar","station_id":"SW","is_transit":false,"time":2,"distance":1149,"i_lat":-6.160725},{"line":2,"transit":false,"is_transit":false,"time":2,"distance":906,"station_name":"Manggabesar","station_id":"MGB","i_long":106.82482,"i_lat":-6.149769},{"transit":false,"time":2,"is_transit":false,"i_long":106.820901,"station_name":"Jayakarta","station_id":"JAY","distance":1080,"line":2,"i_lat":-6.141205},{"station_name":"Jakarta Kota","is_transit":true,"distance":1264,"line":2,"station_id":"JAKK","transit":true,"i_lat":-6.137569,"time":4,"i_long":106.812439},{"time":3,"distance":1364,"i_long":106.826365,"station_id":"KPB","i_lat":-6.132549,"station_name":"Kampung Bandan","is_transit":true,"transit":true,"line":4},{"transit":false,"is_transit":false,"i_lat":-6.144674,"line":1,"station_name":"Angke","time":9,"distance":4102,"i_long":106.79867,"station_id":"AK"},{"transit":false,"station_name":"Duri","distance":1230,"i_lat":-6.155215,"station_id":"DU","time":4,"is_transit":false,"i_long":106.800832,"line":1},{"station_id":"THB","is_transit":true,"time":8,"i_lat":-6.185545,"distance":3632,"transit":true,"line":1,"i_long":106.811091,"station_name":"Tanah Abang"},{"line":6,"station_id":"PLM","is_transit":false,"transit":false,"station_name":"Palmerah","time":6,"distance":3191,"i_lat":-6.207404,"i_long":106.79689},{"transit":false,"station_name":"Kebayoran","is_transit":false,"line":6,"i_long":106.780334,"time":7,"i_lat":-6.237242,"distance":3737,"station_id":"KBY"},{"time":8,"i_long":106.74273,"transit":false,"distance":6218,"station_id":"PDJ","i_lat":-6.276362,"is_transit":false,"line":6,"station_name":"Pondokranji"}],[{"transit":false,"distance":0,"station_id":"DPB","is_transit":false,"i_long":106.819451,"line":2,"time":0,"i_lat":-6.391065,"station_name":"Depokbaru"},{"i_lat":-6.369073,"i_long":106.831114,"is_transit":false,"station_name":"Pondok Cina","transit":false,"station_id":"POC","line":2,"time":4,"distance":2727},{"station_name":"Univ. Indonesia","i_lat":-6.360749,"i_long":106.831474,"station_id":"UI","is_transit":false,"line":2,"time":2,"distance":1109,"transit":false},{"time":3,"line":2,"station_name":"Univ. Pancasila","station_id":"UP","distance":2264,"transit":false,"is_transit":false,"i_long":106.834175,"i_lat":-6.339291},{"time":2,"i_long":106.832616,"line":2,"distance":1029,"station_id":"LNA","station_name":"Lenteng Agung","is_transit":false,"transit":false,"i_lat":-6.330363},{"line":2,"station_name":"Tanjung Barat","is_transit":false,"time":3,"station_id":"TNT","i_lat":-6.3080680000000005,"i_long":106.838896,"transit":false,"distance":2671},{"i_long":106.843999,"time":4,"transit":false,"station_name":"Pasar Minggu","station_id":"PSM","distance":2820,"line":2,"is_transit":false,"i_lat":-6.2842400000000005},{"station_name":"Pasar Minggu Baru","distance":2380,"transit":false,"line":2,"i_long":106.851577,"time":2,"station_id":"PSMB","is_transit":false,"i_lat":-6.263214},{"i_lat":-6.255332,"time":2,"station_name":"Duren Kalibata","station_id":"DRN","distance":824,"transit":false,"is_transit":false,"i_long":106.85449,"line":2},{"i_lat":-6.242512,"station_id":"CW","time":3,"is_transit":false,"i_long":106.856607,"distance":1546,"line":2,"transit":false,"station_name":"Cawang"},{"i_lat":-6.226659,"is_transit":false,"distance":1230,"line":2,"i_long":106.857948,"time":2,"transit":false,"station_id":"TEB","station_name":"Tebet"},{"distance":2610,"transit":true,"station_name":"Manggarai","station_id":"MRI","time":4,"i_lat":-6.209883,"i_long":106.84912,"is_transit":true,"line":2},{"time":2,"line":1,"is_transit":false,"transit":false,"station_name":"Matraman","distance":1275,"station_id":"MTR","i_lat":-6.212485,"i_long":106.858896},{"time":8,"station_id":"JNG","line":1,"is_transit":true,"i_long":106.86807400000001,"distance":1377,"station_name":"Jatinegara","i_lat":-6.215091,"transit":true},{"transit":false,"station_name":"Pondok Jati","is_transit":false,"time":2,"distance":1236,"i_lat":-6.209188,"line":11,"i_long":106.861737,"station_id":"POK"},{"distance":1829,"station_id":"KMT","time":2,"transit":false,"i_lat":-6.193792,"i_long":106.855437,"is_transit":false,"line":11,"station_name":"Kramat"},{"time":1,"distance":973,"line":11,"transit":false,"i_long":106.850107,"station_name":"Gang Sentiong","i_lat":-6.185975,"station_id":"GST","is_transit":false},{"distance":1567,"is_transit":false,"station_id":"PSE","time":8,"i_lat":-6.174784,"line":11,"station_name":"Pasar Senen","transit":false,"i_long":106.84368},{"time":4,"is_transit":false,"transit":false,"i_lat":-6.161728,"station_id":"KMO","distance":1436,"station_name":"Kemayoran","i_long":106.839204,"line":11},{"line":11,"is_transit":false,"transit":false,"station_name":"Rajawali","distance":1901,"station_id":"RJW","time":5,"i_lat":-6.14505,"i_long":106.836569},{"distance":1444,"i_lat":-6.132549,"line":4,"time":3,"station_id":"KPB","i_long":106.826365,"station_name":"Kampung Bandan","transit":true,"is_transit":true},{"station_id":"AK","time":9,"distance":4102,"i_long":106.79867,"transit":false,"i_lat":-6.144674,"station_name":"Angke","line":1,"is_transit":false},{"line":1,"i_long":106.800832,"transit":false,"is_transit":false,"time":4,"distance":1230,"station_name":"Duri","station_id":"DU","i_lat":-6.155215},{"station_name":"Tanah Abang","i_lat":-6.185545,"transit":true,"i_long":106.811091,"station_id":"THB","time":8,"line":1,"distance":3632,"is_transit":true},{"line":6,"transit":false,"i_long":106.79689,"distance":3191,"station_name":"Palmerah","station_id":"PLM","is_transit":false,"time":6,"i_lat":-6.207404},{"distance":3737,"is_transit":false,"i_long":106.780334,"station_name":"Kebayoran","transit":false,"time":7,"i_lat":-6.237242,"line":6,"station_id":"KBY"},{"distance":6218,"is_transit":false,"i_lat":-6.276362,"i_long":106.74273,"line":6,"station_name":"Pondokranji","time":8,"transit":false,"station_id":"PDJ"}]]}