{"data":[[{"station_name":"Depokbaru","distance":0,"i_long":106.819451,"transit":false,"i_lat":-6.391065,"time":0,"is_transit":false,"station_id":"DPB","line":2},{"transit":false,"i_lat":-6.369073,"line":2,"distance":2727,"station_id":"POC","station_name":"Pondok Cina","i_long":106.831114,"time":4,"is_transit":false},{"station_id":"UI","distance":1109,"is_transit":false,"time":2,"transit":false,"i_long":106.831474,"i_lat":-6.360749,"station_name":"Univ. Indonesia","line":2},{"time":3,"station_id":"UP","transit":false,"is_transit":false,"line":2,"station_name":"Univ. Pancasila","distance":2264,"i_lat":-6.339291,"i_long":106.834175},{"line":2,"station_id":"LNA","i_lat":-6.330363,"i_long":106.832616,"station_name":"Lenteng Agung","transit":false,"is_transit":false,"time":2,"distance":1029},{"station_id":"TNT","i_long":106.838896,"station_name":"Tanjung Barat","time":3,"is_transit":false,"line":2,"transit":false,"distance":2671,"i_lat":-6.3080680000000005},{"i_lat":-6.2842400000000005,"is_transit":false,"transit":false,"i_long":106.843999,"line":2,"station_name":"Pasar Minggu","station_id":"PSM","distance":2820,"time":4},{"i_lat":-6.263214,"i_long":106.851577,"station_id":"PSMB","distance":2380,"line":2,"is_transit":false,"time":2,"station_name":"Pasar Minggu Baru","transit":false},{"transit":false,"line":2,"i_lat":-6.255332,"is_transit":false,"time":2,"station_id":"DRN","distance":824,"i_long":106.85449,"station_name":"Duren Kalibata"},{"station_name":"Cawang","is_transit":false,"time":3,"i_lat":-6.242512,"i_long":106.856607,"transit":false,"station_id":"CW","distance":1546,"line":2},{"transit":false,"station_name":"Tebet","is_transit":false,"i_long":106.857948,"station_id":"TEB","line":2,"distance":1230,"i_lat":-6.226659,"time":2},{"is_transit":true,"time":4,"line":2,"transit":true,"station_name":"Manggarai","station_id":"MRI","i_lat":-6.209883,"i_long":106.84912,"distance":2610},{"station_name":"Sudirman","line":1,"station_id":"SUD","is_transit":false,"time":4,"transit":false,"distance":3186,"i_long":106.822649,"i_lat":-6.202263},{"station_name":"Sudirman Baru","i_lat":-6.201433,"is_transit":false,"station_id":"SUDB","distance":280,"i_long":106.819881,"time":1,"line":1,"transit":false},{"line":1,"transit":false,"distance":471,"station_id":"KAT","station_name":"Karet","i_lat":-6.20132,"i_long":106.816351,"time":1,"is_transit":false},{"transit":true,"distance":2029,"i_long":106.811091,"is_transit":true,"station_id":"THB","time":5,"i_lat":-6.185545,"station_name":"Tanah Abang","line":1},{"time":6,"transit":false,"i_lat":-6.207404,"station_id":"PLM","line":6,"is_transit":false,"distance":3191,"station_name":"Palmerah","i_long":106.79689},{"station_id":"KBY","transit":false,"i_lat":-6.237242,"distance":3737,"time":7,"station_name":"Kebayoran","is_transit":false,"i_long":106.780334,"line":6},{"is_transit":false,"time":8,"i_long":106.74273,"i_lat":-6.276362,"station_id":"PDJ","transit":false,"station_name":"Pondokranji","distance":6218,"line":6},{"line":6,"transit":false,"station_name":"Jurangmangu","is_transit":false,"i_long":106.728916,"distance":2179,"time":3,"i_lat":-6.288927,"station_id":"JMU"},{"station_id":"SDM","station_name":"Sudimara","i_lat":-6.296963,"time":4,"i_long":106.712277,"distance":1994,"is_transit":false,"transit":false,"line":6},{"is_transit":false,"transit":false,"time":6,"i_long":106.675475,"station_name":"Rawa Buntu","station_id":"RU","distance":4566,"i_lat":-6.314823,"line":6},{"i_long":106.66566,"station_id":"SRP","transit":false,"distance":2413,"time":4,"i_lat":-6.319871,"line":6,"is_transit":false,"station_name":"Serpong"},{"station_id":"CSK","time":4,"station_name":"Cisauk","line":3,"i_lat":-6.32484,"transit":false,"is_transit":false,"i_long":106.640411,"distance":1784},{"time":4,"transit":false,"i_long":106.617853,"is_transit":false,"i_lat":-6.329547,"station_id":"CC","distance":2519,"station_name":"Cicayur","line":3},{"distance":5968,"station_name":"Parung Panjang","is_transit":false,"i_long":106.568863,"station_id":"PRP","i_lat":-6.3441410000000005,"transit":false,"line":6,"time":8},{"transit":false,"is_transit":false,"station_name":"Cilejit","station_id":"CJT","time":9,"line":3,"i_lat":-6.354349,"distance":7025,"i_long":106.508482},{"i_lat":-6.338021,"distance":2675,"i_long":106.491338,"line":0,"station_id":"DAR","transit":false,"is_transit":false,"station_name":"Daru","time":6},{"is_transit":false,"i_lat":-6.327251,"i_long":106.460812,"line":6,"station_name":"Tenjo","time":5,"transit":false,"distance":3902,"station_id":"TEJ"},{"distance":2974,"is_transit":false,"station_id":"TGS","line":6,"transit":false,"i_long":106.425991,"station_name":"Tigaraksa","time":5,"i_lat":-6.328533},{"time":3,"transit":false,"i_lat":-6.33561,"station_id":"CKY","distance":2651,"is_transit":false,"line":3,"i_long":106.411216,"station_name":"Cikoya"},{"station_id":"MJ","time":4,"i_lat":-6.332307,"line":6,"distance":1853,"station_name":"Maja","transit":false,"i_long":106.394373,"is_transit":false},{"distance":7293,"is_transit":false,"i_long":106.332092,"transit":false,"station_id":"CTR","station_name":"Citeras","time":10,"line":3,"i_lat":-6.334892},{"i_lat":-6.352675,"transit":false,"station_id":"RK","station_name":"Rangkasbitung","is_transit":false,"time":13,"distance":9847,"i_long":106.250396,"line":3}],[{"time":0,"i_long":106.819451,"is_transit":false,"i_lat":-6.391065,"station_name":"Depokbaru","distance":0,"station_id":"DPB","transit":false,"line":2},{"time":4,"i_long":106.831114,"station_name":"Pondok Cina","transit":false,"i_lat":-6.369073,"is_transit":false,"distance":2727,"station_id":"POC","line":2},{"time":2,"distance":1109,"is_transit":false,"i_long":106.831474,"line":2,"transit":false,"i_lat":-6.360749,"station_id":"UI","station_name":"Univ. Indonesia"},{"station_id":"UP","station_name":"Univ. Pancasila","is_transit":false,"transit":false,"i_long":106.834175,"distance":2264,"line":2,"i_lat":-6.339291,"time":3},{"i_long":106.832616,"is_transit":false,"distance":1029,"station_id":"LNA","station_name":"Lenteng Agung","i_lat":-6.330363,"transit":false,"line":2,"time":2},{"transit":false,"is_transit":false,"i_lat":-6.3080680000000005,"i_long":106.838896,"station_id":"TNT","distance":2671,"station_name":"Tanjung Barat","line":2,"time":3},{"time":4,"distance":2820,"line":2,"i_long":106.843999,"station_name":"Pasar Minggu","is_transit":false,"i_lat":-6.2842400000000005,"transit":false,"station_id":"PSM"},{"time":2,"i_lat":-6.263214,"station_name":"Pasar Minggu Baru","line":2,"is_transit":false,"distance":2380,"i_long":106.851577,"transit":false,"station_id":"PSMB"},{"i_lat":-6.255332,"is_transit":false,"distance":824,"station_id":"DRN","i_long":106.85449,"transit":false,"time":2,"station_name":"Duren Kalibata","line":2},{"line":2,"distance":1546,"i_long":106.856607,"transit":false,"i_lat":-6.242512,"is_transit":false,"station_id":"CW","station_name":"Cawang","time":3},{"station_name":"Tebet","i_long":106.857948,"time":2,"distance":1230,"transit":false,"line":2,"i_lat":-6.226659,"is_transit":false,"station_id":"TEB"},{"station_id":"MRI","line":2,"i_lat":-6.209883,"station_name":"Manggarai","distance":2610,"time":4,"is_transit":false,"i_long":106.84912,"transit":false},{"time":4,"i_lat":-6.198556,"is_transit":false,"station_id":"CKI","distance":1590,"i_long":106.840169,"transit":false,"line":2,"station_name":"Cikini"},{"i_long":106.832183,"distance":1750,"line":2,"station_id":"GDD","time":3,"transit":false,"station_name":"Gondangdia","is_transit":false,"i_lat":-6.186295},{"is_transit":false,"station_id":"JUA","time":4,"i_lat":-6.166716,"transit":false,"distance":2015,"line":2,"station_name":"Juanda","i_long":106.828284},{"time":2,"line":2,"i_lat":-6.160725,"is_transit":false,"i_long":106.827103,"station_id":"SW","station_name":"Sawah Besar","transit":false,"distance":1149},{"station_id":"MGB","distance":906,"transit":false,"line":2,"i_lat":-6.149769,"station_name":"Manggabesar","is_transit":false,"i_long":106.82482,"time":2},{"station_id":"JAY","i_long":106.820901,"line":2,"i_lat":-6.141205,"distance":1080,"station_name":"Jayakarta","transit":false,"is_transit":false,"time":2},{"station_name":"Jakarta Kota","i_lat":-6.137569,"i_long":106.812439,"distance":1264,"is_transit":true,"time":4,"station_id":"JAKK","transit":true,"line":2},{"transit":true,"line":4,"is_transit":true,"station_name":"Kampung Bandan","i_long":106.826365,"distance":1364,"time":3,"station_id":"KPB","i_lat":-6.132549},{"i_long":106.79867,"time":9,"station_id":"AK","is_transit":false,"line":1,"station_name":"Angke","transit":false,"distance":4102,"i_lat":-6.144674},{"station_id":"DU","i_lat":-6.155215,"station_name":"Duri","i_long":106.800832,"line":1,"transit":false,"is_transit":false,"distance":1230,"time":4},{"is_transit":true,"i_lat":-6.185545,"station_id":"THB","transit":true,"time":8,"distance":3632,"station_name":"Tanah Abang","i_long":106.811091,"line":1},{"station_name":"Palmerah","time":6,"station_id":"PLM","distance":3191,"i_long":106.79689,"line":6,"transit":false,"i_lat":-6.207404,"is_transit":false},{"i_lat":-6.237242,"time":7,"i_long":106.780334,"line":6,"is_transit":false,"transit":false,"distance":3737,"station_id":"KBY","station_name":"Kebayoran"},{"station_id":"PDJ","station_name":"Pondokranji","is_transit":false,"time":8,"transit":false,"i_lat":-6.276362,"i_long":106.74273,"distance":6218,"line":6},{"line":6,"time":3,"distance":2179,"station_name":"Jurangmangu","i_lat":-6.288927,"is_transit":false,"i_long":106.728916,"station_id":"JMU","transit":false},{"i_long":106.712277,"station_id":"SDM","line":6,"station_name":"Sudimara","time":4,"i_lat":-6.296963,"is_transit":false,"transit":false,"distance":1994},{"transit":false,"is_transit":false,"station_id":"RU","line":6,"time":6,"station_name":"Rawa Buntu","distance":4566,"i_lat":-6.314823,"i_long":106.675475},{"i_long":106.66566,"station_id":"SRP","is_transit":false,"time":4,"station_name":"Serpong","distance":2413,"i_lat":-6.319871,"line":6,"transit":false},{"station_id":"CSK","i_lat":-6.32484,"i_long":106.640411,"station_name":"Cisauk","transit":false,"distance":1784,"line":3,"is_transit":false,"time":4},{"i_long":106.617853,"distance":2519,"transit":false,"station_id":"CC","station_name":"Cicayur","is_transit":false,"i_lat":-6.329547,"time":4,"line":3},{"station_name":"Parung Panjang","is_transit":false,"time":8,"line":6,"i_long":106.568863,"station_id":"PRP","transit":false,"distance":5968,"i_lat":-6.3441410000000005},{"is_transit":false,"station_id":"CJT","time":9,"i_lat":-6.354349,"station_name":"Cilejit","transit":false,"distance":7025,"i_long":106.508482,"line":3},{"i_lat":-6.338021,"is_transit":false,"line":0,"station_name":"Daru","time":6,"distance":2675,"i_long":106.491338,"station_id":"DAR","transit":false},{"distance":3902,"time":5,"station_id":"TEJ","i_lat":-6.327251,"i_long":106.460812,"is_transit":false,"transit":false,"station_name":"Tenjo","line":6},{"station_name":"Tigaraksa","is_transit":false,"i_long":106.425991,"distance":2974,"station_id":"TGS","time":5,"line":6,"i_lat":-6.328533,"transit":false},{"i_lat":-6.33561,"i_long":106.411216,"line":3,"transit":false,"station_id":"CKY","station_name":"Cikoya","time":3,"is_transit":false,"distance":2651},{"station_name":"Maja","distance":1853,"i_lat":-6.332307,"station_id":"MJ","is_transit":false,"line":6,"time":4,"transit":false,"i_long":106.394373},{"transit":false,"line":3,"distance":7293,"i_long":106.332092,"is_transit":false,"station_id":"CTR","station_name":"Citeras","time":10,"i_lat":-6.334892},{"time":13,"i_lat":-6.352675,"line":3,"i_long":106.250396,"distance":9847,"station_name":"Rangkasbitung","station_id":"RK","transit":false,"is_transit":false}],[{"station_id":"DPB","station_name":"Depokbaru","transit":false,"time":0,"line":2,"i_long":106.819451,"distance":0,"is_transit":false,"i_lat":-6.391065},{"is_transit":false,"time":4,"transit":false,"distance":2727,"station_id":"POC","i_lat":-6.369073,"i_long":106.831114,"line":2,"station_name":"Pondok Cina"},{"i_long":106.831474,"is_transit":false,"distance":1109,"transit":false,"i_lat":-6.360749,"time":2,"line":2,"station_id":"UI","station_name":"Univ. Indonesia"},{"time":3,"i_long":106.834175,"is_transit":false,"line":2,"station_id":"UP","i_lat":-6.339291,"transit":false,"station_name":"Univ. Pancasila","distance":2264},{"station_id":"LNA","station_name":"Lenteng Agung","distance":1029,"line":2,"i_long":106.832616,"i_lat":-6.330363,"time":2,"transit":false,"is_transit":false},{"station_name":"Tanjung Barat","is_transit":false,"i_long":106.838896,"distance":2671,"i_lat":-6.3080680000000005,"station_id":"TNT","time":3,"transit":false,"line":2},{"transit":false,"i_lat":-6.2842400000000005,"is_transit":false,"line":2,"distance":2820,"station_name":"Pasar Minggu","i_long":106.843999,"station_id":"PSM","time":4},{"station_name":"Pasar Minggu Baru","station_id":"PSMB","distance":2380,"i_lat":-6.263214,"is_transit":false,"time":2,"i_long":106.851577,"transit":false,"line":2},{"station_id":"DRN","is_transit":false,"time":2,"distance":824,"i_lat":-6.255332,"transit":false,"i_long":106.85449,"station_name":"Duren Kalibata","line":2},{"distance":1546,"station_id":"CW","transit":false,"i_lat":-6.242512,"is_transit":false,"time":3,"i_long":106.856607,"line":2,"station_name":"Cawang"},{"is_transit":false,"station_name":"Tebet","transit":false,"time":2,"distance":1230,"i_lat":-6.226659,"i_long":106.857948,"station_id":"TEB","line":2},{"station_id":"MRI","distance":2610,"station_name":"Manggarai","i_lat":-6.209883,"time":4,"is_transit":true,"line":2,"i_long":106.84912,"transit":true},{"distance":1275,"i_long":106.858896,"time":2,"station_id":"MTR","is_transit":false,"line":1,"transit":false,"station_name":"Matraman","i_lat":-6.212485},{"i_lat":-6.215091,"line":1,"time":8,"station_id":"JNG","station_name":"Jatinegara","is_transit":true,"transit":true,"distance":1377,"i_long":106.86807400000001},{"station_name":"Pondok Jati","station_id":"POK","time":2,"i_lat":-6.209188,"transit":false,"i_long":106.861737,"is_transit":false,"distance":1236,"line":11},{"station_id":"KMT","line":11,"station_name":"Kramat","time":2,"transit":false,"distance":1829,"i_long":106.855437,"is_transit":false,"i_lat":-6.193792},{"line":11,"station_id":"GST","is_transit":false,"time":1,"transit":false,"i_long":106.850107,"station_name":"Gang Sentiong","distance":973,"i_lat":-6.185975},{"line":11,"station_id":"PSE","distance":1567,"time":8,"i_long":106.84368,"transit":false,"station_name":"Pasar Senen","i_lat":-6.174784,"is_transit":false},{"station_id":"KMO","is_transit":false,"time":4,"i_lat":-6.161728,"i_long":106.839204,"distance":1436,"line":11,"transit":false,"station_name":"Kemayoran"},{"station_name":"Rajawali","i_lat":-6.14505,"i_long":106.836569,"time":5,"station_id":"RJW","line":11,"transit":false,"is_transit":false,"distance":1901},{"i_lat":-6.132549,"is_transit":true,"time":3,"station_name":"Kampung Bandan","distance":1444,"station_id":"KPB","i_long":106.826365,"line":4,"transit":true},{"time":9,"station_id":"AK","station_name":"Angke","transit":false,"is_transit":false,"distance":4102,"i_lat":-6.144674,"i_long":106.79867,"line":1},{"line":1,"time":4,"i_lat":-6.155215,"transit":false,"station_id":"DU","is_transit":false,"i_long":106.800832,"station_name":"Duri","distance":1230},{"is_transit":true,"distance":3632,"i_lat":-6.185545,"time":8,"station_name":"Tanah Abang","i_long":106.811091,"line":1,"station_id":"THB","transit":true},{"station_name":"Palmerah","is_transit":false,"station_id":"PLM","i_long":106.79689,"distance":3191,"time":6,"i_lat":-6.207404,"line":6,"transit":false},{"i_lat":-6.237242,"time":7,"transit":false,"i_long":106.780334,"is_transit":false,"line":6,"distance":3737,"station_id":"KBY","station_name":"Kebayoran"},{"line":6,"i_long":106.74273,"time":8,"station_id":"PDJ","distance":6218,"i_lat":-6.276362,"is_transit":false,"station_name":"Pondokranji","transit":false},{"line":6,"station_id":"JMU","station_name":"Jurangmangu","transit":false,"i_lat":-6.288927,"is_transit":false,"distance":2179,"time":3,"i_long":106.728916},{"station_id":"SDM","distance":1994,"station_name":"Sudimara","is_transit":false,"time":4,"transit":false,"i_long":106.712277,"i_lat":-6.296963,"line":6},{"station_id":"RU","i_lat":-6.314823,"distance":4566,"i_long":106.675475,"station_name":"Rawa Buntu","time":6,"is_transit":false,"transit":false,"line":6},{"is_transit":false,"transit":false,"distance":2413,"i_lat":-6.319871,"station_id":"SRP","station_name":"Serpong","i_long":106.66566,"time":4,"line":6},{"distance":1784,"i_lat":-6.32484,"station_name":"Cisauk","station_id":"CSK","i_long":106.640411,"is_transit":false,"time":4,"line":3,"transit":false},{"station_id":"CC","station_name":"Cicayur","is_transit":false,"i_lat":-6.329547,"distance":2519,"line":3,"time":4,"transit":false,"i_long":106.617853},{"transit":false,"station_name":"Parung Panjang","is_transit":false,"station_id":"PRP","distance":5968,"i_lat":-6.3441410000000005,"i_long":106.568863,"line":6,"time":8},{"station_name":"Cilejit","time":9,"i_lat":-6.354349,"distance":7025,"i_long":106.508482,"is_transit":false,"transit":false,"station_id":"CJT","line":3},{"i_lat":-6.338021,"is_transit":false,"station_id":"DAR","time":6,"transit":false,"distance":2675,"station_name":"Daru","i_long":106.491338,"line":0},{"distance":3902,"station_name":"Tenjo","station_id":"TEJ","transit":false,"i_long":106.460812,"line":6,"is_transit":false,"time":5,"i_lat":-6.327251},{"is_transit":false,"line":6,"transit":false,"distance":2974,"time":5,"i_lat":-6.328533,"i_long":106.425991,"station_id":"TGS","station_name":"Tigaraksa"},{"time":3,"station_id":"CKY","is_transit":false,"transit":false,"distance":2651,"station_name":"Cikoya","i_lat":-6.33561,"line":3,"i_long":106.411216},{"transit":false,"i_long":106.394373,"line":6,"distance":1853,"station_id":"MJ","station_name":"Maja","i_lat":-6.332307,"is_transit":false,"time":4},{"transit":false,"station_id":"CTR","is_transit":false,"time":10,"i_lat":-6.334892,"i_long":106.332092,"distance":7293,"line":3,"station_name":"Citeras"},{"line":3,"station_id":"RK","station_name":"Rangkasbitung","transit":false,"distance":9847,"time":13,"is_transit":false,"i_lat":-6.352675,"i_long":106.250396}]]}