{"data":[[{"i_long":106.819451,"time":0,"line":2,"station_id":"DPB","station_name":"Depokbaru","distance":0,"is_transit":false,"transit":false,"i_lat":-6.391065},{"station_id":"POC","line":2,"distance":2727,"i_lat":-6.369073,"is_transit":false,"time":4,"transit":false,"station_name":"Pondok Cina","i_long":106.831114},{"station_id":"UI","station_name":"Univ. Indonesia","i_long":106.831474,"is_transit":false,"transit":false,"i_lat":-6.360749,"line":2,"time":2,"distance":1109},{"is_transit":false,"i_long":106.834175,"time":3,"transit":false,"station_id":"UP","station_name":"Univ. Pancasila","i_lat":-6.339291,"distance":2264,"line":2},{"station_id":"LNA","line":2,"i_lat":-6.330363,"transit":false,"is_transit":false,"time":2,"distance":1029,"station_name":"Lenteng Agung","i_long":106.832616},{"transit":false,"station_name":"Tanjung Barat","i_lat":-6.3080680000000005,"i_long":106.838896,"distance":2671,"line":2,"time":3,"station_id":"TNT","is_transit":false},{"time":4,"i_long":106.843999,"is_transit":false,"distance":2820,"transit":false,"station_name":"Pasar Minggu","line":2,"i_lat":-6.2842400000000005,"station_id":"PSM"},{"i_long":106.851577,"distance":2380,"station_id":"PSMB","time":2,"is_transit":false,"i_lat":-6.263214,"line":2,"transit":false,"station_name":"Pasar Minggu Baru"}]]}