{"data":[[{"station_id":"DPB","station_name":"Depokbaru","line":0,"i_lat":-6.391065,"transit":false,"time":0,"distance":0,"i_long":106.819451,"is_transit":false},{"i_long":106.831114,"distance":2727,"is_transit":false,"station_id":"POC","station_name":"Pondok Cina","i_lat":-6.369073,"line":2,"transit":false,"time":4},{"station_id":"UI","i_lat":-6.360749,"distance":1109,"transit":false,"line":2,"station_name":"Univ. Indonesia","i_long":106.831474,"time":2,"is_transit":false},{"i_lat":-6.339291,"transit":false,"i_long":106.834175,"line":2,"distance":2264,"station_id":"UP","time":3,"station_name":"Univ. Pancasila","is_transit":false},{"transit":false,"distance":1029,"station_id":"LNA","i_lat":-6.330363,"time":2,"i_long":106.832616,"line":2,"station_name":"Lenteng Agung","is_transit":false},{"distance":2671,"station_id":"TNT","station_name":"Tanjung Barat","i_long":106.838896,"is_transit":false,"line":2,"i_lat":-6.3080680000000005,"time":3,"transit":false},{"i_long":106.843999,"is_transit":false,"distance":2820,"station_id":"PSM","station_name":"Pasar Minggu","i_lat":-6.2842400000000005,"line":2,"time":4,"transit":false},{"i_lat":-6.263214,"i_long":106.851577,"is_transit":false,"transit":false,"distance":2380,"line":2,"station_id":"PSMB","time":2,"station_name":"Pasar Minggu Baru"},{"distance":824,"station_id":"DRN","time":2,"i_lat":-6.255332,"i_long":106.85449,"line":0,"is_transit":false,"station_name":"Duren Kalibata","transit":false},{"i_long":106.856607,"distance":1546,"line":0,"time":3,"station_id":"CW","is_transit":false,"i_lat":-6.242512,"transit":false,"station_name":"Cawang"},{"distance":1230,"i_long":106.857948,"station_id":"TEB","station_name":"Tebet","i_lat":-6.226659,"line":2,"transit":false,"is_transit":false,"time":2},{"line":0,"is_transit":true,"time":4,"station_id":"MRI","transit":true,"i_lat":-6.209883,"i_long":106.84912,"distance":2610,"station_name":"Manggarai"},{"transit":false,"station_name":"Sudirman","is_transit":false,"time":4,"i_long":106.822649,"station_id":"SUD","i_lat":-6.202263,"line":1,"distance":3186},{"i_lat":-6.201433,"time":1,"distance":280,"station_id":"SUDB","line":1,"station_name":"Sudirman Baru","i_long":106.819881,"is_transit":false,"transit":false},{"station_id":"KAT","line":1,"i_long":106.816351,"distance":471,"i_lat":-6.20132,"transit":false,"time":1,"is_transit":false,"station_name":"Karet"},{"i_long":106.811091,"station_id":"THB","line":1,"i_lat":-6.185545,"distance":2029,"is_transit":true,"station_name":"Tanah Abang","time":5,"transit":true},{"station_name":"Palmerah","is_transit":false,"distance":3191,"i_lat":-6.207404,"i_long":106.79689,"station_id":"PLM","time":6,"line":6,"transit":false},{"line":6,"distance":3737,"transit":false,"is_transit":false,"station_id":"KBY","i_long":106.780334,"i_lat":-6.237242,"station_name":"Kebayoran","time":7},{"time":8,"i_long":106.74273,"is_transit":false,"station_name":"Pondokranji","distance":6218,"station_id":"PDJ","i_lat":-6.276362,"line":6,"transit":false},{"i_long":106.728916,"station_id":"JMU","time":3,"line":6,"transit":false,"is_transit":false,"distance":2179,"station_name":"Jurangmangu","i_lat":-6.288927},{"i_lat":-6.296963,"distance":1994,"line":6,"station_name":"Sudimara","i_long":106.712277,"station_id":"SDM","transit":false,"is_transit":false,"time":4},{"time":6,"distance":4566,"i_lat":-6.314823,"line":6,"station_id":"RU","station_name":"Rawa Buntu","i_long":106.675475,"transit":false,"is_transit":false},{"i_long":106.66566,"distance":2413,"line":6,"transit":false,"time":4,"station_id":"SRP","station_name":"Serpong","i_lat":-6.319871,"is_transit":false},{"station_name":"Cisauk","transit":false,"i_long":106.640411,"time":4,"distance":1784,"i_lat":-6.32484,"is_transit":false,"line":0,"station_id":"CSK"}],[{"distance":0,"time":0,"is_transit":false,"station_name":"Depokbaru","i_lat":-6.391065,"transit":false,"station_id":"DPB","i_long":106.819451,"line":0},{"station_name":"Pondok Cina","i_long":106.831114,"time":4,"transit":false,"distance":2727,"is_transit":false,"line":2,"station_id":"POC","i_lat":-6.369073},{"i_lat":-6.360749,"station_name":"Univ. Indonesia","time":2,"distance":1109,"i_long":106.831474,"is_transit":false,"line":2,"transit":false,"station_id":"UI"},{"time":3,"i_lat":-6.339291,"i_long":106.834175,"station_id":"UP","is_transit":false,"station_name":"Univ. Pancasila","transit":false,"distance":2264,"line":2},{"line":2,"time":2,"transit":false,"is_transit":false,"station_id":"LNA","station_name":"Lenteng Agung","distance":1029,"i_lat":-6.330363,"i_long":106.832616},{"is_transit":false,"line":2,"time":3,"i_lat":-6.3080680000000005,"station_id":"TNT","distance":2671,"station_name":"Tanjung Barat","transit":false,"i_long":106.838896},{"i_lat":-6.2842400000000005,"transit":false,"distance":2820,"station_id":"PSM","line":2,"is_transit":false,"time":4,"station_name":"Pasar Minggu","i_long":106.843999},{"transit":false,"line":2,"time":2,"distance":2380,"i_lat":-6.263214,"i_long":106.851577,"is_transit":false,"station_name":"Pasar Minggu Baru","station_id":"PSMB"},{"i_long":106.85449,"distance":824,"i_lat":-6.255332,"transit":false,"station_id":"DRN","line":0,"station_name":"Duren Kalibata","is_transit":false,"time":2},{"line":0,"i_lat":-6.242512,"i_long":106.856607,"is_transit":false,"distance":1546,"station_name":"Cawang","time":3,"station_id":"CW","transit":false},{"line":2,"transit":false,"i_long":106.857948,"station_name":"Tebet","is_transit":false,"distance":1230,"time":2,"i_lat":-6.226659,"station_id":"TEB"},{"time":4,"distance":2610,"station_name":"Manggarai","i_lat":-6.209883,"transit":true,"is_transit":true,"i_long":106.84912,"line":0,"station_id":"MRI"},{"station_id":"CKI","station_name":"Cikini","is_transit":false,"i_lat":-6.198556,"time":4,"transit":false,"distance":1590,"i_long":106.840169,"line":0},{"station_id":"GDD","i_lat":-6.186295,"is_transit":false,"line":2,"distance":1750,"station_name":"Gondangdia","time":3,"i_long":106.832183,"transit":false},{"i_long":106.828284,"time":4,"i_lat":-6.166716,"station_name":"Juanda","line":2,"transit":false,"is_transit":false,"distance":2015,"station_id":"JUA"},{"i_lat":-6.160725,"line":2,"time":2,"is_transit":false,"distance":1149,"station_id":"SW","transit":false,"station_name":"Sawah Besar","i_long":106.827103},{"station_id":"MGB","is_transit":false,"i_lat":-6.149769,"time":2,"transit":false,"line":2,"station_name":"Manggabesar","distance":906,"i_long":106.82482},{"distance":1080,"line":7,"is_transit":false,"time":2,"station_id":"JAY","station_name":"Jayakarta","i_long":106.820901,"i_lat":-6.141205,"transit":false},{"line":0,"i_long":106.812439,"time":4,"is_transit":true,"i_lat":-6.137569,"distance":1264,"transit":true,"station_id":"JAKK","station_name":"Jakarta Kota"},{"i_long":106.826365,"distance":1364,"transit":false,"time":3,"station_name":"Kampung Bandan","line":0,"i_lat":-6.132549,"is_transit":true,"station_id":"KPB"},{"i_long":106.79867,"distance":4102,"time":9,"station_name":"Angke","station_id":"AK","is_transit":false,"line":0,"transit":false,"i_lat":-6.144674},{"time":4,"distance":1230,"i_long":106.800832,"station_name":"Duri","transit":true,"line":1,"i_lat":-6.155215,"station_id":"DU","is_transit":true},{"transit":true,"i_long":106.811091,"is_transit":true,"i_lat":-6.185545,"station_name":"Tanah Abang","time":8,"line":1,"station_id":"THB","distance":3632},{"i_lat":-6.207404,"transit":false,"is_transit":false,"i_long":106.79689,"station_id":"PLM","station_name":"Palmerah","line":6,"distance":3191,"time":6},{"station_name":"Kebayoran","line":6,"i_long":106.780334,"transit":false,"is_transit":false,"time":7,"distance":3737,"i_lat":-6.237242,"station_id":"KBY"},{"transit":false,"distance":6218,"time":8,"station_id":"PDJ","i_lat":-6.276362,"line":6,"station_name":"Pondokranji","i_long":106.74273,"is_transit":false},{"station_name":"Jurangmangu","distance":2179,"i_lat":-6.288927,"i_long":106.728916,"time":3,"transit":false,"station_id":"JMU","line":6,"is_transit":false},{"station_name":"Sudimara","is_transit":false,"i_lat":-6.296963,"i_long":106.712277,"station_id":"SDM","line":6,"time":4,"transit":false,"distance":1994},{"i_lat":-6.314823,"distance":4566,"line":6,"i_long":106.675475,"time":6,"station_id":"RU","is_transit":false,"transit":false,"station_name":"Rawa Buntu"},{"transit":false,"station_id":"SRP","line":6,"is_transit":false,"station_name":"Serpong","time":4,"distance":2413,"i_long":106.66566,"i_lat":-6.319871},{"station_name":"Cisauk","i_long":106.640411,"is_transit":false,"time":4,"transit":false,"distance":1784,"line":0,"i_lat":-6.32484,"station_id":"CSK"}],[{"station_name":"Depokbaru","line":0,"station_id":"DPB","i_lat":-6.391065,"transit":false,"i_long":106.819451,"time":0,"is_transit":false,"distance":0},{"distance":2727,"station_name":"Pondok Cina","line":2,"station_id":"POC","transit":false,"is_transit":false,"time":4,"i_long":106.831114,"i_lat":-6.369073},{"i_long":106.831474,"station_name":"Univ. Indonesia","line":2,"time":2,"transit":false,"distance":1109,"station_id":"UI","i_lat":-6.360749,"is_transit":false},{"line":2,"i_lat":-6.339291,"station_id":"UP","i_long":106.834175,"transit":false,"time":3,"distance":2264,"station_name":"Univ. Pancasila","is_transit":false},{"time":2,"distance":1029,"transit":false,"i_lat":-6.330363,"i_long":106.832616,"line":2,"is_transit":false,"station_name":"Lenteng Agung","station_id":"LNA"},{"is_transit":false,"time":3,"i_lat":-6.3080680000000005,"distance":2671,"i_long":106.838896,"line":2,"transit":false,"station_name":"Tanjung Barat","station_id":"TNT"},{"station_name":"Pasar Minggu","time":4,"line":2,"transit":false,"is_transit":false,"station_id":"PSM","i_long":106.843999,"i_lat":-6.2842400000000005,"distance":2820},{"time":2,"line":2,"is_transit":false,"station_id":"PSMB","distance":2380,"i_lat":-6.263214,"station_name":"Pasar Minggu Baru","transit":false,"i_long":106.851577},{"line":0,"transit":false,"station_id":"DRN","station_name":"Duren Kalibata","is_transit":false,"time":2,"distance":824,"i_lat":-6.255332,"i_long":106.85449},{"station_id":"CW","i_long":106.856607,"station_name":"Cawang","line":0,"i_lat":-6.242512,"is_transit":false,"transit":false,"time":3,"distance":1546},{"time":2,"distance":1230,"station_name":"Tebet","is_transit":false,"line":2,"station_id":"TEB","i_lat":-6.226659,"transit":false,"i_long":106.857948},{"line":0,"time":4,"station_id":"MRI","distance":2610,"station_name":"Manggarai","i_lat":-6.209883,"is_transit":true,"i_long":106.84912,"transit":true},{"transit":false,"time":2,"station_id":"MTR","i_lat":-6.212485,"is_transit":false,"station_name":"Matraman","i_long":106.858896,"line":1,"distance":1275},{"transit":true,"time":8,"station_name":"Jatinegara","station_id":"JNG","line":0,"i_lat":-6.215091,"distance":1377,"i_long":106.86807400000001,"is_transit":true},{"line":11,"is_transit":false,"time":2,"transit":false,"i_long":106.861737,"i_lat":-6.209188,"station_name":"Pondok Jati","distance":1236,"station_id":"POK"},{"distance":1829,"i_lat":-6.193792,"is_transit":false,"station_name":"Kramat","line":11,"i_long":106.855437,"time":2,"station_id":"KMT","transit":false},{"line":11,"time":1,"station_id":"GST","i_lat":-6.185975,"distance":973,"i_long":106.850107,"transit":false,"is_transit":false,"station_name":"Gang Sentiong"},{"i_long":106.84368,"distance":1567,"transit":false,"line":11,"station_id":"PSE","i_lat":-6.174784,"station_name":"Pasar Senen","time":8,"is_transit":false},{"transit":false,"line":11,"i_long":106.839204,"time":4,"distance":1436,"station_name":"Kemayoran","i_lat":-6.161728,"station_id":"KMO","is_transit":false},{"transit":false,"i_lat":-6.14505,"distance":1901,"time":5,"station_id":"RJW","i_long":106.836569,"is_transit":false,"line":11,"station_name":"Rajawali"},{"transit":true,"is_transit":true,"i_lat":-6.132549,"i_long":106.826365,"time":3,"station_id":"KPB","station_name":"Kampung Bandan","line":0,"distance":1444},{"station_name":"Angke","i_long":106.79867,"time":9,"transit":false,"station_id":"AK","line":0,"is_transit":false,"i_lat":-6.144674,"distance":4102},{"station_id":"DU","time":4,"is_transit":true,"transit":true,"line":1,"i_long":106.800832,"station_name":"Duri","distance":1230,"i_lat":-6.155215},{"time":8,"transit":true,"is_transit":true,"i_lat":-6.185545,"i_long":106.811091,"line":1,"distance":3632,"station_id":"THB","station_name":"Tanah Abang"},{"distance":3191,"is_transit":false,"time":6,"station_id":"PLM","station_name":"Palmerah","i_lat":-6.207404,"i_long":106.79689,"transit":false,"line":6},{"time":7,"line":6,"transit":false,"station_name":"Kebayoran","is_transit":false,"i_lat":-6.237242,"i_long":106.780334,"distance":3737,"station_id":"KBY"},{"transit":false,"is_transit":false,"i_long":106.74273,"station_id":"PDJ","station_name":"Pondokranji","i_lat":-6.276362,"line":6,"time":8,"distance":6218},{"station_name":"Jurangmangu","i_lat":-6.288927,"i_long":106.728916,"time":3,"line":6,"distance":2179,"transit":false,"is_transit":false,"station_id":"JMU"},{"i_lat":-6.296963,"is_transit":false,"transit":false,"station_id":"SDM","station_name":"Sudimara","i_long":106.712277,"distance":1994,"time":4,"line":6},{"line":6,"transit":false,"is_transit":false,"time":6,"distance":4566,"station_name":"Rawa Buntu","i_long":106.675475,"station_id":"RU","i_lat":-6.314823},{"i_long":106.66566,"distance":2413,"station_id":"SRP","station_name":"Serpong","is_transit":false,"line":6,"transit":false,"i_lat":-6.319871,"time":4},{"station_id":"CSK","transit":false,"is_transit":false,"i_long":106.640411,"time":4,"station_name":"Cisauk","line":0,"distance":1784,"i_lat":-6.32484}]]}