{"data":[[{"distance":0,"station_id":"DPB","line":2,"is_transit":false,"i_lat":-6.391065,"station_name":"Depokbaru","i_long":106.819451,"time":0,"transit":false},{"i_long":106.831114,"station_name":"Pondok Cina","distance":2727,"transit":false,"i_lat":-6.369073,"is_transit":false,"line":2,"time":4,"station_id":"POC"},{"time":2,"line":2,"station_name":"Univ. Indonesia","is_transit":false,"distance":1109,"i_lat":-6.360749,"station_id":"UI","transit":false,"i_long":106.831474},{"station_name":"Univ. Pancasila","station_id":"UP","distance":2264,"i_lat":-6.339291,"i_long":106.834175,"time":3,"line":2,"transit":false,"is_transit":false},{"distance":1029,"station_id":"LNA","line":2,"transit":false,"i_long":106.832616,"station_name":"Lenteng Agung","time":2,"i_lat":-6.330363,"is_transit":false},{"i_lat":-6.3080680000000005,"is_transit":false,"transit":false,"distance":2671,"i_long":106.838896,"line":2,"station_id":"TNT","time":3,"station_name":"Tanjung Barat"},{"station_name":"Pasar Minggu","distance":2820,"transit":false,"time":4,"is_transit":false,"i_lat":-6.2842400000000005,"station_id":"PSM","i_long":106.843999,"line":2},{"transit":false,"station_id":"PSMB","line":2,"time":2,"i_long":106.851577,"distance":2380,"is_transit":false,"station_name":"Pasar Minggu Baru","i_lat":-6.263214},{"station_id":"DRN","i_lat":-6.255332,"is_transit":false,"i_long":106.85449,"line":2,"distance":824,"transit":false,"station_name":"Duren Kalibata","time":2},{"station_id":"CW","station_name":"Cawang","transit":false,"i_lat":-6.242512,"i_long":106.856607,"distance":1546,"line":2,"is_transit":false,"time":3},{"transit":false,"is_transit":false,"line":2,"distance":1230,"i_long":106.857948,"station_name":"Tebet","i_lat":-6.226659,"time":2,"station_id":"TEB"},{"is_transit":true,"time":4,"i_lat":-6.209883,"station_id":"MRI","station_name":"Manggarai","i_long":106.84912,"distance":2610,"line":2,"transit":true},{"i_lat":-6.212485,"station_name":"Matraman","is_transit":false,"transit":false,"distance":1275,"station_id":"MTR","time":2,"i_long":106.858896,"line":1},{"i_lat":-6.215091,"i_long":106.86807400000001,"station_name":"Jatinegara","is_transit":false,"transit":false,"line":1,"time":8,"distance":1377,"station_id":"JNG"}],[{"i_long":106.819451,"time":0,"station_id":"DPB","station_name":"Depokbaru","i_lat":-6.391065,"transit":false,"is_transit":false,"line":2,"distance":0},{"i_long":106.831114,"is_transit":false,"distance":2727,"line":2,"station_id":"POC","time":4,"station_name":"Pondok Cina","i_lat":-6.369073,"transit":false},{"time":2,"i_long":106.831474,"transit":false,"distance":1109,"i_lat":-6.360749,"line":2,"station_name":"Univ. Indonesia","station_id":"UI","is_transit":false},{"is_transit":false,"transit":false,"station_id":"UP","station_name":"Univ. Pancasila","i_lat":-6.339291,"time":3,"distance":2264,"i_long":106.834175,"line":2},{"line":2,"station_id":"LNA","i_lat":-6.330363,"is_transit":false,"distance":1029,"time":2,"station_name":"Lenteng Agung","i_long":106.832616,"transit":false},{"is_transit":false,"time":3,"i_lat":-6.3080680000000005,"i_long":106.838896,"station_id":"TNT","distance":2671,"transit":false,"line":2,"station_name":"Tanjung Barat"},{"i_long":106.843999,"station_name":"Pasar Minggu","transit":false,"i_lat":-6.2842400000000005,"time":4,"distance":2820,"is_transit":false,"station_id":"PSM","line":2},{"station_name":"Pasar Minggu Baru","distance":2380,"transit":false,"line":2,"i_lat":-6.263214,"time":2,"station_id":"PSMB","is_transit":false,"i_long":106.851577},{"station_name":"Duren Kalibata","station_id":"DRN","time":2,"i_lat":-6.255332,"line":2,"is_transit":false,"distance":824,"i_long":106.85449,"transit":false},{"i_lat":-6.242512,"station_id":"CW","station_name":"Cawang","line":2,"time":3,"is_transit":false,"distance":1546,"transit":false,"i_long":106.856607},{"distance":1230,"transit":false,"i_lat":-6.226659,"station_id":"TEB","line":2,"station_name":"Tebet","i_long":106.857948,"is_transit":false,"time":2},{"time":4,"is_transit":true,"i_lat":-6.209883,"transit":true,"i_long":106.84912,"station_name":"Manggarai","distance":2610,"station_id":"MRI","line":2},{"i_lat":-6.202263,"transit":false,"is_transit":false,"line":1,"distance":3186,"i_long":106.822649,"station_name":"Sudirman","time":4,"station_id":"SUD"},{"line":1,"is_transit":false,"distance":280,"station_id":"SUDB","station_name":"Sudirman Baru","time":1,"transit":false,"i_long":106.819881,"i_lat":-6.201433},{"station_id":"KAT","transit":false,"station_name":"Karet","is_transit":false,"i_lat":-6.20132,"time":1,"distance":471,"line":1,"i_long":106.816351},{"transit":false,"line":1,"station_name":"Tanah Abang","station_id":"THB","i_lat":-6.185545,"time":5,"is_transit":false,"distance":2029,"i_long":106.811091},{"i_long":106.800832,"time":8,"i_lat":-6.155215,"station_id":"DU","station_name":"Duri","distance":3632,"line":1,"is_transit":false,"transit":false},{"i_lat":-6.144674,"distance":1230,"is_transit":false,"station_id":"AK","transit":false,"line":1,"time":4,"i_long":106.79867,"station_name":"Angke"},{"station_id":"KPB","transit":true,"distance":4102,"i_long":106.826365,"i_lat":-6.132549,"is_transit":true,"time":9,"line":4,"station_name":"Kampung Bandan"},{"time":3,"line":11,"is_transit":false,"station_name":"Rajawali","transit":false,"i_long":106.836569,"i_lat":-6.14505,"station_id":"RJW","distance":1444},{"time":5,"distance":1901,"station_name":"Kemayoran","is_transit":false,"i_lat":-6.161728,"i_long":106.839204,"line":11,"station_id":"KMO","transit":false},{"station_id":"PSE","line":11,"transit":false,"i_lat":-6.174784,"i_long":106.84368,"is_transit":false,"distance":1436,"station_name":"Pasar Senen","time":4},{"line":11,"time":8,"distance":1567,"station_name":"Gang Sentiong","is_transit":false,"i_long":106.850107,"station_id":"GST","transit":false,"i_lat":-6.185975},{"time":1,"line":11,"i_lat":-6.193792,"station_id":"KMT","station_name":"Kramat","distance":973,"i_long":106.855437,"transit":false,"is_transit":false},{"distance":1829,"transit":false,"is_transit":false,"station_id":"POK","i_lat":-6.209188,"i_long":106.861737,"line":11,"time":2,"station_name":"Pondok Jati"},{"station_id":"JNG","distance":1236,"time":9,"i_lat":-6.215091,"is_transit":false,"transit":false,"line":1,"i_long":106.86807400000001,"station_name":"Jatinegara"}],[{"station_id":"DPB","is_transit":false,"line":2,"distance":0,"station_name":"Depokbaru","transit":false,"time":0,"i_long":106.819451,"i_lat":-6.391065},{"line":2,"i_lat":-6.369073,"i_long":106.831114,"time":4,"station_id":"POC","transit":false,"is_transit":false,"distance":2727,"station_name":"Pondok Cina"},{"i_lat":-6.360749,"i_long":106.831474,"line":2,"time":2,"is_transit":false,"station_id":"UI","station_name":"Univ. Indonesia","distance":1109,"transit":false},{"is_transit":false,"transit":false,"time":3,"line":2,"i_long":106.834175,"i_lat":-6.339291,"distance":2264,"station_name":"Univ. Pancasila","station_id":"UP"},{"is_transit":false,"i_lat":-6.330363,"station_id":"LNA","i_long":106.832616,"time":2,"transit":false,"distance":1029,"line":2,"station_name":"Lenteng Agung"},{"is_transit":false,"station_name":"Tanjung Barat","transit":false,"distance":2671,"time":3,"i_lat":-6.3080680000000005,"i_long":106.838896,"line":2,"station_id":"TNT"},{"time":4,"station_name":"Pasar Minggu","i_long":106.843999,"distance":2820,"line":2,"station_id":"PSM","is_transit":false,"transit":false,"i_lat":-6.2842400000000005},{"transit":false,"i_lat":-6.263214,"is_transit":false,"distance":2380,"line":2,"station_id":"PSMB","time":2,"i_long":106.851577,"station_name":"Pasar Minggu Baru"},{"station_name":"Duren Kalibata","time":2,"i_lat":-6.255332,"station_id":"DRN","i_long":106.85449,"line":2,"is_transit":false,"transit":false,"distance":824},{"station_id":"CW","i_lat":-6.242512,"is_transit":false,"i_long":106.856607,"distance":1546,"line":2,"time":3,"station_name":"Cawang","transit":false},{"i_lat":-6.226659,"i_long":106.857948,"is_transit":false,"time":2,"station_id":"TEB","distance":1230,"transit":false,"line":2,"station_name":"Tebet"},{"station_name":"Manggarai","transit":false,"distance":2610,"i_lat":-6.209883,"i_long":106.84912,"line":2,"time":4,"is_transit":false,"station_id":"MRI"},{"transit":false,"line":2,"i_lat":-6.198556,"station_id":"CKI","is_transit":false,"time":4,"i_long":106.840169,"distance":1590,"station_name":"Cikini"},{"distance":1750,"station_name":"Gondangdia","time":3,"i_lat":-6.186295,"line":2,"i_long":106.832183,"transit":false,"is_transit":false,"station_id":"GDD"},{"transit":false,"time":4,"line":2,"station_id":"JUA","station_name":"Juanda","is_transit":false,"i_lat":-6.166716,"distance":2015,"i_long":106.828284},{"i_lat":-6.160725,"distance":1149,"line":2,"station_name":"Sawah Besar","is_transit":false,"transit":false,"time":2,"i_long":106.827103,"station_id":"SW"},{"time":2,"i_lat":-6.149769,"station_name":"Manggabesar","is_transit":false,"station_id":"MGB","line":2,"i_long":106.82482,"transit":false,"distance":906},{"transit":false,"distance":1080,"i_long":106.820901,"station_id":"JAY","i_lat":-6.141205,"line":2,"station_name":"Jayakarta","time":2,"is_transit":false},{"station_id":"JAKK","station_name":"Jakarta Kota","transit":true,"time":4,"distance":1264,"line":2,"i_lat":-6.137569,"is_transit":true,"i_long":106.812439},{"time":3,"distance":1364,"i_lat":-6.132549,"line":4,"is_transit":true,"station_id":"KPB","i_long":106.826365,"station_name":"Kampung Bandan","transit":true},{"i_lat":-6.14505,"transit":false,"distance":1444,"time":3,"i_long":106.836569,"is_transit":false,"station_name":"Rajawali","station_id":"RJW","line":11},{"is_transit":false,"distance":1901,"station_id":"KMO","transit":false,"station_name":"Kemayoran","time":5,"i_lat":-6.161728,"i_long":106.839204,"line":11},{"time":4,"station_id":"PSE","station_name":"Pasar Senen","transit":false,"i_long":106.84368,"line":11,"distance":1436,"i_lat":-6.174784,"is_transit":false},{"i_long":106.850107,"transit":false,"is_transit":false,"i_lat":-6.185975,"line":11,"station_name":"Gang Sentiong","distance":1567,"time":8,"station_id":"GST"},{"i_lat":-6.193792,"i_long":106.855437,"station_name":"Kramat","station_id":"KMT","is_transit":false,"transit":false,"distance":973,"time":1,"line":11},{"line":11,"station_name":"Pondok Jati","distance":1829,"i_long":106.861737,"transit":false,"station_id":"POK","i_lat":-6.209188,"is_transit":false,"time":2},{"station_name":"Jatinegara","i_lat":-6.215091,"distance":1236,"station_id":"JNG","i_long":106.86807400000001,"is_transit":false,"transit":false,"time":9,"line":1}]]}