{"data":[[{"is_transit":false,"station_name":"Depokbaru","transit":false,"i_long":106.819451,"time":0,"distance":0,"i_lat":-6.391065,"station_id":"DPB","line":2},{"i_lat":-6.369073,"time":4,"is_transit":false,"distance":2727,"transit":false,"i_long":106.831114,"station_id":"POC","line":2,"station_name":"Pondok Cina"},{"transit":false,"station_id":"UI","i_lat":-6.360749,"distance":1109,"time":2,"is_transit":false,"station_name":"Univ. Indonesia","i_long":106.831474,"line":2},{"station_id":"UP","distance":2264,"is_transit":false,"time":3,"transit":false,"line":2,"i_lat":-6.339291,"i_long":106.834175,"station_name":"Univ. Pancasila"},{"distance":1029,"i_lat":-6.330363,"station_id":"LNA","i_long":106.832616,"station_name":"Lenteng Agung","line":2,"time":2,"is_transit":false,"transit":false},{"distance":2671,"station_name":"Tanjung Barat","is_transit":false,"i_long":106.838896,"line":2,"time":3,"transit":false,"i_lat":-6.3080680000000005,"station_id":"TNT"},{"transit":false,"station_name":"Pasar Minggu","time":4,"i_long":106.843999,"station_id":"PSM","distance":2820,"i_lat":-6.2842400000000005,"is_transit":false,"line":2}]]}