{"data":[[{"station_name":"Depokbaru","line":2,"transit":false,"is_transit":false,"distance":0,"i_lat":-6.391065,"i_long":106.819451,"time":0,"station_id":"DPB"},{"is_transit":false,"line":2,"station_id":"DP","transit":false,"distance":1584,"time":3,"i_lat":-6.405256,"i_long":106.816926,"station_name":"Depok"},{"transit":true,"station_name":"Citayam","i_long":106.800298,"time":6,"station_id":"CTA","is_transit":true,"i_lat":-6.448811,"line":2,"distance":5084},{"station_id":"PDRG","station_name":"Pondok Rajeg","is_transit":false,"transit":false,"i_lat":-6.460735,"line":21,"time":0,"distance":0,"i_long":106.824374},{"transit":false,"distance":0,"time":0,"line":21,"is_transit":false,"station_name":"Cibinong","station_id":"CBN","i_lat":-6.46424,"i_long":106.851978},{"station_name":"Nambo","time":10,"transit":false,"distance":6527,"line":21,"i_lat":-6.466285,"is_transit":false,"station_id":"NMO","i_long":106.905196}]]}