{"data":[[{"transit":false,"is_transit":false,"time":0,"station_id":"DPB","line":2,"station_name":"Depokbaru","distance":0,"i_lat":-6.391065,"i_long":106.819451},{"station_id":"DP","is_transit":false,"line":2,"time":3,"i_lat":-6.405256,"transit":false,"station_name":"Depok","i_long":106.816926,"distance":1584},{"station_id":"CTA","time":6,"i_lat":-6.448811,"transit":false,"line":2,"distance":5084,"is_transit":false,"station_name":"Citayam","i_long":106.800298},{"is_transit":false,"time":5,"transit":false,"station_name":"Bojonggede","i_long":106.792719,"i_lat":-6.493243,"line":2,"distance":5197,"station_id":"BJD"},{"time":5,"distance":4331,"station_id":"CLT","transit":false,"line":2,"is_transit":false,"i_long":106.800016,"i_lat":-6.530544,"station_name":"Cilebut"}]]}