{"data":[[{"is_transit":false,"i_long":106.819451,"time":0,"station_id":"DPB","station_name":"Depokbaru","transit":false,"line":2,"distance":0,"i_lat":-6.391065},{"distance":1584,"station_name":"Depok","i_lat":-6.405256,"is_transit":false,"transit":false,"station_id":"DP","time":3,"i_long":106.816926,"line":2},{"line":2,"is_transit":true,"station_name":"Citayam","transit":true,"time":6,"i_lat":-6.448811,"i_long":106.800298,"station_id":"CTA","distance":5084},{"transit":false,"is_transit":false,"line":21,"time":0,"i_lat":-6.460735,"distance":0,"i_long":106.824374,"station_id":"PDRG","station_name":"Pondok Rajeg"},{"i_lat":-6.46424,"time":0,"station_name":"Cibinong","is_transit":false,"i_long":106.851978,"line":21,"station_id":"CBN","transit":false,"distance":0},{"station_id":"NMO","distance":6527,"time":10,"line":21,"station_name":"Nambo","transit":false,"is_transit":false,"i_lat":-6.466285,"i_long":106.905196}]]}