{"data":[[{"time":0,"i_lat":-6.391065,"transit":false,"distance":0,"is_transit":false,"station_name":"Depokbaru","i_long":106.819451,"station_id":"DPB","line":0},{"transit":false,"distance":2727,"i_lat":-6.369073,"station_name":"Pondok Cina","station_id":"POC","time":4,"is_transit":false,"i_long":106.831114,"line":2},{"station_name":"Univ. Indonesia","i_long":106.831474,"is_transit":false,"line":2,"time":2,"distance":1109,"i_lat":-6.360749,"station_id":"UI","transit":false},{"station_id":"UP","distance":2264,"is_transit":false,"transit":false,"line":2,"i_lat":-6.339291,"station_name":"Univ. Pancasila","time":3,"i_long":106.834175},{"station_name":"Lenteng Agung","i_long":106.832616,"time":2,"station_id":"LNA","is_transit":false,"line":2,"i_lat":-6.330363,"transit":false,"distance":1029},{"time":3,"distance":2671,"is_transit":false,"i_long":106.838896,"station_name":"Tanjung Barat","line":2,"station_id":"TNT","transit":false,"i_lat":-6.3080680000000005},{"transit":false,"station_name":"Pasar Minggu","line":2,"is_transit":false,"i_lat":-6.2842400000000005,"time":4,"i_long":106.843999,"station_id":"PSM","distance":2820},{"is_transit":false,"line":2,"transit":false,"time":2,"station_name":"Pasar Minggu Baru","distance":2380,"i_lat":-6.263214,"station_id":"PSMB","i_long":106.851577},{"i_lat":-6.255332,"distance":824,"is_transit":false,"time":2,"line":0,"station_name":"Duren Kalibata","i_long":106.85449,"station_id":"DRN","transit":false},{"time":3,"transit":false,"i_lat":-6.242512,"distance":1546,"station_id":"CW","station_name":"Cawang","is_transit":false,"i_long":106.856607,"line":0},{"time":2,"is_transit":false,"i_lat":-6.226659,"i_long":106.857948,"station_id":"TEB","distance":1230,"station_name":"Tebet","line":2,"transit":false},{"line":0,"station_name":"Manggarai","is_transit":true,"distance":2610,"time":4,"i_lat":-6.209883,"transit":true,"i_long":106.84912,"station_id":"MRI"},{"line":1,"time":2,"transit":false,"distance":1275,"is_transit":false,"i_lat":-6.212485,"i_long":106.858896,"station_id":"MTR","station_name":"Matraman"},{"time":8,"i_lat":-6.215091,"i_long":106.86807400000001,"line":0,"distance":1377,"is_transit":true,"transit":false,"station_name":"Jatinegara","station_id":"JNG"}],[{"line":0,"i_long":106.819451,"distance":0,"is_transit":false,"i_lat":-6.391065,"time":0,"station_name":"Depokbaru","transit":false,"station_id":"DPB"},{"i_lat":-6.369073,"transit":false,"line":2,"station_id":"POC","station_name":"Pondok Cina","i_long":106.831114,"is_transit":false,"time":4,"distance":2727},{"station_name":"Univ. Indonesia","station_id":"UI","i_long":106.831474,"transit":false,"distance":1109,"time":2,"is_transit":false,"i_lat":-6.360749,"line":2},{"station_name":"Univ. Pancasila","i_long":106.834175,"distance":2264,"is_transit":false,"transit":false,"station_id":"UP","i_lat":-6.339291,"line":2,"time":3},{"i_lat":-6.330363,"distance":1029,"station_id":"LNA","i_long":106.832616,"is_transit":false,"time":2,"station_name":"Lenteng Agung","line":2,"transit":false},{"station_name":"Tanjung Barat","is_transit":false,"transit":false,"line":2,"station_id":"TNT","time":3,"distance":2671,"i_lat":-6.3080680000000005,"i_long":106.838896},{"i_lat":-6.2842400000000005,"distance":2820,"station_id":"PSM","time":4,"i_long":106.843999,"is_transit":false,"station_name":"Pasar Minggu","transit":false,"line":2},{"station_name":"Pasar Minggu Baru","i_lat":-6.263214,"i_long":106.851577,"time":2,"distance":2380,"station_id":"PSMB","line":2,"is_transit":false,"transit":false},{"line":0,"transit":false,"i_lat":-6.255332,"i_long":106.85449,"time":2,"station_id":"DRN","distance":824,"station_name":"Duren Kalibata","is_transit":false},{"distance":1546,"transit":false,"time":3,"station_id":"CW","station_name":"Cawang","is_transit":false,"line":0,"i_lat":-6.242512,"i_long":106.856607},{"transit":false,"station_id":"TEB","is_transit":false,"time":2,"i_long":106.857948,"distance":1230,"station_name":"Tebet","line":2,"i_lat":-6.226659},{"line":0,"is_transit":true,"time":4,"distance":2610,"transit":true,"i_long":106.84912,"station_id":"MRI","i_lat":-6.209883,"station_name":"Manggarai"},{"distance":3186,"i_lat":-6.202263,"station_name":"Sudirman","i_long":106.822649,"line":1,"station_id":"SUD","is_transit":false,"transit":false,"time":4},{"station_name":"Sudirman Baru","i_lat":-6.201433,"i_long":106.819881,"station_id":"SUDB","line":1,"time":1,"transit":false,"distance":280,"is_transit":false},{"transit":false,"is_transit":false,"time":1,"distance":471,"i_lat":-6.20132,"station_id":"KAT","station_name":"Karet","i_long":106.816351,"line":1},{"i_lat":-6.185545,"station_id":"THB","transit":false,"is_transit":true,"time":5,"line":1,"distance":2029,"station_name":"Tanah Abang","i_long":106.811091},{"time":8,"line":1,"station_id":"DU","station_name":"Duri","i_long":106.800832,"distance":3632,"transit":true,"is_transit":true,"i_lat":-6.155215},{"time":4,"station_name":"Angke","is_transit":false,"i_long":106.79867,"i_lat":-6.144674,"station_id":"AK","line":0,"distance":1230,"transit":false},{"station_name":"Kampung Bandan","i_lat":-6.132549,"time":9,"i_long":106.826365,"line":0,"transit":true,"distance":4102,"station_id":"KPB","is_transit":true},{"distance":1444,"line":11,"station_id":"RJW","station_name":"Rajawali","transit":false,"i_lat":-6.14505,"i_long":106.836569,"is_transit":false,"time":3},{"station_id":"KMO","distance":1901,"i_lat":-6.161728,"is_transit":false,"transit":false,"station_name":"Kemayoran","i_long":106.839204,"time":5,"line":11},{"time":4,"distance":1436,"line":11,"station_name":"Pasar Senen","i_long":106.84368,"transit":false,"i_lat":-6.174784,"station_id":"PSE","is_transit":false},{"transit":false,"time":8,"distance":1567,"station_id":"GST","station_name":"Gang Sentiong","is_transit":false,"i_long":106.850107,"i_lat":-6.185975,"line":11},{"station_id":"KMT","distance":973,"i_long":106.855437,"i_lat":-6.193792,"time":1,"line":11,"station_name":"Kramat","transit":false,"is_transit":false},{"is_transit":false,"distance":1829,"time":2,"station_name":"Pondok Jati","i_long":106.861737,"station_id":"POK","line":11,"i_lat":-6.209188,"transit":false},{"transit":false,"is_transit":true,"i_long":106.86807400000001,"line":0,"i_lat":-6.215091,"station_name":"Jatinegara","station_id":"JNG","time":9,"distance":1236}],[{"transit":false,"i_lat":-6.391065,"line":0,"station_id":"DPB","time":0,"station_name":"Depokbaru","is_transit":false,"distance":0,"i_long":106.819451},{"i_lat":-6.369073,"transit":false,"time":4,"i_long":106.831114,"is_transit":false,"station_id":"POC","line":2,"station_name":"Pondok Cina","distance":2727},{"station_id":"UI","i_long":106.831474,"line":2,"transit":false,"is_transit":false,"time":2,"station_name":"Univ. Indonesia","distance":1109,"i_lat":-6.360749},{"time":3,"i_lat":-6.339291,"i_long":106.834175,"distance":2264,"station_name":"Univ. Pancasila","is_transit":false,"transit":false,"station_id":"UP","line":2},{"station_id":"LNA","time":2,"transit":false,"distance":1029,"station_name":"Lenteng Agung","i_long":106.832616,"is_transit":false,"line":2,"i_lat":-6.330363},{"line":2,"station_id":"TNT","distance":2671,"transit":false,"i_long":106.838896,"station_name":"Tanjung Barat","i_lat":-6.3080680000000005,"time":3,"is_transit":false},{"station_name":"Pasar Minggu","is_transit":false,"station_id":"PSM","transit":false,"i_long":106.843999,"distance":2820,"time":4,"line":2,"i_lat":-6.2842400000000005},{"is_transit":false,"distance":2380,"line":2,"station_name":"Pasar Minggu Baru","i_long":106.851577,"transit":false,"station_id":"PSMB","time":2,"i_lat":-6.263214},{"station_id":"DRN","time":2,"transit":false,"distance":824,"is_transit":false,"i_long":106.85449,"station_name":"Duren Kalibata","i_lat":-6.255332,"line":0},{"transit":false,"station_id":"CW","i_lat":-6.242512,"distance":1546,"is_transit":false,"i_long":106.856607,"line":0,"station_name":"Cawang","time":3},{"station_id":"TEB","i_long":106.857948,"distance":1230,"time":2,"i_lat":-6.226659,"line":2,"is_transit":false,"transit":false,"station_name":"Tebet"},{"transit":true,"station_id":"MRI","distance":2610,"line":0,"i_long":106.84912,"station_name":"Manggarai","time":4,"i_lat":-6.209883,"is_transit":true},{"distance":1590,"time":4,"station_id":"CKI","is_transit":false,"i_long":106.840169,"station_name":"Cikini","i_lat":-6.198556,"line":0,"transit":false},{"i_long":106.832183,"i_lat":-6.186295,"time":3,"line":2,"distance":1750,"station_name":"Gondangdia","transit":false,"station_id":"GDD","is_transit":false},{"distance":2015,"is_transit":false,"station_name":"Juanda","i_long":106.828284,"line":2,"time":4,"station_id":"JUA","transit":false,"i_lat":-6.166716},{"transit":false,"station_id":"SW","station_name":"Sawah Besar","time":2,"i_long":106.827103,"is_transit":false,"i_lat":-6.160725,"distance":1149,"line":2},{"is_transit":false,"distance":906,"i_lat":-6.149769,"transit":false,"station_id":"MGB","station_name":"Manggabesar","i_long":106.82482,"time":2,"line":2},{"transit":false,"line":7,"is_transit":false,"station_name":"Jayakarta","time":2,"i_lat":-6.141205,"station_id":"JAY","distance":1080,"i_long":106.820901},{"time":4,"station_name":"Jakarta Kota","station_id":"JAKK","transit":true,"i_lat":-6.137569,"distance":1264,"is_transit":true,"line":0,"i_long":106.812439},{"distance":1364,"i_lat":-6.132549,"station_id":"KPB","i_long":106.826365,"transit":true,"line":0,"time":3,"station_name":"Kampung Bandan","is_transit":true},{"line":11,"station_id":"RJW","i_long":106.836569,"time":3,"i_lat":-6.14505,"station_name":"Rajawali","is_transit":false,"distance":1444,"transit":false},{"station_id":"KMO","time":5,"i_lat":-6.161728,"station_name":"Kemayoran","line":11,"is_transit":false,"i_long":106.839204,"transit":false,"distance":1901},{"transit":false,"station_id":"PSE","is_transit":false,"line":11,"station_name":"Pasar Senen","distance":1436,"time":4,"i_long":106.84368,"i_lat":-6.174784},{"is_transit":false,"i_lat":-6.185975,"line":11,"station_id":"GST","i_long":106.850107,"distance":1567,"time":8,"transit":false,"station_name":"Gang Sentiong"},{"i_long":106.855437,"line":11,"is_transit":false,"transit":false,"time":1,"distance":973,"station_name":"Kramat","i_lat":-6.193792,"station_id":"KMT"},{"is_transit":false,"station_id":"POK","distance":1829,"station_name":"Pondok Jati","transit":false,"time":2,"i_lat":-6.209188,"line":11,"i_long":106.861737},{"time":9,"transit":false,"i_lat":-6.215091,"station_name":"Jatinegara","i_long":106.86807400000001,"distance":1236,"line":0,"station_id":"JNG","is_transit":true}]]}