{"data":[[{"time":0,"transit":false,"station_name":"Depokbaru","station_id":"DPB","i_lat":-6.391065,"distance":0,"i_long":106.819451,"line":0,"is_transit":false},{"transit":false,"station_name":"Pondok Cina","i_lat":-6.369073,"is_transit":false,"time":4,"distance":2727,"station_id":"POC","i_long":106.831114,"line":2},{"time":2,"distance":1109,"line":2,"is_transit":false,"station_name":"Univ. Indonesia","transit":false,"i_long":106.831474,"station_id":"UI","i_lat":-6.360749},{"station_id":"UP","time":3,"i_lat":-6.339291,"station_name":"Univ. Pancasila","is_transit":false,"transit":false,"distance":2264,"line":2,"i_long":106.834175},{"i_long":106.832616,"station_id":"LNA","time":2,"transit":false,"station_name":"Lenteng Agung","i_lat":-6.330363,"line":2,"distance":1029,"is_transit":false},{"station_name":"Tanjung Barat","time":3,"is_transit":false,"i_long":106.838896,"i_lat":-6.3080680000000005,"station_id":"TNT","distance":2671,"line":2,"transit":false},{"time":4,"station_id":"PSM","distance":2820,"i_long":106.843999,"i_lat":-6.2842400000000005,"station_name":"Pasar Minggu","line":2,"transit":false,"is_transit":false},{"i_long":106.851577,"i_lat":-6.263214,"is_transit":false,"station_name":"Pasar Minggu Baru","time":2,"transit":false,"line":2,"station_id":"PSMB","distance":2380},{"transit":false,"line":0,"time":2,"is_transit":false,"i_long":106.85449,"station_name":"Duren Kalibata","station_id":"DRN","i_lat":-6.255332,"distance":824},{"is_transit":false,"distance":1546,"time":3,"i_lat":-6.242512,"i_long":106.856607,"transit":false,"line":0,"station_name":"Cawang","station_id":"CW"},{"i_lat":-6.226659,"time":2,"line":2,"station_name":"Tebet","i_long":106.857948,"station_id":"TEB","is_transit":false,"distance":1230,"transit":false},{"i_lat":-6.209883,"distance":2610,"station_id":"MRI","transit":true,"time":4,"is_transit":true,"i_long":106.84912,"line":0,"station_name":"Manggarai"},{"station_name":"Sudirman","station_id":"SUD","time":4,"is_transit":false,"i_lat":-6.202263,"i_long":106.822649,"distance":3186,"transit":false,"line":1},{"station_id":"SUDB","transit":false,"distance":280,"station_name":"Sudirman Baru","i_lat":-6.201433,"i_long":106.819881,"is_transit":false,"time":1,"line":1},{"station_id":"KAT","transit":false,"station_name":"Karet","time":1,"i_lat":-6.20132,"i_long":106.816351,"is_transit":false,"line":1,"distance":471},{"i_lat":-6.185545,"is_transit":true,"time":5,"station_name":"Tanah Abang","transit":false,"distance":2029,"i_long":106.811091,"station_id":"THB","line":1}],[{"is_transit":false,"i_long":106.819451,"line":0,"station_name":"Depokbaru","distance":0,"time":0,"transit":false,"i_lat":-6.391065,"station_id":"DPB"},{"i_lat":-6.369073,"time":4,"station_name":"Pondok Cina","transit":false,"line":2,"station_id":"POC","is_transit":false,"distance":2727,"i_long":106.831114},{"i_long":106.831474,"time":2,"distance":1109,"i_lat":-6.360749,"station_name":"Univ. Indonesia","transit":false,"station_id":"UI","line":2,"is_transit":false},{"i_long":106.834175,"station_id":"UP","is_transit":false,"time":3,"line":2,"station_name":"Univ. Pancasila","transit":false,"i_lat":-6.339291,"distance":2264},{"i_lat":-6.330363,"is_transit":false,"line":2,"station_id":"LNA","time":2,"i_long":106.832616,"transit":false,"distance":1029,"station_name":"Lenteng Agung"},{"station_id":"TNT","time":3,"line":2,"station_name":"Tanjung Barat","distance":2671,"i_lat":-6.3080680000000005,"i_long":106.838896,"is_transit":false,"transit":false},{"time":4,"i_lat":-6.2842400000000005,"i_long":106.843999,"distance":2820,"is_transit":false,"line":2,"transit":false,"station_id":"PSM","station_name":"Pasar Minggu"},{"i_lat":-6.263214,"station_id":"PSMB","line":2,"transit":false,"station_name":"Pasar Minggu Baru","i_long":106.851577,"is_transit":false,"distance":2380,"time":2},{"station_name":"Duren Kalibata","i_long":106.85449,"line":0,"is_transit":false,"time":2,"transit":false,"i_lat":-6.255332,"distance":824,"station_id":"DRN"},{"time":3,"is_transit":false,"station_name":"Cawang","i_lat":-6.242512,"distance":1546,"line":0,"transit":false,"station_id":"CW","i_long":106.856607},{"station_id":"TEB","distance":1230,"line":2,"time":2,"is_transit":false,"station_name":"Tebet","transit":false,"i_lat":-6.226659,"i_long":106.857948},{"transit":true,"line":0,"station_id":"MRI","distance":2610,"is_transit":true,"i_long":106.84912,"time":4,"i_lat":-6.209883,"station_name":"Manggarai"},{"distance":1590,"station_name":"Cikini","i_long":106.840169,"i_lat":-6.198556,"line":0,"station_id":"CKI","is_transit":false,"time":4,"transit":false},{"line":2,"transit":false,"station_name":"Gondangdia","station_id":"GDD","is_transit":false,"time":3,"i_lat":-6.186295,"i_long":106.832183,"distance":1750},{"i_lat":-6.166716,"line":2,"i_long":106.828284,"station_name":"Juanda","transit":false,"time":4,"is_transit":false,"station_id":"JUA","distance":2015},{"i_lat":-6.160725,"time":2,"station_name":"Sawah Besar","is_transit":false,"i_long":106.827103,"station_id":"SW","line":2,"distance":1149,"transit":false},{"station_name":"Manggabesar","line":2,"distance":906,"station_id":"MGB","i_long":106.82482,"is_transit":false,"transit":false,"i_lat":-6.149769,"time":2},{"time":2,"station_name":"Jayakarta","is_transit":false,"i_long":106.820901,"line":7,"station_id":"JAY","transit":false,"i_lat":-6.141205,"distance":1080},{"line":0,"distance":1264,"station_id":"JAKK","is_transit":true,"transit":true,"station_name":"Jakarta Kota","i_long":106.812439,"i_lat":-6.137569,"time":4},{"distance":1364,"i_long":106.826365,"line":0,"transit":false,"i_lat":-6.132549,"station_name":"Kampung Bandan","is_transit":true,"station_id":"KPB","time":3},{"i_lat":-6.144674,"distance":4102,"station_name":"Angke","is_transit":false,"transit":false,"station_id":"AK","line":0,"time":9,"i_long":106.79867},{"station_id":"DU","transit":true,"is_transit":true,"distance":1230,"i_long":106.800832,"station_name":"Duri","i_lat":-6.155215,"time":4,"line":1},{"i_lat":-6.185545,"is_transit":true,"transit":false,"i_long":106.811091,"station_id":"THB","distance":3632,"time":8,"line":1,"station_name":"Tanah Abang"}],[{"transit":false,"is_transit":false,"i_long":106.819451,"distance":0,"station_name":"Depokbaru","line":0,"time":0,"station_id":"DPB","i_lat":-6.391065},{"i_long":106.831114,"time":4,"is_transit":false,"station_id":"POC","transit":false,"distance":2727,"station_name":"Pondok Cina","i_lat":-6.369073,"line":2},{"transit":false,"i_long":106.831474,"line":2,"distance":1109,"station_name":"Univ. Indonesia","i_lat":-6.360749,"station_id":"UI","time":2,"is_transit":false},{"i_long":106.834175,"line":2,"station_name":"Univ. Pancasila","transit":false,"i_lat":-6.339291,"distance":2264,"station_id":"UP","time":3,"is_transit":false},{"distance":1029,"station_id":"LNA","transit":false,"i_long":106.832616,"is_transit":false,"time":2,"i_lat":-6.330363,"station_name":"Lenteng Agung","line":2},{"time":3,"station_id":"TNT","i_lat":-6.3080680000000005,"line":2,"is_transit":false,"transit":false,"distance":2671,"i_long":106.838896,"station_name":"Tanjung Barat"},{"line":2,"station_id":"PSM","distance":2820,"time":4,"station_name":"Pasar Minggu","is_transit":false,"i_lat":-6.2842400000000005,"transit":false,"i_long":106.843999},{"i_lat":-6.263214,"distance":2380,"is_transit":false,"i_long":106.851577,"station_id":"PSMB","line":2,"time":2,"transit":false,"station_name":"Pasar Minggu Baru"},{"station_id":"DRN","i_lat":-6.255332,"i_long":106.85449,"time":2,"station_name":"Duren Kalibata","line":0,"transit":false,"is_transit":false,"distance":824},{"transit":false,"i_lat":-6.242512,"station_name":"Cawang","time":3,"is_transit":false,"distance":1546,"i_long":106.856607,"station_id":"CW","line":0},{"i_lat":-6.226659,"transit":false,"line":2,"time":2,"i_long":106.857948,"station_id":"TEB","is_transit":false,"station_name":"Tebet","distance":1230},{"transit":true,"distance":2610,"i_lat":-6.209883,"is_transit":true,"time":4,"station_name":"Manggarai","i_long":106.84912,"line":0,"station_id":"MRI"},{"distance":1275,"station_id":"MTR","line":1,"time":2,"i_long":106.858896,"station_name":"Matraman","transit":false,"i_lat":-6.212485,"is_transit":false},{"transit":true,"i_lat":-6.215091,"station_id":"JNG","i_long":106.86807400000001,"distance":1377,"is_transit":true,"line":0,"station_name":"Jatinegara","time":8},{"i_long":106.861737,"is_transit":false,"i_lat":-6.209188,"time":2,"station_name":"Pondok Jati","distance":1236,"station_id":"POK","line":11,"transit":false},{"is_transit":false,"i_lat":-6.193792,"distance":1829,"station_name":"Kramat","time":2,"station_id":"KMT","i_long":106.855437,"transit":false,"line":11},{"is_transit":false,"transit":false,"i_lat":-6.185975,"i_long":106.850107,"line":11,"station_id":"GST","time":1,"distance":973,"station_name":"Gang Sentiong"},{"i_lat":-6.174784,"station_id":"PSE","is_transit":false,"distance":1567,"time":8,"transit":false,"station_name":"Pasar Senen","i_long":106.84368,"line":11},{"station_id":"KMO","time":4,"station_name":"Kemayoran","i_long":106.839204,"transit":false,"line":11,"i_lat":-6.161728,"distance":1436,"is_transit":false},{"time":5,"distance":1901,"is_transit":false,"transit":false,"i_lat":-6.14505,"station_name":"Rajawali","i_long":106.836569,"line":11,"station_id":"RJW"},{"time":3,"station_id":"KPB","i_long":106.826365,"is_transit":true,"distance":1444,"i_lat":-6.132549,"line":0,"transit":true,"station_name":"Kampung Bandan"},{"station_id":"AK","time":9,"i_lat":-6.144674,"i_long":106.79867,"is_transit":false,"station_name":"Angke","transit":false,"line":0,"distance":4102},{"transit":true,"distance":1230,"station_name":"Duri","i_lat":-6.155215,"line":1,"station_id":"DU","i_long":106.800832,"is_transit":true,"time":4},{"distance":3632,"station_name":"Tanah Abang","time":8,"i_lat":-6.185545,"is_transit":true,"i_long":106.811091,"station_id":"THB","transit":false,"line":1}]]}