{"data":[[{"is_transit":false,"station_id":"DPB","station_name":"Depokbaru","distance":0,"transit":false,"i_long":106.819451,"line":2,"i_lat":-6.391065,"time":0},{"transit":false,"line":2,"is_transit":false,"station_id":"POC","i_lat":-6.369073,"time":4,"i_long":106.831114,"station_name":"Pondok Cina","distance":2727},{"i_lat":-6.360749,"line":2,"i_long":106.831474,"station_name":"Univ. Indonesia","distance":1109,"time":2,"transit":false,"station_id":"UI","is_transit":false},{"transit":false,"i_long":106.834175,"i_lat":-6.339291,"is_transit":false,"line":2,"station_name":"Univ. Pancasila","time":3,"station_id":"UP","distance":2264},{"time":2,"station_name":"Lenteng Agung","transit":false,"line":2,"is_transit":false,"i_long":106.832616,"station_id":"LNA","distance":1029,"i_lat":-6.330363},{"station_name":"Tanjung Barat","line":2,"i_lat":-6.3080680000000005,"transit":false,"station_id":"TNT","distance":2671,"i_long":106.838896,"time":3,"is_transit":false},{"station_name":"Pasar Minggu","transit":false,"distance":2820,"i_long":106.843999,"time":4,"is_transit":false,"station_id":"PSM","line":2,"i_lat":-6.2842400000000005},{"i_long":106.851577,"line":2,"station_name":"Pasar Minggu Baru","i_lat":-6.263214,"time":2,"station_id":"PSMB","distance":2380,"transit":false,"is_transit":false},{"i_lat":-6.255332,"i_long":106.85449,"line":2,"station_id":"DRN","is_transit":false,"transit":false,"time":2,"distance":824,"station_name":"Duren Kalibata"},{"i_long":106.856607,"distance":1546,"line":2,"time":3,"station_id":"CW","is_transit":false,"station_name":"Cawang","i_lat":-6.242512,"transit":false},{"station_name":"Tebet","line":2,"i_long":106.857948,"station_id":"TEB","distance":1230,"i_lat":-6.226659,"is_transit":false,"time":2,"transit":false},{"transit":true,"time":4,"station_id":"MRI","station_name":"Manggarai","distance":2610,"is_transit":true,"i_lat":-6.209883,"i_long":106.84912,"line":2},{"station_id":"MTR","time":2,"is_transit":false,"distance":1275,"i_lat":-6.212485,"i_long":106.858896,"transit":false,"line":1,"station_name":"Matraman"},{"i_lat":-6.215091,"time":8,"station_id":"JNG","transit":false,"i_long":106.86807400000001,"station_name":"Jatinegara","distance":1377,"is_transit":false,"line":1}],[{"transit":false,"i_lat":-6.391065,"i_long":106.819451,"distance":0,"line":2,"is_transit":false,"station_name":"Depokbaru","time":0,"station_id":"DPB"},{"time":4,"i_long":106.831114,"station_name":"Pondok Cina","station_id":"POC","i_lat":-6.369073,"is_transit":false,"transit":false,"line":2,"distance":2727},{"transit":false,"i_long":106.831474,"distance":1109,"i_lat":-6.360749,"station_name":"Univ. Indonesia","time":2,"is_transit":false,"line":2,"station_id":"UI"},{"transit":false,"is_transit":false,"i_lat":-6.339291,"time":3,"station_name":"Univ. Pancasila","station_id":"UP","line":2,"i_long":106.834175,"distance":2264},{"station_name":"Lenteng Agung","distance":1029,"is_transit":false,"time":2,"i_long":106.832616,"station_id":"LNA","i_lat":-6.330363,"line":2,"transit":false},{"distance":2671,"i_long":106.838896,"line":2,"time":3,"transit":false,"is_transit":false,"i_lat":-6.3080680000000005,"station_id":"TNT","station_name":"Tanjung Barat"},{"i_long":106.843999,"station_id":"PSM","distance":2820,"is_transit":false,"transit":false,"i_lat":-6.2842400000000005,"time":4,"line":2,"station_name":"Pasar Minggu"},{"i_long":106.851577,"i_lat":-6.263214,"distance":2380,"is_transit":false,"time":2,"station_id":"PSMB","line":2,"station_name":"Pasar Minggu Baru","transit":false},{"time":2,"station_name":"Duren Kalibata","station_id":"DRN","transit":false,"is_transit":false,"i_lat":-6.255332,"i_long":106.85449,"line":2,"distance":824},{"station_id":"CW","transit":false,"is_transit":false,"distance":1546,"i_lat":-6.242512,"station_name":"Cawang","time":3,"line":2,"i_long":106.856607},{"station_name":"Tebet","distance":1230,"i_lat":-6.226659,"is_transit":false,"line":2,"transit":false,"i_long":106.857948,"time":2,"station_id":"TEB"},{"i_lat":-6.209883,"time":4,"transit":true,"distance":2610,"is_transit":true,"station_id":"MRI","i_long":106.84912,"line":2,"station_name":"Manggarai"},{"is_transit":false,"line":1,"transit":false,"time":4,"i_long":106.822649,"station_id":"SUD","distance":3186,"station_name":"Sudirman","i_lat":-6.202263},{"distance":280,"i_lat":-6.201433,"line":1,"station_name":"Sudirman Baru","is_transit":false,"transit":false,"i_long":106.819881,"time":1,"station_id":"SUDB"},{"distance":471,"i_lat":-6.20132,"i_long":106.816351,"line":1,"station_name":"Karet","station_id":"KAT","time":1,"transit":false,"is_transit":false},{"i_lat":-6.185545,"transit":false,"line":1,"station_name":"Tanah Abang","station_id":"THB","time":5,"i_long":106.811091,"is_transit":false,"distance":2029},{"line":1,"i_lat":-6.155215,"station_name":"Duri","time":8,"distance":3632,"station_id":"DU","is_transit":false,"transit":false,"i_long":106.800832},{"transit":false,"is_transit":false,"line":1,"station_id":"AK","distance":1230,"i_long":106.79867,"station_name":"Angke","i_lat":-6.144674,"time":4},{"station_name":"Kampung Bandan","distance":4102,"transit":true,"is_transit":true,"line":4,"i_lat":-6.132549,"i_long":106.826365,"time":9,"station_id":"KPB"},{"time":3,"station_id":"RJW","is_transit":false,"line":11,"i_lat":-6.14505,"i_long":106.836569,"distance":1444,"station_name":"Rajawali","transit":false},{"distance":1901,"is_transit":false,"i_long":106.839204,"line":11,"i_lat":-6.161728,"station_id":"KMO","time":5,"transit":false,"station_name":"Kemayoran"},{"is_transit":false,"distance":1436,"station_name":"Pasar Senen","i_lat":-6.174784,"time":4,"station_id":"PSE","i_long":106.84368,"transit":false,"line":11},{"time":8,"station_id":"GST","is_transit":false,"i_lat":-6.185975,"line":11,"distance":1567,"station_name":"Gang Sentiong","i_long":106.850107,"transit":false},{"line":11,"i_lat":-6.193792,"distance":973,"station_id":"KMT","transit":false,"is_transit":false,"time":1,"i_long":106.855437,"station_name":"Kramat"},{"station_name":"Pondok Jati","line":11,"transit":false,"station_id":"POK","is_transit":false,"distance":1829,"i_long":106.861737,"time":2,"i_lat":-6.209188},{"transit":false,"is_transit":false,"line":1,"i_lat":-6.215091,"i_long":106.86807400000001,"time":9,"distance":1236,"station_name":"Jatinegara","station_id":"JNG"}],[{"transit":false,"time":0,"distance":0,"line":2,"is_transit":false,"i_lat":-6.391065,"i_long":106.819451,"station_name":"Depokbaru","station_id":"DPB"},{"line":2,"distance":2727,"i_long":106.831114,"is_transit":false,"time":4,"station_name":"Pondok Cina","station_id":"POC","transit":false,"i_lat":-6.369073},{"distance":1109,"transit":false,"i_long":106.831474,"i_lat":-6.360749,"is_transit":false,"station_name":"Univ. Indonesia","station_id":"UI","time":2,"line":2},{"i_lat":-6.339291,"station_name":"Univ. Pancasila","station_id":"UP","transit":false,"time":3,"is_transit":false,"i_long":106.834175,"distance":2264,"line":2},{"line":2,"i_long":106.832616,"i_lat":-6.330363,"distance":1029,"is_transit":false,"station_id":"LNA","station_name":"Lenteng Agung","transit":false,"time":2},{"i_lat":-6.3080680000000005,"station_name":"Tanjung Barat","station_id":"TNT","transit":false,"time":3,"distance":2671,"is_transit":false,"i_long":106.838896,"line":2},{"station_name":"Pasar Minggu","station_id":"PSM","transit":false,"line":2,"distance":2820,"i_long":106.843999,"i_lat":-6.2842400000000005,"is_transit":false,"time":4},{"i_lat":-6.263214,"transit":false,"line":2,"time":2,"i_long":106.851577,"station_name":"Pasar Minggu Baru","station_id":"PSMB","distance":2380,"is_transit":false},{"transit":false,"is_transit":false,"time":2,"station_name":"Duren Kalibata","distance":824,"i_lat":-6.255332,"i_long":106.85449,"line":2,"station_id":"DRN"},{"time":3,"i_lat":-6.242512,"i_long":106.856607,"distance":1546,"station_name":"Cawang","station_id":"CW","transit":false,"line":2,"is_transit":false},{"time":2,"transit":false,"station_id":"TEB","is_transit":false,"i_long":106.857948,"i_lat":-6.226659,"station_name":"Tebet","distance":1230,"line":2},{"station_name":"Manggarai","station_id":"MRI","i_lat":-6.209883,"i_long":106.84912,"transit":false,"distance":2610,"time":4,"is_transit":false,"line":2},{"station_id":"CKI","station_name":"Cikini","distance":1590,"is_transit":false,"transit":false,"i_lat":-6.198556,"i_long":106.840169,"time":4,"line":2},{"time":3,"station_id":"GDD","i_lat":-6.186295,"distance":1750,"transit":false,"station_name":"Gondangdia","i_long":106.832183,"is_transit":false,"line":2},{"station_id":"JUA","station_name":"Juanda","transit":false,"i_long":106.828284,"time":4,"is_transit":false,"line":2,"i_lat":-6.166716,"distance":2015},{"i_lat":-6.160725,"i_long":106.827103,"time":2,"station_name":"Sawah Besar","transit":false,"distance":1149,"is_transit":false,"station_id":"SW","line":2},{"i_long":106.82482,"station_id":"MGB","line":2,"i_lat":-6.149769,"station_name":"Manggabesar","transit":false,"is_transit":false,"distance":906,"time":2},{"time":2,"station_id":"JAY","transit":false,"is_transit":false,"distance":1080,"i_lat":-6.141205,"line":2,"station_name":"Jayakarta","i_long":106.820901},{"station_name":"Jakarta Kota","time":4,"is_transit":true,"i_lat":-6.137569,"distance":1264,"i_long":106.812439,"line":2,"station_id":"JAKK","transit":true},{"station_id":"KPB","station_name":"Kampung Bandan","i_long":106.826365,"is_transit":true,"time":3,"i_lat":-6.132549,"transit":true,"line":4,"distance":1364},{"i_long":106.836569,"station_id":"RJW","line":11,"station_name":"Rajawali","transit":false,"distance":1444,"is_transit":false,"time":3,"i_lat":-6.14505},{"distance":1901,"transit":false,"line":11,"station_id":"KMO","i_long":106.839204,"is_transit":false,"station_name":"Kemayoran","i_lat":-6.161728,"time":5},{"time":4,"i_lat":-6.174784,"line":11,"station_id":"PSE","is_transit":false,"transit":false,"station_name":"Pasar Senen","distance":1436,"i_long":106.84368},{"time":8,"line":11,"station_id":"GST","distance":1567,"transit":false,"is_transit":false,"i_lat":-6.185975,"i_long":106.850107,"station_name":"Gang Sentiong"},{"time":1,"station_name":"Kramat","is_transit":false,"i_long":106.855437,"transit":false,"i_lat":-6.193792,"station_id":"KMT","distance":973,"line":11},{"station_name":"Pondok Jati","i_long":106.861737,"is_transit":false,"line":11,"distance":1829,"station_id":"POK","time":2,"transit":false,"i_lat":-6.209188},{"station_id":"JNG","transit":false,"station_name":"Jatinegara","distance":1236,"i_lat":-6.215091,"i_long":106.86807400000001,"is_transit":false,"line":1,"time":9}]]}