{"data":[[{"distance":0,"station_id":"DPB","is_transit":false,"line":0,"transit":false,"time":0,"i_long":106.819451,"station_name":"Depokbaru","i_lat":-6.391065},{"is_transit":false,"station_id":"POC","distance":2727,"i_lat":-6.369073,"transit":false,"time":4,"i_long":106.831114,"line":2,"station_name":"Pondok Cina"},{"distance":1109,"line":2,"station_name":"Univ. Indonesia","transit":false,"is_transit":false,"time":2,"i_lat":-6.360749,"station_id":"UI","i_long":106.831474},{"station_name":"Univ. Pancasila","is_transit":false,"time":3,"i_lat":-6.339291,"transit":false,"i_long":106.834175,"line":2,"distance":2264,"station_id":"UP"},{"station_name":"Lenteng Agung","transit":false,"time":2,"line":2,"i_lat":-6.330363,"distance":1029,"i_long":106.832616,"is_transit":false,"station_id":"LNA"},{"transit":false,"station_name":"Tanjung Barat","station_id":"TNT","distance":2671,"i_long":106.838896,"i_lat":-6.3080680000000005,"time":3,"is_transit":false,"line":2},{"transit":false,"station_id":"PSM","line":2,"station_name":"Pasar Minggu","is_transit":false,"time":4,"i_lat":-6.2842400000000005,"distance":2820,"i_long":106.843999},{"station_name":"Pasar Minggu Baru","transit":false,"i_long":106.851577,"line":2,"is_transit":false,"station_id":"PSMB","time":2,"i_lat":-6.263214,"distance":2380},{"station_id":"DRN","station_name":"Duren Kalibata","i_lat":-6.255332,"transit":false,"distance":824,"time":2,"i_long":106.85449,"is_transit":false,"line":0},{"station_id":"CW","station_name":"Cawang","transit":false,"is_transit":false,"distance":1546,"time":3,"i_lat":-6.242512,"i_long":106.856607,"line":0},{"i_long":106.857948,"line":2,"station_id":"TEB","distance":1230,"i_lat":-6.226659,"is_transit":false,"station_name":"Tebet","time":2,"transit":false},{"i_long":106.84912,"is_transit":true,"i_lat":-6.209883,"distance":2610,"station_name":"Manggarai","transit":true,"time":4,"line":0,"station_id":"MRI"},{"i_lat":-6.212485,"distance":1275,"i_long":106.858896,"station_name":"Matraman","line":1,"time":2,"transit":false,"is_transit":false,"station_id":"MTR"},{"station_name":"Jatinegara","distance":1377,"transit":false,"line":0,"i_lat":-6.215091,"time":8,"i_long":106.86807400000001,"is_transit":true,"station_id":"JNG"},{"time":3,"station_name":"Klender","transit":false,"is_transit":false,"i_lat":-6.2135,"i_long":106.899548,"line":1,"distance":3395,"station_id":"KLD"},{"station_id":"BUA","time":2,"station_name":"Buaran","i_lat":-6.215568,"transit":false,"is_transit":false,"i_long":106.922662,"distance":3100,"line":0},{"is_transit":false,"transit":false,"distance":1305,"time":1,"station_id":"KLDB","station_name":"Klenderbaru","i_long":106.939679,"line":1,"i_lat":-6.217455},{"is_transit":false,"transit":false,"station_name":"Cakung","station_id":"CUK","i_lat":-6.219053,"line":0,"time":8,"distance":1385,"i_long":106.951283},{"i_long":106.977657,"distance":3097,"station_id":"KRI","station_name":"Kranji","time":3,"transit":false,"line":1,"is_transit":false,"i_lat":-6.224515},{"i_lat":-6.236616,"station_name":"Bekasi","i_long":106.997013,"transit":false,"is_transit":false,"distance":2520,"line":0,"time":4,"station_id":"BKS"}],[{"station_id":"DPB","is_transit":false,"time":0,"i_lat":-6.391065,"i_long":106.819451,"line":0,"transit":false,"distance":0,"station_name":"Depokbaru"},{"i_lat":-6.369073,"time":4,"line":2,"distance":2727,"transit":false,"i_long":106.831114,"is_transit":false,"station_id":"POC","station_name":"Pondok Cina"},{"station_name":"Univ. Indonesia","time":2,"station_id":"UI","distance":1109,"i_lat":-6.360749,"is_transit":false,"i_long":106.831474,"line":2,"transit":false},{"station_id":"UP","transit":false,"i_long":106.834175,"time":3,"line":2,"distance":2264,"station_name":"Univ. Pancasila","is_transit":false,"i_lat":-6.339291},{"time":2,"i_long":106.832616,"station_name":"Lenteng Agung","i_lat":-6.330363,"distance":1029,"station_id":"LNA","is_transit":false,"transit":false,"line":2},{"i_long":106.838896,"station_name":"Tanjung Barat","station_id":"TNT","line":2,"is_transit":false,"i_lat":-6.3080680000000005,"transit":false,"distance":2671,"time":3},{"time":4,"line":2,"transit":false,"is_transit":false,"distance":2820,"station_id":"PSM","station_name":"Pasar Minggu","i_long":106.843999,"i_lat":-6.2842400000000005},{"distance":2380,"transit":false,"station_name":"Pasar Minggu Baru","time":2,"station_id":"PSMB","is_transit":false,"i_long":106.851577,"i_lat":-6.263214,"line":2},{"station_name":"Duren Kalibata","i_lat":-6.255332,"distance":824,"time":2,"i_long":106.85449,"is_transit":false,"transit":false,"line":0,"station_id":"DRN"},{"transit":false,"station_id":"CW","i_long":106.856607,"is_transit":false,"time":3,"i_lat":-6.242512,"station_name":"Cawang","distance":1546,"line":0},{"distance":1230,"is_transit":false,"station_name":"Tebet","time":2,"i_long":106.857948,"station_id":"TEB","i_lat":-6.226659,"line":2,"transit":false},{"line":0,"i_lat":-6.209883,"station_name":"Manggarai","time":4,"i_long":106.84912,"distance":2610,"station_id":"MRI","transit":true,"is_transit":true},{"station_id":"SUD","i_long":106.822649,"line":1,"station_name":"Sudirman","time":4,"i_lat":-6.202263,"distance":3186,"transit":false,"is_transit":false},{"station_id":"SUDB","i_long":106.819881,"is_transit":false,"time":1,"line":1,"i_lat":-6.201433,"distance":280,"station_name":"Sudirman Baru","transit":false},{"i_lat":-6.20132,"i_long":106.816351,"station_id":"KAT","is_transit":false,"line":1,"transit":false,"distance":471,"time":1,"station_name":"Karet"},{"line":1,"time":5,"transit":false,"is_transit":true,"station_name":"Tanah Abang","i_lat":-6.185545,"i_long":106.811091,"distance":2029,"station_id":"THB"},{"i_lat":-6.155215,"i_long":106.800832,"line":1,"is_transit":true,"distance":3632,"station_name":"Duri","transit":true,"station_id":"DU","time":8},{"i_lat":-6.144674,"is_transit":false,"station_id":"AK","time":4,"line":0,"station_name":"Angke","i_long":106.79867,"distance":1230,"transit":false},{"distance":4102,"station_id":"KPB","station_name":"Kampung Bandan","is_transit":true,"transit":true,"time":9,"i_long":106.826365,"i_lat":-6.132549,"line":0},{"i_lat":-6.14505,"line":11,"time":3,"is_transit":false,"i_long":106.836569,"station_id":"RJW","transit":false,"distance":1444,"station_name":"Rajawali"},{"i_lat":-6.161728,"station_id":"KMO","station_name":"Kemayoran","distance":1901,"transit":false,"is_transit":false,"time":5,"line":11,"i_long":106.839204},{"transit":false,"line":11,"i_lat":-6.174784,"distance":1436,"station_id":"PSE","station_name":"Pasar Senen","is_transit":false,"time":4,"i_long":106.84368},{"is_transit":false,"station_id":"GST","distance":1567,"station_name":"Gang Sentiong","i_long":106.850107,"time":8,"transit":false,"i_lat":-6.185975,"line":11},{"distance":973,"time":1,"station_id":"KMT","is_transit":false,"i_long":106.855437,"line":11,"station_name":"Kramat","transit":false,"i_lat":-6.193792},{"time":2,"line":11,"station_name":"Pondok Jati","transit":false,"is_transit":false,"station_id":"POK","i_lat":-6.209188,"i_long":106.861737,"distance":1829},{"station_name":"Jatinegara","distance":1236,"is_transit":true,"i_lat":-6.215091,"line":0,"i_long":106.86807400000001,"transit":true,"time":9,"station_id":"JNG"},{"i_lat":-6.2135,"transit":false,"station_id":"KLD","distance":3395,"station_name":"Klender","is_transit":false,"time":3,"line":1,"i_long":106.899548},{"time":2,"i_long":106.922662,"distance":3100,"station_name":"Buaran","line":0,"is_transit":false,"transit":false,"station_id":"BUA","i_lat":-6.215568},{"i_long":106.939679,"is_transit":false,"line":1,"station_id":"KLDB","time":1,"i_lat":-6.217455,"distance":1305,"station_name":"Klenderbaru","transit":false},{"station_id":"CUK","line":0,"distance":1385,"time":8,"i_long":106.951283,"i_lat":-6.219053,"is_transit":false,"station_name":"Cakung","transit":false},{"station_id":"KRI","is_transit":false,"distance":3097,"transit":false,"time":3,"i_long":106.977657,"station_name":"Kranji","line":1,"i_lat":-6.224515},{"distance":2520,"transit":false,"station_name":"Bekasi","i_lat":-6.236616,"time":4,"i_long":106.997013,"is_transit":false,"line":0,"station_id":"BKS"}],[{"is_transit":false,"transit":false,"i_long":106.819451,"station_id":"DPB","station_name":"Depokbaru","distance":0,"i_lat":-6.391065,"line":0,"time":0},{"time":4,"station_name":"Pondok Cina","i_long":106.831114,"station_id":"POC","is_transit":false,"distance":2727,"transit":false,"i_lat":-6.369073,"line":2},{"i_lat":-6.360749,"i_long":106.831474,"station_name":"Univ. Indonesia","transit":false,"is_transit":false,"station_id":"UI","line":2,"distance":1109,"time":2},{"transit":false,"i_lat":-6.339291,"is_transit":false,"distance":2264,"station_name":"Univ. Pancasila","time":3,"i_long":106.834175,"line":2,"station_id":"UP"},{"line":2,"station_name":"Lenteng Agung","time":2,"i_lat":-6.330363,"is_transit":false,"distance":1029,"i_long":106.832616,"transit":false,"station_id":"LNA"},{"station_name":"Tanjung Barat","transit":false,"time":3,"is_transit":false,"distance":2671,"station_id":"TNT","i_lat":-6.3080680000000005,"line":2,"i_long":106.838896},{"distance":2820,"time":4,"i_lat":-6.2842400000000005,"is_transit":false,"transit":false,"station_name":"Pasar Minggu","station_id":"PSM","line":2,"i_long":106.843999},{"is_transit":false,"station_id":"PSMB","i_lat":-6.263214,"transit":false,"time":2,"distance":2380,"station_name":"Pasar Minggu Baru","i_long":106.851577,"line":2},{"distance":824,"transit":false,"i_lat":-6.255332,"station_name":"Duren Kalibata","i_long":106.85449,"line":0,"station_id":"DRN","time":2,"is_transit":false},{"is_transit":false,"time":3,"i_lat":-6.242512,"station_name":"Cawang","station_id":"CW","transit":false,"i_long":106.856607,"line":0,"distance":1546},{"line":2,"i_long":106.857948,"i_lat":-6.226659,"is_transit":false,"transit":false,"time":2,"station_id":"TEB","station_name":"Tebet","distance":1230},{"line":0,"station_name":"Manggarai","distance":2610,"station_id":"MRI","transit":true,"is_transit":true,"i_lat":-6.209883,"time":4,"i_long":106.84912},{"transit":false,"distance":1590,"is_transit":false,"line":0,"station_name":"Cikini","i_long":106.840169,"i_lat":-6.198556,"time":4,"station_id":"CKI"},{"station_name":"Gondangdia","distance":1750,"line":2,"transit":false,"i_lat":-6.186295,"i_long":106.832183,"is_transit":false,"time":3,"station_id":"GDD"},{"transit":false,"time":4,"i_long":106.828284,"station_id":"JUA","line":2,"i_lat":-6.166716,"station_name":"Juanda","distance":2015,"is_transit":false},{"is_transit":false,"i_long":106.827103,"distance":1149,"station_name":"Sawah Besar","transit":false,"time":2,"i_lat":-6.160725,"line":2,"station_id":"SW"},{"line":2,"station_id":"MGB","time":2,"station_name":"Manggabesar","distance":906,"i_long":106.82482,"is_transit":false,"transit":false,"i_lat":-6.149769},{"time":2,"station_name":"Jayakarta","i_long":106.820901,"is_transit":false,"transit":false,"distance":1080,"line":7,"station_id":"JAY","i_lat":-6.141205},{"i_lat":-6.137569,"line":0,"i_long":106.812439,"station_id":"JAKK","station_name":"Jakarta Kota","is_transit":true,"transit":true,"distance":1264,"time":4},{"line":0,"i_lat":-6.132549,"distance":1364,"station_id":"KPB","time":3,"station_name":"Kampung Bandan","transit":true,"i_long":106.826365,"is_transit":true},{"transit":false,"line":11,"station_name":"Rajawali","time":3,"distance":1444,"station_id":"RJW","is_transit":false,"i_long":106.836569,"i_lat":-6.14505},{"is_transit":false,"i_lat":-6.161728,"i_long":106.839204,"time":5,"distance":1901,"transit":false,"station_name":"Kemayoran","station_id":"KMO","line":11},{"line":11,"transit":false,"station_name":"Pasar Senen","is_transit":false,"time":4,"station_id":"PSE","i_lat":-6.174784,"distance":1436,"i_long":106.84368},{"station_id":"GST","station_name":"Gang Sentiong","is_transit":false,"line":11,"time":8,"i_lat":-6.185975,"i_long":106.850107,"distance":1567,"transit":false},{"transit":false,"station_name":"Kramat","line":11,"distance":973,"is_transit":false,"i_lat":-6.193792,"time":1,"i_long":106.855437,"station_id":"KMT"},{"station_id":"POK","station_name":"Pondok Jati","transit":false,"is_transit":false,"i_lat":-6.209188,"line":11,"time":2,"distance":1829,"i_long":106.861737},{"transit":true,"line":0,"is_transit":true,"time":9,"station_id":"JNG","i_lat":-6.215091,"station_name":"Jatinegara","i_long":106.86807400000001,"distance":1236},{"is_transit":false,"line":1,"i_long":106.899548,"distance":3395,"transit":false,"station_id":"KLD","time":3,"i_lat":-6.2135,"station_name":"Klender"},{"station_name":"Buaran","transit":false,"i_lat":-6.215568,"is_transit":false,"station_id":"BUA","time":2,"distance":3100,"line":0,"i_long":106.922662},{"distance":1305,"station_id":"KLDB","station_name":"Klenderbaru","time":1,"i_lat":-6.217455,"transit":false,"i_long":106.939679,"line":1,"is_transit":false},{"i_lat":-6.219053,"i_long":106.951283,"line":0,"distance":1385,"is_transit":false,"station_id":"CUK","transit":false,"time":8,"station_name":"Cakung"},{"is_transit":false,"i_lat":-6.224515,"i_long":106.977657,"station_name":"Kranji","transit":false,"station_id":"KRI","distance":3097,"line":1,"time":3},{"i_lat":-6.236616,"line":0,"transit":false,"is_transit":false,"i_long":106.997013,"station_name":"Bekasi","distance":2520,"station_id":"BKS","time":4}]]}