{"data":[[{"is_transit":false,"station_name":"Depokbaru","i_lat":-6.391065,"i_long":106.819451,"time":0,"station_id":"DPB","line":0,"distance":0,"transit":false},{"is_transit":false,"station_id":"POC","i_lat":-6.369073,"i_long":106.831114,"line":2,"distance":2727,"transit":false,"station_name":"Pondok Cina","time":4},{"i_long":106.831474,"distance":1109,"is_transit":false,"i_lat":-6.360749,"station_name":"Univ. Indonesia","time":2,"station_id":"UI","transit":false,"line":2},{"station_name":"Univ. Pancasila","station_id":"UP","i_long":106.834175,"time":3,"distance":2264,"transit":false,"i_lat":-6.339291,"is_transit":false,"line":2},{"i_long":106.832616,"distance":1029,"is_transit":false,"transit":false,"line":2,"station_id":"LNA","station_name":"Lenteng Agung","time":2,"i_lat":-6.330363},{"time":3,"line":2,"station_id":"TNT","transit":false,"is_transit":false,"i_lat":-6.3080680000000005,"station_name":"Tanjung Barat","i_long":106.838896,"distance":2671},{"i_long":106.843999,"line":2,"distance":2820,"station_name":"Pasar Minggu","station_id":"PSM","transit":false,"is_transit":false,"i_lat":-6.2842400000000005,"time":4},{"station_name":"Pasar Minggu Baru","time":2,"distance":2380,"line":2,"station_id":"PSMB","is_transit":false,"i_lat":-6.263214,"transit":false,"i_long":106.851577},{"transit":false,"time":2,"station_name":"Duren Kalibata","i_long":106.85449,"line":0,"i_lat":-6.255332,"station_id":"DRN","is_transit":false,"distance":824},{"time":3,"i_long":106.856607,"station_id":"CW","distance":1546,"is_transit":false,"station_name":"Cawang","transit":false,"i_lat":-6.242512,"line":0},{"distance":1230,"i_long":106.857948,"station_name":"Tebet","is_transit":false,"time":2,"i_lat":-6.226659,"station_id":"TEB","transit":false,"line":2},{"station_name":"Manggarai","line":0,"station_id":"MRI","is_transit":true,"i_long":106.84912,"time":4,"i_lat":-6.209883,"transit":true,"distance":2610},{"distance":1275,"time":2,"is_transit":false,"i_long":106.858896,"transit":false,"station_id":"MTR","station_name":"Matraman","i_lat":-6.212485,"line":1},{"i_long":106.86807400000001,"station_id":"JNG","is_transit":true,"distance":1377,"transit":false,"station_name":"Jatinegara","time":8,"i_lat":-6.215091,"line":0},{"station_id":"KLD","i_long":106.899548,"line":1,"transit":false,"is_transit":false,"distance":3395,"station_name":"Klender","i_lat":-6.2135,"time":3},{"i_long":106.922662,"distance":3100,"transit":false,"station_id":"BUA","station_name":"Buaran","time":2,"i_lat":-6.215568,"line":0,"is_transit":false},{"station_id":"KLDB","i_long":106.939679,"station_name":"Klenderbaru","distance":1305,"i_lat":-6.217455,"line":1,"transit":false,"is_transit":false,"time":1},{"i_long":106.951283,"is_transit":false,"station_id":"CUK","station_name":"Cakung","distance":1385,"line":0,"transit":false,"time":8,"i_lat":-6.219053},{"is_transit":false,"distance":3097,"station_id":"KRI","i_lat":-6.224515,"i_long":106.977657,"time":3,"line":1,"station_name":"Kranji","transit":false},{"i_long":106.997013,"station_id":"BKS","distance":2520,"transit":false,"i_lat":-6.236616,"time":4,"is_transit":false,"station_name":"Bekasi","line":0},{"station_name":"Bekasi Timur","transit":false,"is_transit":false,"time":2,"i_lat":-6.248029,"distance":2368,"i_long":107.016735,"line":0,"station_id":"BKST"},{"distance":4460,"i_lat":-6.258864,"line":1,"station_id":"TB","i_long":107.055722,"station_name":"Tambun","transit":false,"is_transit":false,"time":7},{"i_long":107.083084,"time":3,"distance":3420,"line":0,"i_lat":-6.261877,"station_name":"Cibitung","is_transit":false,"transit":false,"station_id":"CIT"}],[{"is_transit":false,"i_long":106.819451,"distance":0,"transit":false,"line":0,"station_name":"Depokbaru","time":0,"station_id":"DPB","i_lat":-6.391065},{"station_name":"Pondok Cina","transit":false,"line":2,"i_long":106.831114,"is_transit":false,"distance":2727,"i_lat":-6.369073,"station_id":"POC","time":4},{"is_transit":false,"time":2,"i_lat":-6.360749,"station_id":"UI","transit":false,"i_long":106.831474,"station_name":"Univ. Indonesia","distance":1109,"line":2},{"i_lat":-6.339291,"line":2,"is_transit":false,"station_id":"UP","distance":2264,"time":3,"station_name":"Univ. Pancasila","i_long":106.834175,"transit":false},{"station_id":"LNA","distance":1029,"i_lat":-6.330363,"station_name":"Lenteng Agung","is_transit":false,"i_long":106.832616,"transit":false,"time":2,"line":2},{"i_long":106.838896,"station_name":"Tanjung Barat","is_transit":false,"i_lat":-6.3080680000000005,"station_id":"TNT","time":3,"transit":false,"distance":2671,"line":2},{"transit":false,"i_lat":-6.2842400000000005,"i_long":106.843999,"station_name":"Pasar Minggu","distance":2820,"line":2,"is_transit":false,"time":4,"station_id":"PSM"},{"is_transit":false,"time":2,"distance":2380,"transit":false,"line":2,"station_name":"Pasar Minggu Baru","i_lat":-6.263214,"i_long":106.851577,"station_id":"PSMB"},{"station_name":"Duren Kalibata","station_id":"DRN","line":0,"is_transit":false,"i_lat":-6.255332,"time":2,"transit":false,"distance":824,"i_long":106.85449},{"i_lat":-6.242512,"time":3,"distance":1546,"is_transit":false,"line":0,"i_long":106.856607,"station_id":"CW","transit":false,"station_name":"Cawang"},{"transit":false,"station_id":"TEB","station_name":"Tebet","is_transit":false,"time":2,"distance":1230,"line":2,"i_lat":-6.226659,"i_long":106.857948},{"time":4,"distance":2610,"transit":true,"i_lat":-6.209883,"station_id":"MRI","is_transit":true,"i_long":106.84912,"station_name":"Manggarai","line":0},{"station_name":"Sudirman","i_long":106.822649,"station_id":"SUD","distance":3186,"is_transit":false,"transit":false,"time":4,"i_lat":-6.202263,"line":1},{"transit":false,"i_lat":-6.201433,"distance":280,"i_long":106.819881,"line":1,"station_id":"SUDB","station_name":"Sudirman Baru","is_transit":false,"time":1},{"distance":471,"is_transit":false,"line":1,"station_name":"Karet","time":1,"transit":false,"i_long":106.816351,"i_lat":-6.20132,"station_id":"KAT"},{"i_long":106.811091,"station_id":"THB","is_transit":true,"distance":2029,"line":1,"station_name":"Tanah Abang","transit":false,"time":5,"i_lat":-6.185545},{"station_id":"DU","i_lat":-6.155215,"time":8,"distance":3632,"line":1,"i_long":106.800832,"station_name":"Duri","is_transit":true,"transit":true},{"line":0,"is_transit":false,"station_id":"AK","transit":false,"distance":1230,"time":4,"i_long":106.79867,"i_lat":-6.144674,"station_name":"Angke"},{"distance":4102,"station_id":"KPB","line":0,"station_name":"Kampung Bandan","transit":true,"i_long":106.826365,"is_transit":true,"time":9,"i_lat":-6.132549},{"transit":false,"is_transit":false,"i_long":106.836569,"distance":1444,"line":11,"time":3,"station_id":"RJW","station_name":"Rajawali","i_lat":-6.14505},{"transit":false,"station_name":"Kemayoran","station_id":"KMO","i_lat":-6.161728,"line":11,"i_long":106.839204,"distance":1901,"is_transit":false,"time":5},{"is_transit":false,"i_lat":-6.174784,"line":11,"time":4,"station_id":"PSE","transit":false,"station_name":"Pasar Senen","i_long":106.84368,"distance":1436},{"i_long":106.850107,"distance":1567,"station_name":"Gang Sentiong","station_id":"GST","i_lat":-6.185975,"line":11,"is_transit":false,"time":8,"transit":false},{"station_id":"KMT","time":1,"is_transit":false,"transit":false,"i_lat":-6.193792,"i_long":106.855437,"station_name":"Kramat","line":11,"distance":973},{"i_lat":-6.209188,"is_transit":false,"time":2,"station_name":"Pondok Jati","station_id":"POK","distance":1829,"transit":false,"line":11,"i_long":106.861737},{"line":0,"distance":1236,"i_lat":-6.215091,"i_long":106.86807400000001,"transit":true,"time":9,"station_name":"Jatinegara","is_transit":true,"station_id":"JNG"},{"is_transit":false,"transit":false,"station_name":"Klender","line":1,"distance":3395,"i_long":106.899548,"time":3,"station_id":"KLD","i_lat":-6.2135},{"i_long":106.922662,"station_id":"BUA","distance":3100,"is_transit":false,"i_lat":-6.215568,"line":0,"time":2,"station_name":"Buaran","transit":false},{"i_long":106.939679,"distance":1305,"station_id":"KLDB","station_name":"Klenderbaru","is_transit":false,"time":1,"transit":false,"line":1,"i_lat":-6.217455},{"i_lat":-6.219053,"station_name":"Cakung","time":8,"distance":1385,"transit":false,"i_long":106.951283,"is_transit":false,"line":0,"station_id":"CUK"},{"time":3,"is_transit":false,"distance":3097,"station_name":"Kranji","transit":false,"line":1,"i_lat":-6.224515,"i_long":106.977657,"station_id":"KRI"},{"distance":2520,"i_lat":-6.236616,"line":0,"is_transit":false,"i_long":106.997013,"station_id":"BKS","station_name":"Bekasi","time":4,"transit":false},{"is_transit":false,"i_lat":-6.248029,"station_id":"BKST","time":2,"station_name":"Bekasi Timur","line":0,"distance":2368,"transit":false,"i_long":107.016735},{"i_lat":-6.258864,"station_id":"TB","is_transit":false,"distance":4460,"station_name":"Tambun","time":7,"i_long":107.055722,"line":1,"transit":false},{"time":3,"line":0,"is_transit":false,"transit":false,"station_id":"CIT","i_lat":-6.261877,"distance":3420,"i_long":107.083084,"station_name":"Cibitung"}],[{"is_transit":false,"station_name":"Depokbaru","station_id":"DPB","line":0,"distance":0,"time":0,"transit":false,"i_lat":-6.391065,"i_long":106.819451},{"is_transit":false,"station_id":"POC","i_long":106.831114,"transit":false,"station_name":"Pondok Cina","time":4,"i_lat":-6.369073,"distance":2727,"line":2},{"is_transit":false,"station_id":"UI","i_lat":-6.360749,"transit":false,"time":2,"i_long":106.831474,"station_name":"Univ. Indonesia","distance":1109,"line":2},{"i_long":106.834175,"station_id":"UP","distance":2264,"transit":false,"is_transit":false,"line":2,"i_lat":-6.339291,"time":3,"station_name":"Univ. Pancasila"},{"i_lat":-6.330363,"distance":1029,"is_transit":false,"i_long":106.832616,"station_id":"LNA","time":2,"line":2,"transit":false,"station_name":"Lenteng Agung"},{"station_id":"TNT","transit":false,"is_transit":false,"distance":2671,"i_lat":-6.3080680000000005,"station_name":"Tanjung Barat","line":2,"time":3,"i_long":106.838896},{"distance":2820,"is_transit":false,"transit":false,"station_name":"Pasar Minggu","station_id":"PSM","i_lat":-6.2842400000000005,"time":4,"line":2,"i_long":106.843999},{"transit":false,"distance":2380,"station_name":"Pasar Minggu Baru","is_transit":false,"station_id":"PSMB","line":2,"i_long":106.851577,"i_lat":-6.263214,"time":2},{"station_id":"DRN","station_name":"Duren Kalibata","i_lat":-6.255332,"is_transit":false,"time":2,"i_long":106.85449,"distance":824,"line":0,"transit":false},{"station_name":"Cawang","line":0,"distance":1546,"i_lat":-6.242512,"is_transit":false,"transit":false,"time":3,"i_long":106.856607,"station_id":"CW"},{"distance":1230,"i_long":106.857948,"is_transit":false,"station_name":"Tebet","time":2,"transit":false,"line":2,"i_lat":-6.226659,"station_id":"TEB"},{"station_name":"Manggarai","transit":true,"i_long":106.84912,"station_id":"MRI","is_transit":true,"time":4,"i_lat":-6.209883,"line":0,"distance":2610},{"station_id":"CKI","line":0,"distance":1590,"time":4,"station_name":"Cikini","transit":false,"i_lat":-6.198556,"i_long":106.840169,"is_transit":false},{"station_id":"GDD","distance":1750,"i_lat":-6.186295,"time":3,"line":2,"i_long":106.832183,"transit":false,"station_name":"Gondangdia","is_transit":false},{"station_id":"JUA","station_name":"Juanda","i_lat":-6.166716,"i_long":106.828284,"transit":false,"time":4,"distance":2015,"line":2,"is_transit":false},{"station_id":"SW","i_long":106.827103,"is_transit":false,"distance":1149,"transit":false,"time":2,"line":2,"station_name":"Sawah Besar","i_lat":-6.160725},{"station_id":"MGB","distance":906,"station_name":"Manggabesar","i_lat":-6.149769,"line":2,"time":2,"i_long":106.82482,"is_transit":false,"transit":false},{"i_long":106.820901,"line":7,"i_lat":-6.141205,"is_transit":false,"distance":1080,"station_name":"Jayakarta","station_id":"JAY","transit":false,"time":2},{"transit":true,"station_name":"Jakarta Kota","i_lat":-6.137569,"line":0,"station_id":"JAKK","distance":1264,"time":4,"is_transit":true,"i_long":106.812439},{"time":3,"transit":true,"station_name":"Kampung Bandan","i_lat":-6.132549,"station_id":"KPB","distance":1364,"i_long":106.826365,"is_transit":true,"line":0},{"time":3,"i_long":106.836569,"transit":false,"station_id":"RJW","distance":1444,"station_name":"Rajawali","is_transit":false,"i_lat":-6.14505,"line":11},{"transit":false,"station_name":"Kemayoran","i_lat":-6.161728,"i_long":106.839204,"station_id":"KMO","distance":1901,"line":11,"time":5,"is_transit":false},{"line":11,"i_long":106.84368,"station_name":"Pasar Senen","station_id":"PSE","is_transit":false,"transit":false,"i_lat":-6.174784,"distance":1436,"time":4},{"distance":1567,"station_name":"Gang Sentiong","station_id":"GST","i_lat":-6.185975,"time":8,"line":11,"i_long":106.850107,"transit":false,"is_transit":false},{"time":1,"station_id":"KMT","is_transit":false,"distance":973,"i_long":106.855437,"i_lat":-6.193792,"line":11,"station_name":"Kramat","transit":false},{"station_id":"POK","i_long":106.861737,"time":2,"is_transit":false,"distance":1829,"station_name":"Pondok Jati","transit":false,"i_lat":-6.209188,"line":11},{"i_lat":-6.215091,"station_id":"JNG","time":9,"is_transit":true,"transit":true,"i_long":106.86807400000001,"station_name":"Jatinegara","distance":1236,"line":0},{"line":1,"i_lat":-6.2135,"transit":false,"station_id":"KLD","time":3,"station_name":"Klender","is_transit":false,"distance":3395,"i_long":106.899548},{"distance":3100,"station_id":"BUA","time":2,"transit":false,"i_long":106.922662,"is_transit":false,"i_lat":-6.215568,"line":0,"station_name":"Buaran"},{"line":1,"i_long":106.939679,"station_id":"KLDB","i_lat":-6.217455,"is_transit":false,"transit":false,"distance":1305,"station_name":"Klenderbaru","time":1},{"i_long":106.951283,"time":8,"distance":1385,"i_lat":-6.219053,"station_name":"Cakung","transit":false,"line":0,"station_id":"CUK","is_transit":false},{"line":1,"station_id":"KRI","distance":3097,"station_name":"Kranji","time":3,"i_long":106.977657,"is_transit":false,"transit":false,"i_lat":-6.224515},{"distance":2520,"time":4,"i_lat":-6.236616,"station_name":"Bekasi","station_id":"BKS","is_transit":false,"i_long":106.997013,"line":0,"transit":false},{"i_long":107.016735,"station_id":"BKST","station_name":"Bekasi Timur","i_lat":-6.248029,"transit":false,"is_transit":false,"line":0,"distance":2368,"time":2},{"distance":4460,"station_id":"TB","i_long":107.055722,"is_transit":false,"time":7,"i_lat":-6.258864,"station_name":"Tambun","transit":false,"line":1},{"i_lat":-6.261877,"time":3,"is_transit":false,"i_long":107.083084,"transit":false,"station_name":"Cibitung","line":0,"station_id":"CIT","distance":3420}]]}