{"data":[[{"distance":0,"is_transit":false,"i_lat":-6.391065,"station_id":"DPB","station_name":"Depokbaru","i_long":106.819451,"line":2,"transit":false,"time":0},{"station_id":"POC","transit":false,"line":2,"is_transit":false,"time":4,"i_lat":-6.369073,"distance":2727,"station_name":"Pondok Cina","i_long":106.831114},{"time":2,"i_long":106.831474,"station_id":"UI","i_lat":-6.360749,"line":2,"is_transit":false,"transit":false,"distance":1109,"station_name":"Univ. Indonesia"},{"station_name":"Univ. Pancasila","time":3,"line":2,"distance":2264,"station_id":"UP","is_transit":false,"i_long":106.834175,"transit":false,"i_lat":-6.339291},{"station_name":"Lenteng Agung","is_transit":false,"i_long":106.832616,"transit":false,"time":2,"line":2,"station_id":"LNA","i_lat":-6.330363,"distance":1029},{"time":3,"is_transit":false,"distance":2671,"transit":false,"line":2,"station_id":"TNT","i_long":106.838896,"station_name":"Tanjung Barat","i_lat":-6.3080680000000005},{"station_id":"PSM","time":4,"line":2,"distance":2820,"station_name":"Pasar Minggu","is_transit":false,"transit":false,"i_long":106.843999,"i_lat":-6.2842400000000005},{"time":2,"distance":2380,"line":2,"station_id":"PSMB","station_name":"Pasar Minggu Baru","i_lat":-6.263214,"transit":false,"is_transit":false,"i_long":106.851577},{"i_long":106.85449,"station_id":"DRN","line":2,"transit":false,"station_name":"Duren Kalibata","time":2,"i_lat":-6.255332,"distance":824,"is_transit":false},{"is_transit":false,"time":3,"i_lat":-6.242512,"i_long":106.856607,"distance":1546,"station_id":"CW","line":2,"station_name":"Cawang","transit":false},{"station_name":"Tebet","line":2,"is_transit":false,"transit":false,"distance":1230,"i_long":106.857948,"station_id":"TEB","time":2,"i_lat":-6.226659},{"station_id":"MRI","transit":true,"distance":2610,"is_transit":true,"i_long":106.84912,"station_name":"Manggarai","time":4,"i_lat":-6.209883,"line":2},{"time":2,"i_lat":-6.212485,"line":1,"transit":false,"station_id":"MTR","distance":1275,"i_long":106.858896,"station_name":"Matraman","is_transit":false},{"time":8,"line":1,"station_id":"JNG","transit":false,"i_long":106.86807400000001,"distance":1377,"station_name":"Jatinegara","i_lat":-6.215091,"is_transit":false},{"transit":false,"is_transit":false,"time":3,"station_id":"KLD","i_lat":-6.2135,"station_name":"Klender","line":1,"distance":3395,"i_long":106.899548},{"is_transit":false,"i_long":106.922662,"line":1,"station_name":"Buaran","i_lat":-6.215568,"transit":false,"station_id":"BUA","time":2,"distance":3100},{"station_name":"Klenderbaru","distance":1305,"time":1,"i_long":106.939679,"transit":false,"i_lat":-6.217455,"line":1,"station_id":"KLDB","is_transit":false},{"i_lat":-6.219053,"line":1,"time":8,"i_long":106.951283,"station_id":"CUK","station_name":"Cakung","distance":1385,"transit":false,"is_transit":false},{"station_name":"Kranji","transit":false,"time":3,"line":1,"i_long":106.977657,"i_lat":-6.224515,"is_transit":false,"station_id":"KRI","distance":3097},{"i_lat":-6.236616,"distance":2520,"i_long":106.997013,"line":1,"station_name":"Bekasi","transit":false,"is_transit":false,"time":4,"station_id":"BKS"},{"line":1,"transit":false,"distance":2368,"station_id":"BKST","is_transit":false,"i_lat":-6.248029,"i_long":107.016735,"station_name":"Bekasi Timur","time":2}],[{"i_lat":-6.391065,"station_id":"DPB","distance":0,"line":2,"transit":false,"station_name":"Depokbaru","is_transit":false,"time":0,"i_long":106.819451},{"station_name":"Pondok Cina","station_id":"POC","time":4,"transit":false,"distance":2727,"i_lat":-6.369073,"i_long":106.831114,"is_transit":false,"line":2},{"i_lat":-6.360749,"line":2,"station_name":"Univ. Indonesia","i_long":106.831474,"time":2,"is_transit":false,"transit":false,"distance":1109,"station_id":"UI"},{"time":3,"i_long":106.834175,"transit":false,"line":2,"station_id":"UP","is_transit":false,"i_lat":-6.339291,"distance":2264,"station_name":"Univ. Pancasila"},{"station_name":"Lenteng Agung","distance":1029,"i_lat":-6.330363,"is_transit":false,"transit":false,"line":2,"station_id":"LNA","i_long":106.832616,"time":2},{"i_lat":-6.3080680000000005,"station_id":"TNT","distance":2671,"time":3,"station_name":"Tanjung Barat","transit":false,"line":2,"i_long":106.838896,"is_transit":false},{"is_transit":false,"i_long":106.843999,"station_name":"Pasar Minggu","distance":2820,"i_lat":-6.2842400000000005,"time":4,"transit":false,"line":2,"station_id":"PSM"},{"station_id":"PSMB","is_transit":false,"i_long":106.851577,"distance":2380,"i_lat":-6.263214,"line":2,"station_name":"Pasar Minggu Baru","time":2,"transit":false},{"distance":824,"is_transit":false,"i_long":106.85449,"transit":false,"station_id":"DRN","i_lat":-6.255332,"line":2,"station_name":"Duren Kalibata","time":2},{"is_transit":false,"transit":false,"i_long":106.856607,"line":2,"time":3,"i_lat":-6.242512,"station_id":"CW","distance":1546,"station_name":"Cawang"},{"is_transit":false,"time":2,"i_long":106.857948,"line":2,"station_name":"Tebet","transit":false,"i_lat":-6.226659,"station_id":"TEB","distance":1230},{"is_transit":true,"i_lat":-6.209883,"distance":2610,"i_long":106.84912,"station_name":"Manggarai","transit":true,"time":4,"line":2,"station_id":"MRI"},{"i_lat":-6.202263,"time":4,"i_long":106.822649,"station_id":"SUD","is_transit":false,"station_name":"Sudirman","distance":3186,"line":1,"transit":false},{"i_long":106.819881,"line":1,"station_id":"SUDB","station_name":"Sudirman Baru","is_transit":false,"transit":false,"time":1,"i_lat":-6.201433,"distance":280},{"is_transit":false,"i_long":106.816351,"transit":false,"station_id":"KAT","line":1,"distance":471,"i_lat":-6.20132,"time":1,"station_name":"Karet"},{"line":1,"is_transit":false,"station_id":"THB","i_long":106.811091,"distance":2029,"station_name":"Tanah Abang","transit":false,"time":5,"i_lat":-6.185545},{"is_transit":false,"distance":3632,"transit":false,"i_long":106.800832,"line":1,"i_lat":-6.155215,"time":8,"station_id":"DU","station_name":"Duri"},{"is_transit":false,"station_name":"Angke","station_id":"AK","transit":false,"i_long":106.79867,"i_lat":-6.144674,"line":1,"distance":1230,"time":4},{"station_name":"Kampung Bandan","station_id":"KPB","is_transit":true,"time":9,"i_lat":-6.132549,"line":4,"i_long":106.826365,"distance":4102,"transit":true},{"line":11,"is_transit":false,"station_id":"RJW","distance":1444,"time":3,"station_name":"Rajawali","transit":false,"i_lat":-6.14505,"i_long":106.836569},{"distance":1901,"is_transit":false,"line":11,"station_name":"Kemayoran","time":5,"station_id":"KMO","transit":false,"i_lat":-6.161728,"i_long":106.839204},{"distance":1436,"station_id":"PSE","transit":false,"line":11,"i_lat":-6.174784,"station_name":"Pasar Senen","is_transit":false,"i_long":106.84368,"time":4},{"is_transit":false,"i_long":106.850107,"time":8,"i_lat":-6.185975,"distance":1567,"station_name":"Gang Sentiong","line":11,"transit":false,"station_id":"GST"},{"station_id":"KMT","i_long":106.855437,"distance":973,"i_lat":-6.193792,"time":1,"line":11,"station_name":"Kramat","transit":false,"is_transit":false},{"distance":1829,"transit":false,"is_transit":false,"line":11,"i_lat":-6.209188,"station_id":"POK","station_name":"Pondok Jati","i_long":106.861737,"time":2},{"is_transit":true,"transit":true,"distance":1236,"station_id":"JNG","i_long":106.86807400000001,"station_name":"Jatinegara","i_lat":-6.215091,"time":9,"line":1},{"i_lat":-6.2135,"i_long":106.899548,"station_id":"KLD","station_name":"Klender","distance":3395,"line":1,"transit":false,"is_transit":false,"time":3},{"is_transit":false,"transit":false,"i_long":106.922662,"distance":3100,"station_id":"BUA","i_lat":-6.215568,"time":2,"station_name":"Buaran","line":1},{"line":1,"distance":1305,"station_name":"Klenderbaru","is_transit":false,"station_id":"KLDB","transit":false,"time":1,"i_long":106.939679,"i_lat":-6.217455},{"station_name":"Cakung","is_transit":false,"i_long":106.951283,"i_lat":-6.219053,"distance":1385,"time":8,"station_id":"CUK","line":1,"transit":false},{"station_name":"Kranji","is_transit":false,"distance":3097,"time":3,"i_lat":-6.224515,"station_id":"KRI","line":1,"transit":false,"i_long":106.977657},{"distance":2520,"is_transit":false,"i_long":106.997013,"station_name":"Bekasi","i_lat":-6.236616,"time":4,"line":1,"transit":false,"station_id":"BKS"},{"is_transit":false,"i_lat":-6.248029,"i_long":107.016735,"station_id":"BKST","station_name":"Bekasi Timur","transit":false,"time":2,"distance":2368,"line":1}],[{"is_transit":false,"line":2,"i_long":106.819451,"station_id":"DPB","i_lat":-6.391065,"transit":false,"time":0,"distance":0,"station_name":"Depokbaru"},{"i_lat":-6.369073,"i_long":106.831114,"transit":false,"station_id":"POC","line":2,"station_name":"Pondok Cina","distance":2727,"is_transit":false,"time":4},{"i_long":106.831474,"station_id":"UI","distance":1109,"transit":false,"time":2,"station_name":"Univ. Indonesia","is_transit":false,"i_lat":-6.360749,"line":2},{"i_long":106.834175,"station_id":"UP","is_transit":false,"station_name":"Univ. Pancasila","line":2,"i_lat":-6.339291,"transit":false,"distance":2264,"time":3},{"distance":1029,"is_transit":false,"i_lat":-6.330363,"i_long":106.832616,"line":2,"station_name":"Lenteng Agung","time":2,"station_id":"LNA","transit":false},{"i_long":106.838896,"station_id":"TNT","time":3,"i_lat":-6.3080680000000005,"line":2,"transit":false,"is_transit":false,"distance":2671,"station_name":"Tanjung Barat"},{"i_long":106.843999,"station_id":"PSM","time":4,"line":2,"distance":2820,"transit":false,"i_lat":-6.2842400000000005,"station_name":"Pasar Minggu","is_transit":false},{"i_lat":-6.263214,"time":2,"i_long":106.851577,"station_id":"PSMB","distance":2380,"station_name":"Pasar Minggu Baru","is_transit":false,"line":2,"transit":false},{"station_id":"DRN","is_transit":false,"time":2,"station_name":"Duren Kalibata","i_lat":-6.255332,"distance":824,"transit":false,"i_long":106.85449,"line":2},{"line":2,"station_id":"CW","distance":1546,"i_lat":-6.242512,"i_long":106.856607,"transit":false,"station_name":"Cawang","time":3,"is_transit":false},{"station_name":"Tebet","is_transit":false,"station_id":"TEB","i_long":106.857948,"distance":1230,"time":2,"line":2,"i_lat":-6.226659,"transit":false},{"line":2,"i_lat":-6.209883,"station_name":"Manggarai","is_transit":false,"distance":2610,"time":4,"transit":false,"i_long":106.84912,"station_id":"MRI"},{"time":4,"i_long":106.840169,"station_name":"Cikini","i_lat":-6.198556,"line":2,"transit":false,"is_transit":false,"station_id":"CKI","distance":1590},{"station_name":"Gondangdia","distance":1750,"transit":false,"station_id":"GDD","is_transit":false,"time":3,"i_lat":-6.186295,"line":2,"i_long":106.832183},{"line":2,"distance":2015,"is_transit":false,"time":4,"station_id":"JUA","station_name":"Juanda","i_long":106.828284,"i_lat":-6.166716,"transit":false},{"station_name":"Sawah Besar","i_long":106.827103,"time":2,"station_id":"SW","distance":1149,"i_lat":-6.160725,"transit":false,"is_transit":false,"line":2},{"line":2,"i_long":106.82482,"transit":false,"is_transit":false,"station_name":"Manggabesar","distance":906,"station_id":"MGB","i_lat":-6.149769,"time":2},{"is_transit":false,"i_lat":-6.141205,"transit":false,"time":2,"distance":1080,"station_name":"Jayakarta","i_long":106.820901,"station_id":"JAY","line":2},{"station_id":"JAKK","station_name":"Jakarta Kota","transit":true,"i_long":106.812439,"line":2,"is_transit":true,"time":4,"i_lat":-6.137569,"distance":1264},{"i_long":106.826365,"i_lat":-6.132549,"line":4,"station_name":"Kampung Bandan","time":3,"is_transit":true,"distance":1364,"station_id":"KPB","transit":true},{"station_id":"RJW","i_lat":-6.14505,"station_name":"Rajawali","is_transit":false,"distance":1444,"i_long":106.836569,"transit":false,"line":11,"time":3},{"distance":1901,"is_transit":false,"i_long":106.839204,"transit":false,"station_name":"Kemayoran","time":5,"line":11,"station_id":"KMO","i_lat":-6.161728},{"line":11,"is_transit":false,"distance":1436,"time":4,"i_long":106.84368,"station_name":"Pasar Senen","transit":false,"station_id":"PSE","i_lat":-6.174784},{"i_long":106.850107,"line":11,"station_name":"Gang Sentiong","distance":1567,"station_id":"GST","time":8,"i_lat":-6.185975,"transit":false,"is_transit":false},{"transit":false,"station_id":"KMT","distance":973,"is_transit":false,"i_long":106.855437,"line":11,"station_name":"Kramat","time":1,"i_lat":-6.193792},{"distance":1829,"transit":false,"i_long":106.861737,"station_name":"Pondok Jati","is_transit":false,"station_id":"POK","line":11,"time":2,"i_lat":-6.209188},{"i_lat":-6.215091,"station_name":"Jatinegara","i_long":106.86807400000001,"time":9,"distance":1236,"station_id":"JNG","transit":true,"is_transit":true,"line":1},{"i_lat":-6.2135,"i_long":106.899548,"transit":false,"time":3,"line":1,"station_name":"Klender","distance":3395,"station_id":"KLD","is_transit":false},{"is_transit":false,"station_name":"Buaran","time":2,"i_long":106.922662,"line":1,"station_id":"BUA","transit":false,"distance":3100,"i_lat":-6.215568},{"station_name":"Klenderbaru","transit":false,"line":1,"time":1,"distance":1305,"is_transit":false,"station_id":"KLDB","i_lat":-6.217455,"i_long":106.939679},{"distance":1385,"transit":false,"is_transit":false,"i_lat":-6.219053,"station_id":"CUK","i_long":106.951283,"station_name":"Cakung","time":8,"line":1},{"station_name":"Kranji","i_long":106.977657,"distance":3097,"station_id":"KRI","i_lat":-6.224515,"transit":false,"time":3,"line":1,"is_transit":false},{"station_id":"BKS","i_lat":-6.236616,"line":1,"transit":false,"distance":2520,"i_long":106.997013,"station_name":"Bekasi","time":4,"is_transit":false},{"i_long":107.016735,"is_transit":false,"station_id":"BKST","line":1,"station_name":"Bekasi Timur","distance":2368,"i_lat":-6.248029,"time":2,"transit":false}]]}