{"data":[[{"time":0,"distance":0,"i_long":106.819451,"line":2,"is_transit":false,"i_lat":-6.391065,"transit":false,"station_id":"DPB","station_name":"Depokbaru"},{"transit":false,"station_id":"POC","distance":2727,"is_transit":false,"i_lat":-6.369073,"line":2,"time":4,"station_name":"Pondok Cina","i_long":106.831114},{"station_id":"UI","time":2,"distance":1109,"line":2,"transit":false,"station_name":"Univ. Indonesia","i_lat":-6.360749,"i_long":106.831474,"is_transit":false},{"is_transit":false,"time":3,"station_id":"UP","distance":2264,"i_lat":-6.339291,"line":2,"transit":false,"station_name":"Univ. Pancasila","i_long":106.834175},{"distance":1029,"i_lat":-6.330363,"is_transit":false,"line":2,"station_name":"Lenteng Agung","time":2,"i_long":106.832616,"transit":false,"station_id":"LNA"},{"distance":2671,"station_id":"TNT","time":3,"line":2,"i_long":106.838896,"is_transit":false,"transit":false,"station_name":"Tanjung Barat","i_lat":-6.3080680000000005},{"distance":2820,"i_long":106.843999,"station_id":"PSM","transit":false,"time":4,"i_lat":-6.2842400000000005,"station_name":"Pasar Minggu","is_transit":false,"line":2},{"transit":false,"station_id":"PSMB","station_name":"Pasar Minggu Baru","distance":2380,"time":2,"is_transit":false,"i_lat":-6.263214,"line":2,"i_long":106.851577},{"station_id":"DRN","station_name":"Duren Kalibata","i_long":106.85449,"distance":824,"time":2,"transit":false,"is_transit":false,"line":2,"i_lat":-6.255332},{"i_long":106.856607,"station_id":"CW","station_name":"Cawang","time":3,"line":2,"distance":1546,"transit":false,"is_transit":false,"i_lat":-6.242512},{"transit":false,"station_name":"Tebet","station_id":"TEB","i_lat":-6.226659,"time":2,"line":2,"distance":1230,"i_long":106.857948,"is_transit":false},{"station_name":"Manggarai","distance":2610,"transit":true,"time":4,"is_transit":true,"i_lat":-6.209883,"i_long":106.84912,"station_id":"MRI","line":2},{"transit":false,"station_id":"SUD","distance":3186,"i_lat":-6.202263,"is_transit":false,"time":4,"i_long":106.822649,"line":1,"station_name":"Sudirman"},{"line":1,"station_name":"Sudirman Baru","transit":false,"station_id":"SUDB","i_lat":-6.201433,"is_transit":false,"distance":280,"i_long":106.819881,"time":1},{"station_id":"KAT","distance":471,"is_transit":false,"time":1,"i_lat":-6.20132,"station_name":"Karet","transit":false,"line":1,"i_long":106.816351},{"i_long":106.811091,"line":1,"station_name":"Tanah Abang","is_transit":true,"transit":true,"station_id":"THB","time":5,"distance":2029,"i_lat":-6.185545},{"i_long":106.79689,"transit":false,"station_name":"Palmerah","is_transit":false,"station_id":"PLM","time":6,"i_lat":-6.207404,"line":6,"distance":3191},{"station_id":"KBY","transit":false,"distance":3737,"i_long":106.780334,"station_name":"Kebayoran","line":6,"i_lat":-6.237242,"time":7,"is_transit":false},{"is_transit":false,"i_long":106.74273,"station_id":"PDJ","distance":6218,"i_lat":-6.276362,"transit":false,"station_name":"Pondokranji","time":8,"line":6},{"i_lat":-6.288927,"transit":false,"station_id":"JMU","is_transit":false,"distance":2179,"i_long":106.728916,"time":3,"station_name":"Jurangmangu","line":6},{"station_id":"SDM","distance":1994,"transit":false,"station_name":"Sudimara","is_transit":false,"time":4,"i_long":106.712277,"line":6,"i_lat":-6.296963},{"time":6,"transit":false,"station_id":"RU","i_lat":-6.314823,"line":6,"i_long":106.675475,"distance":4566,"station_name":"Rawa Buntu","is_transit":false},{"distance":2413,"station_name":"Serpong","station_id":"SRP","line":6,"transit":false,"time":4,"is_transit":false,"i_lat":-6.319871,"i_long":106.66566},{"station_name":"Cisauk","i_lat":-6.32484,"is_transit":false,"i_long":106.640411,"distance":1784,"station_id":"CSK","transit":false,"time":4,"line":3}],[{"transit":false,"distance":0,"i_lat":-6.391065,"station_id":"DPB","time":0,"station_name":"Depokbaru","line":2,"is_transit":false,"i_long":106.819451},{"time":4,"i_lat":-6.369073,"line":2,"is_transit":false,"station_name":"Pondok Cina","station_id":"POC","transit":false,"distance":2727,"i_long":106.831114},{"i_long":106.831474,"i_lat":-6.360749,"is_transit":false,"distance":1109,"transit":false,"line":2,"station_id":"UI","station_name":"Univ. Indonesia","time":2},{"time":3,"line":2,"station_id":"UP","i_lat":-6.339291,"distance":2264,"i_long":106.834175,"transit":false,"station_name":"Univ. Pancasila","is_transit":false},{"line":2,"distance":1029,"is_transit":false,"station_name":"Lenteng Agung","i_long":106.832616,"transit":false,"i_lat":-6.330363,"station_id":"LNA","time":2},{"is_transit":false,"transit":false,"station_id":"TNT","time":3,"station_name":"Tanjung Barat","i_lat":-6.3080680000000005,"line":2,"distance":2671,"i_long":106.838896},{"station_name":"Pasar Minggu","is_transit":false,"station_id":"PSM","time":4,"transit":false,"distance":2820,"i_long":106.843999,"i_lat":-6.2842400000000005,"line":2},{"i_long":106.851577,"station_id":"PSMB","distance":2380,"station_name":"Pasar Minggu Baru","i_lat":-6.263214,"transit":false,"is_transit":false,"line":2,"time":2},{"station_id":"DRN","is_transit":false,"distance":824,"line":2,"i_long":106.85449,"transit":false,"time":2,"i_lat":-6.255332,"station_name":"Duren Kalibata"},{"station_name":"Cawang","time":3,"is_transit":false,"distance":1546,"transit":false,"i_lat":-6.242512,"station_id":"CW","i_long":106.856607,"line":2},{"line":2,"station_name":"Tebet","station_id":"TEB","time":2,"distance":1230,"i_lat":-6.226659,"is_transit":false,"i_long":106.857948,"transit":false},{"station_name":"Manggarai","transit":false,"time":4,"i_long":106.84912,"station_id":"MRI","line":2,"is_transit":false,"distance":2610,"i_lat":-6.209883},{"transit":false,"time":4,"distance":1590,"station_id":"CKI","is_transit":false,"station_name":"Cikini","i_lat":-6.198556,"i_long":106.840169,"line":2},{"transit":false,"station_id":"GDD","time":3,"is_transit":false,"station_name":"Gondangdia","line":2,"distance":1750,"i_long":106.832183,"i_lat":-6.186295},{"transit":false,"station_name":"Juanda","is_transit":false,"station_id":"JUA","time":4,"line":2,"i_long":106.828284,"distance":2015,"i_lat":-6.166716},{"time":2,"is_transit":false,"i_long":106.827103,"station_id":"SW","transit":false,"distance":1149,"line":2,"i_lat":-6.160725,"station_name":"Sawah Besar"},{"transit":false,"time":2,"station_id":"MGB","i_long":106.82482,"station_name":"Manggabesar","i_lat":-6.149769,"line":2,"distance":906,"is_transit":false},{"transit":false,"is_transit":false,"station_id":"JAY","i_long":106.820901,"line":2,"station_name":"Jayakarta","time":2,"i_lat":-6.141205,"distance":1080},{"i_long":106.812439,"time":4,"station_id":"JAKK","is_transit":true,"distance":1264,"i_lat":-6.137569,"line":2,"transit":true,"station_name":"Jakarta Kota"},{"transit":true,"i_long":106.826365,"time":3,"is_transit":true,"distance":1364,"i_lat":-6.132549,"station_name":"Kampung Bandan","line":4,"station_id":"KPB"},{"i_long":106.79867,"line":1,"time":9,"station_id":"AK","i_lat":-6.144674,"station_name":"Angke","transit":false,"distance":4102,"is_transit":false},{"time":4,"station_name":"Duri","station_id":"DU","transit":false,"line":1,"i_lat":-6.155215,"is_transit":false,"distance":1230,"i_long":106.800832},{"station_name":"Tanah Abang","i_long":106.811091,"transit":true,"i_lat":-6.185545,"station_id":"THB","is_transit":true,"time":8,"distance":3632,"line":1},{"time":6,"station_id":"PLM","transit":false,"i_long":106.79689,"line":6,"station_name":"Palmerah","distance":3191,"i_lat":-6.207404,"is_transit":false},{"distance":3737,"station_id":"KBY","time":7,"line":6,"transit":false,"is_transit":false,"i_lat":-6.237242,"station_name":"Kebayoran","i_long":106.780334},{"transit":false,"station_name":"Pondokranji","line":6,"i_long":106.74273,"is_transit":false,"distance":6218,"time":8,"station_id":"PDJ","i_lat":-6.276362},{"station_id":"JMU","line":6,"station_name":"Jurangmangu","distance":2179,"is_transit":false,"transit":false,"time":3,"i_lat":-6.288927,"i_long":106.728916},{"time":4,"transit":false,"station_name":"Sudimara","i_long":106.712277,"distance":1994,"line":6,"is_transit":false,"i_lat":-6.296963,"station_id":"SDM"},{"distance":4566,"line":6,"time":6,"i_lat":-6.314823,"station_id":"RU","i_long":106.675475,"transit":false,"station_name":"Rawa Buntu","is_transit":false},{"line":6,"time":4,"transit":false,"station_name":"Serpong","i_long":106.66566,"i_lat":-6.319871,"is_transit":false,"station_id":"SRP","distance":2413},{"distance":1784,"i_lat":-6.32484,"i_long":106.640411,"transit":false,"line":3,"is_transit":false,"station_name":"Cisauk","time":4,"station_id":"CSK"}],[{"station_id":"DPB","station_name":"Depokbaru","is_transit":false,"transit":false,"time":0,"distance":0,"i_lat":-6.391065,"i_long":106.819451,"line":2},{"station_id":"POC","i_long":106.831114,"line":2,"distance":2727,"time":4,"station_name":"Pondok Cina","transit":false,"i_lat":-6.369073,"is_transit":false},{"i_long":106.831474,"distance":1109,"station_name":"Univ. Indonesia","station_id":"UI","time":2,"i_lat":-6.360749,"line":2,"is_transit":false,"transit":false},{"transit":false,"time":3,"station_id":"UP","station_name":"Univ. Pancasila","i_long":106.834175,"i_lat":-6.339291,"line":2,"is_transit":false,"distance":2264},{"time":2,"station_name":"Lenteng Agung","i_long":106.832616,"is_transit":false,"distance":1029,"transit":false,"station_id":"LNA","i_lat":-6.330363,"line":2},{"distance":2671,"station_id":"TNT","i_long":106.838896,"is_transit":false,"i_lat":-6.3080680000000005,"line":2,"station_name":"Tanjung Barat","transit":false,"time":3},{"i_lat":-6.2842400000000005,"distance":2820,"i_long":106.843999,"transit":false,"station_id":"PSM","is_transit":false,"station_name":"Pasar Minggu","time":4,"line":2},{"station_id":"PSMB","line":2,"time":2,"is_transit":false,"distance":2380,"i_lat":-6.263214,"i_long":106.851577,"transit":false,"station_name":"Pasar Minggu Baru"},{"time":2,"transit":false,"station_name":"Duren Kalibata","station_id":"DRN","distance":824,"line":2,"i_long":106.85449,"i_lat":-6.255332,"is_transit":false},{"transit":false,"station_name":"Cawang","i_long":106.856607,"i_lat":-6.242512,"is_transit":false,"line":2,"distance":1546,"time":3,"station_id":"CW"},{"transit":false,"station_name":"Tebet","station_id":"TEB","time":2,"distance":1230,"is_transit":false,"i_lat":-6.226659,"i_long":106.857948,"line":2},{"line":2,"distance":2610,"time":4,"transit":true,"is_transit":true,"station_name":"Manggarai","station_id":"MRI","i_lat":-6.209883,"i_long":106.84912},{"i_lat":-6.212485,"line":1,"station_id":"MTR","i_long":106.858896,"time":2,"station_name":"Matraman","is_transit":false,"transit":false,"distance":1275},{"station_id":"JNG","time":8,"is_transit":true,"station_name":"Jatinegara","i_long":106.86807400000001,"distance":1377,"line":1,"transit":true,"i_lat":-6.215091},{"line":11,"station_id":"POK","time":2,"transit":false,"station_name":"Pondok Jati","is_transit":false,"distance":1236,"i_lat":-6.209188,"i_long":106.861737},{"line":11,"time":2,"transit":false,"station_name":"Kramat","is_transit":false,"distance":1829,"i_long":106.855437,"station_id":"KMT","i_lat":-6.193792},{"transit":false,"i_lat":-6.185975,"distance":973,"is_transit":false,"i_long":106.850107,"line":11,"time":1,"station_name":"Gang Sentiong","station_id":"GST"},{"i_long":106.84368,"station_name":"Pasar Senen","i_lat":-6.174784,"transit":false,"station_id":"PSE","distance":1567,"is_transit":false,"line":11,"time":8},{"station_name":"Kemayoran","is_transit":false,"transit":false,"distance":1436,"i_lat":-6.161728,"line":11,"time":4,"i_long":106.839204,"station_id":"KMO"},{"transit":false,"station_name":"Rajawali","station_id":"RJW","is_transit":false,"distance":1901,"time":5,"i_lat":-6.14505,"i_long":106.836569,"line":11},{"is_transit":true,"i_lat":-6.132549,"i_long":106.826365,"transit":true,"station_id":"KPB","time":3,"distance":1444,"line":4,"station_name":"Kampung Bandan"},{"transit":false,"line":1,"i_lat":-6.144674,"station_name":"Angke","distance":4102,"is_transit":false,"time":9,"station_id":"AK","i_long":106.79867},{"station_name":"Duri","station_id":"DU","time":4,"distance":1230,"transit":false,"i_long":106.800832,"line":1,"is_transit":false,"i_lat":-6.155215},{"i_lat":-6.185545,"station_id":"THB","time":8,"distance":3632,"i_long":106.811091,"line":1,"station_name":"Tanah Abang","transit":true,"is_transit":true},{"line":6,"i_long":106.79689,"station_id":"PLM","transit":false,"station_name":"Palmerah","is_transit":false,"distance":3191,"i_lat":-6.207404,"time":6},{"line":6,"i_long":106.780334,"transit":false,"station_name":"Kebayoran","i_lat":-6.237242,"distance":3737,"is_transit":false,"time":7,"station_id":"KBY"},{"transit":false,"i_lat":-6.276362,"station_name":"Pondokranji","distance":6218,"line":6,"time":8,"station_id":"PDJ","i_long":106.74273,"is_transit":false},{"i_long":106.728916,"line":6,"time":3,"transit":false,"is_transit":false,"distance":2179,"station_id":"JMU","station_name":"Jurangmangu","i_lat":-6.288927},{"transit":false,"station_id":"SDM","time":4,"i_long":106.712277,"line":6,"station_name":"Sudimara","is_transit":false,"distance":1994,"i_lat":-6.296963},{"distance":4566,"station_id":"RU","i_lat":-6.314823,"i_long":106.675475,"is_transit":false,"time":6,"line":6,"transit":false,"station_name":"Rawa Buntu"},{"station_name":"Serpong","i_lat":-6.319871,"is_transit":false,"transit":false,"station_id":"SRP","i_long":106.66566,"line":6,"time":4,"distance":2413},{"time":4,"distance":1784,"line":3,"station_id":"CSK","i_lat":-6.32484,"i_long":106.640411,"transit":false,"station_name":"Cisauk","is_transit":false}]]}