{"data":[[{"station_id":"DPB","i_long":106.819451,"time":0,"station_name":"Depokbaru","transit":false,"i_lat":-6.391065,"is_transit":false,"distance":0,"line":2},{"transit":false,"i_long":106.831114,"distance":2727,"time":4,"station_id":"POC","station_name":"Pondok Cina","i_lat":-6.369073,"line":2,"is_transit":false},{"i_lat":-6.360749,"line":2,"station_id":"UI","station_name":"Univ. Indonesia","distance":1109,"i_long":106.831474,"transit":false,"is_transit":false,"time":2},{"station_name":"Univ. Pancasila","time":3,"i_long":106.834175,"i_lat":-6.339291,"is_transit":false,"distance":2264,"transit":false,"station_id":"UP","line":2},{"i_long":106.832616,"line":2,"time":2,"station_name":"Lenteng Agung","is_transit":false,"station_id":"LNA","distance":1029,"i_lat":-6.330363,"transit":false},{"station_name":"Tanjung Barat","i_long":106.838896,"distance":2671,"transit":false,"station_id":"TNT","i_lat":-6.3080680000000005,"line":2,"time":3,"is_transit":false},{"distance":2820,"station_id":"PSM","time":4,"station_name":"Pasar Minggu","transit":false,"i_long":106.843999,"is_transit":false,"i_lat":-6.2842400000000005,"line":2},{"time":2,"distance":2380,"station_id":"PSMB","i_long":106.851577,"transit":false,"i_lat":-6.263214,"line":2,"is_transit":false,"station_name":"Pasar Minggu Baru"},{"transit":false,"distance":824,"i_lat":-6.255332,"station_name":"Duren Kalibata","line":2,"i_long":106.85449,"is_transit":false,"time":2,"station_id":"DRN"},{"time":3,"station_id":"CW","station_name":"Cawang","distance":1546,"line":2,"is_transit":false,"i_lat":-6.242512,"i_long":106.856607,"transit":false},{"is_transit":false,"station_name":"Tebet","time":2,"distance":1230,"transit":false,"i_lat":-6.226659,"station_id":"TEB","i_long":106.857948,"line":2},{"station_name":"Manggarai","distance":2610,"i_lat":-6.209883,"transit":true,"station_id":"MRI","is_transit":true,"i_long":106.84912,"line":2,"time":4},{"is_transit":false,"time":2,"station_name":"Matraman","transit":false,"i_long":106.858896,"station_id":"MTR","i_lat":-6.212485,"line":1,"distance":1275},{"i_lat":-6.215091,"station_name":"Jatinegara","is_transit":false,"i_long":106.86807400000001,"distance":1377,"station_id":"JNG","transit":false,"line":1,"time":8},{"station_id":"KLD","distance":3395,"station_name":"Klender","transit":false,"is_transit":false,"i_lat":-6.2135,"time":3,"i_long":106.899548,"line":1},{"i_long":106.922662,"line":1,"time":2,"transit":false,"is_transit":false,"i_lat":-6.215568,"distance":3100,"station_id":"BUA","station_name":"Buaran"},{"station_id":"KLDB","time":1,"is_transit":false,"i_long":106.939679,"station_name":"Klenderbaru","i_lat":-6.217455,"distance":1305,"transit":false,"line":1},{"distance":1385,"transit":false,"time":8,"is_transit":false,"station_id":"CUK","i_long":106.951283,"line":1,"i_lat":-6.219053,"station_name":"Cakung"},{"time":3,"station_id":"KRI","i_long":106.977657,"station_name":"Kranji","distance":3097,"i_lat":-6.224515,"transit":false,"is_transit":false,"line":1},{"is_transit":false,"i_lat":-6.236616,"station_id":"BKS","distance":2520,"station_name":"Bekasi","time":4,"line":1,"i_long":106.997013,"transit":false},{"transit":false,"station_name":"Bekasi Timur","is_transit":false,"line":1,"i_long":107.016735,"time":2,"station_id":"BKST","distance":2368,"i_lat":-6.248029}],[{"time":0,"station_id":"DPB","distance":0,"i_lat":-6.391065,"station_name":"Depokbaru","transit":false,"i_long":106.819451,"is_transit":false,"line":2},{"i_long":106.831114,"is_transit":false,"time":4,"line":2,"i_lat":-6.369073,"station_name":"Pondok Cina","transit":false,"station_id":"POC","distance":2727},{"station_id":"UI","transit":false,"line":2,"i_lat":-6.360749,"is_transit":false,"distance":1109,"station_name":"Univ. Indonesia","i_long":106.831474,"time":2},{"i_long":106.834175,"i_lat":-6.339291,"line":2,"distance":2264,"transit":false,"station_name":"Univ. Pancasila","time":3,"is_transit":false,"station_id":"UP"},{"distance":1029,"station_id":"LNA","is_transit":false,"station_name":"Lenteng Agung","i_lat":-6.330363,"line":2,"time":2,"i_long":106.832616,"transit":false},{"transit":false,"time":3,"distance":2671,"station_id":"TNT","is_transit":false,"i_lat":-6.3080680000000005,"i_long":106.838896,"line":2,"station_name":"Tanjung Barat"},{"i_lat":-6.2842400000000005,"i_long":106.843999,"station_id":"PSM","line":2,"transit":false,"station_name":"Pasar Minggu","time":4,"distance":2820,"is_transit":false},{"distance":2380,"i_long":106.851577,"time":2,"station_id":"PSMB","transit":false,"station_name":"Pasar Minggu Baru","is_transit":false,"i_lat":-6.263214,"line":2},{"i_long":106.85449,"station_name":"Duren Kalibata","is_transit":false,"line":2,"time":2,"transit":false,"distance":824,"i_lat":-6.255332,"station_id":"DRN"},{"is_transit":false,"line":2,"time":3,"station_name":"Cawang","transit":false,"i_lat":-6.242512,"i_long":106.856607,"distance":1546,"station_id":"CW"},{"time":2,"station_id":"TEB","is_transit":false,"transit":false,"line":2,"distance":1230,"i_lat":-6.226659,"station_name":"Tebet","i_long":106.857948},{"distance":2610,"transit":true,"station_name":"Manggarai","i_long":106.84912,"time":4,"is_transit":true,"line":2,"station_id":"MRI","i_lat":-6.209883},{"i_long":106.822649,"distance":3186,"station_name":"Sudirman","station_id":"SUD","time":4,"is_transit":false,"i_lat":-6.202263,"line":1,"transit":false},{"distance":280,"station_name":"Sudirman Baru","transit":false,"i_lat":-6.201433,"line":1,"is_transit":false,"i_long":106.819881,"station_id":"SUDB","time":1},{"transit":false,"i_long":106.816351,"station_name":"Karet","i_lat":-6.20132,"distance":471,"station_id":"KAT","time":1,"is_transit":false,"line":1},{"distance":2029,"time":5,"line":1,"i_lat":-6.185545,"i_long":106.811091,"transit":false,"station_id":"THB","station_name":"Tanah Abang","is_transit":false},{"transit":false,"station_name":"Duri","time":8,"i_lat":-6.155215,"is_transit":false,"i_long":106.800832,"distance":3632,"line":1,"station_id":"DU"},{"i_long":106.79867,"transit":false,"station_name":"Angke","distance":1230,"station_id":"AK","time":4,"is_transit":false,"i_lat":-6.144674,"line":1},{"i_long":106.826365,"transit":true,"distance":4102,"line":4,"station_name":"Kampung Bandan","time":9,"is_transit":true,"i_lat":-6.132549,"station_id":"KPB"},{"distance":1444,"station_name":"Rajawali","station_id":"RJW","i_long":106.836569,"is_transit":false,"time":3,"i_lat":-6.14505,"line":11,"transit":false},{"i_lat":-6.161728,"station_name":"Kemayoran","line":11,"is_transit":false,"distance":1901,"i_long":106.839204,"transit":false,"station_id":"KMO","time":5},{"is_transit":false,"distance":1436,"station_id":"PSE","i_lat":-6.174784,"i_long":106.84368,"station_name":"Pasar Senen","time":4,"line":11,"transit":false},{"time":8,"i_lat":-6.185975,"is_transit":false,"i_long":106.850107,"line":11,"transit":false,"station_id":"GST","station_name":"Gang Sentiong","distance":1567},{"is_transit":false,"transit":false,"station_name":"Kramat","station_id":"KMT","i_long":106.855437,"line":11,"time":1,"i_lat":-6.193792,"distance":973},{"time":2,"i_lat":-6.209188,"distance":1829,"is_transit":false,"transit":false,"line":11,"station_name":"Pondok Jati","station_id":"POK","i_long":106.861737},{"i_lat":-6.215091,"is_transit":true,"i_long":106.86807400000001,"station_id":"JNG","station_name":"Jatinegara","line":1,"transit":true,"time":9,"distance":1236},{"transit":false,"i_long":106.899548,"line":1,"station_name":"Klender","time":3,"station_id":"KLD","distance":3395,"i_lat":-6.2135,"is_transit":false},{"station_id":"BUA","i_long":106.922662,"i_lat":-6.215568,"station_name":"Buaran","is_transit":false,"time":2,"transit":false,"distance":3100,"line":1},{"line":1,"time":1,"transit":false,"station_name":"Klenderbaru","i_lat":-6.217455,"distance":1305,"i_long":106.939679,"station_id":"KLDB","is_transit":false},{"station_id":"CUK","is_transit":false,"transit":false,"distance":1385,"station_name":"Cakung","i_lat":-6.219053,"line":1,"time":8,"i_long":106.951283},{"time":3,"station_name":"Kranji","i_lat":-6.224515,"station_id":"KRI","is_transit":false,"distance":3097,"transit":false,"i_long":106.977657,"line":1},{"i_lat":-6.236616,"line":1,"i_long":106.997013,"distance":2520,"transit":false,"station_name":"Bekasi","station_id":"BKS","time":4,"is_transit":false},{"transit":false,"i_lat":-6.248029,"i_long":107.016735,"line":1,"distance":2368,"is_transit":false,"station_name":"Bekasi Timur","time":2,"station_id":"BKST"}],[{"distance":0,"is_transit":false,"transit":false,"time":0,"line":2,"station_id":"DPB","station_name":"Depokbaru","i_long":106.819451,"i_lat":-6.391065},{"is_transit":false,"transit":false,"station_name":"Pondok Cina","station_id":"POC","i_long":106.831114,"time":4,"distance":2727,"i_lat":-6.369073,"line":2},{"i_long":106.831474,"i_lat":-6.360749,"time":2,"station_id":"UI","line":2,"station_name":"Univ. Indonesia","distance":1109,"is_transit":false,"transit":false},{"line":2,"transit":false,"station_id":"UP","distance":2264,"i_long":106.834175,"time":3,"is_transit":false,"station_name":"Univ. Pancasila","i_lat":-6.339291},{"time":2,"i_long":106.832616,"distance":1029,"is_transit":false,"i_lat":-6.330363,"line":2,"transit":false,"station_id":"LNA","station_name":"Lenteng Agung"},{"station_id":"TNT","i_lat":-6.3080680000000005,"i_long":106.838896,"distance":2671,"is_transit":false,"line":2,"transit":false,"station_name":"Tanjung Barat","time":3},{"is_transit":false,"line":2,"i_long":106.843999,"station_name":"Pasar Minggu","station_id":"PSM","time":4,"transit":false,"i_lat":-6.2842400000000005,"distance":2820},{"distance":2380,"transit":false,"station_id":"PSMB","is_transit":false,"time":2,"i_lat":-6.263214,"station_name":"Pasar Minggu Baru","i_long":106.851577,"line":2},{"i_long":106.85449,"is_transit":false,"line":2,"station_id":"DRN","transit":false,"station_name":"Duren Kalibata","distance":824,"time":2,"i_lat":-6.255332},{"station_name":"Cawang","distance":1546,"station_id":"CW","line":2,"time":3,"i_long":106.856607,"transit":false,"is_transit":false,"i_lat":-6.242512},{"time":2,"station_id":"TEB","transit":false,"i_lat":-6.226659,"line":2,"i_long":106.857948,"is_transit":false,"station_name":"Tebet","distance":1230},{"is_transit":false,"time":4,"i_lat":-6.209883,"i_long":106.84912,"transit":false,"station_name":"Manggarai","line":2,"station_id":"MRI","distance":2610},{"i_long":106.840169,"line":2,"station_id":"CKI","is_transit":false,"i_lat":-6.198556,"time":4,"transit":false,"distance":1590,"station_name":"Cikini"},{"i_long":106.832183,"line":2,"i_lat":-6.186295,"is_transit":false,"station_id":"GDD","time":3,"distance":1750,"station_name":"Gondangdia","transit":false},{"i_lat":-6.166716,"i_long":106.828284,"line":2,"time":4,"station_id":"JUA","is_transit":false,"distance":2015,"station_name":"Juanda","transit":false},{"i_long":106.827103,"transit":false,"distance":1149,"time":2,"i_lat":-6.160725,"line":2,"station_name":"Sawah Besar","station_id":"SW","is_transit":false},{"station_name":"Manggabesar","time":2,"i_lat":-6.149769,"line":2,"i_long":106.82482,"transit":false,"distance":906,"station_id":"MGB","is_transit":false},{"station_name":"Jayakarta","is_transit":false,"i_long":106.820901,"transit":false,"station_id":"JAY","i_lat":-6.141205,"line":2,"distance":1080,"time":2},{"transit":true,"station_name":"Jakarta Kota","distance":1264,"time":4,"i_lat":-6.137569,"station_id":"JAKK","line":2,"is_transit":true,"i_long":106.812439},{"i_long":106.826365,"distance":1364,"time":3,"transit":true,"line":4,"station_id":"KPB","station_name":"Kampung Bandan","is_transit":true,"i_lat":-6.132549},{"station_name":"Rajawali","i_long":106.836569,"is_transit":false,"time":3,"line":11,"transit":false,"station_id":"RJW","i_lat":-6.14505,"distance":1444},{"line":11,"station_id":"KMO","distance":1901,"transit":false,"is_transit":false,"i_lat":-6.161728,"i_long":106.839204,"time":5,"station_name":"Kemayoran"},{"station_name":"Pasar Senen","transit":false,"station_id":"PSE","is_transit":false,"i_lat":-6.174784,"time":4,"i_long":106.84368,"distance":1436,"line":11},{"station_name":"Gang Sentiong","station_id":"GST","is_transit":false,"i_lat":-6.185975,"line":11,"distance":1567,"transit":false,"time":8,"i_long":106.850107},{"time":1,"i_lat":-6.193792,"i_long":106.855437,"line":11,"transit":false,"station_id":"KMT","station_name":"Kramat","is_transit":false,"distance":973},{"is_transit":false,"station_name":"Pondok Jati","transit":false,"i_long":106.861737,"distance":1829,"time":2,"i_lat":-6.209188,"station_id":"POK","line":11},{"i_lat":-6.215091,"time":9,"is_transit":true,"distance":1236,"transit":true,"i_long":106.86807400000001,"station_id":"JNG","line":1,"station_name":"Jatinegara"},{"transit":false,"station_id":"KLD","i_lat":-6.2135,"distance":3395,"time":3,"is_transit":false,"station_name":"Klender","i_long":106.899548,"line":1},{"station_id":"BUA","distance":3100,"is_transit":false,"transit":false,"time":2,"line":1,"i_lat":-6.215568,"i_long":106.922662,"station_name":"Buaran"},{"distance":1305,"i_lat":-6.217455,"station_id":"KLDB","i_long":106.939679,"station_name":"Klenderbaru","line":1,"time":1,"is_transit":false,"transit":false},{"distance":1385,"station_name":"Cakung","is_transit":false,"i_long":106.951283,"line":1,"transit":false,"time":8,"i_lat":-6.219053,"station_id":"CUK"},{"transit":false,"station_name":"Kranji","time":3,"i_long":106.977657,"station_id":"KRI","distance":3097,"i_lat":-6.224515,"is_transit":false,"line":1},{"time":4,"distance":2520,"transit":false,"station_id":"BKS","is_transit":false,"i_long":106.997013,"station_name":"Bekasi","i_lat":-6.236616,"line":1},{"is_transit":false,"time":2,"i_long":107.016735,"station_id":"BKST","distance":2368,"i_lat":-6.248029,"line":1,"transit":false,"station_name":"Bekasi Timur"}]]}