{"data":[[{"distance":0,"time":0,"i_long":106.819451,"i_lat":-6.391065,"line":2,"is_transit":false,"transit":false,"station_id":"DPB","station_name":"Depokbaru"},{"station_name":"Pondok Cina","is_transit":false,"station_id":"POC","line":2,"time":4,"i_lat":-6.369073,"distance":2727,"i_long":106.831114,"transit":false},{"time":2,"i_lat":-6.360749,"station_name":"Univ. Indonesia","i_long":106.831474,"station_id":"UI","is_transit":false,"transit":false,"line":2,"distance":1109},{"distance":2264,"station_id":"UP","station_name":"Univ. Pancasila","is_transit":false,"time":3,"transit":false,"i_lat":-6.339291,"i_long":106.834175,"line":2},{"station_name":"Lenteng Agung","transit":false,"i_lat":-6.330363,"is_transit":false,"line":2,"distance":1029,"station_id":"LNA","i_long":106.832616,"time":2},{"is_transit":false,"line":2,"station_id":"TNT","distance":2671,"i_long":106.838896,"transit":false,"station_name":"Tanjung Barat","time":3,"i_lat":-6.3080680000000005},{"is_transit":false,"i_long":106.843999,"transit":false,"distance":2820,"i_lat":-6.2842400000000005,"time":4,"station_id":"PSM","line":2,"station_name":"Pasar Minggu"}]]}