{"data":[[{"i_long":106.819451,"is_transit":false,"station_id":"DPB","distance":0,"i_lat":-6.391065,"line":0,"station_name":"Depokbaru","time":0,"transit":false},{"i_lat":-6.405256,"time":3,"line":0,"is_transit":false,"distance":1584,"station_name":"Depok","i_long":106.816926,"transit":false,"station_id":"DP"},{"transit":false,"station_name":"Citayam","i_lat":-6.448811,"i_long":106.800298,"line":1,"time":6,"distance":5084,"is_transit":true,"station_id":"CTA"},{"transit":false,"station_name":"Cibinong","i_lat":-6.46424,"i_long":106.851978,"station_id":"CBN","time":10,"distance":6740,"line":0,"is_transit":false},{"station_id":"NMO","distance":6527,"i_long":106.905196,"is_transit":false,"i_lat":-6.466285,"time":10,"line":21,"transit":false,"station_name":"Nambo"}]]}