{"data":[[{"station_id":"DPB","distance":0,"line":2,"i_long":106.819451,"transit":false,"station_name":"Depokbaru","i_lat":-6.391065,"time":0,"is_transit":false},{"time":4,"distance":2727,"i_long":106.831114,"station_name":"Pondok Cina","is_transit":false,"transit":false,"station_id":"POC","line":2,"i_lat":-6.369073},{"line":2,"i_lat":-6.360749,"station_id":"UI","transit":false,"is_transit":false,"i_long":106.831474,"station_name":"Univ. Indonesia","distance":1109,"time":2},{"distance":2264,"line":2,"station_id":"UP","time":3,"transit":false,"i_lat":-6.339291,"is_transit":false,"i_long":106.834175,"station_name":"Univ. Pancasila"},{"time":2,"line":2,"i_lat":-6.330363,"is_transit":false,"station_name":"Lenteng Agung","distance":1029,"transit":false,"i_long":106.832616,"station_id":"LNA"},{"i_long":106.838896,"station_id":"TNT","line":2,"i_lat":-6.3080680000000005,"is_transit":false,"distance":2671,"station_name":"Tanjung Barat","transit":false,"time":3},{"i_long":106.843999,"time":4,"distance":2820,"transit":false,"is_transit":false,"i_lat":-6.2842400000000005,"station_id":"PSM","station_name":"Pasar Minggu","line":2}]]}