{"data":[[{"time":0,"i_long":106.819451,"is_transit":false,"line":2,"station_id":"DPB","distance":0,"station_name":"Depokbaru","transit":false,"i_lat":-6.391065},{"i_lat":-6.369073,"station_id":"POC","i_long":106.831114,"line":2,"time":4,"is_transit":false,"distance":2727,"station_name":"Pondok Cina","transit":false},{"station_id":"UI","transit":false,"station_name":"Univ. Indonesia","is_transit":false,"time":2,"i_lat":-6.360749,"i_long":106.831474,"line":2,"distance":1109},{"station_name":"Univ. Pancasila","station_id":"UP","transit":false,"i_long":106.834175,"distance":2264,"time":3,"i_lat":-6.339291,"is_transit":false,"line":2},{"line":2,"station_name":"Lenteng Agung","station_id":"LNA","transit":false,"i_lat":-6.330363,"distance":1029,"is_transit":false,"time":2,"i_long":106.832616},{"line":2,"transit":false,"i_lat":-6.3080680000000005,"station_id":"TNT","distance":2671,"station_name":"Tanjung Barat","time":3,"i_long":106.838896,"is_transit":false},{"distance":2820,"station_id":"PSM","i_lat":-6.2842400000000005,"station_name":"Pasar Minggu","is_transit":false,"transit":false,"line":2,"i_long":106.843999,"time":4},{"is_transit":false,"transit":false,"station_name":"Pasar Minggu Baru","i_long":106.851577,"station_id":"PSMB","line":2,"distance":2380,"time":2,"i_lat":-6.263214},{"station_name":"Duren Kalibata","time":2,"distance":824,"transit":false,"station_id":"DRN","i_long":106.85449,"i_lat":-6.255332,"is_transit":false,"line":2},{"distance":1546,"i_long":106.856607,"time":3,"line":2,"i_lat":-6.242512,"station_id":"CW","is_transit":false,"transit":false,"station_name":"Cawang"},{"station_name":"Tebet","transit":false,"i_lat":-6.226659,"is_transit":false,"time":2,"i_long":106.857948,"station_id":"TEB","distance":1230,"line":2},{"i_long":106.84912,"distance":2610,"station_name":"Manggarai","line":2,"is_transit":true,"transit":true,"i_lat":-6.209883,"station_id":"MRI","time":4},{"i_lat":-6.202263,"station_id":"SUD","line":1,"distance":3186,"station_name":"Sudirman","is_transit":false,"transit":false,"i_long":106.822649,"time":4},{"is_transit":false,"station_name":"Sudirman Baru","i_lat":-6.201433,"transit":false,"distance":280,"station_id":"SUDB","time":1,"line":1,"i_long":106.819881},{"is_transit":false,"transit":false,"distance":471,"i_long":106.816351,"time":1,"line":1,"station_name":"Karet","i_lat":-6.20132,"station_id":"KAT"},{"i_lat":-6.185545,"i_long":106.811091,"line":1,"distance":2029,"time":5,"station_id":"THB","station_name":"Tanah Abang","is_transit":false,"transit":false},{"is_transit":true,"i_lat":-6.155215,"time":8,"station_name":"Duri","i_long":106.800832,"line":1,"distance":3632,"station_id":"DU","transit":true},{"i_long":106.788277,"transit":false,"distance":1700,"line":5,"is_transit":false,"station_name":"Grogol","time":3,"station_id":"GRG","i_lat":-6.162021},{"line":5,"is_transit":false,"distance":2036,"transit":false,"station_name":"Pesing","i_lat":-6.161433,"station_id":"PSG","i_long":106.771379,"time":2},{"line":5,"i_lat":-6.1587309999999995,"is_transit":false,"time":2,"distance":1614,"transit":false,"station_id":"TKO","i_long":106.756522,"station_name":"Taman Kota"},{"distance":2334,"i_lat":-6.159876,"i_long":106.737035,"transit":false,"line":5,"station_id":"BOI","station_name":"Bojongindah","is_transit":false,"time":2},{"station_name":"Rawa Buaya","line":5,"station_id":"RW","is_transit":false,"distance":1152,"transit":false,"i_lat":-6.162758,"i_long":106.723064,"time":4},{"i_lat":-6.166068,"station_name":"Kalideres","station_id":"KDS","transit":false,"is_transit":false,"distance":2504,"i_long":106.701612,"line":5,"time":3},{"distance":2548,"time":3,"station_name":"Poris","station_id":"PI","i_lat":-6.169933,"i_long":106.679458,"line":5,"is_transit":false,"transit":false},{"station_id":"BPR","i_long":106.665036,"time":3,"distance":1834,"i_lat":-6.171811,"line":5,"is_transit":false,"station_name":"Batuceper","transit":false},{"transit":false,"distance":2028,"station_id":"THI","is_transit":false,"i_lat":-6.17331,"line":5,"i_long":106.64657,"station_name":"Tanah Tinggi","time":3},{"line":5,"distance":1547,"i_lat":-6.176583,"is_transit":false,"time":3,"transit":false,"i_long":106.632761,"station_name":"Tangerang","station_id":"TNG"}],[{"is_transit":false,"time":0,"distance":0,"transit":false,"i_long":106.819451,"station_name":"Depokbaru","i_lat":-6.391065,"station_id":"DPB","line":2},{"i_long":106.831114,"line":2,"time":4,"distance":2727,"i_lat":-6.369073,"is_transit":false,"station_id":"POC","transit":false,"station_name":"Pondok Cina"},{"station_id":"UI","station_name":"Univ. Indonesia","i_lat":-6.360749,"is_transit":false,"time":2,"line":2,"transit":false,"i_long":106.831474,"distance":1109},{"is_transit":false,"station_name":"Univ. Pancasila","line":2,"i_lat":-6.339291,"station_id":"UP","i_long":106.834175,"distance":2264,"transit":false,"time":3},{"station_name":"Lenteng Agung","distance":1029,"i_lat":-6.330363,"i_long":106.832616,"is_transit":false,"station_id":"LNA","line":2,"time":2,"transit":false},{"time":3,"transit":false,"i_long":106.838896,"distance":2671,"line":2,"i_lat":-6.3080680000000005,"station_name":"Tanjung Barat","station_id":"TNT","is_transit":false},{"station_name":"Pasar Minggu","distance":2820,"station_id":"PSM","i_long":106.843999,"time":4,"i_lat":-6.2842400000000005,"transit":false,"line":2,"is_transit":false},{"time":2,"is_transit":false,"i_lat":-6.263214,"distance":2380,"station_name":"Pasar Minggu Baru","station_id":"PSMB","i_long":106.851577,"line":2,"transit":false},{"line":2,"i_long":106.85449,"distance":824,"i_lat":-6.255332,"station_id":"DRN","time":2,"is_transit":false,"transit":false,"station_name":"Duren Kalibata"},{"station_name":"Cawang","station_id":"CW","line":2,"distance":1546,"i_long":106.856607,"is_transit":false,"time":3,"transit":false,"i_lat":-6.242512},{"time":2,"station_id":"TEB","transit":false,"is_transit":false,"i_lat":-6.226659,"line":2,"distance":1230,"station_name":"Tebet","i_long":106.857948},{"transit":false,"i_long":106.84912,"station_id":"MRI","distance":2610,"i_lat":-6.209883,"station_name":"Manggarai","time":4,"line":2,"is_transit":false},{"time":4,"line":2,"i_lat":-6.198556,"distance":1590,"station_name":"Cikini","i_long":106.840169,"is_transit":false,"station_id":"CKI","transit":false},{"time":3,"transit":false,"i_long":106.832183,"line":2,"is_transit":false,"distance":1750,"i_lat":-6.186295,"station_id":"GDD","station_name":"Gondangdia"},{"station_id":"JUA","station_name":"Juanda","i_lat":-6.166716,"transit":false,"i_long":106.828284,"line":2,"is_transit":false,"time":4,"distance":2015},{"line":2,"i_lat":-6.160725,"station_id":"SW","transit":false,"is_transit":false,"i_long":106.827103,"station_name":"Sawah Besar","distance":1149,"time":2},{"station_id":"MGB","time":2,"is_transit":false,"station_name":"Manggabesar","transit":false,"distance":906,"i_lat":-6.149769,"i_long":106.82482,"line":2},{"distance":1080,"station_id":"JAY","line":2,"station_name":"Jayakarta","is_transit":false,"transit":false,"i_lat":-6.141205,"time":2,"i_long":106.820901},{"time":4,"is_transit":true,"i_long":106.812439,"line":2,"transit":true,"station_name":"Jakarta Kota","distance":1264,"i_lat":-6.137569,"station_id":"JAKK"},{"transit":true,"distance":1364,"is_transit":true,"station_id":"KPB","station_name":"Kampung Bandan","time":3,"i_lat":-6.132549,"line":4,"i_long":106.826365},{"distance":4102,"i_lat":-6.144674,"station_name":"Angke","i_long":106.79867,"line":1,"station_id":"AK","transit":false,"is_transit":false,"time":9},{"distance":1230,"is_transit":true,"time":4,"station_name":"Duri","station_id":"DU","transit":true,"i_lat":-6.155215,"i_long":106.800832,"line":1},{"is_transit":false,"station_name":"Grogol","time":3,"station_id":"GRG","i_long":106.788277,"i_lat":-6.162021,"distance":1700,"line":5,"transit":false},{"station_name":"Pesing","i_lat":-6.161433,"i_long":106.771379,"transit":false,"time":2,"distance":2036,"line":5,"station_id":"PSG","is_transit":false},{"station_id":"TKO","i_lat":-6.1587309999999995,"station_name":"Taman Kota","i_long":106.756522,"line":5,"distance":1614,"time":2,"transit":false,"is_transit":false},{"is_transit":false,"station_name":"Bojongindah","line":5,"transit":false,"station_id":"BOI","distance":2334,"i_long":106.737035,"i_lat":-6.159876,"time":2},{"i_lat":-6.162758,"station_id":"RW","line":5,"time":4,"station_name":"Rawa Buaya","transit":false,"distance":1152,"is_transit":false,"i_long":106.723064},{"time":3,"station_name":"Kalideres","station_id":"KDS","transit":false,"is_transit":false,"i_lat":-6.166068,"distance":2504,"i_long":106.701612,"line":5},{"is_transit":false,"distance":2548,"time":3,"i_long":106.679458,"station_id":"PI","station_name":"Poris","transit":false,"i_lat":-6.169933,"line":5},{"is_transit":false,"station_id":"BPR","station_name":"Batuceper","transit":false,"i_long":106.665036,"i_lat":-6.171811,"distance":1834,"line":5,"time":3},{"time":3,"i_long":106.64657,"distance":2028,"station_name":"Tanah Tinggi","i_lat":-6.17331,"line":5,"transit":false,"is_transit":false,"station_id":"THI"},{"station_id":"TNG","transit":false,"i_lat":-6.176583,"station_name":"Tangerang","i_long":106.632761,"line":5,"is_transit":false,"time":3,"distance":1547}],[{"station_id":"DPB","i_lat":-6.391065,"station_name":"Depokbaru","distance":0,"line":2,"transit":false,"time":0,"is_transit":false,"i_long":106.819451},{"line":2,"i_lat":-6.369073,"distance":2727,"station_name":"Pondok Cina","transit":false,"station_id":"POC","i_long":106.831114,"is_transit":false,"time":4},{"distance":1109,"transit":false,"line":2,"is_transit":false,"station_id":"UI","i_lat":-6.360749,"station_name":"Univ. Indonesia","i_long":106.831474,"time":2},{"station_name":"Univ. Pancasila","time":3,"transit":false,"station_id":"UP","distance":2264,"i_long":106.834175,"i_lat":-6.339291,"line":2,"is_transit":false},{"i_lat":-6.330363,"line":2,"i_long":106.832616,"is_transit":false,"distance":1029,"station_id":"LNA","transit":false,"station_name":"Lenteng Agung","time":2},{"distance":2671,"i_lat":-6.3080680000000005,"i_long":106.838896,"line":2,"time":3,"is_transit":false,"station_name":"Tanjung Barat","transit":false,"station_id":"TNT"},{"i_long":106.843999,"is_transit":false,"station_name":"Pasar Minggu","transit":false,"time":4,"i_lat":-6.2842400000000005,"line":2,"distance":2820,"station_id":"PSM"},{"line":2,"station_id":"PSMB","i_lat":-6.263214,"is_transit":false,"station_name":"Pasar Minggu Baru","time":2,"distance":2380,"transit":false,"i_long":106.851577},{"station_id":"DRN","line":2,"transit":false,"i_long":106.85449,"station_name":"Duren Kalibata","is_transit":false,"distance":824,"i_lat":-6.255332,"time":2},{"time":3,"transit":false,"line":2,"i_long":106.856607,"station_name":"Cawang","i_lat":-6.242512,"distance":1546,"is_transit":false,"station_id":"CW"},{"station_name":"Tebet","transit":false,"line":2,"i_long":106.857948,"station_id":"TEB","distance":1230,"is_transit":false,"time":2,"i_lat":-6.226659},{"distance":2610,"station_name":"Manggarai","time":4,"i_long":106.84912,"transit":true,"line":2,"station_id":"MRI","is_transit":true,"i_lat":-6.209883},{"distance":1275,"station_id":"MTR","time":2,"i_lat":-6.212485,"i_long":106.858896,"transit":false,"is_transit":false,"station_name":"Matraman","line":1},{"station_id":"JNG","i_long":106.86807400000001,"is_transit":true,"station_name":"Jatinegara","time":8,"i_lat":-6.215091,"line":1,"transit":true,"distance":1377},{"station_name":"Pondok Jati","transit":false,"i_long":106.861737,"station_id":"POK","distance":1236,"time":2,"is_transit":false,"i_lat":-6.209188,"line":11},{"station_id":"KMT","i_long":106.855437,"transit":false,"line":11,"time":2,"distance":1829,"i_lat":-6.193792,"is_transit":false,"station_name":"Kramat"},{"station_id":"GST","transit":false,"is_transit":false,"station_name":"Gang Sentiong","i_long":106.850107,"line":11,"time":1,"distance":973,"i_lat":-6.185975},{"time":8,"i_long":106.84368,"transit":false,"i_lat":-6.174784,"station_id":"PSE","station_name":"Pasar Senen","is_transit":false,"line":11,"distance":1567},{"line":11,"time":4,"i_lat":-6.161728,"distance":1436,"station_id":"KMO","station_name":"Kemayoran","transit":false,"i_long":106.839204,"is_transit":false},{"line":11,"time":5,"distance":1901,"i_lat":-6.14505,"station_name":"Rajawali","station_id":"RJW","transit":false,"i_long":106.836569,"is_transit":false},{"i_lat":-6.132549,"is_transit":true,"transit":true,"line":4,"time":3,"station_id":"KPB","i_long":106.826365,"station_name":"Kampung Bandan","distance":1444},{"transit":false,"i_long":106.79867,"i_lat":-6.144674,"is_transit":false,"station_name":"Angke","station_id":"AK","line":1,"time":9,"distance":4102},{"line":1,"station_name":"Duri","distance":1230,"time":4,"is_transit":true,"i_lat":-6.155215,"station_id":"DU","transit":true,"i_long":106.800832},{"station_id":"GRG","i_lat":-6.162021,"transit":false,"station_name":"Grogol","distance":1700,"time":3,"i_long":106.788277,"is_transit":false,"line":5},{"line":5,"i_lat":-6.161433,"is_transit":false,"distance":2036,"station_id":"PSG","time":2,"station_name":"Pesing","i_long":106.771379,"transit":false},{"distance":1614,"i_long":106.756522,"i_lat":-6.1587309999999995,"line":5,"transit":false,"is_transit":false,"station_id":"TKO","station_name":"Taman Kota","time":2},{"time":2,"line":5,"station_name":"Bojongindah","i_lat":-6.159876,"distance":2334,"transit":false,"i_long":106.737035,"is_transit":false,"station_id":"BOI"},{"is_transit":false,"time":4,"i_lat":-6.162758,"station_id":"RW","i_long":106.723064,"distance":1152,"line":5,"station_name":"Rawa Buaya","transit":false},{"transit":false,"station_id":"KDS","i_long":106.701612,"station_name":"Kalideres","distance":2504,"line":5,"i_lat":-6.166068,"time":3,"is_transit":false},{"is_transit":false,"i_long":106.679458,"station_id":"PI","distance":2548,"i_lat":-6.169933,"station_name":"Poris","time":3,"transit":false,"line":5},{"station_id":"BPR","is_transit":false,"station_name":"Batuceper","i_lat":-6.171811,"time":3,"line":5,"distance":1834,"i_long":106.665036,"transit":false},{"transit":false,"i_long":106.64657,"distance":2028,"i_lat":-6.17331,"line":5,"station_name":"Tanah Tinggi","is_transit":false,"time":3,"station_id":"THI"},{"time":3,"i_lat":-6.176583,"line":5,"station_name":"Tangerang","distance":1547,"transit":false,"i_long":106.632761,"is_transit":false,"station_id":"TNG"}]]}