{"data":[[{"station_id":"DPB","distance":0,"i_lat":-6.391065,"is_transit":false,"line":0,"i_long":106.819451,"time":0,"station_name":"Depokbaru","transit":false},{"station_name":"Pondok Cina","is_transit":false,"i_long":106.831114,"transit":false,"station_id":"POC","distance":2727,"i_lat":-6.369073,"line":2,"time":4},{"station_name":"Univ. Indonesia","is_transit":false,"transit":false,"station_id":"UI","time":2,"line":2,"distance":1109,"i_lat":-6.360749,"i_long":106.831474},{"i_long":106.834175,"line":2,"station_id":"UP","station_name":"Univ. Pancasila","distance":2264,"time":3,"is_transit":false,"transit":false,"i_lat":-6.339291},{"time":2,"station_id":"LNA","i_lat":-6.330363,"i_long":106.832616,"distance":1029,"transit":false,"line":2,"is_transit":false,"station_name":"Lenteng Agung"},{"distance":2671,"line":2,"time":3,"station_name":"Tanjung Barat","transit":false,"i_lat":-6.3080680000000005,"is_transit":false,"station_id":"TNT","i_long":106.838896},{"line":2,"station_id":"PSM","i_long":106.843999,"is_transit":false,"i_lat":-6.2842400000000005,"station_name":"Pasar Minggu","distance":2820,"time":4,"transit":false},{"station_name":"Pasar Minggu Baru","time":2,"line":2,"i_lat":-6.263214,"i_long":106.851577,"is_transit":false,"station_id":"PSMB","distance":2380,"transit":false},{"station_name":"Duren Kalibata","transit":false,"line":0,"i_lat":-6.255332,"i_long":106.85449,"distance":824,"time":2,"station_id":"DRN","is_transit":false},{"is_transit":false,"i_long":106.856607,"time":3,"transit":false,"i_lat":-6.242512,"line":0,"station_name":"Cawang","distance":1546,"station_id":"CW"},{"distance":1230,"station_id":"TEB","station_name":"Tebet","transit":false,"i_long":106.857948,"time":2,"line":2,"is_transit":false,"i_lat":-6.226659},{"i_long":106.84912,"station_id":"MRI","is_transit":true,"i_lat":-6.209883,"time":4,"transit":true,"line":0,"distance":2610,"station_name":"Manggarai"},{"transit":false,"i_lat":-6.202263,"i_long":106.822649,"station_name":"Sudirman","station_id":"SUD","time":4,"distance":3186,"line":1,"is_transit":false},{"station_id":"SUDB","transit":false,"station_name":"Sudirman Baru","time":1,"i_lat":-6.201433,"distance":280,"is_transit":false,"i_long":106.819881,"line":1},{"station_name":"Karet","time":1,"station_id":"KAT","is_transit":false,"distance":471,"i_lat":-6.20132,"transit":false,"i_long":106.816351,"line":1},{"transit":true,"station_id":"THB","station_name":"Tanah Abang","i_lat":-6.185545,"i_long":106.811091,"is_transit":true,"distance":2029,"line":1,"time":5},{"time":6,"station_name":"Palmerah","i_lat":-6.207404,"station_id":"PLM","distance":3191,"i_long":106.79689,"transit":false,"line":6,"is_transit":false},{"line":6,"i_long":106.780334,"time":7,"distance":3737,"station_id":"KBY","transit":false,"i_lat":-6.237242,"is_transit":false,"station_name":"Kebayoran"},{"station_id":"PDJ","distance":6218,"time":8,"i_long":106.74273,"transit":false,"i_lat":-6.276362,"line":6,"station_name":"Pondokranji","is_transit":false},{"is_transit":false,"i_long":106.728916,"time":3,"distance":2179,"i_lat":-6.288927,"line":6,"station_id":"JMU","station_name":"Jurangmangu","transit":false},{"time":4,"distance":1994,"is_transit":false,"i_long":106.712277,"transit":false,"i_lat":-6.296963,"line":6,"station_name":"Sudimara","station_id":"SDM"},{"is_transit":false,"time":6,"i_lat":-6.314823,"line":6,"station_name":"Rawa Buntu","distance":4566,"i_long":106.675475,"station_id":"RU","transit":false},{"distance":2413,"time":4,"transit":false,"line":6,"i_long":106.66566,"station_name":"Serpong","station_id":"SRP","is_transit":false,"i_lat":-6.319871},{"line":0,"distance":1784,"transit":false,"i_lat":-6.32484,"is_transit":false,"station_id":"CSK","time":4,"station_name":"Cisauk","i_long":106.640411},{"i_long":106.617853,"station_name":"Cicayur","transit":false,"line":0,"station_id":"CC","is_transit":false,"distance":2519,"i_lat":-6.329547,"time":4},{"time":8,"line":6,"i_long":106.568863,"station_name":"Parung Panjang","is_transit":false,"i_lat":-6.3441410000000005,"transit":false,"station_id":"PRP","distance":5968},{"time":9,"i_long":106.508482,"station_name":"Cilejit","distance":7025,"transit":false,"i_lat":-6.354349,"line":0,"station_id":"CJT","is_transit":false},{"time":6,"i_long":106.491338,"i_lat":-6.338021,"line":0,"station_name":"Daru","transit":false,"is_transit":false,"distance":2675,"station_id":"DAR"},{"i_lat":-6.327251,"i_long":106.460812,"station_name":"Tenjo","line":6,"is_transit":false,"distance":3902,"transit":false,"station_id":"TEJ","time":5},{"station_id":"TGS","is_transit":false,"transit":false,"i_lat":-6.328533,"i_long":106.425991,"line":6,"station_name":"Tigaraksa","time":5,"distance":2974},{"time":3,"station_id":"CKY","distance":2651,"station_name":"Cikoya","is_transit":false,"transit":false,"i_long":106.411216,"i_lat":-6.33561,"line":0},{"line":6,"station_name":"Maja","distance":1853,"transit":false,"station_id":"MJ","i_lat":-6.332307,"i_long":106.394373,"time":4,"is_transit":false},{"is_transit":false,"i_lat":-6.334892,"time":10,"transit":false,"distance":7293,"i_long":106.332092,"station_id":"CTR","station_name":"Citeras","line":0},{"distance":9847,"transit":false,"i_lat":-6.352675,"line":0,"is_transit":true,"station_name":"Rangkasbitung","time":13,"i_long":106.250396,"station_id":"RK"}],[{"station_id":"DPB","time":0,"station_name":"Depokbaru","i_long":106.819451,"i_lat":-6.391065,"distance":0,"transit":false,"is_transit":false,"line":0},{"transit":false,"station_id":"POC","station_name":"Pondok Cina","time":4,"distance":2727,"i_long":106.831114,"i_lat":-6.369073,"line":2,"is_transit":false},{"time":2,"distance":1109,"i_lat":-6.360749,"i_long":106.831474,"line":2,"station_name":"Univ. Indonesia","is_transit":false,"transit":false,"station_id":"UI"},{"distance":2264,"i_long":106.834175,"i_lat":-6.339291,"station_name":"Univ. Pancasila","time":3,"is_transit":false,"transit":false,"line":2,"station_id":"UP"},{"station_name":"Lenteng Agung","distance":1029,"time":2,"i_long":106.832616,"i_lat":-6.330363,"is_transit":false,"transit":false,"station_id":"LNA","line":2},{"distance":2671,"station_id":"TNT","time":3,"transit":false,"station_name":"Tanjung Barat","is_transit":false,"line":2,"i_lat":-6.3080680000000005,"i_long":106.838896},{"is_transit":false,"time":4,"i_lat":-6.2842400000000005,"distance":2820,"transit":false,"i_long":106.843999,"station_name":"Pasar Minggu","station_id":"PSM","line":2},{"station_name":"Pasar Minggu Baru","time":2,"distance":2380,"transit":false,"station_id":"PSMB","is_transit":false,"i_lat":-6.263214,"i_long":106.851577,"line":2},{"distance":824,"line":0,"is_transit":false,"i_lat":-6.255332,"transit":false,"station_name":"Duren Kalibata","i_long":106.85449,"time":2,"station_id":"DRN"},{"time":3,"distance":1546,"station_name":"Cawang","is_transit":false,"transit":false,"station_id":"CW","line":0,"i_long":106.856607,"i_lat":-6.242512},{"station_name":"Tebet","time":2,"transit":false,"is_transit":false,"station_id":"TEB","line":2,"distance":1230,"i_lat":-6.226659,"i_long":106.857948},{"time":4,"transit":true,"i_long":106.84912,"line":0,"i_lat":-6.209883,"station_id":"MRI","station_name":"Manggarai","is_transit":true,"distance":2610},{"distance":1590,"station_id":"CKI","is_transit":false,"transit":false,"i_lat":-6.198556,"i_long":106.840169,"line":0,"station_name":"Cikini","time":4},{"station_name":"Gondangdia","time":3,"distance":1750,"station_id":"GDD","i_lat":-6.186295,"i_long":106.832183,"line":2,"transit":false,"is_transit":false},{"i_long":106.828284,"i_lat":-6.166716,"transit":false,"distance":2015,"time":4,"station_id":"JUA","station_name":"Juanda","is_transit":false,"line":2},{"transit":false,"i_long":106.827103,"line":2,"station_id":"SW","is_transit":false,"distance":1149,"time":2,"station_name":"Sawah Besar","i_lat":-6.160725},{"is_transit":false,"time":2,"line":2,"station_name":"Manggabesar","distance":906,"station_id":"MGB","transit":false,"i_lat":-6.149769,"i_long":106.82482},{"station_id":"JAY","station_name":"Jayakarta","is_transit":false,"transit":false,"distance":1080,"i_lat":-6.141205,"i_long":106.820901,"time":2,"line":7},{"distance":1264,"time":4,"i_long":106.812439,"transit":true,"station_id":"JAKK","station_name":"Jakarta Kota","is_transit":true,"line":0,"i_lat":-6.137569},{"i_lat":-6.132549,"station_name":"Kampung Bandan","i_long":106.826365,"time":3,"line":0,"station_id":"KPB","transit":false,"is_transit":true,"distance":1364},{"transit":false,"i_lat":-6.144674,"time":9,"i_long":106.79867,"station_name":"Angke","line":0,"distance":4102,"station_id":"AK","is_transit":false},{"time":4,"line":1,"transit":true,"is_transit":true,"i_lat":-6.155215,"i_long":106.800832,"distance":1230,"station_id":"DU","station_name":"Duri"},{"station_id":"THB","time":8,"station_name":"Tanah Abang","i_lat":-6.185545,"i_long":106.811091,"line":1,"is_transit":true,"transit":true,"distance":3632},{"time":6,"station_id":"PLM","i_long":106.79689,"i_lat":-6.207404,"line":6,"station_name":"Palmerah","is_transit":false,"distance":3191,"transit":false},{"is_transit":false,"transit":false,"i_long":106.780334,"station_id":"KBY","station_name":"Kebayoran","time":7,"i_lat":-6.237242,"distance":3737,"line":6},{"distance":6218,"line":6,"is_transit":false,"time":8,"station_id":"PDJ","i_lat":-6.276362,"transit":false,"station_name":"Pondokranji","i_long":106.74273},{"distance":2179,"time":3,"line":6,"i_long":106.728916,"i_lat":-6.288927,"is_transit":false,"station_id":"JMU","station_name":"Jurangmangu","transit":false},{"distance":1994,"transit":false,"time":4,"i_lat":-6.296963,"station_id":"SDM","line":6,"station_name":"Sudimara","is_transit":false,"i_long":106.712277},{"i_lat":-6.314823,"station_name":"Rawa Buntu","transit":false,"time":6,"distance":4566,"is_transit":false,"i_long":106.675475,"station_id":"RU","line":6},{"station_name":"Serpong","time":4,"i_long":106.66566,"distance":2413,"line":6,"transit":false,"station_id":"SRP","is_transit":false,"i_lat":-6.319871},{"transit":false,"time":4,"line":0,"distance":1784,"station_id":"CSK","i_lat":-6.32484,"station_name":"Cisauk","is_transit":false,"i_long":106.640411},{"time":4,"transit":false,"line":0,"is_transit":false,"i_lat":-6.329547,"station_id":"CC","i_long":106.617853,"station_name":"Cicayur","distance":2519},{"i_long":106.568863,"distance":5968,"time":8,"station_id":"PRP","i_lat":-6.3441410000000005,"is_transit":false,"station_name":"Parung Panjang","transit":false,"line":6},{"station_id":"CJT","station_name":"Cilejit","is_transit":false,"distance":7025,"line":0,"i_long":106.508482,"transit":false,"i_lat":-6.354349,"time":9},{"transit":false,"i_long":106.491338,"station_id":"DAR","i_lat":-6.338021,"is_transit":false,"line":0,"time":6,"distance":2675,"station_name":"Daru"},{"i_lat":-6.327251,"i_long":106.460812,"distance":3902,"line":6,"transit":false,"is_transit":false,"station_name":"Tenjo","time":5,"station_id":"TEJ"},{"transit":false,"i_lat":-6.328533,"station_id":"TGS","time":5,"line":6,"station_name":"Tigaraksa","distance":2974,"i_long":106.425991,"is_transit":false},{"transit":false,"station_id":"CKY","i_long":106.411216,"i_lat":-6.33561,"is_transit":false,"line":0,"station_name":"Cikoya","distance":2651,"time":3},{"line":6,"distance":1853,"transit":false,"i_long":106.394373,"i_lat":-6.332307,"station_name":"Maja","time":4,"station_id":"MJ","is_transit":false},{"station_id":"CTR","station_name":"Citeras","is_transit":false,"transit":false,"line":0,"distance":7293,"i_lat":-6.334892,"time":10,"i_long":106.332092},{"line":0,"station_name":"Rangkasbitung","time":13,"station_id":"RK","transit":false,"distance":9847,"i_lat":-6.352675,"is_transit":true,"i_long":106.250396}],[{"station_name":"Depokbaru","time":0,"station_id":"DPB","line":0,"distance":0,"is_transit":false,"transit":false,"i_long":106.819451,"i_lat":-6.391065},{"i_long":106.831114,"station_name":"Pondok Cina","is_transit":false,"station_id":"POC","transit":false,"distance":2727,"i_lat":-6.369073,"line":2,"time":4},{"i_lat":-6.360749,"time":2,"transit":false,"line":2,"is_transit":false,"i_long":106.831474,"station_name":"Univ. Indonesia","distance":1109,"station_id":"UI"},{"is_transit":false,"time":3,"line":2,"station_id":"UP","i_long":106.834175,"i_lat":-6.339291,"transit":false,"station_name":"Univ. Pancasila","distance":2264},{"line":2,"is_transit":false,"time":2,"station_id":"LNA","transit":false,"distance":1029,"i_lat":-6.330363,"station_name":"Lenteng Agung","i_long":106.832616},{"station_id":"TNT","i_long":106.838896,"transit":false,"line":2,"time":3,"i_lat":-6.3080680000000005,"station_name":"Tanjung Barat","is_transit":false,"distance":2671},{"time":4,"distance":2820,"line":2,"station_name":"Pasar Minggu","transit":false,"station_id":"PSM","is_transit":false,"i_lat":-6.2842400000000005,"i_long":106.843999},{"i_lat":-6.263214,"time":2,"i_long":106.851577,"is_transit":false,"station_id":"PSMB","transit":false,"distance":2380,"line":2,"station_name":"Pasar Minggu Baru"},{"line":0,"station_name":"Duren Kalibata","station_id":"DRN","is_transit":false,"transit":false,"time":2,"distance":824,"i_lat":-6.255332,"i_long":106.85449},{"station_name":"Cawang","i_lat":-6.242512,"distance":1546,"station_id":"CW","time":3,"is_transit":false,"i_long":106.856607,"transit":false,"line":0},{"transit":false,"distance":1230,"station_id":"TEB","i_long":106.857948,"time":2,"is_transit":false,"i_lat":-6.226659,"line":2,"station_name":"Tebet"},{"i_lat":-6.209883,"station_id":"MRI","line":0,"distance":2610,"station_name":"Manggarai","time":4,"i_long":106.84912,"is_transit":true,"transit":true},{"i_lat":-6.212485,"i_long":106.858896,"transit":false,"line":1,"distance":1275,"station_name":"Matraman","is_transit":false,"time":2,"station_id":"MTR"},{"transit":true,"i_long":106.86807400000001,"i_lat":-6.215091,"station_name":"Jatinegara","time":8,"is_transit":true,"line":0,"distance":1377,"station_id":"JNG"},{"line":11,"station_name":"Pondok Jati","time":2,"distance":1236,"is_transit":false,"transit":false,"i_lat":-6.209188,"i_long":106.861737,"station_id":"POK"},{"i_lat":-6.193792,"transit":false,"station_name":"Kramat","time":2,"line":11,"distance":1829,"is_transit":false,"station_id":"KMT","i_long":106.855437},{"i_long":106.850107,"transit":false,"station_name":"Gang Sentiong","time":1,"i_lat":-6.185975,"station_id":"GST","distance":973,"is_transit":false,"line":11},{"station_id":"PSE","transit":false,"distance":1567,"i_lat":-6.174784,"line":11,"i_long":106.84368,"time":8,"is_transit":false,"station_name":"Pasar Senen"},{"time":4,"i_long":106.839204,"station_name":"Kemayoran","distance":1436,"station_id":"KMO","transit":false,"i_lat":-6.161728,"line":11,"is_transit":false},{"is_transit":false,"distance":1901,"i_long":106.836569,"station_id":"RJW","transit":false,"station_name":"Rajawali","time":5,"line":11,"i_lat":-6.14505},{"station_id":"KPB","i_lat":-6.132549,"i_long":106.826365,"is_transit":true,"distance":1444,"station_name":"Kampung Bandan","time":3,"transit":true,"line":0},{"distance":4102,"i_lat":-6.144674,"station_name":"Angke","i_long":106.79867,"station_id":"AK","is_transit":false,"line":0,"transit":false,"time":9},{"station_name":"Duri","is_transit":true,"time":4,"line":1,"i_lat":-6.155215,"i_long":106.800832,"transit":true,"distance":1230,"station_id":"DU"},{"transit":true,"is_transit":true,"time":8,"distance":3632,"i_long":106.811091,"line":1,"station_id":"THB","station_name":"Tanah Abang","i_lat":-6.185545},{"line":6,"is_transit":false,"station_id":"PLM","time":6,"i_long":106.79689,"distance":3191,"i_lat":-6.207404,"station_name":"Palmerah","transit":false},{"distance":3737,"line":6,"station_name":"Kebayoran","station_id":"KBY","time":7,"i_lat":-6.237242,"i_long":106.780334,"is_transit":false,"transit":false},{"transit":false,"distance":6218,"time":8,"i_long":106.74273,"station_name":"Pondokranji","is_transit":false,"station_id":"PDJ","i_lat":-6.276362,"line":6},{"transit":false,"i_lat":-6.288927,"time":3,"is_transit":false,"station_id":"JMU","i_long":106.728916,"line":6,"station_name":"Jurangmangu","distance":2179},{"is_transit":false,"line":6,"i_long":106.712277,"time":4,"station_id":"SDM","distance":1994,"i_lat":-6.296963,"transit":false,"station_name":"Sudimara"},{"transit":false,"i_long":106.675475,"station_name":"Rawa Buntu","distance":4566,"line":6,"time":6,"station_id":"RU","is_transit":false,"i_lat":-6.314823},{"distance":2413,"i_long":106.66566,"transit":false,"i_lat":-6.319871,"time":4,"station_id":"SRP","is_transit":false,"station_name":"Serpong","line":6},{"station_id":"CSK","i_long":106.640411,"station_name":"Cisauk","transit":false,"line":0,"time":4,"is_transit":false,"distance":1784,"i_lat":-6.32484},{"is_transit":false,"station_name":"Cicayur","i_long":106.617853,"transit":false,"distance":2519,"station_id":"CC","time":4,"i_lat":-6.329547,"line":0},{"station_name":"Parung Panjang","i_lat":-6.3441410000000005,"distance":5968,"time":8,"i_long":106.568863,"station_id":"PRP","is_transit":false,"transit":false,"line":6},{"station_id":"CJT","line":0,"station_name":"Cilejit","distance":7025,"is_transit":false,"transit":false,"time":9,"i_lat":-6.354349,"i_long":106.508482},{"station_name":"Daru","i_long":106.491338,"line":0,"is_transit":false,"transit":false,"time":6,"distance":2675,"station_id":"DAR","i_lat":-6.338021},{"line":6,"time":5,"station_id":"TEJ","i_lat":-6.327251,"i_long":106.460812,"station_name":"Tenjo","is_transit":false,"transit":false,"distance":3902},{"station_id":"TGS","i_long":106.425991,"distance":2974,"transit":false,"i_lat":-6.328533,"station_name":"Tigaraksa","time":5,"line":6,"is_transit":false},{"is_transit":false,"transit":false,"time":3,"i_lat":-6.33561,"distance":2651,"station_id":"CKY","i_long":106.411216,"line":0,"station_name":"Cikoya"},{"i_lat":-6.332307,"time":4,"i_long":106.394373,"line":6,"distance":1853,"is_transit":false,"station_id":"MJ","station_name":"Maja","transit":false},{"time":10,"line":0,"transit":false,"i_lat":-6.334892,"station_id":"CTR","i_long":106.332092,"station_name":"Citeras","distance":7293,"is_transit":false},{"i_long":106.250396,"is_transit":true,"distance":9847,"station_id":"RK","transit":false,"line":0,"time":13,"station_name":"Rangkasbitung","i_lat":-6.352675}]]}