{"data":[[{"station_name":"Depokbaru","is_transit":false,"i_long":106.819451,"transit":false,"time":0,"station_id":"DPB","line":2,"distance":0,"i_lat":-6.391065},{"transit":false,"i_long":106.831114,"station_id":"POC","time":4,"is_transit":false,"i_lat":-6.369073,"distance":2727,"line":2,"station_name":"Pondok Cina"},{"distance":1109,"station_name":"Univ. Indonesia","time":2,"is_transit":false,"i_long":106.831474,"i_lat":-6.360749,"line":2,"transit":false,"station_id":"UI"},{"is_transit":false,"station_name":"Univ. Pancasila","distance":2264,"i_lat":-6.339291,"time":3,"station_id":"UP","i_long":106.834175,"line":2,"transit":false},{"transit":false,"i_lat":-6.330363,"line":2,"distance":1029,"is_transit":false,"time":2,"station_id":"LNA","station_name":"Lenteng Agung","i_long":106.832616},{"station_id":"TNT","line":2,"transit":false,"i_long":106.838896,"is_transit":false,"station_name":"Tanjung Barat","distance":2671,"time":3,"i_lat":-6.3080680000000005},{"is_transit":false,"time":4,"distance":2820,"line":2,"i_lat":-6.2842400000000005,"station_id":"PSM","transit":false,"station_name":"Pasar Minggu","i_long":106.843999},{"transit":false,"is_transit":false,"time":2,"line":2,"i_long":106.851577,"i_lat":-6.263214,"station_name":"Pasar Minggu Baru","station_id":"PSMB","distance":2380},{"i_lat":-6.255332,"station_id":"DRN","distance":824,"is_transit":false,"time":2,"i_long":106.85449,"line":2,"station_name":"Duren Kalibata","transit":false},{"i_lat":-6.242512,"transit":false,"station_id":"CW","distance":1546,"i_long":106.856607,"is_transit":false,"line":2,"station_name":"Cawang","time":3},{"distance":1230,"station_name":"Tebet","is_transit":false,"transit":false,"station_id":"TEB","time":2,"i_lat":-6.226659,"i_long":106.857948,"line":2},{"transit":true,"i_lat":-6.209883,"i_long":106.84912,"time":4,"station_name":"Manggarai","distance":2610,"station_id":"MRI","line":2,"is_transit":true},{"station_name":"Matraman","i_lat":-6.212485,"i_long":106.858896,"line":1,"is_transit":false,"time":2,"station_id":"MTR","transit":false,"distance":1275},{"distance":1377,"time":8,"transit":false,"station_id":"JNG","station_name":"Jatinegara","is_transit":false,"i_lat":-6.215091,"i_long":106.86807400000001,"line":1},{"station_id":"KLD","time":3,"i_lat":-6.2135,"is_transit":false,"line":1,"i_long":106.899548,"station_name":"Klender","transit":false,"distance":3395},{"line":1,"i_lat":-6.215568,"station_name":"Buaran","station_id":"BUA","i_long":106.922662,"distance":3100,"transit":false,"is_transit":false,"time":2},{"distance":1305,"station_id":"KLDB","i_lat":-6.217455,"i_long":106.939679,"transit":false,"time":1,"line":1,"station_name":"Klenderbaru","is_transit":false},{"transit":false,"is_transit":false,"line":1,"time":8,"station_id":"CUK","i_long":106.951283,"i_lat":-6.219053,"distance":1385,"station_name":"Cakung"},{"i_lat":-6.224515,"is_transit":false,"station_name":"Kranji","time":3,"i_long":106.977657,"transit":false,"line":1,"station_id":"KRI","distance":3097},{"i_lat":-6.236616,"station_id":"BKS","line":1,"distance":2520,"station_name":"Bekasi","is_transit":false,"i_long":106.997013,"time":4,"transit":false},{"i_lat":-6.248029,"line":1,"station_id":"BKST","time":2,"distance":2368,"station_name":"Bekasi Timur","is_transit":false,"i_long":107.016735,"transit":false},{"line":1,"i_lat":-6.258864,"station_name":"Tambun","i_long":107.055722,"station_id":"TB","is_transit":false,"distance":4460,"transit":false,"time":7},{"time":3,"i_long":107.083084,"station_name":"Cibitung","transit":false,"is_transit":false,"distance":3420,"station_id":"CIT","line":1,"i_lat":-6.261877}],[{"distance":0,"line":2,"i_lat":-6.391065,"transit":false,"station_id":"DPB","station_name":"Depokbaru","i_long":106.819451,"time":0,"is_transit":false},{"i_lat":-6.369073,"i_long":106.831114,"line":2,"station_name":"Pondok Cina","station_id":"POC","time":4,"transit":false,"is_transit":false,"distance":2727},{"station_name":"Univ. Indonesia","distance":1109,"station_id":"UI","transit":false,"i_lat":-6.360749,"line":2,"is_transit":false,"time":2,"i_long":106.831474},{"station_name":"Univ. Pancasila","time":3,"i_long":106.834175,"i_lat":-6.339291,"is_transit":false,"transit":false,"line":2,"distance":2264,"station_id":"UP"},{"transit":false,"i_lat":-6.330363,"is_transit":false,"time":2,"station_id":"LNA","station_name":"Lenteng Agung","distance":1029,"i_long":106.832616,"line":2},{"station_id":"TNT","transit":false,"time":3,"i_long":106.838896,"is_transit":false,"i_lat":-6.3080680000000005,"station_name":"Tanjung Barat","distance":2671,"line":2},{"distance":2820,"is_transit":false,"time":4,"station_name":"Pasar Minggu","i_long":106.843999,"i_lat":-6.2842400000000005,"line":2,"transit":false,"station_id":"PSM"},{"line":2,"distance":2380,"i_lat":-6.263214,"station_id":"PSMB","transit":false,"is_transit":false,"time":2,"station_name":"Pasar Minggu Baru","i_long":106.851577},{"transit":false,"time":2,"distance":824,"station_id":"DRN","i_lat":-6.255332,"line":2,"i_long":106.85449,"is_transit":false,"station_name":"Duren Kalibata"},{"is_transit":false,"distance":1546,"i_long":106.856607,"line":2,"transit":false,"station_name":"Cawang","i_lat":-6.242512,"station_id":"CW","time":3},{"i_lat":-6.226659,"i_long":106.857948,"station_name":"Tebet","distance":1230,"line":2,"station_id":"TEB","time":2,"is_transit":false,"transit":false},{"is_transit":true,"i_lat":-6.209883,"transit":true,"line":2,"i_long":106.84912,"time":4,"station_name":"Manggarai","station_id":"MRI","distance":2610},{"station_id":"SUD","i_lat":-6.202263,"distance":3186,"is_transit":false,"transit":false,"time":4,"line":1,"i_long":106.822649,"station_name":"Sudirman"},{"is_transit":false,"distance":280,"transit":false,"i_long":106.819881,"line":1,"station_id":"SUDB","time":1,"i_lat":-6.201433,"station_name":"Sudirman Baru"},{"station_name":"Karet","station_id":"KAT","transit":false,"i_long":106.816351,"line":1,"i_lat":-6.20132,"time":1,"distance":471,"is_transit":false},{"station_id":"THB","line":1,"time":5,"station_name":"Tanah Abang","i_long":106.811091,"is_transit":false,"i_lat":-6.185545,"distance":2029,"transit":false},{"i_lat":-6.155215,"is_transit":false,"i_long":106.800832,"station_name":"Duri","station_id":"DU","transit":false,"time":8,"distance":3632,"line":1},{"time":4,"station_id":"AK","station_name":"Angke","transit":false,"i_long":106.79867,"i_lat":-6.144674,"is_transit":false,"distance":1230,"line":1},{"station_id":"KPB","i_lat":-6.132549,"distance":4102,"transit":true,"line":4,"time":9,"i_long":106.826365,"station_name":"Kampung Bandan","is_transit":true},{"transit":false,"time":3,"distance":1444,"station_id":"RJW","i_lat":-6.14505,"is_transit":false,"line":11,"station_name":"Rajawali","i_long":106.836569},{"station_id":"KMO","transit":false,"time":5,"distance":1901,"station_name":"Kemayoran","i_lat":-6.161728,"is_transit":false,"i_long":106.839204,"line":11},{"distance":1436,"i_lat":-6.174784,"i_long":106.84368,"transit":false,"station_name":"Pasar Senen","time":4,"line":11,"is_transit":false,"station_id":"PSE"},{"line":11,"i_long":106.850107,"distance":1567,"station_name":"Gang Sentiong","station_id":"GST","is_transit":false,"i_lat":-6.185975,"time":8,"transit":false},{"station_id":"KMT","station_name":"Kramat","is_transit":false,"i_lat":-6.193792,"transit":false,"time":1,"distance":973,"i_long":106.855437,"line":11},{"time":2,"distance":1829,"line":11,"station_name":"Pondok Jati","transit":false,"station_id":"POK","i_long":106.861737,"is_transit":false,"i_lat":-6.209188},{"i_long":106.86807400000001,"distance":1236,"time":9,"station_name":"Jatinegara","station_id":"JNG","line":1,"transit":true,"is_transit":true,"i_lat":-6.215091},{"transit":false,"i_lat":-6.2135,"time":3,"station_name":"Klender","is_transit":false,"distance":3395,"line":1,"station_id":"KLD","i_long":106.899548},{"transit":false,"is_transit":false,"time":2,"distance":3100,"line":1,"i_lat":-6.215568,"station_name":"Buaran","i_long":106.922662,"station_id":"BUA"},{"time":1,"transit":false,"station_name":"Klenderbaru","distance":1305,"i_lat":-6.217455,"station_id":"KLDB","i_long":106.939679,"is_transit":false,"line":1},{"line":1,"time":8,"i_lat":-6.219053,"station_id":"CUK","i_long":106.951283,"station_name":"Cakung","distance":1385,"is_transit":false,"transit":false},{"i_long":106.977657,"i_lat":-6.224515,"station_name":"Kranji","is_transit":false,"station_id":"KRI","time":3,"distance":3097,"line":1,"transit":false},{"line":1,"station_id":"BKS","time":4,"is_transit":false,"i_long":106.997013,"distance":2520,"i_lat":-6.236616,"transit":false,"station_name":"Bekasi"},{"is_transit":false,"i_lat":-6.248029,"station_name":"Bekasi Timur","line":1,"distance":2368,"transit":false,"station_id":"BKST","i_long":107.016735,"time":2},{"distance":4460,"time":7,"i_lat":-6.258864,"station_id":"TB","line":1,"station_name":"Tambun","transit":false,"is_transit":false,"i_long":107.055722},{"i_long":107.083084,"line":1,"time":3,"transit":false,"station_id":"CIT","is_transit":false,"i_lat":-6.261877,"station_name":"Cibitung","distance":3420}],[{"station_id":"DPB","station_name":"Depokbaru","i_long":106.819451,"distance":0,"transit":false,"is_transit":false,"i_lat":-6.391065,"time":0,"line":2},{"station_name":"Pondok Cina","distance":2727,"i_long":106.831114,"station_id":"POC","i_lat":-6.369073,"transit":false,"line":2,"is_transit":false,"time":4},{"transit":false,"is_transit":false,"line":2,"station_id":"UI","i_lat":-6.360749,"i_long":106.831474,"distance":1109,"station_name":"Univ. Indonesia","time":2},{"i_lat":-6.339291,"is_transit":false,"time":3,"station_id":"UP","distance":2264,"line":2,"i_long":106.834175,"transit":false,"station_name":"Univ. Pancasila"},{"i_long":106.832616,"station_name":"Lenteng Agung","time":2,"i_lat":-6.330363,"is_transit":false,"distance":1029,"line":2,"transit":false,"station_id":"LNA"},{"station_id":"TNT","time":3,"line":2,"is_transit":false,"i_lat":-6.3080680000000005,"i_long":106.838896,"transit":false,"distance":2671,"station_name":"Tanjung Barat"},{"transit":false,"line":2,"station_id":"PSM","i_long":106.843999,"station_name":"Pasar Minggu","is_transit":false,"time":4,"distance":2820,"i_lat":-6.2842400000000005},{"time":2,"station_id":"PSMB","transit":false,"station_name":"Pasar Minggu Baru","distance":2380,"i_long":106.851577,"line":2,"is_transit":false,"i_lat":-6.263214},{"station_id":"DRN","transit":false,"station_name":"Duren Kalibata","is_transit":false,"time":2,"i_lat":-6.255332,"i_long":106.85449,"distance":824,"line":2},{"i_lat":-6.242512,"is_transit":false,"i_long":106.856607,"line":2,"station_name":"Cawang","transit":false,"time":3,"station_id":"CW","distance":1546},{"line":2,"station_name":"Tebet","time":2,"distance":1230,"transit":false,"is_transit":false,"i_long":106.857948,"i_lat":-6.226659,"station_id":"TEB"},{"time":4,"distance":2610,"is_transit":false,"line":2,"i_long":106.84912,"station_id":"MRI","transit":false,"i_lat":-6.209883,"station_name":"Manggarai"},{"station_name":"Cikini","station_id":"CKI","time":4,"i_long":106.840169,"distance":1590,"is_transit":false,"line":2,"transit":false,"i_lat":-6.198556},{"distance":1750,"transit":false,"station_id":"GDD","i_long":106.832183,"is_transit":false,"i_lat":-6.186295,"station_name":"Gondangdia","line":2,"time":3},{"line":2,"transit":false,"is_transit":false,"i_lat":-6.166716,"station_name":"Juanda","i_long":106.828284,"station_id":"JUA","distance":2015,"time":4},{"transit":false,"station_id":"SW","i_long":106.827103,"time":2,"station_name":"Sawah Besar","is_transit":false,"distance":1149,"i_lat":-6.160725,"line":2},{"i_lat":-6.149769,"station_id":"MGB","i_long":106.82482,"is_transit":false,"time":2,"distance":906,"line":2,"transit":false,"station_name":"Manggabesar"},{"line":2,"is_transit":false,"i_lat":-6.141205,"station_id":"JAY","time":2,"i_long":106.820901,"transit":false,"station_name":"Jayakarta","distance":1080},{"i_long":106.812439,"transit":true,"is_transit":true,"station_id":"JAKK","distance":1264,"i_lat":-6.137569,"line":2,"time":4,"station_name":"Jakarta Kota"},{"transit":true,"distance":1364,"i_lat":-6.132549,"i_long":106.826365,"line":4,"station_id":"KPB","time":3,"station_name":"Kampung Bandan","is_transit":true},{"i_lat":-6.14505,"line":11,"station_name":"Rajawali","time":3,"station_id":"RJW","transit":false,"is_transit":false,"distance":1444,"i_long":106.836569},{"station_name":"Kemayoran","is_transit":false,"distance":1901,"station_id":"KMO","time":5,"i_long":106.839204,"line":11,"i_lat":-6.161728,"transit":false},{"line":11,"i_long":106.84368,"time":4,"i_lat":-6.174784,"station_name":"Pasar Senen","transit":false,"is_transit":false,"station_id":"PSE","distance":1436},{"is_transit":false,"i_lat":-6.185975,"transit":false,"i_long":106.850107,"station_id":"GST","distance":1567,"line":11,"time":8,"station_name":"Gang Sentiong"},{"distance":973,"i_lat":-6.193792,"is_transit":false,"i_long":106.855437,"station_name":"Kramat","station_id":"KMT","transit":false,"time":1,"line":11},{"station_id":"POK","time":2,"is_transit":false,"transit":false,"line":11,"distance":1829,"station_name":"Pondok Jati","i_lat":-6.209188,"i_long":106.861737},{"i_long":106.86807400000001,"station_id":"JNG","is_transit":true,"transit":true,"station_name":"Jatinegara","line":1,"distance":1236,"i_lat":-6.215091,"time":9},{"distance":3395,"i_long":106.899548,"station_name":"Klender","line":1,"transit":false,"time":3,"is_transit":false,"i_lat":-6.2135,"station_id":"KLD"},{"station_id":"BUA","station_name":"Buaran","transit":false,"is_transit":false,"line":1,"i_long":106.922662,"time":2,"distance":3100,"i_lat":-6.215568},{"is_transit":false,"time":1,"distance":1305,"i_lat":-6.217455,"i_long":106.939679,"station_name":"Klenderbaru","station_id":"KLDB","line":1,"transit":false},{"distance":1385,"station_id":"CUK","transit":false,"time":8,"station_name":"Cakung","i_lat":-6.219053,"is_transit":false,"line":1,"i_long":106.951283},{"is_transit":false,"time":3,"distance":3097,"transit":false,"station_id":"KRI","station_name":"Kranji","line":1,"i_lat":-6.224515,"i_long":106.977657},{"station_id":"BKS","i_long":106.997013,"is_transit":false,"transit":false,"line":1,"station_name":"Bekasi","time":4,"i_lat":-6.236616,"distance":2520},{"transit":false,"time":2,"station_id":"BKST","line":1,"i_long":107.016735,"distance":2368,"i_lat":-6.248029,"is_transit":false,"station_name":"Bekasi Timur"},{"time":7,"i_long":107.055722,"is_transit":false,"i_lat":-6.258864,"distance":4460,"line":1,"transit":false,"station_name":"Tambun","station_id":"TB"},{"i_long":107.083084,"station_id":"CIT","distance":3420,"transit":false,"station_name":"Cibitung","time":3,"line":1,"i_lat":-6.261877,"is_transit":false}]]}