{"data":[[{"transit":false,"time":0,"i_lat":-6.391065,"distance":0,"i_long":106.819451,"station_id":"DPB","line":2,"station_name":"Depokbaru","is_transit":false},{"line":2,"i_lat":-6.369073,"transit":false,"i_long":106.831114,"station_name":"Pondok Cina","station_id":"POC","is_transit":false,"distance":2727,"time":4},{"i_long":106.831474,"is_transit":false,"line":2,"transit":false,"distance":1109,"time":2,"i_lat":-6.360749,"station_id":"UI","station_name":"Univ. Indonesia"},{"transit":false,"i_lat":-6.339291,"is_transit":false,"distance":2264,"station_name":"Univ. Pancasila","time":3,"station_id":"UP","line":2,"i_long":106.834175},{"transit":false,"station_name":"Lenteng Agung","line":2,"i_lat":-6.330363,"time":2,"is_transit":false,"distance":1029,"i_long":106.832616,"station_id":"LNA"},{"station_id":"TNT","i_lat":-6.3080680000000005,"transit":false,"station_name":"Tanjung Barat","time":3,"is_transit":false,"distance":2671,"i_long":106.838896,"line":2},{"line":2,"station_name":"Pasar Minggu","distance":2820,"i_lat":-6.2842400000000005,"transit":false,"is_transit":false,"i_long":106.843999,"station_id":"PSM","time":4},{"distance":2380,"is_transit":false,"i_long":106.851577,"time":2,"station_id":"PSMB","line":2,"i_lat":-6.263214,"station_name":"Pasar Minggu Baru","transit":false},{"i_lat":-6.255332,"i_long":106.85449,"distance":824,"station_name":"Duren Kalibata","line":2,"is_transit":false,"transit":false,"station_id":"DRN","time":2},{"distance":1546,"transit":false,"is_transit":false,"i_lat":-6.242512,"i_long":106.856607,"station_id":"CW","time":3,"line":2,"station_name":"Cawang"},{"transit":false,"station_id":"TEB","i_lat":-6.226659,"i_long":106.857948,"station_name":"Tebet","is_transit":false,"line":2,"distance":1230,"time":2},{"line":2,"time":4,"i_lat":-6.209883,"i_long":106.84912,"station_id":"MRI","is_transit":true,"station_name":"Manggarai","distance":2610,"transit":true},{"station_name":"Sudirman","transit":false,"time":4,"is_transit":false,"i_lat":-6.202263,"i_long":106.822649,"station_id":"SUD","distance":3186,"line":1},{"station_name":"Sudirman Baru","is_transit":false,"distance":280,"i_lat":-6.201433,"time":1,"i_long":106.819881,"transit":false,"line":1,"station_id":"SUDB"},{"station_name":"Karet","time":1,"transit":false,"station_id":"KAT","is_transit":false,"distance":471,"i_lat":-6.20132,"i_long":106.816351,"line":1},{"i_lat":-6.185545,"i_long":106.811091,"line":1,"distance":2029,"time":5,"transit":false,"station_id":"THB","is_transit":false,"station_name":"Tanah Abang"},{"distance":3632,"station_name":"Duri","line":1,"station_id":"DU","i_long":106.800832,"is_transit":true,"time":8,"i_lat":-6.155215,"transit":true},{"transit":false,"i_long":106.788277,"station_name":"Grogol","is_transit":false,"time":3,"i_lat":-6.162021,"line":5,"station_id":"GGL","distance":1700},{"i_long":106.771379,"is_transit":false,"distance":2036,"i_lat":-6.161433,"transit":false,"line":5,"station_id":"PSG","time":2,"station_name":"Pesing"},{"is_transit":false,"station_id":"TKO","distance":1614,"i_lat":-6.1587309999999995,"station_name":"Taman Kota","line":5,"transit":false,"i_long":106.756522,"time":2},{"i_lat":-6.159876,"line":5,"station_id":"BOI","time":2,"distance":2334,"station_name":"Bojongindah","is_transit":false,"transit":false,"i_long":106.737035},{"station_name":"Rawa Buaya","i_lat":-6.162758,"distance":1152,"time":4,"i_long":106.723064,"station_id":"RW","transit":false,"is_transit":false,"line":5},{"time":3,"is_transit":false,"station_id":"KDS","distance":2504,"i_lat":-6.166068,"line":5,"i_long":106.701612,"station_name":"Kalideres","transit":false},{"i_lat":-6.169933,"station_name":"Poris","time":3,"i_long":106.679458,"line":5,"transit":false,"station_id":"PI","distance":2548,"is_transit":false},{"i_lat":-6.171811,"station_name":"Batuceper","is_transit":false,"time":3,"distance":1834,"line":5,"transit":false,"station_id":"BPR","i_long":106.665036},{"time":3,"distance":2028,"line":5,"is_transit":false,"station_id":"TTI","transit":false,"station_name":"Tanah Tinggi","i_long":106.64657,"i_lat":-6.17331},{"line":5,"station_id":"TNG","i_long":106.632761,"distance":1547,"is_transit":false,"transit":false,"time":3,"station_name":"Tangerang","i_lat":-6.176583}],[{"is_transit":false,"distance":0,"i_long":106.819451,"transit":false,"line":2,"i_lat":-6.391065,"time":0,"station_id":"DPB","station_name":"Depokbaru"},{"station_id":"POC","distance":2727,"station_name":"Pondok Cina","time":4,"i_lat":-6.369073,"transit":false,"is_transit":false,"line":2,"i_long":106.831114},{"time":2,"i_long":106.831474,"distance":1109,"transit":false,"i_lat":-6.360749,"line":2,"is_transit":false,"station_name":"Univ. Indonesia","station_id":"UI"},{"station_name":"Univ. Pancasila","is_transit":false,"i_long":106.834175,"transit":false,"i_lat":-6.339291,"station_id":"UP","distance":2264,"line":2,"time":3},{"time":2,"station_id":"LNA","is_transit":false,"distance":1029,"i_long":106.832616,"station_name":"Lenteng Agung","transit":false,"i_lat":-6.330363,"line":2},{"station_name":"Tanjung Barat","time":3,"i_long":106.838896,"station_id":"TNT","transit":false,"i_lat":-6.3080680000000005,"line":2,"is_transit":false,"distance":2671},{"time":4,"i_long":106.843999,"station_id":"PSM","line":2,"i_lat":-6.2842400000000005,"is_transit":false,"station_name":"Pasar Minggu","transit":false,"distance":2820},{"i_long":106.851577,"line":2,"station_name":"Pasar Minggu Baru","i_lat":-6.263214,"station_id":"PSMB","time":2,"distance":2380,"transit":false,"is_transit":false},{"transit":false,"is_transit":false,"station_id":"DRN","distance":824,"station_name":"Duren Kalibata","time":2,"i_lat":-6.255332,"i_long":106.85449,"line":2},{"i_lat":-6.242512,"line":2,"station_name":"Cawang","station_id":"CW","is_transit":false,"transit":false,"distance":1546,"i_long":106.856607,"time":3},{"line":2,"station_id":"TEB","is_transit":false,"station_name":"Tebet","transit":false,"i_lat":-6.226659,"i_long":106.857948,"time":2,"distance":1230},{"station_name":"Manggarai","is_transit":false,"transit":false,"i_long":106.84912,"time":4,"station_id":"MRI","line":2,"distance":2610,"i_lat":-6.209883},{"station_name":"Cikini","i_lat":-6.198556,"transit":false,"time":4,"i_long":106.840169,"distance":1590,"station_id":"CKI","line":2,"is_transit":false},{"distance":1750,"is_transit":false,"i_lat":-6.186295,"transit":false,"line":2,"station_name":"Gondangdia","station_id":"GDD","i_long":106.832183,"time":3},{"i_lat":-6.166716,"time":4,"transit":false,"station_name":"Juanda","is_transit":false,"line":2,"station_id":"JUA","distance":2015,"i_long":106.828284},{"is_transit":false,"i_lat":-6.160725,"station_id":"SW","distance":1149,"i_long":106.827103,"line":2,"time":2,"station_name":"Sawah Besar","transit":false},{"line":2,"transit":false,"station_name":"Manggabesar","station_id":"MGB","i_lat":-6.149769,"time":2,"i_long":106.82482,"is_transit":false,"distance":906},{"i_lat":-6.141205,"i_long":106.820901,"is_transit":false,"distance":1080,"line":2,"time":2,"station_id":"JAY","transit":false,"station_name":"Jayakarta"},{"i_long":106.812439,"station_name":"Jakarta Kota","transit":true,"time":4,"station_id":"JAKK","i_lat":-6.137569,"is_transit":true,"distance":1264,"line":2},{"station_name":"Kampung Bandan","is_transit":true,"time":3,"station_id":"KPB","i_long":106.826365,"distance":1364,"line":4,"i_lat":-6.132549,"transit":true},{"i_lat":-6.144674,"i_long":106.79867,"time":9,"line":1,"distance":4102,"station_name":"Angke","station_id":"AK","transit":false,"is_transit":false},{"transit":true,"time":4,"i_lat":-6.155215,"station_id":"DU","line":1,"station_name":"Duri","i_long":106.800832,"is_transit":true,"distance":1230},{"station_name":"Grogol","is_transit":false,"time":3,"line":5,"i_long":106.788277,"station_id":"GGL","transit":false,"distance":1700,"i_lat":-6.162021},{"i_long":106.771379,"is_transit":false,"distance":2036,"transit":false,"i_lat":-6.161433,"line":5,"time":2,"station_name":"Pesing","station_id":"PSG"},{"distance":1614,"is_transit":false,"transit":false,"time":2,"i_long":106.756522,"i_lat":-6.1587309999999995,"line":5,"station_name":"Taman Kota","station_id":"TKO"},{"transit":false,"distance":2334,"i_long":106.737035,"i_lat":-6.159876,"station_id":"BOI","is_transit":false,"time":2,"line":5,"station_name":"Bojongindah"},{"station_id":"RW","line":5,"i_lat":-6.162758,"station_name":"Rawa Buaya","transit":false,"i_long":106.723064,"time":4,"is_transit":false,"distance":1152},{"distance":2504,"time":3,"i_long":106.701612,"station_id":"KDS","station_name":"Kalideres","i_lat":-6.166068,"is_transit":false,"line":5,"transit":false},{"transit":false,"is_transit":false,"distance":2548,"i_lat":-6.169933,"i_long":106.679458,"station_id":"PI","station_name":"Poris","time":3,"line":5},{"station_name":"Batuceper","distance":1834,"line":5,"is_transit":false,"time":3,"transit":false,"station_id":"BPR","i_lat":-6.171811,"i_long":106.665036},{"line":5,"transit":false,"i_lat":-6.17331,"is_transit":false,"station_name":"Tanah Tinggi","station_id":"TTI","distance":2028,"i_long":106.64657,"time":3},{"time":3,"station_name":"Tangerang","station_id":"TNG","is_transit":false,"i_long":106.632761,"line":5,"distance":1547,"transit":false,"i_lat":-6.176583}],[{"transit":false,"is_transit":false,"i_long":106.819451,"line":2,"i_lat":-6.391065,"distance":0,"station_name":"Depokbaru","time":0,"station_id":"DPB"},{"i_lat":-6.369073,"station_id":"POC","i_long":106.831114,"is_transit":false,"transit":false,"line":2,"distance":2727,"station_name":"Pondok Cina","time":4},{"station_name":"Univ. Indonesia","station_id":"UI","line":2,"i_lat":-6.360749,"time":2,"is_transit":false,"transit":false,"distance":1109,"i_long":106.831474},{"station_name":"Univ. Pancasila","is_transit":false,"transit":false,"station_id":"UP","distance":2264,"i_long":106.834175,"time":3,"line":2,"i_lat":-6.339291},{"i_lat":-6.330363,"station_id":"LNA","is_transit":false,"time":2,"distance":1029,"line":2,"i_long":106.832616,"station_name":"Lenteng Agung","transit":false},{"line":2,"station_id":"TNT","is_transit":false,"transit":false,"time":3,"i_lat":-6.3080680000000005,"distance":2671,"i_long":106.838896,"station_name":"Tanjung Barat"},{"distance":2820,"time":4,"line":2,"station_id":"PSM","i_lat":-6.2842400000000005,"i_long":106.843999,"transit":false,"station_name":"Pasar Minggu","is_transit":false},{"station_name":"Pasar Minggu Baru","distance":2380,"i_lat":-6.263214,"is_transit":false,"i_long":106.851577,"transit":false,"time":2,"station_id":"PSMB","line":2},{"i_long":106.85449,"distance":824,"i_lat":-6.255332,"line":2,"is_transit":false,"transit":false,"station_id":"DRN","station_name":"Duren Kalibata","time":2},{"station_id":"CW","i_lat":-6.242512,"is_transit":false,"transit":false,"i_long":106.856607,"distance":1546,"station_name":"Cawang","line":2,"time":3},{"is_transit":false,"i_long":106.857948,"transit":false,"line":2,"station_id":"TEB","time":2,"i_lat":-6.226659,"station_name":"Tebet","distance":1230},{"i_long":106.84912,"distance":2610,"is_transit":true,"station_name":"Manggarai","station_id":"MRI","line":2,"i_lat":-6.209883,"transit":true,"time":4},{"is_transit":false,"station_name":"Matraman","distance":1275,"transit":false,"i_lat":-6.212485,"i_long":106.858896,"time":2,"line":1,"station_id":"MTR"},{"line":1,"is_transit":true,"station_id":"JNG","i_lat":-6.215091,"distance":1377,"i_long":106.86807400000001,"station_name":"Jatinegara","transit":true,"time":8},{"distance":1236,"transit":false,"time":2,"i_lat":-6.209188,"is_transit":false,"i_long":106.861737,"station_name":"Pondok Jati","line":11,"station_id":"POK"},{"line":11,"station_id":"KMT","is_transit":false,"station_name":"Kramat","time":2,"distance":1829,"transit":false,"i_lat":-6.193792,"i_long":106.855437},{"line":11,"distance":973,"is_transit":false,"i_lat":-6.185975,"station_name":"Gang Sentiong","station_id":"GST","transit":false,"time":1,"i_long":106.850107},{"is_transit":false,"i_long":106.84368,"line":11,"station_name":"Pasar Senen","transit":false,"i_lat":-6.174784,"distance":1567,"time":8,"station_id":"PSE"},{"is_transit":false,"station_name":"Kemayoran","distance":1436,"station_id":"KMO","i_lat":-6.161728,"transit":false,"time":4,"i_long":106.839204,"line":11},{"station_id":"RJW","i_long":106.836569,"line":11,"transit":false,"i_lat":-6.14505,"station_name":"Rajawali","is_transit":false,"time":5,"distance":1901},{"time":3,"is_transit":true,"i_long":106.826365,"distance":1444,"station_name":"Kampung Bandan","line":4,"station_id":"KPB","transit":true,"i_lat":-6.132549},{"line":1,"station_name":"Angke","is_transit":false,"station_id":"AK","distance":4102,"transit":false,"time":9,"i_lat":-6.144674,"i_long":106.79867},{"is_transit":true,"i_long":106.800832,"distance":1230,"station_name":"Duri","station_id":"DU","line":1,"i_lat":-6.155215,"time":4,"transit":true},{"station_name":"Grogol","i_lat":-6.162021,"transit":false,"is_transit":false,"line":5,"time":3,"station_id":"GGL","distance":1700,"i_long":106.788277},{"time":2,"i_long":106.771379,"station_id":"PSG","distance":2036,"i_lat":-6.161433,"is_transit":false,"line":5,"transit":false,"station_name":"Pesing"},{"i_long":106.756522,"line":5,"distance":1614,"time":2,"is_transit":false,"i_lat":-6.1587309999999995,"station_id":"TKO","station_name":"Taman Kota","transit":false},{"station_name":"Bojongindah","i_lat":-6.159876,"line":5,"station_id":"BOI","distance":2334,"transit":false,"time":2,"is_transit":false,"i_long":106.737035},{"distance":1152,"i_lat":-6.162758,"i_long":106.723064,"is_transit":false,"time":4,"station_id":"RW","station_name":"Rawa Buaya","transit":false,"line":5},{"is_transit":false,"station_name":"Kalideres","time":3,"i_long":106.701612,"transit":false,"i_lat":-6.166068,"line":5,"station_id":"KDS","distance":2504},{"line":5,"station_id":"PI","i_long":106.679458,"station_name":"Poris","time":3,"transit":false,"i_lat":-6.169933,"is_transit":false,"distance":2548},{"distance":1834,"line":5,"is_transit":false,"station_id":"BPR","transit":false,"i_lat":-6.171811,"station_name":"Batuceper","i_long":106.665036,"time":3},{"station_name":"Tanah Tinggi","is_transit":false,"distance":2028,"time":3,"i_lat":-6.17331,"station_id":"TTI","i_long":106.64657,"line":5,"transit":false},{"i_long":106.632761,"time":3,"transit":false,"line":5,"is_transit":false,"station_name":"Tangerang","station_id":"TNG","distance":1547,"i_lat":-6.176583}]]}