{"data":[[{"time":0,"line":2,"i_lat":-6.391065,"is_transit":false,"distance":0,"station_id":"DPB","i_long":106.819451,"station_name":"Depokbaru","transit":false},{"time":3,"i_lat":-6.405256,"transit":false,"station_id":"DP","is_transit":false,"line":2,"i_long":106.816926,"station_name":"Depok","distance":1584},{"time":6,"i_long":106.800298,"transit":false,"distance":5084,"line":2,"i_lat":-6.448811,"station_id":"CTA","is_transit":false,"station_name":"Citayam"},{"transit":false,"distance":5197,"station_name":"Bojonggede","i_lat":-6.493243,"is_transit":false,"line":2,"station_id":"BJD","i_long":106.792719,"time":5},{"is_transit":false,"station_name":"Cilebut","station_id":"CLT","i_lat":-6.530544,"transit":false,"time":5,"distance":4331,"i_long":106.800016,"line":2}]]}