{"data":[[{"i_lat":-6.391065,"distance":0,"transit":false,"time":0,"i_long":106.819451,"is_transit":false,"station_name":"Depokbaru","station_id":"DPB","line":2},{"is_transit":false,"distance":2727,"station_id":"POC","transit":false,"time":4,"station_name":"Pondok Cina","i_lat":-6.369073,"i_long":106.831114,"line":2},{"time":2,"station_id":"UI","station_name":"Univ. Indonesia","transit":false,"i_long":106.831474,"line":2,"distance":1109,"i_lat":-6.360749,"is_transit":false},{"i_long":106.834175,"transit":false,"is_transit":false,"i_lat":-6.339291,"line":2,"time":3,"distance":2264,"station_name":"Univ. Pancasila","station_id":"UP"},{"i_lat":-6.330363,"i_long":106.832616,"station_name":"Lenteng Agung","station_id":"LNA","time":2,"distance":1029,"is_transit":false,"transit":false,"line":2},{"line":2,"distance":2671,"station_name":"Tanjung Barat","i_long":106.838896,"transit":false,"station_id":"TNT","i_lat":-6.3080680000000005,"time":3,"is_transit":false},{"station_name":"Pasar Minggu","i_lat":-6.2842400000000005,"distance":2820,"station_id":"PSM","i_long":106.843999,"time":4,"is_transit":false,"transit":false,"line":2},{"time":2,"distance":2380,"station_name":"Pasar Minggu Baru","transit":false,"i_lat":-6.263214,"line":2,"is_transit":false,"station_id":"PSMB","i_long":106.851577},{"distance":824,"line":2,"i_lat":-6.255332,"transit":false,"i_long":106.85449,"time":2,"station_id":"DRN","is_transit":false,"station_name":"Duren Kalibata"},{"i_lat":-6.242512,"distance":1546,"station_id":"CW","station_name":"Cawang","i_long":106.856607,"line":2,"transit":false,"time":3,"is_transit":false},{"transit":false,"time":2,"distance":1230,"station_name":"Tebet","i_lat":-6.226659,"i_long":106.857948,"line":2,"station_id":"TEB","is_transit":false},{"line":2,"station_name":"Manggarai","station_id":"MRI","transit":true,"i_long":106.84912,"distance":2610,"i_lat":-6.209883,"is_transit":true,"time":4},{"i_long":106.822649,"station_id":"SUD","line":1,"distance":3186,"is_transit":false,"transit":false,"station_name":"Sudirman","i_lat":-6.202263,"time":4},{"line":1,"is_transit":false,"transit":false,"station_name":"Sudirman Baru","i_long":106.819881,"distance":280,"time":1,"station_id":"SUDB","i_lat":-6.201433},{"station_id":"KAT","i_long":106.816351,"distance":471,"line":1,"is_transit":false,"i_lat":-6.20132,"time":1,"transit":false,"station_name":"Karet"},{"time":5,"transit":false,"i_long":106.811091,"line":1,"station_id":"THB","distance":2029,"station_name":"Tanah Abang","is_transit":false,"i_lat":-6.185545},{"station_id":"DU","is_transit":true,"line":1,"station_name":"Duri","i_lat":-6.155215,"time":8,"transit":true,"distance":3632,"i_long":106.800832},{"i_long":106.788277,"time":3,"i_lat":-6.162021,"line":5,"station_id":"GRG","distance":1700,"transit":false,"station_name":"Grogol","is_transit":false},{"station_id":"PSG","line":5,"distance":2036,"time":2,"transit":false,"station_name":"Pesing","i_lat":-6.161433,"is_transit":false,"i_long":106.771379},{"station_id":"TKO","transit":false,"i_long":106.756522,"i_lat":-6.1587309999999995,"is_transit":false,"time":2,"station_name":"Taman Kota","line":5,"distance":1614}],[{"station_name":"Depokbaru","distance":0,"transit":false,"is_transit":false,"i_lat":-6.391065,"time":0,"station_id":"DPB","i_long":106.819451,"line":2},{"i_lat":-6.369073,"station_name":"Pondok Cina","is_transit":false,"time":4,"line":2,"transit":false,"i_long":106.831114,"distance":2727,"station_id":"POC"},{"i_long":106.831474,"is_transit":false,"station_id":"UI","time":2,"i_lat":-6.360749,"line":2,"transit":false,"station_name":"Univ. Indonesia","distance":1109},{"distance":2264,"station_id":"UP","transit":false,"i_long":106.834175,"is_transit":false,"station_name":"Univ. Pancasila","i_lat":-6.339291,"time":3,"line":2},{"line":2,"station_id":"LNA","time":2,"transit":false,"is_transit":false,"i_long":106.832616,"distance":1029,"station_name":"Lenteng Agung","i_lat":-6.330363},{"station_name":"Tanjung Barat","station_id":"TNT","transit":false,"distance":2671,"is_transit":false,"time":3,"i_lat":-6.3080680000000005,"i_long":106.838896,"line":2},{"distance":2820,"transit":false,"i_lat":-6.2842400000000005,"time":4,"is_transit":false,"i_long":106.843999,"station_id":"PSM","line":2,"station_name":"Pasar Minggu"},{"is_transit":false,"station_id":"PSMB","line":2,"transit":false,"station_name":"Pasar Minggu Baru","distance":2380,"i_long":106.851577,"time":2,"i_lat":-6.263214},{"i_long":106.85449,"time":2,"distance":824,"station_name":"Duren Kalibata","line":2,"is_transit":false,"station_id":"DRN","i_lat":-6.255332,"transit":false},{"line":2,"is_transit":false,"i_lat":-6.242512,"station_id":"CW","time":3,"distance":1546,"station_name":"Cawang","i_long":106.856607,"transit":false},{"i_lat":-6.226659,"station_id":"TEB","distance":1230,"station_name":"Tebet","is_transit":false,"time":2,"i_long":106.857948,"line":2,"transit":false},{"station_id":"MRI","transit":false,"is_transit":false,"line":2,"time":4,"i_lat":-6.209883,"station_name":"Manggarai","i_long":106.84912,"distance":2610},{"i_lat":-6.198556,"time":4,"station_id":"CKI","is_transit":false,"distance":1590,"i_long":106.840169,"transit":false,"line":2,"station_name":"Cikini"},{"i_lat":-6.186295,"transit":false,"i_long":106.832183,"line":2,"station_name":"Gondangdia","station_id":"GDD","time":3,"is_transit":false,"distance":1750},{"station_name":"Juanda","is_transit":false,"line":2,"time":4,"i_long":106.828284,"transit":false,"distance":2015,"station_id":"JUA","i_lat":-6.166716},{"i_lat":-6.160725,"station_name":"Sawah Besar","i_long":106.827103,"line":2,"time":2,"transit":false,"station_id":"SW","is_transit":false,"distance":1149},{"time":2,"i_lat":-6.149769,"station_name":"Manggabesar","i_long":106.82482,"is_transit":false,"line":2,"station_id":"MGB","distance":906,"transit":false},{"time":2,"i_lat":-6.141205,"i_long":106.820901,"station_name":"Jayakarta","is_transit":false,"transit":false,"station_id":"JAY","distance":1080,"line":2},{"line":2,"time":4,"i_long":106.812439,"is_transit":true,"transit":true,"i_lat":-6.137569,"distance":1264,"station_id":"JAKK","station_name":"Jakarta Kota"},{"is_transit":true,"i_lat":-6.132549,"line":4,"transit":true,"station_name":"Kampung Bandan","station_id":"KPB","i_long":106.826365,"time":3,"distance":1364},{"is_transit":false,"time":9,"station_id":"AK","station_name":"Angke","line":1,"i_lat":-6.144674,"i_long":106.79867,"transit":false,"distance":4102},{"station_id":"DU","i_long":106.800832,"i_lat":-6.155215,"line":1,"station_name":"Duri","time":4,"distance":1230,"transit":true,"is_transit":true},{"station_name":"Grogol","line":5,"transit":false,"station_id":"GRG","time":3,"i_long":106.788277,"i_lat":-6.162021,"distance":1700,"is_transit":false},{"station_id":"PSG","time":2,"is_transit":false,"line":5,"distance":2036,"i_lat":-6.161433,"transit":false,"station_name":"Pesing","i_long":106.771379},{"distance":1614,"station_id":"TKO","time":2,"station_name":"Taman Kota","line":5,"transit":false,"i_lat":-6.1587309999999995,"is_transit":false,"i_long":106.756522}],[{"line":2,"station_id":"DPB","is_transit":false,"i_long":106.819451,"station_name":"Depokbaru","distance":0,"i_lat":-6.391065,"time":0,"transit":false},{"station_id":"POC","is_transit":false,"i_lat":-6.369073,"i_long":106.831114,"distance":2727,"station_name":"Pondok Cina","line":2,"time":4,"transit":false},{"station_id":"UI","i_lat":-6.360749,"line":2,"time":2,"distance":1109,"transit":false,"station_name":"Univ. Indonesia","is_transit":false,"i_long":106.831474},{"transit":false,"line":2,"distance":2264,"time":3,"is_transit":false,"station_name":"Univ. Pancasila","i_lat":-6.339291,"station_id":"UP","i_long":106.834175},{"distance":1029,"transit":false,"i_lat":-6.330363,"i_long":106.832616,"station_name":"Lenteng Agung","time":2,"is_transit":false,"line":2,"station_id":"LNA"},{"distance":2671,"i_long":106.838896,"station_id":"TNT","i_lat":-6.3080680000000005,"station_name":"Tanjung Barat","transit":false,"is_transit":false,"line":2,"time":3},{"station_name":"Pasar Minggu","time":4,"is_transit":false,"distance":2820,"i_lat":-6.2842400000000005,"station_id":"PSM","line":2,"i_long":106.843999,"transit":false},{"line":2,"distance":2380,"transit":false,"i_long":106.851577,"i_lat":-6.263214,"time":2,"is_transit":false,"station_id":"PSMB","station_name":"Pasar Minggu Baru"},{"station_name":"Duren Kalibata","time":2,"line":2,"i_long":106.85449,"distance":824,"is_transit":false,"i_lat":-6.255332,"station_id":"DRN","transit":false},{"station_id":"CW","i_lat":-6.242512,"i_long":106.856607,"time":3,"station_name":"Cawang","is_transit":false,"transit":false,"distance":1546,"line":2},{"distance":1230,"is_transit":false,"time":2,"line":2,"station_name":"Tebet","i_long":106.857948,"transit":false,"i_lat":-6.226659,"station_id":"TEB"},{"station_name":"Manggarai","line":2,"is_transit":true,"distance":2610,"time":4,"transit":true,"i_lat":-6.209883,"station_id":"MRI","i_long":106.84912},{"station_name":"Matraman","station_id":"MTR","i_lat":-6.212485,"time":2,"transit":false,"is_transit":false,"i_long":106.858896,"line":1,"distance":1275},{"station_id":"JNG","i_lat":-6.215091,"transit":true,"distance":1377,"is_transit":true,"time":8,"station_name":"Jatinegara","i_long":106.86807400000001,"line":1},{"transit":false,"is_transit":false,"station_name":"Pondok Jati","line":11,"time":2,"distance":1236,"station_id":"POK","i_lat":-6.209188,"i_long":106.861737},{"station_name":"Kramat","transit":false,"is_transit":false,"distance":1829,"station_id":"KMT","time":2,"line":11,"i_lat":-6.193792,"i_long":106.855437},{"station_id":"GST","i_long":106.850107,"transit":false,"line":11,"is_transit":false,"time":1,"distance":973,"i_lat":-6.185975,"station_name":"Gang Sentiong"},{"station_name":"Pasar Senen","distance":1567,"i_long":106.84368,"line":11,"transit":false,"is_transit":false,"i_lat":-6.174784,"time":8,"station_id":"PSE"},{"distance":1436,"i_lat":-6.161728,"transit":false,"i_long":106.839204,"line":11,"is_transit":false,"time":4,"station_id":"KMO","station_name":"Kemayoran"},{"time":5,"station_id":"RJW","is_transit":false,"station_name":"Rajawali","i_long":106.836569,"line":11,"transit":false,"distance":1901,"i_lat":-6.14505},{"i_lat":-6.132549,"distance":1444,"i_long":106.826365,"is_transit":true,"transit":true,"time":3,"line":4,"station_id":"KPB","station_name":"Kampung Bandan"},{"i_long":106.79867,"line":1,"is_transit":false,"station_name":"Angke","time":9,"transit":false,"distance":4102,"station_id":"AK","i_lat":-6.144674},{"station_name":"Duri","line":1,"time":4,"distance":1230,"i_long":106.800832,"is_transit":true,"station_id":"DU","transit":true,"i_lat":-6.155215},{"station_name":"Grogol","line":5,"time":3,"station_id":"GRG","distance":1700,"i_long":106.788277,"transit":false,"is_transit":false,"i_lat":-6.162021},{"station_id":"PSG","line":5,"time":2,"station_name":"Pesing","is_transit":false,"i_lat":-6.161433,"transit":false,"distance":2036,"i_long":106.771379},{"transit":false,"i_lat":-6.1587309999999995,"station_name":"Taman Kota","distance":1614,"i_long":106.756522,"station_id":"TKO","line":5,"time":2,"is_transit":false}]]}