{"data":[[{"is_transit":false,"i_long":106.819451,"time":0,"transit":false,"station_id":"DPB","distance":0,"station_name":"Depokbaru","i_lat":-6.391065,"line":2},{"line":2,"i_long":106.831114,"is_transit":false,"i_lat":-6.369073,"transit":false,"time":4,"distance":2727,"station_id":"POC","station_name":"Pondok Cina"},{"station_name":"Univ. Indonesia","time":2,"i_long":106.831474,"line":2,"distance":1109,"transit":false,"i_lat":-6.360749,"is_transit":false,"station_id":"UI"},{"line":2,"transit":false,"i_long":106.834175,"distance":2264,"station_id":"UP","is_transit":false,"station_name":"Univ. Pancasila","i_lat":-6.339291,"time":3},{"station_id":"LNA","is_transit":false,"line":2,"station_name":"Lenteng Agung","transit":false,"i_lat":-6.330363,"distance":1029,"time":2,"i_long":106.832616},{"is_transit":false,"line":2,"station_name":"Tanjung Barat","i_lat":-6.3080680000000005,"transit":false,"station_id":"TNT","distance":2671,"i_long":106.838896,"time":3},{"station_name":"Pasar Minggu","is_transit":false,"transit":false,"distance":2820,"station_id":"PSM","time":4,"line":2,"i_lat":-6.2842400000000005,"i_long":106.843999},{"i_long":106.851577,"transit":false,"station_name":"Pasar Minggu Baru","distance":2380,"line":2,"is_transit":false,"station_id":"PSMB","i_lat":-6.263214,"time":2},{"i_long":106.85449,"is_transit":false,"station_id":"DRN","distance":824,"station_name":"Duren Kalibata","i_lat":-6.255332,"line":2,"time":2,"transit":false},{"i_lat":-6.242512,"transit":false,"station_id":"CW","is_transit":false,"line":2,"time":3,"i_long":106.856607,"station_name":"Cawang","distance":1546},{"time":2,"i_lat":-6.226659,"is_transit":false,"transit":false,"i_long":106.857948,"distance":1230,"station_id":"TEB","station_name":"Tebet","line":2},{"distance":2610,"i_lat":-6.209883,"station_name":"Manggarai","transit":true,"line":2,"i_long":106.84912,"time":4,"station_id":"MRI","is_transit":true},{"i_lat":-6.202263,"is_transit":false,"time":4,"transit":false,"station_id":"SUD","distance":3186,"i_long":106.822649,"line":1,"station_name":"Sudirman"},{"line":1,"distance":280,"transit":false,"station_name":"Sudirman Baru","station_id":"SUDB","is_transit":false,"i_lat":-6.201433,"time":1,"i_long":106.819881},{"i_lat":-6.20132,"station_id":"KAT","line":1,"i_long":106.816351,"is_transit":false,"station_name":"Karet","transit":false,"time":1,"distance":471},{"transit":true,"station_id":"THB","i_lat":-6.185545,"station_name":"Tanah Abang","i_long":106.811091,"is_transit":true,"time":5,"line":1,"distance":2029},{"station_name":"Palmerah","time":6,"i_lat":-6.207404,"transit":false,"is_transit":false,"i_long":106.79689,"station_id":"PLM","line":6,"distance":3191},{"is_transit":false,"distance":3737,"i_long":106.780334,"station_id":"KBY","i_lat":-6.237242,"line":6,"station_name":"Kebayoran","transit":false,"time":7},{"transit":false,"line":6,"i_lat":-6.276362,"is_transit":false,"distance":6218,"station_id":"PDJ","i_long":106.74273,"station_name":"Pondokranji","time":8},{"time":3,"transit":false,"is_transit":false,"station_name":"Jurangmangu","i_lat":-6.288927,"line":6,"i_long":106.728916,"station_id":"JMU","distance":2179},{"station_name":"Sudimara","line":6,"distance":1994,"transit":false,"i_lat":-6.296963,"i_long":106.712277,"time":4,"station_id":"SDM","is_transit":false},{"is_transit":false,"transit":false,"distance":4566,"i_lat":-6.314823,"station_name":"Rawa Buntu","station_id":"RU","line":6,"i_long":106.675475,"time":6},{"station_id":"SRP","transit":false,"time":4,"station_name":"Serpong","distance":2413,"is_transit":false,"i_lat":-6.319871,"i_long":106.66566,"line":6},{"station_name":"Cisauk","transit":false,"i_lat":-6.32484,"station_id":"CSK","distance":1784,"time":4,"is_transit":false,"i_long":106.640411,"line":3},{"i_lat":-6.329547,"time":4,"line":3,"is_transit":false,"transit":false,"station_name":"Cicayur","station_id":"CC","distance":2519,"i_long":106.617853},{"line":6,"is_transit":false,"station_name":"Parung Panjang","transit":false,"time":8,"distance":5968,"station_id":"PRP","i_lat":-6.3441410000000005,"i_long":106.568863},{"i_long":106.508482,"line":3,"time":9,"i_lat":-6.354349,"transit":false,"is_transit":false,"station_name":"Cilejit","distance":7025,"station_id":"CJT"},{"distance":2675,"i_long":106.491338,"time":6,"i_lat":-6.338021,"is_transit":false,"transit":false,"line":0,"station_id":"DAR","station_name":"Daru"},{"distance":3902,"i_lat":-6.327251,"station_id":"TEJ","i_long":106.460812,"time":5,"line":6,"transit":false,"is_transit":false,"station_name":"Tenjo"},{"time":5,"distance":2974,"i_lat":-6.328533,"station_id":"TGS","is_transit":false,"line":6,"i_long":106.425991,"transit":false,"station_name":"Tigaraksa"},{"distance":2651,"station_name":"Cikoya","station_id":"CKY","i_long":106.411216,"time":3,"i_lat":-6.33561,"line":3,"transit":false,"is_transit":false},{"is_transit":false,"transit":false,"time":4,"distance":1853,"line":6,"i_long":106.394373,"station_name":"Maja","station_id":"MJ","i_lat":-6.332307}],[{"distance":0,"i_lat":-6.391065,"line":2,"transit":false,"time":0,"station_id":"DPB","i_long":106.819451,"station_name":"Depokbaru","is_transit":false},{"station_id":"POC","i_long":106.831114,"station_name":"Pondok Cina","is_transit":false,"distance":2727,"time":4,"i_lat":-6.369073,"transit":false,"line":2},{"line":2,"i_long":106.831474,"distance":1109,"station_id":"UI","transit":false,"is_transit":false,"i_lat":-6.360749,"station_name":"Univ. Indonesia","time":2},{"line":2,"station_id":"UP","i_lat":-6.339291,"is_transit":false,"time":3,"distance":2264,"i_long":106.834175,"station_name":"Univ. Pancasila","transit":false},{"time":2,"i_lat":-6.330363,"line":2,"transit":false,"distance":1029,"i_long":106.832616,"station_name":"Lenteng Agung","is_transit":false,"station_id":"LNA"},{"distance":2671,"i_long":106.838896,"time":3,"i_lat":-6.3080680000000005,"transit":false,"station_id":"TNT","line":2,"station_name":"Tanjung Barat","is_transit":false},{"line":2,"time":4,"station_id":"PSM","i_lat":-6.2842400000000005,"i_long":106.843999,"station_name":"Pasar Minggu","is_transit":false,"transit":false,"distance":2820},{"i_lat":-6.263214,"station_id":"PSMB","line":2,"distance":2380,"i_long":106.851577,"transit":false,"is_transit":false,"station_name":"Pasar Minggu Baru","time":2},{"is_transit":false,"time":2,"transit":false,"i_lat":-6.255332,"station_name":"Duren Kalibata","station_id":"DRN","distance":824,"i_long":106.85449,"line":2},{"station_name":"Cawang","transit":false,"i_long":106.856607,"station_id":"CW","distance":1546,"time":3,"line":2,"i_lat":-6.242512,"is_transit":false},{"distance":1230,"station_name":"Tebet","transit":false,"station_id":"TEB","i_long":106.857948,"is_transit":false,"line":2,"i_lat":-6.226659,"time":2},{"transit":false,"time":4,"i_lat":-6.209883,"station_id":"MRI","is_transit":false,"line":2,"distance":2610,"i_long":106.84912,"station_name":"Manggarai"},{"i_lat":-6.198556,"station_id":"CKI","is_transit":false,"time":4,"i_long":106.840169,"distance":1590,"line":2,"station_name":"Cikini","transit":false},{"transit":false,"i_long":106.832183,"station_name":"Gondangdia","line":2,"station_id":"GDD","time":3,"i_lat":-6.186295,"is_transit":false,"distance":1750},{"transit":false,"station_id":"JUA","station_name":"Juanda","i_long":106.828284,"line":2,"i_lat":-6.166716,"is_transit":false,"time":4,"distance":2015},{"is_transit":false,"time":2,"station_id":"SW","line":2,"distance":1149,"transit":false,"i_long":106.827103,"station_name":"Sawah Besar","i_lat":-6.160725},{"i_long":106.82482,"time":2,"transit":false,"station_name":"Manggabesar","station_id":"MGB","is_transit":false,"line":2,"i_lat":-6.149769,"distance":906},{"time":2,"i_lat":-6.141205,"i_long":106.820901,"station_id":"JAY","line":2,"station_name":"Jayakarta","distance":1080,"transit":false,"is_transit":false},{"i_long":106.812439,"line":2,"distance":1264,"station_id":"JAKK","i_lat":-6.137569,"is_transit":true,"station_name":"Jakarta Kota","time":4,"transit":true},{"is_transit":true,"line":4,"transit":true,"station_name":"Kampung Bandan","time":3,"station_id":"KPB","i_lat":-6.132549,"distance":1364,"i_long":106.826365},{"is_transit":false,"distance":4102,"i_long":106.79867,"station_name":"Angke","line":1,"station_id":"AK","transit":false,"time":9,"i_lat":-6.144674},{"time":4,"station_id":"DU","i_lat":-6.155215,"line":1,"distance":1230,"transit":false,"is_transit":false,"station_name":"Duri","i_long":106.800832},{"is_transit":true,"i_lat":-6.185545,"i_long":106.811091,"distance":3632,"station_name":"Tanah Abang","time":8,"station_id":"THB","line":1,"transit":true},{"transit":false,"is_transit":false,"station_name":"Palmerah","i_long":106.79689,"time":6,"i_lat":-6.207404,"station_id":"PLM","distance":3191,"line":6},{"i_lat":-6.237242,"station_name":"Kebayoran","transit":false,"station_id":"KBY","is_transit":false,"time":7,"i_long":106.780334,"distance":3737,"line":6},{"transit":false,"i_long":106.74273,"station_id":"PDJ","is_transit":false,"time":8,"line":6,"distance":6218,"i_lat":-6.276362,"station_name":"Pondokranji"},{"is_transit":false,"i_long":106.728916,"transit":false,"line":6,"station_id":"JMU","station_name":"Jurangmangu","time":3,"distance":2179,"i_lat":-6.288927},{"i_long":106.712277,"time":4,"station_name":"Sudimara","distance":1994,"transit":false,"station_id":"SDM","line":6,"is_transit":false,"i_lat":-6.296963},{"line":6,"distance":4566,"station_name":"Rawa Buntu","is_transit":false,"time":6,"transit":false,"i_lat":-6.314823,"i_long":106.675475,"station_id":"RU"},{"is_transit":false,"station_id":"SRP","time":4,"i_lat":-6.319871,"i_long":106.66566,"line":6,"station_name":"Serpong","transit":false,"distance":2413},{"station_id":"CSK","distance":1784,"is_transit":false,"i_long":106.640411,"transit":false,"line":3,"i_lat":-6.32484,"time":4,"station_name":"Cisauk"},{"distance":2519,"time":4,"station_id":"CC","is_transit":false,"i_long":106.617853,"transit":false,"i_lat":-6.329547,"station_name":"Cicayur","line":3},{"station_name":"Parung Panjang","line":6,"i_long":106.568863,"is_transit":false,"time":8,"distance":5968,"station_id":"PRP","i_lat":-6.3441410000000005,"transit":false},{"distance":7025,"station_name":"Cilejit","is_transit":false,"line":3,"i_long":106.508482,"station_id":"CJT","i_lat":-6.354349,"time":9,"transit":false},{"i_long":106.491338,"station_name":"Daru","distance":2675,"line":0,"is_transit":false,"transit":false,"i_lat":-6.338021,"station_id":"DAR","time":6},{"station_id":"TEJ","is_transit":false,"i_lat":-6.327251,"line":6,"transit":false,"distance":3902,"time":5,"i_long":106.460812,"station_name":"Tenjo"},{"i_lat":-6.328533,"is_transit":false,"time":5,"line":6,"distance":2974,"station_id":"TGS","transit":false,"station_name":"Tigaraksa","i_long":106.425991},{"station_id":"CKY","time":3,"station_name":"Cikoya","distance":2651,"is_transit":false,"i_long":106.411216,"i_lat":-6.33561,"line":3,"transit":false},{"station_id":"MJ","time":4,"distance":1853,"is_transit":false,"transit":false,"line":6,"station_name":"Maja","i_long":106.394373,"i_lat":-6.332307}],[{"i_lat":-6.391065,"i_long":106.819451,"distance":0,"line":2,"transit":false,"station_id":"DPB","station_name":"Depokbaru","is_transit":false,"time":0},{"station_id":"POC","i_long":106.831114,"transit":false,"i_lat":-6.369073,"is_transit":false,"line":2,"time":4,"distance":2727,"station_name":"Pondok Cina"},{"time":2,"station_id":"UI","station_name":"Univ. Indonesia","transit":false,"distance":1109,"i_long":106.831474,"is_transit":false,"line":2,"i_lat":-6.360749},{"transit":false,"distance":2264,"line":2,"time":3,"is_transit":false,"i_long":106.834175,"station_name":"Univ. Pancasila","i_lat":-6.339291,"station_id":"UP"},{"i_long":106.832616,"station_id":"LNA","line":2,"distance":1029,"transit":false,"i_lat":-6.330363,"is_transit":false,"time":2,"station_name":"Lenteng Agung"},{"transit":false,"station_id":"TNT","is_transit":false,"i_lat":-6.3080680000000005,"line":2,"time":3,"station_name":"Tanjung Barat","distance":2671,"i_long":106.838896},{"i_long":106.843999,"station_name":"Pasar Minggu","transit":false,"station_id":"PSM","is_transit":false,"distance":2820,"i_lat":-6.2842400000000005,"line":2,"time":4},{"i_long":106.851577,"i_lat":-6.263214,"distance":2380,"time":2,"station_id":"PSMB","is_transit":false,"station_name":"Pasar Minggu Baru","line":2,"transit":false},{"line":2,"station_id":"DRN","i_long":106.85449,"is_transit":false,"time":2,"distance":824,"station_name":"Duren Kalibata","transit":false,"i_lat":-6.255332},{"time":3,"transit":false,"line":2,"i_lat":-6.242512,"is_transit":false,"station_id":"CW","station_name":"Cawang","i_long":106.856607,"distance":1546},{"is_transit":false,"station_name":"Tebet","i_lat":-6.226659,"transit":false,"line":2,"i_long":106.857948,"station_id":"TEB","distance":1230,"time":2},{"i_long":106.84912,"time":4,"is_transit":true,"distance":2610,"station_name":"Manggarai","transit":true,"station_id":"MRI","line":2,"i_lat":-6.209883},{"station_name":"Matraman","i_long":106.858896,"is_transit":false,"transit":false,"station_id":"MTR","distance":1275,"i_lat":-6.212485,"line":1,"time":2},{"distance":1377,"i_long":106.86807400000001,"i_lat":-6.215091,"station_name":"Jatinegara","line":1,"is_transit":true,"station_id":"JNG","transit":true,"time":8},{"station_name":"Pondok Jati","station_id":"POK","i_long":106.861737,"transit":false,"line":11,"time":2,"is_transit":false,"distance":1236,"i_lat":-6.209188},{"is_transit":false,"station_id":"KMT","i_lat":-6.193792,"line":11,"time":2,"i_long":106.855437,"transit":false,"station_name":"Kramat","distance":1829},{"i_lat":-6.185975,"station_name":"Gang Sentiong","is_transit":false,"i_long":106.850107,"line":11,"transit":false,"station_id":"GST","distance":973,"time":1},{"transit":false,"time":8,"station_name":"Pasar Senen","is_transit":false,"distance":1567,"line":11,"station_id":"PSE","i_long":106.84368,"i_lat":-6.174784},{"distance":1436,"time":4,"i_long":106.839204,"transit":false,"i_lat":-6.161728,"station_id":"KMO","station_name":"Kemayoran","line":11,"is_transit":false},{"is_transit":false,"time":5,"i_lat":-6.14505,"line":11,"i_long":106.836569,"station_id":"RJW","station_name":"Rajawali","transit":false,"distance":1901},{"station_id":"KPB","transit":true,"i_lat":-6.132549,"line":4,"time":3,"is_transit":true,"distance":1444,"i_long":106.826365,"station_name":"Kampung Bandan"},{"i_long":106.79867,"is_transit":false,"station_name":"Angke","time":9,"station_id":"AK","distance":4102,"line":1,"transit":false,"i_lat":-6.144674},{"time":4,"i_long":106.800832,"line":1,"transit":false,"i_lat":-6.155215,"distance":1230,"station_id":"DU","station_name":"Duri","is_transit":false},{"time":8,"is_transit":true,"i_lat":-6.185545,"distance":3632,"i_long":106.811091,"station_name":"Tanah Abang","line":1,"station_id":"THB","transit":true},{"distance":3191,"i_long":106.79689,"line":6,"i_lat":-6.207404,"station_name":"Palmerah","is_transit":false,"station_id":"PLM","transit":false,"time":6},{"line":6,"distance":3737,"station_name":"Kebayoran","transit":false,"is_transit":false,"i_long":106.780334,"i_lat":-6.237242,"time":7,"station_id":"KBY"},{"time":8,"line":6,"is_transit":false,"distance":6218,"station_name":"Pondokranji","station_id":"PDJ","i_long":106.74273,"i_lat":-6.276362,"transit":false},{"i_lat":-6.288927,"transit":false,"is_transit":false,"line":6,"station_name":"Jurangmangu","i_long":106.728916,"time":3,"distance":2179,"station_id":"JMU"},{"line":6,"station_name":"Sudimara","station_id":"SDM","distance":1994,"transit":false,"time":4,"i_long":106.712277,"is_transit":false,"i_lat":-6.296963},{"i_lat":-6.314823,"i_long":106.675475,"transit":false,"is_transit":false,"station_id":"RU","time":6,"distance":4566,"line":6,"station_name":"Rawa Buntu"},{"is_transit":false,"distance":2413,"time":4,"line":6,"station_id":"SRP","i_long":106.66566,"i_lat":-6.319871,"station_name":"Serpong","transit":false},{"distance":1784,"i_lat":-6.32484,"transit":false,"station_name":"Cisauk","i_long":106.640411,"line":3,"station_id":"CSK","time":4,"is_transit":false},{"time":4,"station_name":"Cicayur","line":3,"is_transit":false,"i_lat":-6.329547,"transit":false,"distance":2519,"i_long":106.617853,"station_id":"CC"},{"transit":false,"station_id":"PRP","is_transit":false,"i_long":106.568863,"time":8,"i_lat":-6.3441410000000005,"line":6,"distance":5968,"station_name":"Parung Panjang"},{"time":9,"i_lat":-6.354349,"transit":false,"station_name":"Cilejit","distance":7025,"line":3,"is_transit":false,"i_long":106.508482,"station_id":"CJT"},{"station_name":"Daru","is_transit":false,"i_long":106.491338,"line":0,"distance":2675,"time":6,"station_id":"DAR","i_lat":-6.338021,"transit":false},{"transit":false,"i_long":106.460812,"time":5,"line":6,"distance":3902,"station_id":"TEJ","is_transit":false,"i_lat":-6.327251,"station_name":"Tenjo"},{"time":5,"is_transit":false,"i_lat":-6.328533,"i_long":106.425991,"station_id":"TGS","line":6,"transit":false,"distance":2974,"station_name":"Tigaraksa"},{"time":3,"is_transit":false,"i_long":106.411216,"line":3,"transit":false,"distance":2651,"i_lat":-6.33561,"station_name":"Cikoya","station_id":"CKY"},{"station_id":"MJ","distance":1853,"line":6,"transit":false,"i_long":106.394373,"time":4,"is_transit":false,"station_name":"Maja","i_lat":-6.332307}]]}