{"data":[[{"distance":0,"i_long":106.819451,"i_lat":-6.391065,"station_id":"DPB","line":2,"time":0,"is_transit":false,"station_name":"Depokbaru","transit":false},{"i_lat":-6.369073,"distance":2727,"is_transit":false,"time":4,"station_id":"POC","line":2,"i_long":106.831114,"transit":false,"station_name":"Pondok Cina"},{"station_id":"UI","is_transit":false,"time":2,"i_lat":-6.360749,"transit":false,"distance":1109,"i_long":106.831474,"station_name":"Univ. Indonesia","line":2},{"is_transit":false,"i_long":106.834175,"station_name":"Univ. Pancasila","line":2,"time":3,"distance":2264,"transit":false,"station_id":"UP","i_lat":-6.339291},{"line":2,"time":2,"is_transit":false,"distance":1029,"i_long":106.832616,"i_lat":-6.330363,"transit":false,"station_name":"Lenteng Agung","station_id":"LNA"},{"station_name":"Tanjung Barat","i_long":106.838896,"time":3,"line":2,"is_transit":false,"distance":2671,"transit":false,"station_id":"TNT","i_lat":-6.3080680000000005},{"distance":2820,"i_lat":-6.2842400000000005,"i_long":106.843999,"line":2,"time":4,"station_id":"PSM","is_transit":false,"transit":false,"station_name":"Pasar Minggu"},{"i_long":106.851577,"is_transit":false,"time":2,"distance":2380,"line":2,"transit":false,"station_name":"Pasar Minggu Baru","station_id":"PSMB","i_lat":-6.263214},{"is_transit":false,"i_long":106.85449,"station_id":"DRN","station_name":"Duren Kalibata","time":2,"distance":824,"i_lat":-6.255332,"line":2,"transit":false},{"distance":1546,"station_id":"CW","i_long":106.856607,"time":3,"line":2,"transit":false,"is_transit":false,"i_lat":-6.242512,"station_name":"Cawang"},{"station_name":"Tebet","i_long":106.857948,"transit":false,"i_lat":-6.226659,"station_id":"TEB","is_transit":false,"distance":1230,"line":2,"time":2},{"time":4,"distance":2610,"i_long":106.84912,"line":2,"station_name":"Manggarai","transit":true,"station_id":"MRI","i_lat":-6.209883,"is_transit":true},{"distance":3186,"i_lat":-6.202263,"line":1,"station_id":"SUD","time":4,"station_name":"Sudirman","transit":false,"is_transit":false,"i_long":106.822649},{"i_long":106.819881,"line":1,"station_name":"Sudirman Baru","transit":false,"distance":280,"i_lat":-6.201433,"is_transit":false,"station_id":"SUDB","time":1},{"distance":471,"time":1,"is_transit":false,"transit":false,"i_lat":-6.20132,"station_name":"Karet","i_long":106.816351,"station_id":"KAT","line":1},{"transit":false,"time":5,"is_transit":false,"i_long":106.811091,"station_id":"THB","line":1,"station_name":"Tanah Abang","distance":2029,"i_lat":-6.185545},{"station_name":"Duri","i_long":106.800832,"transit":true,"is_transit":true,"distance":3632,"i_lat":-6.155215,"station_id":"DU","line":1,"time":8},{"transit":false,"station_id":"GGL","distance":1700,"i_long":106.788277,"line":5,"is_transit":false,"i_lat":-6.162021,"time":3,"station_name":"Grogol"},{"i_long":106.771379,"line":5,"time":2,"i_lat":-6.161433,"transit":false,"is_transit":false,"station_name":"Pesing","station_id":"PSG","distance":2036},{"transit":false,"i_lat":-6.1587309999999995,"time":2,"is_transit":false,"station_id":"TKO","i_long":106.756522,"station_name":"Taman Kota","line":5,"distance":1614}],[{"distance":0,"line":2,"transit":false,"i_long":106.819451,"is_transit":false,"i_lat":-6.391065,"time":0,"station_name":"Depokbaru","station_id":"DPB"},{"transit":false,"i_long":106.831114,"station_name":"Pondok Cina","is_transit":false,"i_lat":-6.369073,"line":2,"distance":2727,"station_id":"POC","time":4},{"time":2,"station_name":"Univ. Indonesia","line":2,"transit":false,"distance":1109,"i_lat":-6.360749,"is_transit":false,"i_long":106.831474,"station_id":"UI"},{"time":3,"transit":false,"station_id":"UP","line":2,"is_transit":false,"distance":2264,"station_name":"Univ. Pancasila","i_lat":-6.339291,"i_long":106.834175},{"time":2,"distance":1029,"i_long":106.832616,"station_name":"Lenteng Agung","i_lat":-6.330363,"transit":false,"line":2,"is_transit":false,"station_id":"LNA"},{"time":3,"i_long":106.838896,"i_lat":-6.3080680000000005,"station_name":"Tanjung Barat","is_transit":false,"transit":false,"station_id":"TNT","line":2,"distance":2671},{"line":2,"distance":2820,"station_name":"Pasar Minggu","time":4,"i_long":106.843999,"is_transit":false,"i_lat":-6.2842400000000005,"transit":false,"station_id":"PSM"},{"distance":2380,"transit":false,"station_name":"Pasar Minggu Baru","time":2,"i_long":106.851577,"line":2,"is_transit":false,"i_lat":-6.263214,"station_id":"PSMB"},{"distance":824,"i_lat":-6.255332,"time":2,"station_id":"DRN","station_name":"Duren Kalibata","is_transit":false,"transit":false,"i_long":106.85449,"line":2},{"station_name":"Cawang","i_lat":-6.242512,"distance":1546,"transit":false,"line":2,"i_long":106.856607,"time":3,"is_transit":false,"station_id":"CW"},{"time":2,"distance":1230,"i_lat":-6.226659,"transit":false,"line":2,"station_name":"Tebet","station_id":"TEB","i_long":106.857948,"is_transit":false},{"station_id":"MRI","station_name":"Manggarai","distance":2610,"is_transit":false,"line":2,"transit":false,"time":4,"i_lat":-6.209883,"i_long":106.84912},{"is_transit":false,"i_lat":-6.198556,"transit":false,"i_long":106.840169,"station_name":"Cikini","line":2,"station_id":"CKI","time":4,"distance":1590},{"transit":false,"time":3,"distance":1750,"line":2,"i_long":106.832183,"is_transit":false,"i_lat":-6.186295,"station_id":"GDD","station_name":"Gondangdia"},{"distance":2015,"transit":false,"i_lat":-6.166716,"is_transit":false,"station_id":"JUA","station_name":"Juanda","i_long":106.828284,"time":4,"line":2},{"is_transit":false,"i_long":106.827103,"station_name":"Sawah Besar","transit":false,"time":2,"station_id":"SW","i_lat":-6.160725,"line":2,"distance":1149},{"station_name":"Manggabesar","is_transit":false,"transit":false,"station_id":"MGB","line":2,"i_lat":-6.149769,"distance":906,"i_long":106.82482,"time":2},{"i_long":106.820901,"station_name":"Jayakarta","i_lat":-6.141205,"is_transit":false,"time":2,"transit":false,"station_id":"JAY","distance":1080,"line":2},{"line":2,"station_name":"Jakarta Kota","transit":true,"station_id":"JAKK","time":4,"i_long":106.812439,"distance":1264,"is_transit":true,"i_lat":-6.137569},{"station_id":"KPB","distance":1364,"line":4,"is_transit":true,"time":3,"i_lat":-6.132549,"i_long":106.826365,"station_name":"Kampung Bandan","transit":true},{"distance":4102,"i_long":106.79867,"line":1,"time":9,"is_transit":false,"i_lat":-6.144674,"transit":false,"station_name":"Angke","station_id":"AK"},{"line":1,"transit":true,"station_name":"Duri","is_transit":true,"station_id":"DU","time":4,"i_lat":-6.155215,"i_long":106.800832,"distance":1230},{"is_transit":false,"transit":false,"i_long":106.788277,"station_id":"GGL","line":5,"station_name":"Grogol","time":3,"distance":1700,"i_lat":-6.162021},{"station_id":"PSG","station_name":"Pesing","transit":false,"time":2,"distance":2036,"line":5,"i_long":106.771379,"is_transit":false,"i_lat":-6.161433},{"station_id":"TKO","i_long":106.756522,"station_name":"Taman Kota","distance":1614,"is_transit":false,"time":2,"i_lat":-6.1587309999999995,"line":5,"transit":false}],[{"station_id":"DPB","i_long":106.819451,"station_name":"Depokbaru","distance":0,"line":2,"is_transit":false,"time":0,"i_lat":-6.391065,"transit":false},{"i_long":106.831114,"station_id":"POC","line":2,"is_transit":false,"time":4,"station_name":"Pondok Cina","distance":2727,"transit":false,"i_lat":-6.369073},{"i_lat":-6.360749,"distance":1109,"is_transit":false,"transit":false,"i_long":106.831474,"station_name":"Univ. Indonesia","station_id":"UI","time":2,"line":2},{"station_name":"Univ. Pancasila","transit":false,"i_lat":-6.339291,"i_long":106.834175,"is_transit":false,"station_id":"UP","line":2,"distance":2264,"time":3},{"distance":1029,"station_id":"LNA","is_transit":false,"i_lat":-6.330363,"time":2,"i_long":106.832616,"station_name":"Lenteng Agung","line":2,"transit":false},{"station_id":"TNT","i_lat":-6.3080680000000005,"time":3,"transit":false,"station_name":"Tanjung Barat","is_transit":false,"i_long":106.838896,"line":2,"distance":2671},{"i_long":106.843999,"station_name":"Pasar Minggu","time":4,"is_transit":false,"distance":2820,"i_lat":-6.2842400000000005,"line":2,"transit":false,"station_id":"PSM"},{"station_id":"PSMB","i_long":106.851577,"time":2,"is_transit":false,"i_lat":-6.263214,"distance":2380,"line":2,"station_name":"Pasar Minggu Baru","transit":false},{"station_name":"Duren Kalibata","time":2,"transit":false,"station_id":"DRN","distance":824,"i_lat":-6.255332,"i_long":106.85449,"line":2,"is_transit":false},{"station_name":"Cawang","line":2,"distance":1546,"transit":false,"is_transit":false,"i_long":106.856607,"i_lat":-6.242512,"station_id":"CW","time":3},{"distance":1230,"i_long":106.857948,"i_lat":-6.226659,"station_id":"TEB","time":2,"is_transit":false,"line":2,"station_name":"Tebet","transit":false},{"distance":2610,"transit":true,"station_id":"MRI","line":2,"i_lat":-6.209883,"is_transit":true,"i_long":106.84912,"time":4,"station_name":"Manggarai"},{"i_long":106.858896,"i_lat":-6.212485,"line":1,"station_id":"MTR","time":2,"is_transit":false,"transit":false,"station_name":"Matraman","distance":1275},{"station_name":"Jatinegara","is_transit":true,"distance":1377,"station_id":"JNG","i_long":106.86807400000001,"transit":true,"time":8,"line":1,"i_lat":-6.215091},{"transit":false,"i_long":106.861737,"i_lat":-6.209188,"line":11,"distance":1236,"is_transit":false,"station_id":"POK","time":2,"station_name":"Pondok Jati"},{"i_long":106.855437,"transit":false,"station_id":"KMT","i_lat":-6.193792,"line":11,"distance":1829,"station_name":"Kramat","time":2,"is_transit":false},{"time":1,"i_long":106.850107,"transit":false,"station_name":"Gang Sentiong","distance":973,"i_lat":-6.185975,"station_id":"GST","is_transit":false,"line":11},{"station_name":"Pasar Senen","distance":1567,"is_transit":false,"i_long":106.84368,"time":8,"station_id":"PSE","transit":false,"i_lat":-6.174784,"line":11},{"is_transit":false,"distance":1436,"i_long":106.839204,"time":4,"i_lat":-6.161728,"line":11,"transit":false,"station_id":"KMO","station_name":"Kemayoran"},{"distance":1901,"transit":false,"i_long":106.836569,"line":11,"station_name":"Rajawali","is_transit":false,"station_id":"RJW","time":5,"i_lat":-6.14505},{"transit":true,"line":4,"time":3,"distance":1444,"station_id":"KPB","station_name":"Kampung Bandan","i_lat":-6.132549,"i_long":106.826365,"is_transit":true},{"station_id":"AK","is_transit":false,"transit":false,"time":9,"distance":4102,"line":1,"i_long":106.79867,"station_name":"Angke","i_lat":-6.144674},{"distance":1230,"i_lat":-6.155215,"i_long":106.800832,"line":1,"station_name":"Duri","time":4,"transit":true,"is_transit":true,"station_id":"DU"},{"i_long":106.788277,"i_lat":-6.162021,"distance":1700,"station_name":"Grogol","is_transit":false,"station_id":"GGL","line":5,"transit":false,"time":3},{"time":2,"distance":2036,"transit":false,"i_lat":-6.161433,"station_name":"Pesing","line":5,"is_transit":false,"i_long":106.771379,"station_id":"PSG"},{"i_long":106.756522,"station_name":"Taman Kota","transit":false,"station_id":"TKO","i_lat":-6.1587309999999995,"time":2,"is_transit":false,"line":5,"distance":1614}]]}