{"data":[[{"i_long":106.819451,"i_lat":-6.391065,"line":2,"time":0,"is_transit":false,"station_name":"Depokbaru","station_id":"DPB","distance":0,"transit":false},{"i_lat":-6.405256,"time":3,"distance":1584,"station_name":"Depok","i_long":106.816926,"station_id":"DP","is_transit":false,"line":2,"transit":false},{"line":2,"station_id":"CTA","time":6,"distance":5084,"station_name":"Citayam","transit":false,"i_long":106.800298,"is_transit":false,"i_lat":-6.448811},{"time":5,"i_long":106.792719,"distance":5197,"line":2,"i_lat":-6.493243,"station_id":"BJD","is_transit":false,"transit":false,"station_name":"Bojonggede"},{"station_id":"CLT","station_name":"Cilebut","time":5,"distance":4331,"is_transit":false,"i_long":106.800016,"line":2,"transit":false,"i_lat":-6.530544}]]}