{"data":[[{"is_transit":false,"transit":false,"i_long":106.819451,"i_lat":-6.391065,"station_name":"Depokbaru","station_id":"DPB","time":0,"line":0,"distance":0},{"i_lat":-6.369073,"station_name":"Pondok Cina","line":2,"distance":2727,"is_transit":false,"station_id":"POC","time":4,"i_long":106.831114,"transit":false},{"distance":1109,"line":2,"time":2,"station_id":"UI","transit":false,"i_lat":-6.360749,"is_transit":false,"station_name":"Univ. Indonesia","i_long":106.831474},{"station_id":"UP","i_lat":-6.339291,"line":2,"is_transit":false,"distance":2264,"time":3,"i_long":106.834175,"station_name":"Univ. Pancasila","transit":false},{"station_name":"Lenteng Agung","is_transit":false,"transit":false,"line":2,"time":2,"distance":1029,"station_id":"LNA","i_lat":-6.330363,"i_long":106.832616},{"i_lat":-6.3080680000000005,"distance":2671,"time":3,"station_name":"Tanjung Barat","transit":false,"is_transit":false,"i_long":106.838896,"line":2,"station_id":"TNT"},{"station_name":"Pasar Minggu","line":2,"time":4,"i_lat":-6.2842400000000005,"i_long":106.843999,"station_id":"PSM","transit":false,"is_transit":false,"distance":2820},{"station_id":"PSMB","transit":false,"i_long":106.851577,"station_name":"Pasar Minggu Baru","distance":2380,"line":2,"time":2,"i_lat":-6.263214,"is_transit":false},{"line":0,"transit":false,"distance":824,"station_name":"Duren Kalibata","i_lat":-6.255332,"time":2,"station_id":"DRN","is_transit":false,"i_long":106.85449},{"station_id":"CW","is_transit":false,"distance":1546,"station_name":"Cawang","transit":false,"i_lat":-6.242512,"i_long":106.856607,"line":0,"time":3},{"is_transit":false,"i_long":106.857948,"transit":false,"station_id":"TEB","station_name":"Tebet","i_lat":-6.226659,"time":2,"distance":1230,"line":2},{"transit":true,"line":0,"i_lat":-6.209883,"distance":2610,"i_long":106.84912,"station_id":"MRI","station_name":"Manggarai","is_transit":true,"time":4},{"i_long":106.858896,"i_lat":-6.212485,"is_transit":false,"line":1,"distance":1275,"transit":false,"station_id":"MTR","station_name":"Matraman","time":2},{"i_lat":-6.215091,"line":0,"station_id":"JNG","is_transit":true,"transit":false,"station_name":"Jatinegara","distance":1377,"i_long":106.86807400000001,"time":8},{"station_id":"KLD","station_name":"Klender","time":3,"distance":3395,"transit":false,"i_lat":-6.2135,"i_long":106.899548,"line":1,"is_transit":false},{"distance":3100,"line":0,"i_long":106.922662,"station_name":"Buaran","station_id":"BUA","is_transit":false,"time":2,"i_lat":-6.215568,"transit":false},{"time":1,"transit":false,"is_transit":false,"station_id":"KLDB","i_lat":-6.217455,"station_name":"Klenderbaru","line":1,"distance":1305,"i_long":106.939679},{"is_transit":false,"time":8,"i_lat":-6.219053,"distance":1385,"station_id":"CUK","line":0,"station_name":"Cakung","i_long":106.951283,"transit":false},{"distance":3097,"station_name":"Kranji","station_id":"KRI","i_lat":-6.224515,"line":1,"transit":false,"time":3,"i_long":106.977657,"is_transit":false},{"station_name":"Bekasi","distance":2520,"line":0,"is_transit":false,"i_lat":-6.236616,"station_id":"BKS","time":4,"transit":false,"i_long":106.997013},{"station_id":"BKST","time":2,"station_name":"Bekasi Timur","i_lat":-6.248029,"i_long":107.016735,"is_transit":false,"distance":2368,"transit":false,"line":0}],[{"i_long":106.819451,"transit":false,"station_name":"Depokbaru","distance":0,"station_id":"DPB","is_transit":false,"i_lat":-6.391065,"line":0,"time":0},{"transit":false,"line":2,"station_id":"POC","distance":2727,"time":4,"is_transit":false,"station_name":"Pondok Cina","i_lat":-6.369073,"i_long":106.831114},{"line":2,"time":2,"is_transit":false,"transit":false,"station_id":"UI","distance":1109,"station_name":"Univ. Indonesia","i_long":106.831474,"i_lat":-6.360749},{"transit":false,"line":2,"is_transit":false,"station_id":"UP","i_long":106.834175,"station_name":"Univ. Pancasila","time":3,"i_lat":-6.339291,"distance":2264},{"station_name":"Lenteng Agung","station_id":"LNA","is_transit":false,"distance":1029,"time":2,"i_lat":-6.330363,"transit":false,"line":2,"i_long":106.832616},{"i_lat":-6.3080680000000005,"station_name":"Tanjung Barat","transit":false,"i_long":106.838896,"line":2,"is_transit":false,"time":3,"station_id":"TNT","distance":2671},{"is_transit":false,"time":4,"station_name":"Pasar Minggu","i_long":106.843999,"line":2,"station_id":"PSM","transit":false,"distance":2820,"i_lat":-6.2842400000000005},{"station_id":"PSMB","time":2,"i_long":106.851577,"is_transit":false,"station_name":"Pasar Minggu Baru","line":2,"i_lat":-6.263214,"transit":false,"distance":2380},{"station_id":"DRN","line":0,"time":2,"station_name":"Duren Kalibata","i_lat":-6.255332,"is_transit":false,"distance":824,"i_long":106.85449,"transit":false},{"is_transit":false,"transit":false,"station_name":"Cawang","i_long":106.856607,"station_id":"CW","distance":1546,"time":3,"i_lat":-6.242512,"line":0},{"station_id":"TEB","line":2,"is_transit":false,"station_name":"Tebet","i_long":106.857948,"i_lat":-6.226659,"time":2,"transit":false,"distance":1230},{"time":4,"station_name":"Manggarai","distance":2610,"is_transit":true,"i_lat":-6.209883,"station_id":"MRI","transit":true,"i_long":106.84912,"line":0},{"station_id":"SUD","transit":false,"station_name":"Sudirman","i_long":106.822649,"line":1,"time":4,"is_transit":false,"i_lat":-6.202263,"distance":3186},{"time":1,"is_transit":false,"distance":280,"station_id":"SUDB","station_name":"Sudirman Baru","i_lat":-6.201433,"i_long":106.819881,"line":1,"transit":false},{"distance":471,"station_id":"KAT","station_name":"Karet","time":1,"transit":false,"is_transit":false,"line":1,"i_lat":-6.20132,"i_long":106.816351},{"time":5,"i_long":106.811091,"distance":2029,"station_id":"THB","transit":false,"is_transit":true,"station_name":"Tanah Abang","line":1,"i_lat":-6.185545},{"station_id":"DU","i_lat":-6.155215,"line":1,"is_transit":true,"distance":3632,"i_long":106.800832,"time":8,"transit":true,"station_name":"Duri"},{"line":0,"transit":false,"time":4,"station_id":"AK","is_transit":false,"distance":1230,"station_name":"Angke","i_lat":-6.144674,"i_long":106.79867},{"is_transit":true,"distance":4102,"i_long":106.826365,"i_lat":-6.132549,"line":0,"time":9,"station_name":"Kampung Bandan","transit":true,"station_id":"KPB"},{"i_long":106.836569,"station_id":"RJW","station_name":"Rajawali","line":11,"is_transit":false,"time":3,"i_lat":-6.14505,"distance":1444,"transit":false},{"is_transit":false,"station_name":"Kemayoran","i_lat":-6.161728,"line":11,"time":5,"distance":1901,"transit":false,"station_id":"KMO","i_long":106.839204},{"time":4,"distance":1436,"i_lat":-6.174784,"station_name":"Pasar Senen","i_long":106.84368,"line":11,"is_transit":false,"station_id":"PSE","transit":false},{"station_name":"Gang Sentiong","i_long":106.850107,"station_id":"GST","is_transit":false,"distance":1567,"line":11,"time":8,"transit":false,"i_lat":-6.185975},{"i_lat":-6.193792,"transit":false,"i_long":106.855437,"station_name":"Kramat","line":11,"station_id":"KMT","is_transit":false,"time":1,"distance":973},{"i_long":106.861737,"i_lat":-6.209188,"station_id":"POK","transit":false,"line":11,"station_name":"Pondok Jati","distance":1829,"is_transit":false,"time":2},{"i_long":106.86807400000001,"time":9,"distance":1236,"i_lat":-6.215091,"station_id":"JNG","line":0,"station_name":"Jatinegara","is_transit":true,"transit":true},{"line":1,"is_transit":false,"distance":3395,"i_lat":-6.2135,"station_id":"KLD","time":3,"transit":false,"station_name":"Klender","i_long":106.899548},{"station_id":"BUA","is_transit":false,"station_name":"Buaran","line":0,"time":2,"i_long":106.922662,"i_lat":-6.215568,"distance":3100,"transit":false},{"transit":false,"is_transit":false,"i_long":106.939679,"station_name":"Klenderbaru","line":1,"time":1,"distance":1305,"i_lat":-6.217455,"station_id":"KLDB"},{"line":0,"i_lat":-6.219053,"is_transit":false,"time":8,"distance":1385,"station_name":"Cakung","station_id":"CUK","i_long":106.951283,"transit":false},{"transit":false,"i_lat":-6.224515,"i_long":106.977657,"line":1,"is_transit":false,"distance":3097,"station_name":"Kranji","time":3,"station_id":"KRI"},{"time":4,"station_name":"Bekasi","distance":2520,"station_id":"BKS","transit":false,"i_long":106.997013,"line":0,"is_transit":false,"i_lat":-6.236616},{"is_transit":false,"station_name":"Bekasi Timur","i_long":107.016735,"station_id":"BKST","i_lat":-6.248029,"line":0,"distance":2368,"transit":false,"time":2}],[{"station_id":"DPB","transit":false,"line":0,"station_name":"Depokbaru","i_long":106.819451,"distance":0,"i_lat":-6.391065,"time":0,"is_transit":false},{"time":4,"i_long":106.831114,"is_transit":false,"station_id":"POC","i_lat":-6.369073,"distance":2727,"transit":false,"line":2,"station_name":"Pondok Cina"},{"time":2,"i_lat":-6.360749,"line":2,"station_id":"UI","is_transit":false,"distance":1109,"transit":false,"i_long":106.831474,"station_name":"Univ. Indonesia"},{"transit":false,"time":3,"station_id":"UP","is_transit":false,"distance":2264,"i_long":106.834175,"line":2,"i_lat":-6.339291,"station_name":"Univ. Pancasila"},{"is_transit":false,"station_id":"LNA","station_name":"Lenteng Agung","transit":false,"time":2,"i_lat":-6.330363,"i_long":106.832616,"distance":1029,"line":2},{"line":2,"is_transit":false,"station_name":"Tanjung Barat","distance":2671,"transit":false,"station_id":"TNT","i_lat":-6.3080680000000005,"time":3,"i_long":106.838896},{"time":4,"distance":2820,"transit":false,"station_id":"PSM","line":2,"i_long":106.843999,"i_lat":-6.2842400000000005,"is_transit":false,"station_name":"Pasar Minggu"},{"station_name":"Pasar Minggu Baru","line":2,"station_id":"PSMB","transit":false,"i_long":106.851577,"is_transit":false,"time":2,"distance":2380,"i_lat":-6.263214},{"line":0,"i_long":106.85449,"distance":824,"station_name":"Duren Kalibata","transit":false,"time":2,"i_lat":-6.255332,"station_id":"DRN","is_transit":false},{"station_name":"Cawang","i_lat":-6.242512,"transit":false,"line":0,"station_id":"CW","i_long":106.856607,"is_transit":false,"time":3,"distance":1546},{"transit":false,"i_lat":-6.226659,"i_long":106.857948,"time":2,"distance":1230,"station_id":"TEB","line":2,"station_name":"Tebet","is_transit":false},{"station_name":"Manggarai","i_long":106.84912,"is_transit":true,"i_lat":-6.209883,"line":0,"time":4,"transit":true,"station_id":"MRI","distance":2610},{"station_name":"Cikini","station_id":"CKI","time":4,"line":0,"transit":false,"distance":1590,"i_lat":-6.198556,"i_long":106.840169,"is_transit":false},{"line":2,"station_id":"GDD","i_lat":-6.186295,"transit":false,"is_transit":false,"distance":1750,"time":3,"station_name":"Gondangdia","i_long":106.832183},{"station_id":"JUA","i_long":106.828284,"time":4,"station_name":"Juanda","distance":2015,"is_transit":false,"i_lat":-6.166716,"line":2,"transit":false},{"i_long":106.827103,"line":2,"transit":false,"station_id":"SW","is_transit":false,"time":2,"i_lat":-6.160725,"distance":1149,"station_name":"Sawah Besar"},{"station_name":"Manggabesar","line":2,"i_lat":-6.149769,"time":2,"transit":false,"is_transit":false,"station_id":"MGB","i_long":106.82482,"distance":906},{"transit":false,"line":7,"station_name":"Jayakarta","station_id":"JAY","is_transit":false,"time":2,"i_lat":-6.141205,"distance":1080,"i_long":106.820901},{"distance":1264,"line":0,"time":4,"i_lat":-6.137569,"station_id":"JAKK","station_name":"Jakarta Kota","is_transit":true,"i_long":106.812439,"transit":true},{"time":3,"distance":1364,"station_id":"KPB","is_transit":true,"i_lat":-6.132549,"i_long":106.826365,"transit":true,"station_name":"Kampung Bandan","line":0},{"is_transit":false,"distance":1444,"transit":false,"i_lat":-6.14505,"line":11,"station_name":"Rajawali","i_long":106.836569,"time":3,"station_id":"RJW"},{"transit":false,"time":5,"i_long":106.839204,"station_name":"Kemayoran","is_transit":false,"distance":1901,"line":11,"i_lat":-6.161728,"station_id":"KMO"},{"distance":1436,"is_transit":false,"i_lat":-6.174784,"station_id":"PSE","station_name":"Pasar Senen","time":4,"transit":false,"i_long":106.84368,"line":11},{"i_long":106.850107,"time":8,"line":11,"station_name":"Gang Sentiong","i_lat":-6.185975,"distance":1567,"transit":false,"is_transit":false,"station_id":"GST"},{"distance":973,"transit":false,"is_transit":false,"time":1,"station_id":"KMT","i_lat":-6.193792,"line":11,"i_long":106.855437,"station_name":"Kramat"},{"station_id":"POK","station_name":"Pondok Jati","i_long":106.861737,"i_lat":-6.209188,"time":2,"line":11,"transit":false,"distance":1829,"is_transit":false},{"time":9,"transit":true,"station_name":"Jatinegara","distance":1236,"is_transit":true,"i_lat":-6.215091,"i_long":106.86807400000001,"line":0,"station_id":"JNG"},{"i_long":106.899548,"time":3,"is_transit":false,"transit":false,"line":1,"station_id":"KLD","i_lat":-6.2135,"distance":3395,"station_name":"Klender"},{"is_transit":false,"time":2,"line":0,"station_name":"Buaran","distance":3100,"station_id":"BUA","transit":false,"i_long":106.922662,"i_lat":-6.215568},{"station_id":"KLDB","distance":1305,"i_long":106.939679,"line":1,"station_name":"Klenderbaru","transit":false,"is_transit":false,"time":1,"i_lat":-6.217455},{"station_id":"CUK","i_lat":-6.219053,"i_long":106.951283,"distance":1385,"transit":false,"station_name":"Cakung","line":0,"is_transit":false,"time":8},{"distance":3097,"station_name":"Kranji","i_long":106.977657,"time":3,"is_transit":false,"i_lat":-6.224515,"line":1,"station_id":"KRI","transit":false},{"i_lat":-6.236616,"is_transit":false,"time":4,"transit":false,"station_id":"BKS","station_name":"Bekasi","i_long":106.997013,"distance":2520,"line":0},{"is_transit":false,"i_long":107.016735,"time":2,"station_id":"BKST","station_name":"Bekasi Timur","distance":2368,"line":0,"i_lat":-6.248029,"transit":false}]]}