{"data":[[{"i_long":106.85449,"i_lat":-6.255332,"transit":false,"line":2,"distance":0,"is_transit":false,"station_id":"DRN","station_name":"Duren Kalibata","time":0},{"i_lat":-6.263214,"line":2,"time":2,"station_id":"PSMB","distance":824,"station_name":"Pasar Minggu Baru","i_long":106.851577,"transit":false,"is_transit":false},{"is_transit":false,"time":2,"transit":false,"i_lat":-6.2842400000000005,"i_long":106.843999,"line":2,"distance":2380,"station_name":"Pasar Minggu","station_id":"PSM"},{"station_id":"TNT","station_name":"Tanjung Barat","is_transit":false,"i_long":106.838896,"line":2,"i_lat":-6.3080680000000005,"transit":false,"time":4,"distance":2820},{"transit":false,"i_long":106.832616,"time":3,"is_transit":false,"station_name":"Lenteng Agung","line":2,"station_id":"LNA","distance":2671,"i_lat":-6.330363},{"station_id":"UP","line":2,"distance":1029,"is_transit":false,"i_long":106.834175,"transit":false,"i_lat":-6.339291,"time":2,"station_name":"Univ. Pancasila"},{"is_transit":false,"i_lat":-6.360749,"i_long":106.831474,"line":2,"distance":2264,"time":3,"transit":false,"station_id":"UI","station_name":"Univ. Indonesia"},{"i_lat":-6.369073,"line":2,"distance":1109,"is_transit":false,"station_name":"Pondok Cina","station_id":"POC","time":2,"transit":false,"i_long":106.831114},{"time":4,"i_long":106.819451,"station_id":"DPB","is_transit":false,"i_lat":-6.391065,"line":2,"station_name":"Depokbaru","transit":false,"distance":2727},{"distance":1584,"i_long":106.816926,"station_name":"Depok","is_transit":false,"station_id":"DP","time":3,"transit":false,"i_lat":-6.405256,"line":2}]]}