{"data":[[{"i_lat":-6.255332,"i_long":106.85449,"line":2,"time":0,"station_id":"DRN","station_name":"Duren Kalibata","is_transit":false,"transit":false,"distance":0},{"time":2,"station_name":"Pasar Minggu Baru","station_id":"PSMB","distance":824,"is_transit":false,"i_long":106.851577,"i_lat":-6.263214,"transit":false,"line":2},{"is_transit":false,"time":2,"transit":false,"distance":2380,"i_long":106.843999,"station_name":"Pasar Minggu","station_id":"PSM","i_lat":-6.2842400000000005,"line":2},{"is_transit":false,"i_long":106.838896,"transit":false,"station_id":"TNT","time":4,"distance":2820,"i_lat":-6.3080680000000005,"station_name":"Tanjung Barat","line":2},{"station_name":"Lenteng Agung","is_transit":false,"distance":2671,"i_long":106.832616,"transit":false,"time":3,"i_lat":-6.330363,"line":2,"station_id":"LNA"},{"time":2,"station_name":"Univ. Pancasila","transit":false,"station_id":"UP","i_lat":-6.339291,"line":2,"distance":1029,"i_long":106.834175,"is_transit":false},{"is_transit":false,"transit":false,"station_id":"UI","time":3,"line":2,"i_long":106.831474,"station_name":"Univ. Indonesia","distance":2264,"i_lat":-6.360749},{"time":2,"i_lat":-6.369073,"is_transit":false,"transit":false,"station_name":"Pondok Cina","station_id":"POC","distance":1109,"i_long":106.831114,"line":2},{"station_id":"DPB","transit":false,"line":2,"is_transit":false,"i_long":106.819451,"i_lat":-6.391065,"station_name":"Depokbaru","distance":2727,"time":4},{"line":2,"time":3,"is_transit":false,"i_long":106.816926,"i_lat":-6.405256,"station_id":"DP","station_name":"Depok","transit":false,"distance":1584},{"i_lat":-6.448811,"i_long":106.800298,"distance":5084,"station_name":"Citayam","line":2,"transit":true,"is_transit":true,"station_id":"CTA","time":6},{"transit":false,"station_name":"Pondok Rajeg","line":21,"distance":0,"station_id":"PDRG","is_transit":false,"time":0,"i_long":106.824374,"i_lat":-6.460735}]]}