{"data":[[{"i_long":106.85449,"transit":false,"time":0,"line":2,"distance":0,"station_id":"DRN","station_name":"Duren Kalibata","is_transit":false,"i_lat":-6.255332},{"station_name":"Cawang","line":2,"i_lat":-6.242512,"station_id":"CW","transit":false,"i_long":106.856607,"time":3,"distance":1546,"is_transit":false},{"distance":1230,"time":2,"transit":false,"station_name":"Tebet","station_id":"TEB","i_lat":-6.226659,"i_long":106.857948,"is_transit":false,"line":2},{"distance":2610,"line":2,"station_name":"Manggarai","is_transit":true,"i_lat":-6.209883,"time":4,"transit":true,"station_id":"MRI","i_long":106.84912},{"station_name":"Sudirman","i_lat":-6.202263,"i_long":106.822649,"station_id":"SUD","line":1,"transit":false,"time":4,"is_transit":false,"distance":3186},{"time":1,"transit":false,"station_name":"Sudirman Baru","i_long":106.819881,"is_transit":false,"station_id":"SUDB","line":1,"distance":280,"i_lat":-6.201433},{"distance":471,"i_long":106.816351,"line":1,"time":1,"transit":false,"is_transit":false,"station_name":"Karet","station_id":"KAT","i_lat":-6.20132},{"station_name":"Tanah Abang","transit":false,"station_id":"THB","i_long":106.811091,"i_lat":-6.185545,"is_transit":false,"line":1,"distance":2029,"time":5},{"i_lat":-6.155215,"distance":3632,"transit":true,"is_transit":true,"i_long":106.800832,"line":1,"time":8,"station_id":"DU","station_name":"Duri"},{"i_long":106.788277,"transit":false,"is_transit":false,"distance":1700,"line":5,"station_name":"Grogol","station_id":"GGL","i_lat":-6.162021,"time":3}],[{"line":2,"transit":false,"station_name":"Duren Kalibata","station_id":"DRN","distance":0,"is_transit":false,"i_lat":-6.255332,"i_long":106.85449,"time":0},{"station_name":"Cawang","station_id":"CW","time":3,"transit":false,"distance":1546,"i_long":106.856607,"i_lat":-6.242512,"is_transit":false,"line":2},{"time":2,"transit":false,"station_name":"Tebet","is_transit":false,"line":2,"i_lat":-6.226659,"distance":1230,"station_id":"TEB","i_long":106.857948},{"distance":2610,"i_long":106.84912,"station_name":"Manggarai","time":4,"is_transit":false,"transit":false,"station_id":"MRI","i_lat":-6.209883,"line":2},{"line":2,"station_id":"CKI","station_name":"Cikini","transit":false,"is_transit":false,"i_lat":-6.198556,"distance":1590,"i_long":106.840169,"time":4},{"transit":false,"time":3,"i_lat":-6.186295,"line":2,"station_id":"GDD","i_long":106.832183,"is_transit":false,"station_name":"Gondangdia","distance":1750},{"line":2,"station_name":"Juanda","time":4,"i_lat":-6.166716,"is_transit":false,"transit":false,"distance":2015,"station_id":"JUA","i_long":106.828284},{"time":2,"distance":1149,"is_transit":false,"i_lat":-6.160725,"station_id":"SW","i_long":106.827103,"transit":false,"line":2,"station_name":"Sawah Besar"},{"station_id":"MGB","i_long":106.82482,"transit":false,"is_transit":false,"distance":906,"station_name":"Manggabesar","line":2,"time":2,"i_lat":-6.149769},{"i_lat":-6.141205,"line":2,"transit":false,"is_transit":false,"station_name":"Jayakarta","time":2,"station_id":"JAY","i_long":106.820901,"distance":1080},{"i_long":106.812439,"is_transit":true,"station_name":"Jakarta Kota","i_lat":-6.137569,"distance":1264,"transit":true,"station_id":"JAKK","line":2,"time":4},{"station_id":"KPB","time":3,"transit":true,"station_name":"Kampung Bandan","i_long":106.826365,"is_transit":true,"i_lat":-6.132549,"line":4,"distance":1364},{"station_name":"Angke","time":9,"transit":false,"station_id":"AK","is_transit":false,"i_long":106.79867,"distance":4102,"i_lat":-6.144674,"line":1},{"transit":true,"is_transit":true,"station_name":"Duri","i_lat":-6.155215,"i_long":106.800832,"line":1,"time":4,"distance":1230,"station_id":"DU"},{"time":3,"distance":1700,"i_lat":-6.162021,"transit":false,"station_name":"Grogol","i_long":106.788277,"is_transit":false,"line":5,"station_id":"GGL"}],[{"is_transit":false,"distance":0,"station_id":"DRN","time":0,"station_name":"Duren Kalibata","line":2,"i_long":106.85449,"transit":false,"i_lat":-6.255332},{"line":2,"station_id":"CW","i_long":106.856607,"is_transit":false,"i_lat":-6.242512,"time":3,"transit":false,"distance":1546,"station_name":"Cawang"},{"is_transit":false,"transit":false,"i_lat":-6.226659,"station_name":"Tebet","station_id":"TEB","line":2,"distance":1230,"i_long":106.857948,"time":2},{"line":2,"time":4,"is_transit":true,"station_name":"Manggarai","transit":true,"distance":2610,"station_id":"MRI","i_long":106.84912,"i_lat":-6.209883},{"transit":false,"line":1,"station_name":"Matraman","station_id":"MTR","time":2,"distance":1275,"is_transit":false,"i_lat":-6.212485,"i_long":106.858896},{"distance":1377,"time":8,"station_id":"JNG","transit":true,"is_transit":true,"i_lat":-6.215091,"station_name":"Jatinegara","i_long":106.86807400000001,"line":1},{"transit":false,"time":2,"distance":1236,"line":11,"is_transit":false,"station_id":"POK","i_lat":-6.209188,"i_long":106.861737,"station_name":"Pondok Jati"},{"station_name":"Kramat","transit":false,"time":2,"distance":1829,"i_lat":-6.193792,"i_long":106.855437,"line":11,"station_id":"KMT","is_transit":false},{"is_transit":false,"i_lat":-6.185975,"station_name":"Gang Sentiong","station_id":"GST","i_long":106.850107,"distance":973,"time":1,"line":11,"transit":false},{"time":8,"distance":1567,"i_lat":-6.174784,"i_long":106.84368,"line":11,"transit":false,"station_name":"Pasar Senen","is_transit":false,"station_id":"PSE"},{"distance":1436,"time":4,"transit":false,"is_transit":false,"station_name":"Kemayoran","station_id":"KMO","i_long":106.839204,"i_lat":-6.161728,"line":11},{"time":5,"i_long":106.836569,"i_lat":-6.14505,"is_transit":false,"line":11,"transit":false,"station_id":"RJW","distance":1901,"station_name":"Rajawali"},{"transit":true,"i_lat":-6.132549,"station_id":"KPB","station_name":"Kampung Bandan","is_transit":true,"line":4,"time":3,"distance":1444,"i_long":106.826365},{"line":1,"station_id":"AK","i_lat":-6.144674,"i_long":106.79867,"is_transit":false,"distance":4102,"station_name":"Angke","transit":false,"time":9},{"transit":true,"line":1,"station_name":"Duri","is_transit":true,"distance":1230,"station_id":"DU","i_lat":-6.155215,"time":4,"i_long":106.800832},{"is_transit":false,"i_long":106.788277,"transit":false,"distance":1700,"station_name":"Grogol","station_id":"GGL","time":3,"i_lat":-6.162021,"line":5}]]}