{"data":[[{"station_name":"Duren Kalibata","transit":false,"time":0,"i_lat":-6.255332,"is_transit":false,"line":0,"distance":0,"station_id":"DRN","i_long":106.85449},{"station_name":"Cawang","i_lat":-6.242512,"line":0,"time":3,"transit":false,"distance":1546,"i_long":106.856607,"is_transit":false,"station_id":"CW"},{"station_id":"TEB","is_transit":false,"time":2,"i_long":106.857948,"transit":false,"i_lat":-6.226659,"station_name":"Tebet","line":2,"distance":1230},{"is_transit":true,"distance":2610,"i_long":106.84912,"line":0,"transit":true,"station_id":"MRI","i_lat":-6.209883,"station_name":"Manggarai","time":4},{"time":4,"i_long":106.822649,"station_name":"Sudirman","i_lat":-6.202263,"station_id":"SUD","distance":3186,"transit":false,"line":1,"is_transit":false},{"is_transit":false,"transit":false,"i_lat":-6.201433,"station_id":"SUDB","station_name":"Sudirman Baru","time":1,"i_long":106.819881,"line":1,"distance":280},{"station_name":"Karet","time":1,"i_lat":-6.20132,"i_long":106.816351,"line":1,"station_id":"KAT","is_transit":false,"distance":471,"transit":false},{"distance":2029,"i_lat":-6.185545,"line":1,"station_name":"Tanah Abang","station_id":"THB","transit":true,"is_transit":true,"i_long":106.811091,"time":5},{"line":6,"station_id":"PLM","is_transit":false,"time":6,"distance":3191,"station_name":"Palmerah","i_long":106.79689,"transit":false,"i_lat":-6.207404},{"i_long":106.780334,"station_id":"KBY","i_lat":-6.237242,"is_transit":false,"transit":false,"line":6,"distance":3737,"time":7,"station_name":"Kebayoran"},{"station_name":"Pondokranji","transit":false,"station_id":"PDJ","i_long":106.74273,"is_transit":false,"time":8,"distance":6218,"line":6,"i_lat":-6.276362},{"station_id":"JMU","i_lat":-6.288927,"distance":2179,"is_transit":false,"time":3,"i_long":106.728916,"transit":false,"station_name":"Jurangmangu","line":6},{"station_id":"SDM","station_name":"Sudimara","transit":false,"time":4,"is_transit":false,"i_lat":-6.296963,"i_long":106.712277,"line":6,"distance":1994},{"distance":4566,"i_lat":-6.314823,"i_long":106.675475,"station_name":"Rawa Buntu","transit":false,"time":6,"line":6,"station_id":"RU","is_transit":false},{"station_id":"SRP","is_transit":false,"i_lat":-6.319871,"i_long":106.66566,"line":6,"time":4,"transit":false,"distance":2413,"station_name":"Serpong"},{"i_long":106.640411,"is_transit":false,"station_name":"Cisauk","i_lat":-6.32484,"transit":false,"distance":1784,"line":0,"station_id":"CSK","time":4},{"time":4,"distance":2519,"i_lat":-6.329547,"is_transit":false,"station_id":"CC","station_name":"Cicayur","transit":false,"i_long":106.617853,"line":0},{"is_transit":false,"line":6,"i_long":106.568863,"transit":false,"station_name":"Parung Panjang","time":8,"i_lat":-6.3441410000000005,"station_id":"PRP","distance":5968}],[{"line":0,"station_name":"Duren Kalibata","station_id":"DRN","transit":false,"time":0,"i_long":106.85449,"is_transit":false,"i_lat":-6.255332,"distance":0},{"time":3,"i_long":106.856607,"distance":1546,"station_id":"CW","is_transit":false,"station_name":"Cawang","i_lat":-6.242512,"transit":false,"line":0},{"transit":false,"distance":1230,"i_long":106.857948,"line":2,"time":2,"i_lat":-6.226659,"station_name":"Tebet","is_transit":false,"station_id":"TEB"},{"is_transit":true,"i_lat":-6.209883,"time":4,"line":0,"i_long":106.84912,"distance":2610,"station_id":"MRI","transit":true,"station_name":"Manggarai"},{"station_name":"Cikini","time":4,"line":0,"is_transit":false,"transit":false,"i_long":106.840169,"distance":1590,"i_lat":-6.198556,"station_id":"CKI"},{"time":3,"line":2,"is_transit":false,"station_name":"Gondangdia","i_long":106.832183,"distance":1750,"i_lat":-6.186295,"transit":false,"station_id":"GDD"},{"i_long":106.828284,"i_lat":-6.166716,"station_id":"JUA","distance":2015,"station_name":"Juanda","line":2,"is_transit":false,"transit":false,"time":4},{"line":2,"is_transit":false,"station_name":"Sawah Besar","distance":1149,"station_id":"SW","transit":false,"i_lat":-6.160725,"i_long":106.827103,"time":2},{"time":2,"distance":906,"is_transit":false,"station_name":"Manggabesar","i_lat":-6.149769,"station_id":"MGB","i_long":106.82482,"transit":false,"line":2},{"i_lat":-6.141205,"is_transit":false,"i_long":106.820901,"distance":1080,"station_id":"JAY","station_name":"Jayakarta","line":7,"transit":false,"time":2},{"transit":true,"station_id":"JAKK","line":0,"is_transit":true,"i_lat":-6.137569,"time":4,"i_long":106.812439,"distance":1264,"station_name":"Jakarta Kota"},{"is_transit":true,"station_id":"KPB","station_name":"Kampung Bandan","transit":false,"distance":1364,"i_long":106.826365,"time":3,"i_lat":-6.132549,"line":0},{"station_name":"Angke","i_long":106.79867,"station_id":"AK","transit":false,"i_lat":-6.144674,"distance":4102,"is_transit":false,"line":0,"time":9},{"station_name":"Duri","i_lat":-6.155215,"is_transit":true,"station_id":"DU","i_long":106.800832,"distance":1230,"time":4,"transit":true,"line":1},{"distance":3632,"station_name":"Tanah Abang","time":8,"is_transit":true,"line":1,"station_id":"THB","transit":true,"i_lat":-6.185545,"i_long":106.811091},{"transit":false,"i_long":106.79689,"line":6,"distance":3191,"is_transit":false,"time":6,"i_lat":-6.207404,"station_id":"PLM","station_name":"Palmerah"},{"transit":false,"i_lat":-6.237242,"i_long":106.780334,"station_id":"KBY","station_name":"Kebayoran","distance":3737,"line":6,"is_transit":false,"time":7},{"distance":6218,"station_id":"PDJ","is_transit":false,"i_long":106.74273,"station_name":"Pondokranji","time":8,"transit":false,"i_lat":-6.276362,"line":6},{"transit":false,"i_lat":-6.288927,"station_name":"Jurangmangu","line":6,"is_transit":false,"time":3,"i_long":106.728916,"distance":2179,"station_id":"JMU"},{"transit":false,"i_long":106.712277,"station_id":"SDM","is_transit":false,"distance":1994,"i_lat":-6.296963,"station_name":"Sudimara","time":4,"line":6},{"distance":4566,"i_lat":-6.314823,"station_id":"RU","i_long":106.675475,"transit":false,"station_name":"Rawa Buntu","line":6,"is_transit":false,"time":6},{"is_transit":false,"station_name":"Serpong","line":6,"transit":false,"i_lat":-6.319871,"time":4,"station_id":"SRP","distance":2413,"i_long":106.66566},{"i_long":106.640411,"transit":false,"line":0,"is_transit":false,"time":4,"distance":1784,"station_name":"Cisauk","i_lat":-6.32484,"station_id":"CSK"},{"station_id":"CC","time":4,"transit":false,"station_name":"Cicayur","i_lat":-6.329547,"i_long":106.617853,"distance":2519,"line":0,"is_transit":false},{"i_lat":-6.3441410000000005,"distance":5968,"transit":false,"line":6,"station_name":"Parung Panjang","i_long":106.568863,"time":8,"is_transit":false,"station_id":"PRP"}],[{"i_lat":-6.255332,"line":0,"distance":0,"time":0,"station_id":"DRN","station_name":"Duren Kalibata","transit":false,"is_transit":false,"i_long":106.85449},{"distance":1546,"station_name":"Cawang","is_transit":false,"time":3,"i_lat":-6.242512,"line":0,"station_id":"CW","i_long":106.856607,"transit":false},{"is_transit":false,"i_long":106.857948,"i_lat":-6.226659,"line":2,"transit":false,"distance":1230,"station_name":"Tebet","station_id":"TEB","time":2},{"line":0,"station_name":"Manggarai","transit":true,"i_long":106.84912,"is_transit":true,"distance":2610,"time":4,"station_id":"MRI","i_lat":-6.209883},{"time":2,"is_transit":false,"i_lat":-6.212485,"station_id":"MTR","station_name":"Matraman","distance":1275,"i_long":106.858896,"line":1,"transit":false},{"distance":1377,"i_long":106.86807400000001,"line":0,"time":8,"station_id":"JNG","is_transit":true,"transit":true,"i_lat":-6.215091,"station_name":"Jatinegara"},{"transit":false,"station_id":"POK","station_name":"Pondok Jati","i_lat":-6.209188,"time":2,"is_transit":false,"distance":1236,"line":11,"i_long":106.861737},{"line":11,"is_transit":false,"station_id":"KMT","transit":false,"i_lat":-6.193792,"station_name":"Kramat","time":2,"i_long":106.855437,"distance":1829},{"station_name":"Gang Sentiong","time":1,"distance":973,"station_id":"GST","i_long":106.850107,"i_lat":-6.185975,"is_transit":false,"line":11,"transit":false},{"distance":1567,"is_transit":false,"station_id":"PSE","i_long":106.84368,"time":8,"station_name":"Pasar Senen","i_lat":-6.174784,"line":11,"transit":false},{"line":11,"station_id":"KMO","is_transit":false,"time":4,"station_name":"Kemayoran","transit":false,"i_lat":-6.161728,"i_long":106.839204,"distance":1436},{"station_name":"Rajawali","i_lat":-6.14505,"is_transit":false,"line":11,"transit":false,"i_long":106.836569,"time":5,"station_id":"RJW","distance":1901},{"station_id":"KPB","is_transit":true,"line":0,"station_name":"Kampung Bandan","distance":1444,"time":3,"i_lat":-6.132549,"i_long":106.826365,"transit":true},{"station_name":"Angke","i_lat":-6.144674,"i_long":106.79867,"is_transit":false,"station_id":"AK","time":9,"distance":4102,"transit":false,"line":0},{"distance":1230,"station_id":"DU","is_transit":true,"line":1,"time":4,"transit":true,"station_name":"Duri","i_long":106.800832,"i_lat":-6.155215},{"transit":true,"station_name":"Tanah Abang","line":1,"i_long":106.811091,"time":8,"distance":3632,"i_lat":-6.185545,"station_id":"THB","is_transit":true},{"line":6,"i_lat":-6.207404,"is_transit":false,"time":6,"transit":false,"station_name":"Palmerah","i_long":106.79689,"distance":3191,"station_id":"PLM"},{"is_transit":false,"i_lat":-6.237242,"transit":false,"i_long":106.780334,"line":6,"station_id":"KBY","time":7,"station_name":"Kebayoran","distance":3737},{"time":8,"station_name":"Pondokranji","distance":6218,"i_long":106.74273,"line":6,"transit":false,"i_lat":-6.276362,"station_id":"PDJ","is_transit":false},{"station_id":"JMU","line":6,"distance":2179,"is_transit":false,"i_lat":-6.288927,"station_name":"Jurangmangu","i_long":106.728916,"transit":false,"time":3},{"transit":false,"i_lat":-6.296963,"is_transit":false,"time":4,"i_long":106.712277,"distance":1994,"line":6,"station_name":"Sudimara","station_id":"SDM"},{"i_long":106.675475,"time":6,"station_id":"RU","line":6,"station_name":"Rawa Buntu","is_transit":false,"transit":false,"distance":4566,"i_lat":-6.314823},{"time":4,"transit":false,"is_transit":false,"distance":2413,"station_name":"Serpong","station_id":"SRP","i_lat":-6.319871,"line":6,"i_long":106.66566},{"time":4,"is_transit":false,"distance":1784,"station_id":"CSK","i_lat":-6.32484,"station_name":"Cisauk","i_long":106.640411,"transit":false,"line":0},{"line":0,"time":4,"i_long":106.617853,"station_name":"Cicayur","distance":2519,"station_id":"CC","is_transit":false,"transit":false,"i_lat":-6.329547},{"station_name":"Parung Panjang","transit":false,"distance":5968,"time":8,"i_lat":-6.3441410000000005,"i_long":106.568863,"line":6,"station_id":"PRP","is_transit":false}]]}