{"data":[[{"distance":0,"line":2,"station_name":"Duren Kalibata","is_transit":false,"i_lat":-6.255332,"station_id":"DRN","i_long":106.85449,"time":0,"transit":false},{"station_name":"Cawang","transit":false,"i_long":106.856607,"distance":1546,"line":2,"time":3,"is_transit":false,"station_id":"CW","i_lat":-6.242512},{"line":2,"distance":1230,"i_lat":-6.226659,"station_id":"TEB","time":2,"is_transit":false,"station_name":"Tebet","i_long":106.857948,"transit":false},{"line":2,"is_transit":true,"i_long":106.84912,"station_id":"MRI","station_name":"Manggarai","time":4,"distance":2610,"i_lat":-6.209883,"transit":true},{"is_transit":false,"distance":3186,"transit":false,"station_name":"Sudirman","i_lat":-6.202263,"time":4,"line":1,"i_long":106.822649,"station_id":"SUD"},{"line":1,"i_long":106.819881,"is_transit":false,"station_id":"SUDB","distance":280,"station_name":"Sudirman Baru","i_lat":-6.201433,"time":1,"transit":false},{"is_transit":false,"station_id":"KAT","i_long":106.816351,"i_lat":-6.20132,"distance":471,"transit":false,"station_name":"Karet","line":1,"time":1},{"i_lat":-6.185545,"transit":false,"i_long":106.811091,"station_id":"THB","line":1,"distance":2029,"station_name":"Tanah Abang","is_transit":false,"time":5},{"i_lat":-6.155215,"transit":true,"distance":3632,"i_long":106.800832,"time":8,"line":1,"station_id":"DU","is_transit":true,"station_name":"Duri"},{"time":3,"station_name":"Grogol","is_transit":false,"i_long":106.788277,"i_lat":-6.162021,"station_id":"GGL","line":5,"distance":1700,"transit":false},{"i_long":106.771379,"line":5,"time":2,"station_id":"PSG","is_transit":false,"transit":false,"distance":2036,"station_name":"Pesing","i_lat":-6.161433},{"station_name":"Taman Kota","time":2,"distance":1614,"station_id":"TKO","is_transit":false,"i_lat":-6.1587309999999995,"i_long":106.756522,"transit":false,"line":5},{"station_name":"Bojongindah","station_id":"BOI","is_transit":false,"time":2,"distance":2334,"transit":false,"line":5,"i_lat":-6.159876,"i_long":106.737035}],[{"station_id":"DRN","line":2,"transit":false,"i_lat":-6.255332,"distance":0,"i_long":106.85449,"is_transit":false,"time":0,"station_name":"Duren Kalibata"},{"i_long":106.856607,"is_transit":false,"station_name":"Cawang","line":2,"station_id":"CW","transit":false,"i_lat":-6.242512,"distance":1546,"time":3},{"station_name":"Tebet","i_lat":-6.226659,"is_transit":false,"i_long":106.857948,"distance":1230,"time":2,"station_id":"TEB","line":2,"transit":false},{"i_lat":-6.209883,"time":4,"station_name":"Manggarai","is_transit":false,"transit":false,"line":2,"distance":2610,"station_id":"MRI","i_long":106.84912},{"station_name":"Cikini","station_id":"CKI","transit":false,"is_transit":false,"i_long":106.840169,"line":2,"i_lat":-6.198556,"time":4,"distance":1590},{"distance":1750,"time":3,"i_lat":-6.186295,"station_name":"Gondangdia","i_long":106.832183,"station_id":"GDD","line":2,"is_transit":false,"transit":false},{"transit":false,"i_long":106.828284,"time":4,"distance":2015,"i_lat":-6.166716,"line":2,"station_id":"JUA","station_name":"Juanda","is_transit":false},{"station_id":"SW","distance":1149,"station_name":"Sawah Besar","time":2,"transit":false,"i_lat":-6.160725,"is_transit":false,"i_long":106.827103,"line":2},{"distance":906,"i_long":106.82482,"station_name":"Manggabesar","line":2,"time":2,"i_lat":-6.149769,"station_id":"MGB","is_transit":false,"transit":false},{"transit":false,"i_lat":-6.141205,"i_long":106.820901,"distance":1080,"station_id":"JAY","is_transit":false,"time":2,"line":2,"station_name":"Jayakarta"},{"is_transit":true,"i_long":106.812439,"station_id":"JAKK","time":4,"i_lat":-6.137569,"distance":1264,"station_name":"Jakarta Kota","line":2,"transit":true},{"line":4,"i_long":106.826365,"i_lat":-6.132549,"time":3,"transit":true,"distance":1364,"station_id":"KPB","station_name":"Kampung Bandan","is_transit":true},{"distance":4102,"is_transit":false,"time":9,"station_id":"AK","transit":false,"line":1,"station_name":"Angke","i_long":106.79867,"i_lat":-6.144674},{"station_id":"DU","distance":1230,"transit":true,"i_lat":-6.155215,"i_long":106.800832,"station_name":"Duri","is_transit":true,"time":4,"line":1},{"i_lat":-6.162021,"distance":1700,"time":3,"station_name":"Grogol","transit":false,"line":5,"is_transit":false,"i_long":106.788277,"station_id":"GGL"},{"i_lat":-6.161433,"is_transit":false,"station_name":"Pesing","i_long":106.771379,"line":5,"station_id":"PSG","distance":2036,"transit":false,"time":2},{"station_id":"TKO","i_long":106.756522,"i_lat":-6.1587309999999995,"transit":false,"line":5,"time":2,"distance":1614,"station_name":"Taman Kota","is_transit":false},{"station_id":"BOI","time":2,"transit":false,"i_long":106.737035,"i_lat":-6.159876,"line":5,"station_name":"Bojongindah","distance":2334,"is_transit":false}],[{"distance":0,"is_transit":false,"time":0,"i_lat":-6.255332,"transit":false,"station_name":"Duren Kalibata","station_id":"DRN","line":2,"i_long":106.85449},{"distance":1546,"station_id":"CW","time":3,"i_long":106.856607,"transit":false,"line":2,"i_lat":-6.242512,"station_name":"Cawang","is_transit":false},{"station_id":"TEB","transit":false,"is_transit":false,"time":2,"i_lat":-6.226659,"i_long":106.857948,"distance":1230,"station_name":"Tebet","line":2},{"time":4,"i_lat":-6.209883,"station_name":"Manggarai","i_long":106.84912,"is_transit":true,"station_id":"MRI","distance":2610,"transit":true,"line":2},{"i_lat":-6.212485,"distance":1275,"station_id":"MTR","station_name":"Matraman","line":1,"time":2,"is_transit":false,"transit":false,"i_long":106.858896},{"is_transit":true,"time":8,"station_id":"JNG","i_long":106.86807400000001,"station_name":"Jatinegara","line":1,"distance":1377,"transit":true,"i_lat":-6.215091},{"station_name":"Pondok Jati","i_lat":-6.209188,"line":11,"time":2,"transit":false,"station_id":"POK","distance":1236,"is_transit":false,"i_long":106.861737},{"i_long":106.855437,"station_name":"Kramat","i_lat":-6.193792,"transit":false,"distance":1829,"time":2,"is_transit":false,"station_id":"KMT","line":11},{"transit":false,"i_long":106.850107,"distance":973,"i_lat":-6.185975,"is_transit":false,"line":11,"station_name":"Gang Sentiong","time":1,"station_id":"GST"},{"time":8,"line":11,"is_transit":false,"transit":false,"station_name":"Pasar Senen","station_id":"PSE","i_long":106.84368,"distance":1567,"i_lat":-6.174784},{"station_name":"Kemayoran","time":4,"distance":1436,"is_transit":false,"line":11,"i_lat":-6.161728,"station_id":"KMO","transit":false,"i_long":106.839204},{"line":11,"i_lat":-6.14505,"i_long":106.836569,"time":5,"station_id":"RJW","station_name":"Rajawali","transit":false,"is_transit":false,"distance":1901},{"is_transit":true,"station_id":"KPB","i_long":106.826365,"i_lat":-6.132549,"transit":true,"line":4,"station_name":"Kampung Bandan","distance":1444,"time":3},{"distance":4102,"station_id":"AK","line":1,"i_long":106.79867,"station_name":"Angke","time":9,"i_lat":-6.144674,"transit":false,"is_transit":false},{"i_long":106.800832,"station_name":"Duri","time":4,"transit":true,"i_lat":-6.155215,"is_transit":true,"line":1,"distance":1230,"station_id":"DU"},{"i_lat":-6.162021,"station_id":"GGL","station_name":"Grogol","distance":1700,"transit":false,"i_long":106.788277,"is_transit":false,"time":3,"line":5},{"station_name":"Pesing","distance":2036,"station_id":"PSG","i_lat":-6.161433,"time":2,"transit":false,"i_long":106.771379,"is_transit":false,"line":5},{"time":2,"transit":false,"i_lat":-6.1587309999999995,"i_long":106.756522,"line":5,"station_id":"TKO","distance":1614,"station_name":"Taman Kota","is_transit":false},{"station_id":"BOI","distance":2334,"time":2,"i_long":106.737035,"is_transit":false,"i_lat":-6.159876,"station_name":"Bojongindah","transit":false,"line":5}]]}