{"data":[[{"station_id":"DRN","distance":0,"station_name":"Duren Kalibata","is_transit":false,"i_lat":-6.255332,"transit":false,"line":2,"time":0,"i_long":106.85449},{"i_lat":-6.242512,"line":2,"station_id":"CW","station_name":"Cawang","transit":false,"is_transit":false,"distance":1546,"i_long":106.856607,"time":3},{"distance":1230,"i_lat":-6.226659,"time":2,"is_transit":false,"station_name":"Tebet","i_long":106.857948,"transit":false,"line":2,"station_id":"TEB"},{"i_lat":-6.209883,"time":4,"transit":true,"is_transit":true,"i_long":106.84912,"station_id":"MRI","station_name":"Manggarai","distance":2610,"line":2},{"station_id":"MTR","distance":1275,"i_long":106.858896,"time":2,"line":1,"transit":false,"station_name":"Matraman","is_transit":false,"i_lat":-6.212485}],[{"distance":0,"is_transit":false,"line":2,"i_lat":-6.255332,"station_id":"DRN","station_name":"Duren Kalibata","i_long":106.85449,"time":0,"transit":false},{"transit":false,"distance":1546,"station_id":"CW","time":3,"station_name":"Cawang","i_long":106.856607,"line":2,"is_transit":false,"i_lat":-6.242512},{"time":2,"transit":false,"is_transit":false,"station_id":"TEB","distance":1230,"i_lat":-6.226659,"station_name":"Tebet","line":2,"i_long":106.857948},{"i_long":106.84912,"transit":true,"time":4,"distance":2610,"station_id":"MRI","line":2,"is_transit":true,"station_name":"Manggarai","i_lat":-6.209883},{"is_transit":false,"line":1,"station_name":"Sudirman","distance":3186,"station_id":"SUD","i_lat":-6.202263,"i_long":106.822649,"time":4,"transit":false},{"distance":280,"is_transit":false,"i_long":106.819881,"time":1,"i_lat":-6.201433,"station_name":"Sudirman Baru","line":1,"transit":false,"station_id":"SUDB"},{"line":1,"time":1,"station_id":"KAT","transit":false,"distance":471,"i_long":106.816351,"i_lat":-6.20132,"is_transit":false,"station_name":"Karet"},{"station_id":"THB","time":5,"is_transit":false,"transit":false,"i_lat":-6.185545,"line":1,"distance":2029,"station_name":"Tanah Abang","i_long":106.811091},{"distance":3632,"time":8,"is_transit":false,"i_lat":-6.155215,"i_long":106.800832,"station_id":"DU","station_name":"Duri","transit":false,"line":1},{"is_transit":false,"station_id":"AK","time":4,"transit":false,"station_name":"Angke","i_lat":-6.144674,"distance":1230,"i_long":106.79867,"line":1},{"line":4,"distance":4102,"i_long":106.826365,"is_transit":true,"station_name":"Kampung Bandan","transit":true,"station_id":"KPB","i_lat":-6.132549,"time":9},{"transit":false,"time":3,"is_transit":false,"i_long":106.836569,"distance":1444,"i_lat":-6.14505,"line":11,"station_name":"Rajawali","station_id":"RJW"},{"i_long":106.839204,"time":5,"is_transit":false,"distance":1901,"station_name":"Kemayoran","i_lat":-6.161728,"line":11,"transit":false,"station_id":"KMO"},{"transit":false,"station_id":"PSE","is_transit":false,"station_name":"Pasar Senen","time":4,"i_long":106.84368,"distance":1436,"line":11,"i_lat":-6.174784},{"station_id":"GST","transit":false,"time":8,"is_transit":false,"distance":1567,"i_long":106.850107,"station_name":"Gang Sentiong","i_lat":-6.185975,"line":11},{"line":11,"station_id":"KMT","station_name":"Kramat","time":1,"transit":false,"is_transit":false,"distance":973,"i_lat":-6.193792,"i_long":106.855437},{"i_long":106.861737,"distance":1829,"is_transit":false,"station_id":"POK","transit":false,"i_lat":-6.209188,"station_name":"Pondok Jati","line":11,"time":2},{"i_lat":-6.215091,"i_long":106.86807400000001,"line":1,"time":9,"station_name":"Jatinegara","station_id":"JNG","transit":true,"is_transit":true,"distance":1236},{"station_id":"MTR","is_transit":false,"distance":1377,"i_lat":-6.212485,"transit":false,"i_long":106.858896,"station_name":"Matraman","line":1,"time":2}],[{"is_transit":false,"line":2,"time":0,"i_lat":-6.255332,"distance":0,"transit":false,"i_long":106.85449,"station_id":"DRN","station_name":"Duren Kalibata"},{"i_long":106.856607,"distance":1546,"i_lat":-6.242512,"line":2,"is_transit":false,"station_id":"CW","transit":false,"station_name":"Cawang","time":3},{"i_long":106.857948,"is_transit":false,"line":2,"distance":1230,"time":2,"station_id":"TEB","transit":false,"station_name":"Tebet","i_lat":-6.226659},{"station_id":"MRI","line":2,"is_transit":false,"transit":false,"distance":2610,"i_long":106.84912,"station_name":"Manggarai","time":4,"i_lat":-6.209883},{"i_lat":-6.198556,"i_long":106.840169,"line":2,"transit":false,"is_transit":false,"time":4,"station_id":"CKI","station_name":"Cikini","distance":1590},{"distance":1750,"transit":false,"i_lat":-6.186295,"time":3,"i_long":106.832183,"station_id":"GDD","station_name":"Gondangdia","line":2,"is_transit":false},{"station_name":"Juanda","distance":2015,"transit":false,"i_lat":-6.166716,"time":4,"station_id":"JUA","is_transit":false,"line":2,"i_long":106.828284},{"i_lat":-6.160725,"i_long":106.827103,"station_name":"Sawah Besar","transit":false,"is_transit":false,"distance":1149,"line":2,"station_id":"SW","time":2},{"i_lat":-6.149769,"transit":false,"distance":906,"is_transit":false,"station_id":"MGB","line":2,"time":2,"station_name":"Manggabesar","i_long":106.82482},{"i_lat":-6.141205,"i_long":106.820901,"is_transit":false,"line":2,"distance":1080,"time":2,"station_id":"JAY","transit":false,"station_name":"Jayakarta"},{"transit":true,"line":2,"i_lat":-6.137569,"time":4,"is_transit":true,"station_name":"Jakarta Kota","station_id":"JAKK","distance":1264,"i_long":106.812439},{"station_id":"KPB","is_transit":true,"line":4,"station_name":"Kampung Bandan","i_lat":-6.132549,"time":3,"distance":1364,"i_long":106.826365,"transit":true},{"is_transit":false,"i_lat":-6.14505,"i_long":106.836569,"station_name":"Rajawali","time":3,"line":11,"transit":false,"distance":1444,"station_id":"RJW"},{"station_name":"Kemayoran","station_id":"KMO","i_lat":-6.161728,"distance":1901,"line":11,"time":5,"transit":false,"is_transit":false,"i_long":106.839204},{"station_id":"PSE","time":4,"distance":1436,"i_long":106.84368,"i_lat":-6.174784,"is_transit":false,"transit":false,"line":11,"station_name":"Pasar Senen"},{"i_lat":-6.185975,"distance":1567,"station_name":"Gang Sentiong","line":11,"transit":false,"time":8,"is_transit":false,"i_long":106.850107,"station_id":"GST"},{"transit":false,"is_transit":false,"i_long":106.855437,"station_id":"KMT","i_lat":-6.193792,"time":1,"station_name":"Kramat","distance":973,"line":11},{"is_transit":false,"i_lat":-6.209188,"station_id":"POK","distance":1829,"i_long":106.861737,"line":11,"transit":false,"station_name":"Pondok Jati","time":2},{"is_transit":true,"station_name":"Jatinegara","distance":1236,"time":9,"i_long":106.86807400000001,"station_id":"JNG","i_lat":-6.215091,"line":1,"transit":true},{"time":2,"i_lat":-6.212485,"i_long":106.858896,"line":1,"transit":false,"is_transit":false,"station_name":"Matraman","distance":1377,"station_id":"MTR"}]]}