{"data":[[{"time":0,"distance":0,"i_lat":-6.255332,"is_transit":false,"line":2,"station_id":"DRN","transit":false,"i_long":106.85449,"station_name":"Duren Kalibata"},{"is_transit":false,"distance":824,"station_id":"PSMB","i_lat":-6.263214,"time":2,"line":2,"transit":false,"i_long":106.851577,"station_name":"Pasar Minggu Baru"},{"distance":2380,"is_transit":false,"transit":false,"station_id":"PSM","time":2,"station_name":"Pasar Minggu","i_lat":-6.2842400000000005,"i_long":106.843999,"line":2},{"is_transit":false,"time":4,"station_name":"Tanjung Barat","distance":2820,"station_id":"TNT","transit":false,"i_long":106.838896,"i_lat":-6.3080680000000005,"line":2},{"distance":2671,"transit":false,"time":3,"station_id":"LNA","i_long":106.832616,"i_lat":-6.330363,"station_name":"Lenteng Agung","line":2,"is_transit":false},{"station_name":"Univ. Pancasila","line":2,"station_id":"UP","is_transit":false,"transit":false,"i_long":106.834175,"time":2,"distance":1029,"i_lat":-6.339291},{"time":3,"distance":2264,"i_long":106.831474,"transit":false,"is_transit":false,"i_lat":-6.360749,"line":2,"station_name":"Univ. Indonesia","station_id":"UI"},{"station_name":"Pondok Cina","i_lat":-6.369073,"distance":1109,"is_transit":false,"transit":false,"station_id":"POC","time":2,"i_long":106.831114,"line":2},{"is_transit":false,"line":2,"i_long":106.819451,"station_name":"Depokbaru","station_id":"DPB","i_lat":-6.391065,"distance":2727,"time":4,"transit":false},{"line":2,"station_name":"Depok","i_lat":-6.405256,"station_id":"DP","i_long":106.816926,"time":3,"transit":false,"is_transit":false,"distance":1584},{"transit":false,"time":6,"distance":5084,"is_transit":false,"line":2,"station_name":"Citayam","station_id":"CTA","i_lat":-6.448811,"i_long":106.800298},{"time":5,"station_name":"Bojonggede","i_lat":-6.493243,"distance":5197,"i_long":106.792719,"station_id":"BJD","is_transit":false,"transit":false,"line":2},{"i_lat":-6.530544,"line":2,"time":5,"station_id":"CLT","i_long":106.800016,"is_transit":false,"distance":4331,"station_name":"Cilebut","transit":false}]]}