{"data":[[{"i_long":106.85449,"line":2,"station_name":"Duren Kalibata","transit":false,"time":0,"distance":0,"station_id":"DRN","i_lat":-6.255332,"is_transit":false},{"i_lat":-6.242512,"time":3,"distance":1546,"station_id":"CW","i_long":106.856607,"transit":false,"line":2,"station_name":"Cawang","is_transit":false},{"is_transit":false,"line":2,"time":2,"i_long":106.857948,"distance":1230,"station_name":"Tebet","transit":false,"station_id":"TEB","i_lat":-6.226659},{"line":2,"i_long":106.84912,"station_name":"Manggarai","transit":true,"is_transit":true,"i_lat":-6.209883,"time":4,"distance":2610,"station_id":"MRI"},{"station_id":"SUD","time":4,"station_name":"Sudirman","is_transit":false,"line":1,"i_lat":-6.202263,"i_long":106.822649,"distance":3186,"transit":false},{"distance":280,"i_long":106.819881,"station_name":"Sudirman Baru","is_transit":false,"line":1,"i_lat":-6.201433,"station_id":"SUDB","transit":false,"time":1},{"station_id":"KAT","i_long":106.816351,"transit":false,"station_name":"Karet","time":1,"distance":471,"i_lat":-6.20132,"line":1,"is_transit":false},{"is_transit":false,"station_id":"THB","i_lat":-6.185545,"line":1,"transit":false,"i_long":106.811091,"station_name":"Tanah Abang","distance":2029,"time":5},{"is_transit":true,"i_long":106.800832,"distance":3632,"i_lat":-6.155215,"line":1,"time":8,"transit":true,"station_id":"DU","station_name":"Duri"},{"is_transit":false,"time":3,"station_id":"GGL","station_name":"Grogol","transit":false,"distance":1700,"i_lat":-6.162021,"line":5,"i_long":106.788277}],[{"i_lat":-6.255332,"line":2,"transit":false,"station_name":"Duren Kalibata","time":0,"is_transit":false,"distance":0,"station_id":"DRN","i_long":106.85449},{"distance":1546,"line":2,"station_id":"CW","time":3,"transit":false,"station_name":"Cawang","i_long":106.856607,"is_transit":false,"i_lat":-6.242512},{"i_long":106.857948,"distance":1230,"time":2,"transit":false,"is_transit":false,"station_id":"TEB","i_lat":-6.226659,"line":2,"station_name":"Tebet"},{"distance":2610,"i_lat":-6.209883,"i_long":106.84912,"time":4,"station_id":"MRI","line":2,"station_name":"Manggarai","transit":false,"is_transit":false},{"is_transit":false,"station_id":"CKI","line":2,"transit":false,"i_lat":-6.198556,"time":4,"station_name":"Cikini","i_long":106.840169,"distance":1590},{"is_transit":false,"transit":false,"i_long":106.832183,"station_name":"Gondangdia","line":2,"distance":1750,"i_lat":-6.186295,"station_id":"GDD","time":3},{"station_id":"JUA","distance":2015,"time":4,"transit":false,"line":2,"station_name":"Juanda","i_long":106.828284,"is_transit":false,"i_lat":-6.166716},{"distance":1149,"line":2,"i_long":106.827103,"station_name":"Sawah Besar","i_lat":-6.160725,"time":2,"transit":false,"station_id":"SW","is_transit":false},{"line":2,"i_lat":-6.149769,"time":2,"transit":false,"station_id":"MGB","i_long":106.82482,"station_name":"Manggabesar","is_transit":false,"distance":906},{"is_transit":false,"line":2,"transit":false,"time":2,"i_long":106.820901,"distance":1080,"station_id":"JAY","station_name":"Jayakarta","i_lat":-6.141205},{"time":4,"distance":1264,"station_id":"JAKK","station_name":"Jakarta Kota","is_transit":true,"i_long":106.812439,"line":2,"transit":true,"i_lat":-6.137569},{"station_id":"KPB","transit":true,"i_lat":-6.132549,"station_name":"Kampung Bandan","distance":1364,"line":4,"time":3,"is_transit":true,"i_long":106.826365},{"time":9,"station_id":"AK","line":1,"is_transit":false,"transit":false,"distance":4102,"i_long":106.79867,"station_name":"Angke","i_lat":-6.144674},{"station_id":"DU","is_transit":true,"transit":true,"i_long":106.800832,"line":1,"i_lat":-6.155215,"distance":1230,"time":4,"station_name":"Duri"},{"is_transit":false,"station_name":"Grogol","distance":1700,"transit":false,"i_lat":-6.162021,"i_long":106.788277,"time":3,"line":5,"station_id":"GGL"}],[{"i_lat":-6.255332,"line":2,"time":0,"station_name":"Duren Kalibata","transit":false,"station_id":"DRN","is_transit":false,"distance":0,"i_long":106.85449},{"line":2,"time":3,"i_long":106.856607,"transit":false,"i_lat":-6.242512,"distance":1546,"station_id":"CW","station_name":"Cawang","is_transit":false},{"i_lat":-6.226659,"station_name":"Tebet","line":2,"is_transit":false,"i_long":106.857948,"station_id":"TEB","distance":1230,"transit":false,"time":2},{"station_id":"MRI","distance":2610,"time":4,"station_name":"Manggarai","transit":true,"i_long":106.84912,"i_lat":-6.209883,"line":2,"is_transit":true},{"transit":false,"i_long":106.858896,"station_id":"MTR","i_lat":-6.212485,"distance":1275,"station_name":"Matraman","is_transit":false,"line":1,"time":2},{"is_transit":true,"i_lat":-6.215091,"i_long":106.86807400000001,"line":1,"time":8,"station_name":"Jatinegara","transit":true,"distance":1377,"station_id":"JNG"},{"transit":false,"station_name":"Pondok Jati","is_transit":false,"i_long":106.861737,"line":11,"time":2,"distance":1236,"station_id":"POK","i_lat":-6.209188},{"is_transit":false,"time":2,"i_long":106.855437,"line":11,"distance":1829,"transit":false,"i_lat":-6.193792,"station_name":"Kramat","station_id":"KMT"},{"station_name":"Gang Sentiong","is_transit":false,"transit":false,"station_id":"GST","i_lat":-6.185975,"time":1,"distance":973,"line":11,"i_long":106.850107},{"i_lat":-6.174784,"line":11,"station_name":"Pasar Senen","i_long":106.84368,"distance":1567,"is_transit":false,"transit":false,"time":8,"station_id":"PSE"},{"i_long":106.839204,"transit":false,"distance":1436,"station_name":"Kemayoran","line":11,"is_transit":false,"time":4,"station_id":"KMO","i_lat":-6.161728},{"time":5,"station_id":"RJW","transit":false,"distance":1901,"i_lat":-6.14505,"i_long":106.836569,"station_name":"Rajawali","is_transit":false,"line":11},{"time":3,"i_lat":-6.132549,"line":4,"distance":1444,"is_transit":true,"station_id":"KPB","station_name":"Kampung Bandan","transit":true,"i_long":106.826365},{"line":1,"time":9,"station_name":"Angke","distance":4102,"i_long":106.79867,"station_id":"AK","i_lat":-6.144674,"is_transit":false,"transit":false},{"station_name":"Duri","i_lat":-6.155215,"distance":1230,"transit":true,"time":4,"line":1,"is_transit":true,"i_long":106.800832,"station_id":"DU"},{"i_long":106.788277,"time":3,"station_id":"GGL","transit":false,"station_name":"Grogol","line":5,"is_transit":false,"distance":1700,"i_lat":-6.162021}]]}