{"data":[[{"i_lat":-6.255332,"i_long":106.85449,"line":2,"transit":false,"station_id":"DRN","distance":0,"station_name":"Duren Kalibata","is_transit":false,"time":0},{"station_name":"Cawang","distance":1546,"i_lat":-6.242512,"station_id":"CW","is_transit":false,"line":2,"time":3,"transit":false,"i_long":106.856607},{"transit":false,"line":2,"distance":1230,"i_long":106.857948,"is_transit":false,"station_id":"TEB","station_name":"Tebet","time":2,"i_lat":-6.226659},{"time":4,"i_lat":-6.209883,"line":2,"i_long":106.84912,"distance":2610,"station_name":"Manggarai","station_id":"MRI","transit":true,"is_transit":true},{"station_id":"MTR","station_name":"Matraman","transit":false,"time":2,"line":1,"i_long":106.858896,"distance":1275,"is_transit":false,"i_lat":-6.212485},{"is_transit":true,"transit":true,"distance":1377,"time":8,"station_id":"JNG","i_lat":-6.215091,"i_long":106.86807400000001,"line":1,"station_name":"Jatinegara"},{"i_long":106.861737,"is_transit":false,"distance":1236,"transit":false,"i_lat":-6.209188,"time":2,"line":11,"station_id":"POK","station_name":"Pondok Jati"},{"time":2,"i_long":106.855437,"is_transit":false,"line":11,"station_id":"KMT","i_lat":-6.193792,"transit":false,"distance":1829,"station_name":"Kramat"},{"station_id":"GST","distance":973,"station_name":"Gang Sentiong","line":11,"i_long":106.850107,"i_lat":-6.185975,"time":1,"transit":false,"is_transit":false},{"is_transit":false,"station_name":"Pasar Senen","i_long":106.84368,"distance":1567,"i_lat":-6.174784,"station_id":"PSE","time":8,"transit":false,"line":11}],[{"time":0,"i_lat":-6.255332,"is_transit":false,"line":2,"distance":0,"station_name":"Duren Kalibata","i_long":106.85449,"station_id":"DRN","transit":false},{"station_name":"Cawang","station_id":"CW","distance":1546,"i_lat":-6.242512,"is_transit":false,"time":3,"i_long":106.856607,"transit":false,"line":2},{"station_id":"TEB","is_transit":false,"time":2,"distance":1230,"i_lat":-6.226659,"transit":false,"i_long":106.857948,"station_name":"Tebet","line":2},{"distance":2610,"station_id":"MRI","transit":true,"i_lat":-6.209883,"is_transit":true,"time":4,"i_long":106.84912,"line":2,"station_name":"Manggarai"},{"is_transit":false,"transit":false,"station_name":"Sudirman","time":4,"distance":3186,"i_lat":-6.202263,"i_long":106.822649,"station_id":"SUD","line":1},{"station_id":"SUDB","transit":false,"station_name":"Sudirman Baru","i_lat":-6.201433,"time":1,"is_transit":false,"line":1,"i_long":106.819881,"distance":280},{"distance":471,"i_long":106.816351,"time":1,"station_id":"KAT","is_transit":false,"line":1,"transit":false,"station_name":"Karet","i_lat":-6.20132},{"i_lat":-6.185545,"line":1,"time":5,"station_id":"THB","station_name":"Tanah Abang","is_transit":false,"distance":2029,"transit":false,"i_long":106.811091},{"station_name":"Duri","station_id":"DU","time":8,"i_lat":-6.155215,"transit":false,"i_long":106.800832,"is_transit":false,"distance":3632,"line":1},{"station_id":"AK","line":1,"transit":false,"station_name":"Angke","time":4,"distance":1230,"i_long":106.79867,"is_transit":false,"i_lat":-6.144674},{"line":4,"station_id":"KPB","is_transit":true,"time":9,"transit":true,"i_long":106.826365,"distance":4102,"station_name":"Kampung Bandan","i_lat":-6.132549},{"line":11,"station_id":"RJW","distance":1444,"time":3,"i_long":106.836569,"transit":false,"station_name":"Rajawali","i_lat":-6.14505,"is_transit":false},{"transit":false,"is_transit":false,"time":5,"i_lat":-6.161728,"line":11,"station_id":"KMO","distance":1901,"station_name":"Kemayoran","i_long":106.839204},{"i_lat":-6.174784,"i_long":106.84368,"station_id":"PSE","distance":1436,"transit":false,"is_transit":false,"station_name":"Pasar Senen","time":4,"line":11}],[{"station_name":"Duren Kalibata","i_lat":-6.255332,"i_long":106.85449,"is_transit":false,"transit":false,"station_id":"DRN","line":2,"time":0,"distance":0},{"time":3,"distance":1546,"station_name":"Cawang","i_lat":-6.242512,"i_long":106.856607,"is_transit":false,"station_id":"CW","transit":false,"line":2},{"i_long":106.857948,"station_id":"TEB","i_lat":-6.226659,"line":2,"transit":false,"is_transit":false,"distance":1230,"time":2,"station_name":"Tebet"},{"transit":false,"is_transit":false,"station_id":"MRI","station_name":"Manggarai","distance":2610,"i_lat":-6.209883,"time":4,"i_long":106.84912,"line":2},{"transit":false,"i_long":106.840169,"is_transit":false,"time":4,"station_id":"CKI","station_name":"Cikini","i_lat":-6.198556,"line":2,"distance":1590},{"distance":1750,"station_name":"Gondangdia","time":3,"station_id":"GDD","i_lat":-6.186295,"transit":false,"is_transit":false,"line":2,"i_long":106.832183},{"line":2,"time":4,"station_id":"JUA","is_transit":false,"i_lat":-6.166716,"station_name":"Juanda","distance":2015,"i_long":106.828284,"transit":false},{"station_name":"Sawah Besar","transit":false,"is_transit":false,"distance":1149,"i_long":106.827103,"i_lat":-6.160725,"station_id":"SW","line":2,"time":2},{"line":2,"transit":false,"i_lat":-6.149769,"station_name":"Manggabesar","time":2,"distance":906,"station_id":"MGB","is_transit":false,"i_long":106.82482},{"i_long":106.820901,"station_id":"JAY","transit":false,"station_name":"Jayakarta","time":2,"is_transit":false,"line":2,"distance":1080,"i_lat":-6.141205},{"is_transit":true,"i_long":106.812439,"station_id":"JAKK","time":4,"i_lat":-6.137569,"line":2,"station_name":"Jakarta Kota","distance":1264,"transit":true},{"i_lat":-6.132549,"is_transit":true,"line":4,"distance":1364,"i_long":106.826365,"station_name":"Kampung Bandan","transit":true,"time":3,"station_id":"KPB"},{"i_lat":-6.14505,"i_long":106.836569,"time":3,"station_name":"Rajawali","distance":1444,"station_id":"RJW","line":11,"transit":false,"is_transit":false},{"i_long":106.839204,"distance":1901,"line":11,"is_transit":false,"station_name":"Kemayoran","transit":false,"station_id":"KMO","i_lat":-6.161728,"time":5},{"station_id":"PSE","time":4,"i_long":106.84368,"is_transit":false,"transit":false,"distance":1436,"station_name":"Pasar Senen","i_lat":-6.174784,"line":11}]]}