{"data":[[{"is_transit":false,"distance":0,"line":0,"station_name":"Duren Kalibata","transit":false,"i_lat":-6.255332,"time":0,"i_long":106.85449,"station_id":"DRN"},{"station_id":"CW","distance":1546,"i_lat":-6.242512,"is_transit":false,"transit":false,"station_name":"Cawang","line":0,"time":3,"i_long":106.856607},{"i_lat":-6.226659,"is_transit":false,"line":2,"i_long":106.857948,"time":2,"station_name":"Tebet","transit":false,"distance":1230,"station_id":"TEB"},{"transit":true,"i_lat":-6.209883,"time":4,"distance":2610,"station_name":"Manggarai","line":0,"i_long":106.84912,"is_transit":true,"station_id":"MRI"},{"distance":3186,"station_id":"SUD","is_transit":false,"i_long":106.822649,"i_lat":-6.202263,"time":4,"line":1,"station_name":"Sudirman","transit":false},{"station_id":"SUDB","time":1,"i_lat":-6.201433,"transit":false,"i_long":106.819881,"distance":280,"is_transit":false,"station_name":"Sudirman Baru","line":1},{"time":1,"i_long":106.816351,"transit":false,"station_name":"Karet","line":1,"station_id":"KAT","is_transit":false,"i_lat":-6.20132,"distance":471},{"i_lat":-6.185545,"i_long":106.811091,"is_transit":true,"time":5,"line":1,"transit":true,"station_name":"Tanah Abang","distance":2029,"station_id":"THB"},{"line":6,"is_transit":false,"time":6,"station_name":"Palmerah","i_long":106.79689,"distance":3191,"station_id":"PLM","transit":false,"i_lat":-6.207404},{"station_id":"KBY","transit":false,"is_transit":false,"time":7,"distance":3737,"i_lat":-6.237242,"i_long":106.780334,"line":6,"station_name":"Kebayoran"},{"transit":false,"is_transit":false,"distance":6218,"station_name":"Pondokranji","i_long":106.74273,"line":6,"i_lat":-6.276362,"time":8,"station_id":"PDJ"},{"line":6,"i_lat":-6.288927,"station_id":"JMU","station_name":"Jurangmangu","transit":false,"time":3,"distance":2179,"i_long":106.728916,"is_transit":false},{"station_id":"SDM","i_lat":-6.296963,"is_transit":false,"line":6,"transit":false,"station_name":"Sudimara","distance":1994,"time":4,"i_long":106.712277},{"i_lat":-6.314823,"line":6,"distance":4566,"transit":false,"station_id":"RU","i_long":106.675475,"is_transit":false,"time":6,"station_name":"Rawa Buntu"},{"is_transit":false,"station_id":"SRP","distance":2413,"i_long":106.66566,"i_lat":-6.319871,"time":4,"station_name":"Serpong","transit":false,"line":6},{"line":0,"i_long":106.640411,"distance":1784,"transit":false,"time":4,"i_lat":-6.32484,"station_id":"CSK","is_transit":false,"station_name":"Cisauk"}],[{"station_name":"Duren Kalibata","is_transit":false,"station_id":"DRN","time":0,"i_lat":-6.255332,"i_long":106.85449,"transit":false,"line":0,"distance":0},{"station_id":"CW","is_transit":false,"time":3,"station_name":"Cawang","line":0,"i_long":106.856607,"i_lat":-6.242512,"distance":1546,"transit":false},{"is_transit":false,"transit":false,"i_lat":-6.226659,"time":2,"line":2,"i_long":106.857948,"distance":1230,"station_name":"Tebet","station_id":"TEB"},{"station_name":"Manggarai","time":4,"station_id":"MRI","i_lat":-6.209883,"distance":2610,"i_long":106.84912,"is_transit":true,"line":0,"transit":true},{"i_long":106.840169,"is_transit":false,"line":0,"distance":1590,"station_name":"Cikini","time":4,"transit":false,"i_lat":-6.198556,"station_id":"CKI"},{"station_name":"Gondangdia","distance":1750,"time":3,"i_lat":-6.186295,"i_long":106.832183,"is_transit":false,"line":2,"transit":false,"station_id":"GDD"},{"station_name":"Juanda","line":2,"station_id":"JUA","i_long":106.828284,"time":4,"is_transit":false,"i_lat":-6.166716,"transit":false,"distance":2015},{"transit":false,"is_transit":false,"time":2,"distance":1149,"line":2,"i_lat":-6.160725,"i_long":106.827103,"station_name":"Sawah Besar","station_id":"SW"},{"station_id":"MGB","distance":906,"i_lat":-6.149769,"i_long":106.82482,"transit":false,"line":2,"station_name":"Manggabesar","is_transit":false,"time":2},{"station_id":"JAY","line":7,"is_transit":false,"time":2,"distance":1080,"station_name":"Jayakarta","i_lat":-6.141205,"i_long":106.820901,"transit":false},{"i_long":106.812439,"distance":1264,"station_id":"JAKK","station_name":"Jakarta Kota","i_lat":-6.137569,"is_transit":true,"transit":true,"time":4,"line":0},{"station_id":"KPB","station_name":"Kampung Bandan","line":0,"i_long":106.826365,"is_transit":true,"time":3,"distance":1364,"transit":false,"i_lat":-6.132549},{"time":9,"is_transit":false,"i_long":106.79867,"distance":4102,"station_id":"AK","station_name":"Angke","line":0,"i_lat":-6.144674,"transit":false},{"distance":1230,"transit":true,"station_name":"Duri","time":4,"station_id":"DU","is_transit":true,"i_lat":-6.155215,"i_long":106.800832,"line":1},{"transit":true,"is_transit":true,"time":8,"i_long":106.811091,"distance":3632,"i_lat":-6.185545,"station_name":"Tanah Abang","station_id":"THB","line":1},{"is_transit":false,"transit":false,"i_long":106.79689,"i_lat":-6.207404,"distance":3191,"line":6,"station_id":"PLM","station_name":"Palmerah","time":6},{"is_transit":false,"distance":3737,"line":6,"station_id":"KBY","station_name":"Kebayoran","i_long":106.780334,"i_lat":-6.237242,"transit":false,"time":7},{"station_id":"PDJ","distance":6218,"transit":false,"i_long":106.74273,"station_name":"Pondokranji","i_lat":-6.276362,"line":6,"is_transit":false,"time":8},{"station_id":"JMU","station_name":"Jurangmangu","transit":false,"i_long":106.728916,"line":6,"time":3,"is_transit":false,"distance":2179,"i_lat":-6.288927},{"station_name":"Sudimara","i_lat":-6.296963,"i_long":106.712277,"distance":1994,"line":6,"transit":false,"station_id":"SDM","is_transit":false,"time":4},{"station_id":"RU","i_long":106.675475,"station_name":"Rawa Buntu","is_transit":false,"transit":false,"i_lat":-6.314823,"line":6,"time":6,"distance":4566},{"i_long":106.66566,"station_name":"Serpong","i_lat":-6.319871,"line":6,"station_id":"SRP","time":4,"distance":2413,"is_transit":false,"transit":false},{"station_name":"Cisauk","line":0,"station_id":"CSK","is_transit":false,"distance":1784,"i_long":106.640411,"i_lat":-6.32484,"transit":false,"time":4}],[{"i_lat":-6.255332,"i_long":106.85449,"transit":false,"station_id":"DRN","distance":0,"is_transit":false,"station_name":"Duren Kalibata","line":0,"time":0},{"station_id":"CW","i_long":106.856607,"station_name":"Cawang","distance":1546,"i_lat":-6.242512,"line":0,"is_transit":false,"transit":false,"time":3},{"i_long":106.857948,"distance":1230,"i_lat":-6.226659,"transit":false,"station_id":"TEB","line":2,"station_name":"Tebet","is_transit":false,"time":2},{"line":0,"distance":2610,"transit":true,"i_lat":-6.209883,"i_long":106.84912,"is_transit":true,"time":4,"station_id":"MRI","station_name":"Manggarai"},{"station_id":"MTR","is_transit":false,"transit":false,"station_name":"Matraman","time":2,"i_long":106.858896,"distance":1275,"i_lat":-6.212485,"line":1},{"line":0,"time":8,"station_id":"JNG","i_long":106.86807400000001,"station_name":"Jatinegara","i_lat":-6.215091,"distance":1377,"is_transit":true,"transit":true},{"distance":1236,"station_name":"Pondok Jati","i_long":106.861737,"line":11,"is_transit":false,"station_id":"POK","i_lat":-6.209188,"time":2,"transit":false},{"distance":1829,"transit":false,"i_lat":-6.193792,"is_transit":false,"line":11,"i_long":106.855437,"time":2,"station_id":"KMT","station_name":"Kramat"},{"i_lat":-6.185975,"line":11,"station_id":"GST","distance":973,"time":1,"is_transit":false,"transit":false,"station_name":"Gang Sentiong","i_long":106.850107},{"transit":false,"time":8,"i_long":106.84368,"is_transit":false,"line":11,"station_name":"Pasar Senen","distance":1567,"i_lat":-6.174784,"station_id":"PSE"},{"distance":1436,"i_lat":-6.161728,"line":11,"i_long":106.839204,"is_transit":false,"station_name":"Kemayoran","transit":false,"time":4,"station_id":"KMO"},{"line":11,"i_lat":-6.14505,"distance":1901,"transit":false,"station_name":"Rajawali","i_long":106.836569,"station_id":"RJW","is_transit":false,"time":5},{"distance":1444,"line":0,"time":3,"i_lat":-6.132549,"station_id":"KPB","is_transit":true,"i_long":106.826365,"station_name":"Kampung Bandan","transit":true},{"is_transit":false,"line":0,"i_long":106.79867,"distance":4102,"station_name":"Angke","transit":false,"station_id":"AK","time":9,"i_lat":-6.144674},{"transit":true,"station_name":"Duri","station_id":"DU","time":4,"i_lat":-6.155215,"i_long":106.800832,"distance":1230,"line":1,"is_transit":true},{"transit":true,"is_transit":true,"station_id":"THB","distance":3632,"station_name":"Tanah Abang","i_lat":-6.185545,"line":1,"i_long":106.811091,"time":8},{"i_long":106.79689,"line":6,"time":6,"distance":3191,"is_transit":false,"station_name":"Palmerah","transit":false,"station_id":"PLM","i_lat":-6.207404},{"station_id":"KBY","distance":3737,"is_transit":false,"transit":false,"line":6,"station_name":"Kebayoran","i_lat":-6.237242,"time":7,"i_long":106.780334},{"is_transit":false,"transit":false,"time":8,"i_long":106.74273,"line":6,"station_name":"Pondokranji","distance":6218,"i_lat":-6.276362,"station_id":"PDJ"},{"transit":false,"line":6,"i_lat":-6.288927,"i_long":106.728916,"distance":2179,"is_transit":false,"station_name":"Jurangmangu","station_id":"JMU","time":3},{"station_id":"SDM","is_transit":false,"time":4,"station_name":"Sudimara","transit":false,"line":6,"distance":1994,"i_lat":-6.296963,"i_long":106.712277},{"line":6,"i_long":106.675475,"station_id":"RU","time":6,"transit":false,"i_lat":-6.314823,"is_transit":false,"station_name":"Rawa Buntu","distance":4566},{"transit":false,"station_name":"Serpong","time":4,"distance":2413,"i_lat":-6.319871,"station_id":"SRP","i_long":106.66566,"line":6,"is_transit":false},{"station_id":"CSK","line":0,"time":4,"distance":1784,"station_name":"Cisauk","i_long":106.640411,"transit":false,"is_transit":false,"i_lat":-6.32484}]]}