{"data":[[{"transit":false,"i_lat":-6.255332,"time":0,"i_long":106.85449,"line":2,"is_transit":false,"station_id":"DRN","station_name":"Duren Kalibata","distance":0},{"transit":false,"station_id":"CW","station_name":"Cawang","i_long":106.856607,"time":3,"i_lat":-6.242512,"line":2,"distance":1546,"is_transit":false},{"station_id":"TEB","station_name":"Tebet","is_transit":false,"time":2,"distance":1230,"transit":false,"i_long":106.857948,"i_lat":-6.226659,"line":2},{"station_id":"MRI","i_long":106.84912,"distance":2610,"transit":true,"line":2,"station_name":"Manggarai","i_lat":-6.209883,"time":4,"is_transit":true},{"i_lat":-6.212485,"line":1,"time":2,"transit":false,"is_transit":false,"i_long":106.858896,"distance":1275,"station_id":"MTR","station_name":"Matraman"},{"distance":1377,"i_long":106.86807400000001,"is_transit":false,"time":8,"station_id":"JNG","line":1,"station_name":"Jatinegara","i_lat":-6.215091,"transit":false},{"transit":false,"station_id":"KLD","i_long":106.899548,"line":1,"station_name":"Klender","time":3,"i_lat":-6.2135,"is_transit":false,"distance":3395},{"transit":false,"line":1,"i_long":106.922662,"distance":3100,"station_id":"BUA","station_name":"Buaran","is_transit":false,"i_lat":-6.215568,"time":2},{"i_lat":-6.217455,"i_long":106.939679,"transit":false,"line":1,"station_id":"KLDB","station_name":"Klenderbaru","distance":1305,"is_transit":false,"time":1},{"station_id":"CUK","station_name":"Cakung","is_transit":false,"transit":false,"i_long":106.951283,"distance":1385,"line":1,"time":8,"i_lat":-6.219053}],[{"station_id":"DRN","distance":0,"i_lat":-6.255332,"transit":false,"i_long":106.85449,"line":2,"time":0,"station_name":"Duren Kalibata","is_transit":false},{"distance":1546,"i_long":106.856607,"line":2,"station_id":"CW","transit":false,"i_lat":-6.242512,"time":3,"station_name":"Cawang","is_transit":false},{"i_lat":-6.226659,"i_long":106.857948,"is_transit":false,"time":2,"distance":1230,"station_name":"Tebet","transit":false,"line":2,"station_id":"TEB"},{"i_long":106.84912,"station_id":"MRI","transit":true,"is_transit":true,"i_lat":-6.209883,"time":4,"distance":2610,"station_name":"Manggarai","line":2},{"time":4,"is_transit":false,"i_long":106.822649,"transit":false,"line":1,"station_name":"Sudirman","i_lat":-6.202263,"distance":3186,"station_id":"SUD"},{"i_lat":-6.201433,"line":1,"station_name":"Sudirman Baru","is_transit":false,"transit":false,"time":1,"distance":280,"station_id":"SUDB","i_long":106.819881},{"distance":471,"transit":false,"time":1,"station_id":"KAT","i_lat":-6.20132,"i_long":106.816351,"station_name":"Karet","is_transit":false,"line":1},{"transit":false,"is_transit":false,"station_id":"THB","distance":2029,"i_long":106.811091,"i_lat":-6.185545,"station_name":"Tanah Abang","time":5,"line":1},{"station_name":"Duri","i_lat":-6.155215,"time":8,"is_transit":false,"distance":3632,"i_long":106.800832,"line":1,"station_id":"DU","transit":false},{"is_transit":false,"line":1,"transit":false,"distance":1230,"station_name":"Angke","time":4,"i_long":106.79867,"station_id":"AK","i_lat":-6.144674},{"transit":true,"station_name":"Kampung Bandan","line":4,"i_lat":-6.132549,"time":9,"distance":4102,"i_long":106.826365,"station_id":"KPB","is_transit":true},{"transit":false,"line":11,"station_name":"Rajawali","station_id":"RJW","time":3,"i_long":106.836569,"distance":1444,"i_lat":-6.14505,"is_transit":false},{"transit":false,"time":5,"distance":1901,"station_id":"KMO","i_lat":-6.161728,"line":11,"i_long":106.839204,"station_name":"Kemayoran","is_transit":false},{"i_long":106.84368,"station_name":"Pasar Senen","is_transit":false,"i_lat":-6.174784,"line":11,"transit":false,"distance":1436,"time":4,"station_id":"PSE"},{"station_id":"GST","time":8,"distance":1567,"station_name":"Gang Sentiong","line":11,"transit":false,"is_transit":false,"i_lat":-6.185975,"i_long":106.850107},{"distance":973,"station_id":"KMT","station_name":"Kramat","is_transit":false,"transit":false,"time":1,"line":11,"i_lat":-6.193792,"i_long":106.855437},{"line":11,"distance":1829,"is_transit":false,"transit":false,"station_name":"Pondok Jati","station_id":"POK","time":2,"i_long":106.861737,"i_lat":-6.209188},{"distance":1236,"i_lat":-6.215091,"transit":true,"station_id":"JNG","time":9,"station_name":"Jatinegara","is_transit":true,"line":1,"i_long":106.86807400000001},{"transit":false,"line":1,"station_id":"KLD","distance":3395,"time":3,"i_lat":-6.2135,"i_long":106.899548,"is_transit":false,"station_name":"Klender"},{"station_name":"Buaran","transit":false,"i_long":106.922662,"time":2,"is_transit":false,"i_lat":-6.215568,"station_id":"BUA","line":1,"distance":3100},{"line":1,"is_transit":false,"i_long":106.939679,"station_name":"Klenderbaru","transit":false,"station_id":"KLDB","time":1,"i_lat":-6.217455,"distance":1305},{"station_name":"Cakung","line":1,"station_id":"CUK","i_lat":-6.219053,"time":8,"is_transit":false,"i_long":106.951283,"transit":false,"distance":1385}],[{"is_transit":false,"i_long":106.85449,"line":2,"station_id":"DRN","transit":false,"time":0,"i_lat":-6.255332,"distance":0,"station_name":"Duren Kalibata"},{"line":2,"transit":false,"station_name":"Cawang","station_id":"CW","is_transit":false,"time":3,"distance":1546,"i_lat":-6.242512,"i_long":106.856607},{"time":2,"is_transit":false,"i_long":106.857948,"distance":1230,"line":2,"transit":false,"station_name":"Tebet","i_lat":-6.226659,"station_id":"TEB"},{"time":4,"station_name":"Manggarai","i_long":106.84912,"transit":false,"station_id":"MRI","is_transit":false,"distance":2610,"line":2,"i_lat":-6.209883},{"station_name":"Cikini","is_transit":false,"line":2,"time":4,"i_lat":-6.198556,"distance":1590,"i_long":106.840169,"station_id":"CKI","transit":false},{"is_transit":false,"line":2,"transit":false,"i_long":106.832183,"time":3,"i_lat":-6.186295,"station_name":"Gondangdia","distance":1750,"station_id":"GDD"},{"line":2,"is_transit":false,"i_long":106.828284,"station_name":"Juanda","transit":false,"time":4,"distance":2015,"i_lat":-6.166716,"station_id":"JUA"},{"distance":1149,"time":2,"station_id":"SW","i_lat":-6.160725,"station_name":"Sawah Besar","is_transit":false,"i_long":106.827103,"line":2,"transit":false},{"is_transit":false,"i_long":106.82482,"time":2,"distance":906,"line":2,"i_lat":-6.149769,"transit":false,"station_name":"Manggabesar","station_id":"MGB"},{"line":2,"station_id":"JAY","distance":1080,"i_long":106.820901,"is_transit":false,"time":2,"station_name":"Jayakarta","transit":false,"i_lat":-6.141205},{"station_id":"JAKK","time":4,"i_lat":-6.137569,"line":2,"is_transit":true,"distance":1264,"station_name":"Jakarta Kota","i_long":106.812439,"transit":true},{"is_transit":true,"station_name":"Kampung Bandan","i_lat":-6.132549,"distance":1364,"line":4,"station_id":"KPB","transit":true,"time":3,"i_long":106.826365},{"transit":false,"distance":1444,"i_lat":-6.14505,"line":11,"is_transit":false,"i_long":106.836569,"time":3,"station_id":"RJW","station_name":"Rajawali"},{"is_transit":false,"i_long":106.839204,"station_name":"Kemayoran","line":11,"station_id":"KMO","time":5,"distance":1901,"i_lat":-6.161728,"transit":false},{"line":11,"station_name":"Pasar Senen","i_long":106.84368,"station_id":"PSE","distance":1436,"time":4,"is_transit":false,"i_lat":-6.174784,"transit":false},{"station_id":"GST","is_transit":false,"time":8,"station_name":"Gang Sentiong","i_long":106.850107,"distance":1567,"i_lat":-6.185975,"transit":false,"line":11},{"transit":false,"station_name":"Kramat","line":11,"is_transit":false,"distance":973,"i_lat":-6.193792,"time":1,"i_long":106.855437,"station_id":"KMT"},{"is_transit":false,"transit":false,"station_name":"Pondok Jati","distance":1829,"station_id":"POK","i_lat":-6.209188,"i_long":106.861737,"line":11,"time":2},{"time":9,"i_lat":-6.215091,"station_id":"JNG","station_name":"Jatinegara","distance":1236,"i_long":106.86807400000001,"transit":true,"is_transit":true,"line":1},{"station_id":"KLD","line":1,"i_long":106.899548,"station_name":"Klender","i_lat":-6.2135,"distance":3395,"transit":false,"is_transit":false,"time":3},{"station_name":"Buaran","station_id":"BUA","distance":3100,"transit":false,"i_long":106.922662,"line":1,"is_transit":false,"i_lat":-6.215568,"time":2},{"transit":false,"station_id":"KLDB","station_name":"Klenderbaru","time":1,"is_transit":false,"i_lat":-6.217455,"i_long":106.939679,"distance":1305,"line":1},{"transit":false,"i_lat":-6.219053,"station_name":"Cakung","is_transit":false,"line":1,"i_long":106.951283,"station_id":"CUK","time":8,"distance":1385}]]}