{"data":[[{"station_id":"DRN","is_transit":false,"station_name":"Duren Kalibata","i_long":106.85449,"transit":false,"time":0,"line":2,"distance":0,"i_lat":-6.255332},{"time":3,"transit":false,"line":2,"station_id":"CW","i_lat":-6.242512,"distance":1546,"station_name":"Cawang","is_transit":false,"i_long":106.856607},{"transit":false,"i_long":106.857948,"station_id":"TEB","time":2,"is_transit":false,"distance":1230,"i_lat":-6.226659,"line":2,"station_name":"Tebet"},{"station_name":"Manggarai","distance":2610,"i_lat":-6.209883,"line":2,"station_id":"MRI","transit":true,"is_transit":true,"time":4,"i_long":106.84912},{"is_transit":false,"transit":false,"i_long":106.822649,"i_lat":-6.202263,"station_id":"SUD","time":4,"line":1,"distance":3186,"station_name":"Sudirman"},{"is_transit":false,"distance":280,"station_name":"Sudirman Baru","station_id":"SUDB","i_lat":-6.201433,"transit":false,"line":1,"i_long":106.819881,"time":1},{"distance":471,"is_transit":false,"i_lat":-6.20132,"line":1,"i_long":106.816351,"station_id":"KAT","time":1,"transit":false,"station_name":"Karet"},{"transit":true,"station_name":"Tanah Abang","time":5,"is_transit":true,"distance":2029,"i_long":106.811091,"station_id":"THB","line":1,"i_lat":-6.185545},{"transit":false,"station_name":"Palmerah","time":6,"i_long":106.79689,"station_id":"PLM","distance":3191,"line":6,"i_lat":-6.207404,"is_transit":false},{"station_id":"KBY","i_lat":-6.237242,"is_transit":false,"transit":false,"time":7,"line":6,"distance":3737,"i_long":106.780334,"station_name":"Kebayoran"},{"transit":false,"station_name":"Pondokranji","time":8,"i_lat":-6.276362,"is_transit":false,"line":6,"distance":6218,"station_id":"PDJ","i_long":106.74273},{"time":3,"i_lat":-6.288927,"is_transit":false,"transit":false,"i_long":106.728916,"station_id":"JMU","distance":2179,"line":6,"station_name":"Jurangmangu"},{"transit":false,"station_id":"SDM","i_long":106.712277,"station_name":"Sudimara","i_lat":-6.296963,"line":6,"is_transit":false,"distance":1994,"time":4},{"station_name":"Rawa Buntu","i_lat":-6.314823,"time":6,"transit":false,"i_long":106.675475,"distance":4566,"station_id":"RU","is_transit":false,"line":6},{"i_long":106.66566,"line":6,"time":4,"i_lat":-6.319871,"station_name":"Serpong","transit":false,"is_transit":false,"station_id":"SRP","distance":2413},{"line":3,"transit":false,"distance":1784,"time":4,"i_long":106.640411,"is_transit":false,"station_name":"Cisauk","station_id":"CSK","i_lat":-6.32484},{"station_id":"CC","distance":2519,"i_long":106.617853,"transit":false,"time":4,"station_name":"Cicayur","i_lat":-6.329547,"line":3,"is_transit":false},{"station_name":"Parung Panjang","line":6,"station_id":"PRP","is_transit":false,"transit":false,"distance":5968,"i_long":106.568863,"time":8,"i_lat":-6.3441410000000005},{"time":9,"transit":false,"distance":7025,"i_long":106.508482,"line":3,"is_transit":false,"i_lat":-6.354349,"station_id":"CJT","station_name":"Cilejit"},{"i_lat":-6.338021,"transit":false,"station_name":"Daru","distance":2675,"line":0,"i_long":106.491338,"is_transit":false,"time":6,"station_id":"DAR"}],[{"station_name":"Duren Kalibata","i_long":106.85449,"transit":false,"distance":0,"i_lat":-6.255332,"station_id":"DRN","is_transit":false,"line":2,"time":0},{"distance":1546,"is_transit":false,"line":2,"station_id":"CW","time":3,"i_lat":-6.242512,"i_long":106.856607,"station_name":"Cawang","transit":false},{"is_transit":false,"i_lat":-6.226659,"i_long":106.857948,"time":2,"transit":false,"station_id":"TEB","distance":1230,"line":2,"station_name":"Tebet"},{"i_lat":-6.209883,"i_long":106.84912,"station_name":"Manggarai","time":4,"distance":2610,"station_id":"MRI","transit":false,"line":2,"is_transit":false},{"station_id":"CKI","distance":1590,"i_lat":-6.198556,"time":4,"station_name":"Cikini","line":2,"i_long":106.840169,"transit":false,"is_transit":false},{"i_long":106.832183,"transit":false,"distance":1750,"station_name":"Gondangdia","line":2,"is_transit":false,"time":3,"i_lat":-6.186295,"station_id":"GDD"},{"i_lat":-6.166716,"i_long":106.828284,"distance":2015,"transit":false,"station_id":"JUA","is_transit":false,"line":2,"station_name":"Juanda","time":4},{"distance":1149,"line":2,"is_transit":false,"i_lat":-6.160725,"station_name":"Sawah Besar","i_long":106.827103,"station_id":"SW","time":2,"transit":false},{"station_name":"Manggabesar","station_id":"MGB","time":2,"is_transit":false,"distance":906,"line":2,"i_lat":-6.149769,"transit":false,"i_long":106.82482},{"i_lat":-6.141205,"line":2,"station_id":"JAY","distance":1080,"i_long":106.820901,"transit":false,"station_name":"Jayakarta","is_transit":false,"time":2},{"line":2,"distance":1264,"transit":true,"i_long":106.812439,"is_transit":true,"time":4,"station_id":"JAKK","station_name":"Jakarta Kota","i_lat":-6.137569},{"transit":true,"i_lat":-6.132549,"i_long":106.826365,"line":4,"time":3,"station_name":"Kampung Bandan","distance":1364,"station_id":"KPB","is_transit":true},{"transit":false,"is_transit":false,"line":1,"station_id":"AK","distance":4102,"time":9,"station_name":"Angke","i_lat":-6.144674,"i_long":106.79867},{"i_long":106.800832,"transit":false,"station_name":"Duri","station_id":"DU","time":4,"distance":1230,"i_lat":-6.155215,"line":1,"is_transit":false},{"station_name":"Tanah Abang","station_id":"THB","time":8,"line":1,"distance":3632,"transit":true,"i_lat":-6.185545,"is_transit":true,"i_long":106.811091},{"line":6,"i_long":106.79689,"is_transit":false,"time":6,"station_id":"PLM","distance":3191,"station_name":"Palmerah","i_lat":-6.207404,"transit":false},{"distance":3737,"station_id":"KBY","time":7,"i_lat":-6.237242,"station_name":"Kebayoran","is_transit":false,"i_long":106.780334,"transit":false,"line":6},{"time":8,"line":6,"transit":false,"distance":6218,"station_id":"PDJ","i_long":106.74273,"station_name":"Pondokranji","is_transit":false,"i_lat":-6.276362},{"line":6,"station_id":"JMU","is_transit":false,"transit":false,"i_long":106.728916,"distance":2179,"station_name":"Jurangmangu","i_lat":-6.288927,"time":3},{"distance":1994,"is_transit":false,"station_name":"Sudimara","transit":false,"i_lat":-6.296963,"station_id":"SDM","time":4,"i_long":106.712277,"line":6},{"i_lat":-6.314823,"i_long":106.675475,"is_transit":false,"transit":false,"distance":4566,"time":6,"line":6,"station_id":"RU","station_name":"Rawa Buntu"},{"station_name":"Serpong","station_id":"SRP","distance":2413,"is_transit":false,"i_lat":-6.319871,"line":6,"time":4,"transit":false,"i_long":106.66566},{"i_long":106.640411,"line":3,"distance":1784,"station_name":"Cisauk","is_transit":false,"transit":false,"station_id":"CSK","time":4,"i_lat":-6.32484},{"station_name":"Cicayur","i_long":106.617853,"distance":2519,"station_id":"CC","i_lat":-6.329547,"line":3,"is_transit":false,"time":4,"transit":false},{"transit":false,"line":6,"station_id":"PRP","is_transit":false,"i_long":106.568863,"station_name":"Parung Panjang","distance":5968,"time":8,"i_lat":-6.3441410000000005},{"i_long":106.508482,"station_name":"Cilejit","station_id":"CJT","is_transit":false,"distance":7025,"i_lat":-6.354349,"line":3,"transit":false,"time":9},{"time":6,"station_id":"DAR","distance":2675,"is_transit":false,"transit":false,"i_long":106.491338,"i_lat":-6.338021,"line":0,"station_name":"Daru"}],[{"distance":0,"i_lat":-6.255332,"i_long":106.85449,"line":2,"time":0,"transit":false,"station_name":"Duren Kalibata","station_id":"DRN","is_transit":false},{"i_long":106.856607,"station_name":"Cawang","time":3,"line":2,"is_transit":false,"transit":false,"distance":1546,"i_lat":-6.242512,"station_id":"CW"},{"station_name":"Tebet","is_transit":false,"station_id":"TEB","i_long":106.857948,"time":2,"distance":1230,"transit":false,"i_lat":-6.226659,"line":2},{"i_long":106.84912,"line":2,"transit":true,"station_id":"MRI","is_transit":true,"time":4,"i_lat":-6.209883,"station_name":"Manggarai","distance":2610},{"transit":false,"station_id":"MTR","time":2,"line":1,"i_long":106.858896,"i_lat":-6.212485,"is_transit":false,"distance":1275,"station_name":"Matraman"},{"i_long":106.86807400000001,"is_transit":true,"time":8,"distance":1377,"line":1,"transit":true,"station_name":"Jatinegara","station_id":"JNG","i_lat":-6.215091},{"transit":false,"i_lat":-6.209188,"station_name":"Pondok Jati","time":2,"distance":1236,"line":11,"i_long":106.861737,"is_transit":false,"station_id":"POK"},{"is_transit":false,"time":2,"line":11,"station_name":"Kramat","i_lat":-6.193792,"transit":false,"i_long":106.855437,"station_id":"KMT","distance":1829},{"line":11,"is_transit":false,"time":1,"i_long":106.850107,"station_id":"GST","transit":false,"distance":973,"i_lat":-6.185975,"station_name":"Gang Sentiong"},{"i_lat":-6.174784,"station_id":"PSE","time":8,"station_name":"Pasar Senen","distance":1567,"is_transit":false,"i_long":106.84368,"line":11,"transit":false},{"is_transit":false,"distance":1436,"station_name":"Kemayoran","time":4,"station_id":"KMO","i_lat":-6.161728,"transit":false,"i_long":106.839204,"line":11},{"station_name":"Rajawali","is_transit":false,"line":11,"transit":false,"station_id":"RJW","distance":1901,"time":5,"i_lat":-6.14505,"i_long":106.836569},{"station_name":"Kampung Bandan","line":4,"transit":true,"time":3,"i_lat":-6.132549,"i_long":106.826365,"distance":1444,"station_id":"KPB","is_transit":true},{"i_lat":-6.144674,"station_name":"Angke","line":1,"distance":4102,"transit":false,"time":9,"is_transit":false,"i_long":106.79867,"station_id":"AK"},{"transit":false,"i_lat":-6.155215,"station_name":"Duri","station_id":"DU","is_transit":false,"line":1,"distance":1230,"time":4,"i_long":106.800832},{"station_name":"Tanah Abang","line":1,"is_transit":true,"i_lat":-6.185545,"distance":3632,"station_id":"THB","i_long":106.811091,"transit":true,"time":8},{"distance":3191,"station_id":"PLM","station_name":"Palmerah","time":6,"transit":false,"i_lat":-6.207404,"is_transit":false,"i_long":106.79689,"line":6},{"distance":3737,"station_name":"Kebayoran","time":7,"i_lat":-6.237242,"i_long":106.780334,"is_transit":false,"transit":false,"station_id":"KBY","line":6},{"station_name":"Pondokranji","transit":false,"line":6,"time":8,"i_lat":-6.276362,"is_transit":false,"station_id":"PDJ","i_long":106.74273,"distance":6218},{"i_lat":-6.288927,"i_long":106.728916,"line":6,"distance":2179,"time":3,"station_id":"JMU","is_transit":false,"transit":false,"station_name":"Jurangmangu"},{"i_lat":-6.296963,"station_name":"Sudimara","line":6,"transit":false,"i_long":106.712277,"station_id":"SDM","is_transit":false,"time":4,"distance":1994},{"station_id":"RU","transit":false,"station_name":"Rawa Buntu","line":6,"distance":4566,"is_transit":false,"i_long":106.675475,"time":6,"i_lat":-6.314823},{"distance":2413,"i_long":106.66566,"time":4,"station_name":"Serpong","is_transit":false,"i_lat":-6.319871,"station_id":"SRP","transit":false,"line":6},{"is_transit":false,"i_long":106.640411,"transit":false,"station_id":"CSK","time":4,"distance":1784,"i_lat":-6.32484,"station_name":"Cisauk","line":3},{"station_name":"Cicayur","is_transit":false,"distance":2519,"i_long":106.617853,"transit":false,"time":4,"i_lat":-6.329547,"line":3,"station_id":"CC"},{"time":8,"station_name":"Parung Panjang","transit":false,"station_id":"PRP","i_lat":-6.3441410000000005,"line":6,"distance":5968,"i_long":106.568863,"is_transit":false},{"is_transit":false,"transit":false,"station_id":"CJT","time":9,"line":3,"i_long":106.508482,"station_name":"Cilejit","distance":7025,"i_lat":-6.354349},{"time":6,"i_lat":-6.338021,"is_transit":false,"transit":false,"station_name":"Daru","station_id":"DAR","distance":2675,"i_long":106.491338,"line":0}]]}