{"data":[[{"distance":0,"i_long":106.85449,"station_id":"DRN","i_lat":-6.255332,"station_name":"Duren Kalibata","transit":false,"is_transit":false,"line":2,"time":0},{"station_name":"Cawang","time":3,"distance":1546,"is_transit":false,"i_lat":-6.242512,"station_id":"CW","line":2,"i_long":106.856607,"transit":false},{"line":2,"distance":1230,"transit":false,"i_long":106.857948,"i_lat":-6.226659,"time":2,"is_transit":false,"station_id":"TEB","station_name":"Tebet"},{"station_name":"Manggarai","time":4,"line":2,"i_long":106.84912,"distance":2610,"is_transit":true,"i_lat":-6.209883,"station_id":"MRI","transit":true},{"station_id":"SUD","i_lat":-6.202263,"i_long":106.822649,"time":4,"station_name":"Sudirman","is_transit":false,"transit":false,"distance":3186,"line":1},{"station_id":"SUDB","is_transit":false,"time":1,"line":1,"station_name":"Sudirman Baru","i_long":106.819881,"transit":false,"i_lat":-6.201433,"distance":280},{"station_name":"Karet","line":1,"is_transit":false,"distance":471,"time":1,"transit":false,"i_lat":-6.20132,"station_id":"KAT","i_long":106.816351},{"station_name":"Tanah Abang","station_id":"THB","i_lat":-6.185545,"time":5,"is_transit":true,"transit":true,"i_long":106.811091,"line":1,"distance":2029},{"station_id":"PLM","i_lat":-6.207404,"transit":false,"distance":3191,"is_transit":false,"time":6,"station_name":"Palmerah","i_long":106.79689,"line":6},{"transit":false,"is_transit":false,"station_name":"Kebayoran","line":6,"time":7,"distance":3737,"station_id":"KBY","i_lat":-6.237242,"i_long":106.780334},{"station_name":"Pondokranji","is_transit":false,"transit":false,"distance":6218,"time":8,"station_id":"PDJ","line":6,"i_lat":-6.276362,"i_long":106.74273},{"station_id":"JMU","i_long":106.728916,"transit":false,"line":6,"is_transit":false,"time":3,"distance":2179,"i_lat":-6.288927,"station_name":"Jurangmangu"},{"time":4,"distance":1994,"is_transit":false,"i_lat":-6.296963,"station_name":"Sudimara","i_long":106.712277,"station_id":"SDM","line":6,"transit":false},{"transit":false,"station_id":"RU","is_transit":false,"i_lat":-6.314823,"distance":4566,"i_long":106.675475,"time":6,"station_name":"Rawa Buntu","line":6},{"time":4,"station_id":"SRP","is_transit":false,"station_name":"Serpong","line":6,"i_lat":-6.319871,"transit":false,"distance":2413,"i_long":106.66566},{"time":4,"distance":1784,"transit":false,"i_lat":-6.32484,"station_id":"CSK","i_long":106.640411,"station_name":"Cisauk","line":3,"is_transit":false},{"station_id":"CC","time":4,"i_lat":-6.329547,"transit":false,"distance":2519,"is_transit":false,"line":3,"station_name":"Cicayur","i_long":106.617853},{"station_name":"Parung Panjang","time":8,"transit":false,"i_lat":-6.3441410000000005,"station_id":"PRP","is_transit":false,"i_long":106.568863,"line":6,"distance":5968},{"station_name":"Cilejit","i_lat":-6.354349,"line":3,"i_long":106.508482,"station_id":"CJT","is_transit":false,"transit":false,"time":9,"distance":7025},{"i_lat":-6.338021,"distance":2675,"station_name":"Daru","time":6,"transit":false,"line":0,"is_transit":false,"station_id":"DAR","i_long":106.491338}],[{"i_long":106.85449,"transit":false,"distance":0,"station_id":"DRN","time":0,"line":2,"station_name":"Duren Kalibata","i_lat":-6.255332,"is_transit":false},{"station_id":"CW","time":3,"line":2,"i_lat":-6.242512,"station_name":"Cawang","distance":1546,"is_transit":false,"transit":false,"i_long":106.856607},{"i_lat":-6.226659,"distance":1230,"i_long":106.857948,"is_transit":false,"station_name":"Tebet","time":2,"line":2,"transit":false,"station_id":"TEB"},{"i_lat":-6.209883,"station_name":"Manggarai","i_long":106.84912,"distance":2610,"line":2,"station_id":"MRI","is_transit":false,"transit":false,"time":4},{"station_name":"Cikini","i_long":106.840169,"i_lat":-6.198556,"line":2,"station_id":"CKI","transit":false,"distance":1590,"is_transit":false,"time":4},{"time":3,"i_lat":-6.186295,"station_name":"Gondangdia","i_long":106.832183,"line":2,"transit":false,"station_id":"GDD","is_transit":false,"distance":1750},{"distance":2015,"is_transit":false,"transit":false,"time":4,"station_id":"JUA","i_long":106.828284,"i_lat":-6.166716,"station_name":"Juanda","line":2},{"is_transit":false,"transit":false,"station_id":"SW","line":2,"i_lat":-6.160725,"station_name":"Sawah Besar","distance":1149,"time":2,"i_long":106.827103},{"i_lat":-6.149769,"station_id":"MGB","transit":false,"line":2,"time":2,"i_long":106.82482,"is_transit":false,"station_name":"Manggabesar","distance":906},{"distance":1080,"station_id":"JAY","station_name":"Jayakarta","time":2,"is_transit":false,"line":2,"i_lat":-6.141205,"transit":false,"i_long":106.820901},{"distance":1264,"i_lat":-6.137569,"transit":true,"is_transit":true,"station_name":"Jakarta Kota","station_id":"JAKK","time":4,"line":2,"i_long":106.812439},{"distance":1364,"station_name":"Kampung Bandan","is_transit":true,"station_id":"KPB","time":3,"i_long":106.826365,"transit":true,"i_lat":-6.132549,"line":4},{"is_transit":false,"i_long":106.79867,"time":9,"line":1,"station_name":"Angke","distance":4102,"transit":false,"station_id":"AK","i_lat":-6.144674},{"i_long":106.800832,"station_name":"Duri","i_lat":-6.155215,"is_transit":false,"transit":false,"distance":1230,"station_id":"DU","time":4,"line":1},{"station_id":"THB","distance":3632,"is_transit":true,"time":8,"i_lat":-6.185545,"line":1,"i_long":106.811091,"transit":true,"station_name":"Tanah Abang"},{"distance":3191,"is_transit":false,"time":6,"station_id":"PLM","i_long":106.79689,"station_name":"Palmerah","transit":false,"i_lat":-6.207404,"line":6},{"is_transit":false,"transit":false,"station_id":"KBY","distance":3737,"i_lat":-6.237242,"station_name":"Kebayoran","time":7,"i_long":106.780334,"line":6},{"is_transit":false,"transit":false,"distance":6218,"i_lat":-6.276362,"station_name":"Pondokranji","i_long":106.74273,"time":8,"station_id":"PDJ","line":6},{"station_id":"JMU","distance":2179,"line":6,"transit":false,"i_lat":-6.288927,"i_long":106.728916,"station_name":"Jurangmangu","time":3,"is_transit":false},{"distance":1994,"i_lat":-6.296963,"line":6,"is_transit":false,"transit":false,"station_id":"SDM","station_name":"Sudimara","i_long":106.712277,"time":4},{"line":6,"station_id":"RU","i_lat":-6.314823,"i_long":106.675475,"distance":4566,"is_transit":false,"time":6,"station_name":"Rawa Buntu","transit":false},{"transit":false,"is_transit":false,"station_name":"Serpong","time":4,"i_long":106.66566,"line":6,"station_id":"SRP","distance":2413,"i_lat":-6.319871},{"is_transit":false,"station_name":"Cisauk","distance":1784,"station_id":"CSK","time":4,"i_long":106.640411,"transit":false,"i_lat":-6.32484,"line":3},{"is_transit":false,"distance":2519,"station_name":"Cicayur","transit":false,"time":4,"line":3,"i_lat":-6.329547,"station_id":"CC","i_long":106.617853},{"i_long":106.568863,"station_name":"Parung Panjang","time":8,"distance":5968,"transit":false,"station_id":"PRP","is_transit":false,"i_lat":-6.3441410000000005,"line":6},{"time":9,"distance":7025,"transit":false,"i_long":106.508482,"station_id":"CJT","is_transit":false,"line":3,"i_lat":-6.354349,"station_name":"Cilejit"},{"time":6,"distance":2675,"i_long":106.491338,"station_id":"DAR","station_name":"Daru","line":0,"i_lat":-6.338021,"is_transit":false,"transit":false}],[{"is_transit":false,"distance":0,"station_id":"DRN","transit":false,"i_lat":-6.255332,"line":2,"i_long":106.85449,"time":0,"station_name":"Duren Kalibata"},{"i_lat":-6.242512,"line":2,"time":3,"station_name":"Cawang","transit":false,"distance":1546,"station_id":"CW","is_transit":false,"i_long":106.856607},{"line":2,"station_name":"Tebet","distance":1230,"i_lat":-6.226659,"is_transit":false,"transit":false,"station_id":"TEB","time":2,"i_long":106.857948},{"i_lat":-6.209883,"i_long":106.84912,"transit":true,"line":2,"is_transit":true,"distance":2610,"station_id":"MRI","station_name":"Manggarai","time":4},{"time":2,"i_long":106.858896,"station_name":"Matraman","transit":false,"i_lat":-6.212485,"line":1,"is_transit":false,"station_id":"MTR","distance":1275},{"i_lat":-6.215091,"distance":1377,"transit":true,"is_transit":true,"i_long":106.86807400000001,"line":1,"time":8,"station_name":"Jatinegara","station_id":"JNG"},{"line":11,"is_transit":false,"time":2,"distance":1236,"station_id":"POK","station_name":"Pondok Jati","i_lat":-6.209188,"i_long":106.861737,"transit":false},{"station_name":"Kramat","i_long":106.855437,"distance":1829,"transit":false,"is_transit":false,"time":2,"i_lat":-6.193792,"station_id":"KMT","line":11},{"distance":973,"is_transit":false,"line":11,"i_lat":-6.185975,"station_name":"Gang Sentiong","station_id":"GST","transit":false,"time":1,"i_long":106.850107},{"i_long":106.84368,"station_name":"Pasar Senen","station_id":"PSE","i_lat":-6.174784,"line":11,"transit":false,"distance":1567,"time":8,"is_transit":false},{"distance":1436,"line":11,"station_id":"KMO","station_name":"Kemayoran","is_transit":false,"transit":false,"i_long":106.839204,"time":4,"i_lat":-6.161728},{"transit":false,"distance":1901,"i_long":106.836569,"is_transit":false,"time":5,"i_lat":-6.14505,"line":11,"station_id":"RJW","station_name":"Rajawali"},{"time":3,"is_transit":true,"i_lat":-6.132549,"transit":true,"station_name":"Kampung Bandan","line":4,"i_long":106.826365,"distance":1444,"station_id":"KPB"},{"is_transit":false,"i_lat":-6.144674,"i_long":106.79867,"station_name":"Angke","distance":4102,"transit":false,"station_id":"AK","time":9,"line":1},{"is_transit":false,"transit":false,"station_name":"Duri","i_lat":-6.155215,"distance":1230,"station_id":"DU","i_long":106.800832,"line":1,"time":4},{"i_lat":-6.185545,"transit":true,"i_long":106.811091,"station_id":"THB","distance":3632,"line":1,"station_name":"Tanah Abang","is_transit":true,"time":8},{"station_id":"PLM","is_transit":false,"station_name":"Palmerah","time":6,"transit":false,"i_long":106.79689,"distance":3191,"i_lat":-6.207404,"line":6},{"i_long":106.780334,"line":6,"i_lat":-6.237242,"distance":3737,"station_id":"KBY","is_transit":false,"time":7,"station_name":"Kebayoran","transit":false},{"transit":false,"line":6,"station_id":"PDJ","station_name":"Pondokranji","distance":6218,"is_transit":false,"time":8,"i_long":106.74273,"i_lat":-6.276362},{"time":3,"i_long":106.728916,"distance":2179,"is_transit":false,"transit":false,"i_lat":-6.288927,"station_name":"Jurangmangu","line":6,"station_id":"JMU"},{"station_name":"Sudimara","i_long":106.712277,"i_lat":-6.296963,"distance":1994,"transit":false,"line":6,"station_id":"SDM","is_transit":false,"time":4},{"line":6,"i_lat":-6.314823,"i_long":106.675475,"station_id":"RU","is_transit":false,"station_name":"Rawa Buntu","transit":false,"distance":4566,"time":6},{"station_name":"Serpong","i_long":106.66566,"station_id":"SRP","distance":2413,"is_transit":false,"line":6,"transit":false,"i_lat":-6.319871,"time":4},{"is_transit":false,"station_name":"Cisauk","line":3,"time":4,"transit":false,"i_lat":-6.32484,"station_id":"CSK","i_long":106.640411,"distance":1784},{"time":4,"transit":false,"distance":2519,"station_id":"CC","is_transit":false,"station_name":"Cicayur","line":3,"i_lat":-6.329547,"i_long":106.617853},{"station_name":"Parung Panjang","transit":false,"distance":5968,"i_long":106.568863,"time":8,"line":6,"i_lat":-6.3441410000000005,"station_id":"PRP","is_transit":false},{"i_lat":-6.354349,"distance":7025,"transit":false,"line":3,"station_id":"CJT","time":9,"is_transit":false,"station_name":"Cilejit","i_long":106.508482},{"line":0,"distance":2675,"time":6,"is_transit":false,"i_lat":-6.338021,"transit":false,"i_long":106.491338,"station_id":"DAR","station_name":"Daru"}]]}