{"data":[[{"transit":false,"station_id":"DRN","time":0,"line":2,"i_lat":-6.255332,"station_name":"Duren Kalibata","i_long":106.85449,"is_transit":false,"distance":0},{"i_lat":-6.242512,"station_id":"CW","distance":1546,"station_name":"Cawang","line":2,"transit":false,"time":3,"i_long":106.856607,"is_transit":false},{"i_long":106.857948,"is_transit":false,"transit":false,"time":2,"distance":1230,"i_lat":-6.226659,"station_id":"TEB","line":2,"station_name":"Tebet"},{"time":4,"distance":2610,"i_lat":-6.209883,"i_long":106.84912,"transit":true,"station_id":"MRI","line":2,"is_transit":true,"station_name":"Manggarai"},{"station_name":"Sudirman","i_lat":-6.202263,"line":1,"transit":false,"is_transit":false,"distance":3186,"station_id":"SUD","time":4,"i_long":106.822649},{"station_name":"Sudirman Baru","i_lat":-6.201433,"line":1,"time":1,"i_long":106.819881,"transit":false,"station_id":"SUDB","distance":280,"is_transit":false},{"i_lat":-6.20132,"time":1,"transit":false,"i_long":106.816351,"line":1,"station_id":"KAT","is_transit":false,"distance":471,"station_name":"Karet"},{"line":1,"transit":false,"distance":2029,"station_name":"Tanah Abang","time":5,"i_long":106.811091,"i_lat":-6.185545,"station_id":"THB","is_transit":false},{"i_lat":-6.155215,"station_id":"DU","time":8,"distance":3632,"is_transit":true,"station_name":"Duri","transit":true,"line":1,"i_long":106.800832},{"i_lat":-6.162021,"transit":false,"i_long":106.788277,"station_id":"GGL","is_transit":false,"time":3,"line":5,"distance":1700,"station_name":"Grogol"},{"time":2,"distance":2036,"transit":false,"station_name":"Pesing","station_id":"PSG","i_long":106.771379,"i_lat":-6.161433,"line":5,"is_transit":false},{"transit":false,"is_transit":false,"i_lat":-6.1587309999999995,"station_id":"TKO","station_name":"Taman Kota","distance":1614,"line":5,"time":2,"i_long":106.756522},{"time":2,"transit":false,"i_lat":-6.159876,"line":5,"i_long":106.737035,"distance":2334,"station_name":"Bojongindah","station_id":"BOI","is_transit":false},{"time":4,"is_transit":false,"station_id":"RW","i_long":106.723064,"distance":1152,"i_lat":-6.162758,"transit":false,"station_name":"Rawa Buaya","line":5},{"i_long":106.701612,"distance":2504,"station_id":"KDS","line":5,"station_name":"Kalideres","i_lat":-6.166068,"is_transit":false,"transit":false,"time":3},{"i_lat":-6.169933,"line":5,"transit":false,"time":3,"distance":2548,"station_id":"PI","i_long":106.679458,"is_transit":false,"station_name":"Poris"},{"transit":false,"i_lat":-6.171811,"distance":1834,"is_transit":false,"i_long":106.665036,"line":5,"station_id":"BPR","station_name":"Batuceper","time":3}],[{"distance":0,"station_name":"Duren Kalibata","i_lat":-6.255332,"station_id":"DRN","is_transit":false,"i_long":106.85449,"transit":false,"line":2,"time":0},{"transit":false,"is_transit":false,"time":3,"i_lat":-6.242512,"station_name":"Cawang","station_id":"CW","i_long":106.856607,"line":2,"distance":1546},{"transit":false,"line":2,"i_lat":-6.226659,"is_transit":false,"distance":1230,"i_long":106.857948,"station_name":"Tebet","station_id":"TEB","time":2},{"line":2,"is_transit":false,"station_name":"Manggarai","transit":false,"distance":2610,"i_long":106.84912,"time":4,"station_id":"MRI","i_lat":-6.209883},{"distance":1590,"line":2,"i_long":106.840169,"transit":false,"is_transit":false,"i_lat":-6.198556,"station_id":"CKI","time":4,"station_name":"Cikini"},{"station_name":"Gondangdia","station_id":"GDD","distance":1750,"i_long":106.832183,"is_transit":false,"transit":false,"i_lat":-6.186295,"time":3,"line":2},{"transit":false,"time":4,"station_name":"Juanda","is_transit":false,"i_long":106.828284,"distance":2015,"line":2,"station_id":"JUA","i_lat":-6.166716},{"i_long":106.827103,"station_id":"SW","is_transit":false,"time":2,"transit":false,"distance":1149,"station_name":"Sawah Besar","line":2,"i_lat":-6.160725},{"transit":false,"i_long":106.82482,"is_transit":false,"line":2,"time":2,"station_name":"Manggabesar","station_id":"MGB","distance":906,"i_lat":-6.149769},{"i_long":106.820901,"station_id":"JAY","line":2,"station_name":"Jayakarta","i_lat":-6.141205,"time":2,"distance":1080,"transit":false,"is_transit":false},{"time":4,"i_long":106.812439,"transit":true,"station_name":"Jakarta Kota","is_transit":true,"station_id":"JAKK","distance":1264,"i_lat":-6.137569,"line":2},{"station_id":"KPB","is_transit":true,"station_name":"Kampung Bandan","i_long":106.826365,"distance":1364,"transit":true,"time":3,"i_lat":-6.132549,"line":4},{"station_id":"AK","time":9,"i_lat":-6.144674,"i_long":106.79867,"station_name":"Angke","is_transit":false,"transit":false,"distance":4102,"line":1},{"distance":1230,"is_transit":true,"time":4,"i_long":106.800832,"station_name":"Duri","i_lat":-6.155215,"transit":true,"station_id":"DU","line":1},{"i_long":106.788277,"is_transit":false,"line":5,"i_lat":-6.162021,"transit":false,"station_name":"Grogol","time":3,"distance":1700,"station_id":"GGL"},{"time":2,"line":5,"is_transit":false,"station_name":"Pesing","station_id":"PSG","distance":2036,"i_lat":-6.161433,"transit":false,"i_long":106.771379},{"time":2,"is_transit":false,"i_long":106.756522,"station_name":"Taman Kota","distance":1614,"line":5,"station_id":"TKO","transit":false,"i_lat":-6.1587309999999995},{"i_lat":-6.159876,"transit":false,"is_transit":false,"time":2,"distance":2334,"line":5,"station_name":"Bojongindah","station_id":"BOI","i_long":106.737035},{"i_lat":-6.162758,"distance":1152,"station_id":"RW","time":4,"station_name":"Rawa Buaya","i_long":106.723064,"line":5,"transit":false,"is_transit":false},{"transit":false,"i_lat":-6.166068,"time":3,"i_long":106.701612,"station_name":"Kalideres","station_id":"KDS","is_transit":false,"distance":2504,"line":5},{"i_lat":-6.169933,"line":5,"station_name":"Poris","is_transit":false,"transit":false,"time":3,"distance":2548,"i_long":106.679458,"station_id":"PI"},{"distance":1834,"line":5,"transit":false,"i_lat":-6.171811,"time":3,"station_id":"BPR","is_transit":false,"i_long":106.665036,"station_name":"Batuceper"}],[{"station_name":"Duren Kalibata","line":2,"i_lat":-6.255332,"i_long":106.85449,"station_id":"DRN","distance":0,"time":0,"is_transit":false,"transit":false},{"time":3,"station_id":"CW","i_lat":-6.242512,"transit":false,"station_name":"Cawang","is_transit":false,"distance":1546,"line":2,"i_long":106.856607},{"station_id":"TEB","i_lat":-6.226659,"transit":false,"i_long":106.857948,"time":2,"line":2,"is_transit":false,"station_name":"Tebet","distance":1230},{"station_id":"MRI","is_transit":true,"i_lat":-6.209883,"transit":true,"station_name":"Manggarai","time":4,"distance":2610,"i_long":106.84912,"line":2},{"is_transit":false,"time":2,"i_lat":-6.212485,"i_long":106.858896,"distance":1275,"station_id":"MTR","transit":false,"station_name":"Matraman","line":1},{"line":1,"i_lat":-6.215091,"station_name":"Jatinegara","is_transit":true,"transit":true,"time":8,"station_id":"JNG","distance":1377,"i_long":106.86807400000001},{"transit":false,"i_long":106.861737,"is_transit":false,"station_name":"Pondok Jati","station_id":"POK","time":2,"distance":1236,"line":11,"i_lat":-6.209188},{"station_id":"KMT","distance":1829,"station_name":"Kramat","transit":false,"time":2,"i_lat":-6.193792,"line":11,"is_transit":false,"i_long":106.855437},{"is_transit":false,"line":11,"transit":false,"i_lat":-6.185975,"station_id":"GST","time":1,"distance":973,"station_name":"Gang Sentiong","i_long":106.850107},{"i_long":106.84368,"line":11,"i_lat":-6.174784,"station_name":"Pasar Senen","transit":false,"time":8,"is_transit":false,"station_id":"PSE","distance":1567},{"i_lat":-6.161728,"i_long":106.839204,"transit":false,"station_id":"KMO","time":4,"line":11,"distance":1436,"station_name":"Kemayoran","is_transit":false},{"transit":false,"station_id":"RJW","is_transit":false,"distance":1901,"i_lat":-6.14505,"station_name":"Rajawali","i_long":106.836569,"time":5,"line":11},{"station_id":"KPB","station_name":"Kampung Bandan","distance":1444,"transit":true,"time":3,"i_lat":-6.132549,"i_long":106.826365,"line":4,"is_transit":true},{"is_transit":false,"station_id":"AK","distance":4102,"time":9,"station_name":"Angke","i_lat":-6.144674,"i_long":106.79867,"line":1,"transit":false},{"distance":1230,"station_id":"DU","station_name":"Duri","i_long":106.800832,"is_transit":true,"time":4,"i_lat":-6.155215,"transit":true,"line":1},{"i_lat":-6.162021,"distance":1700,"transit":false,"i_long":106.788277,"line":5,"station_id":"GGL","is_transit":false,"station_name":"Grogol","time":3},{"transit":false,"station_id":"PSG","is_transit":false,"station_name":"Pesing","i_lat":-6.161433,"distance":2036,"time":2,"i_long":106.771379,"line":5},{"station_id":"TKO","transit":false,"line":5,"i_long":106.756522,"is_transit":false,"distance":1614,"i_lat":-6.1587309999999995,"station_name":"Taman Kota","time":2},{"is_transit":false,"time":2,"distance":2334,"i_long":106.737035,"i_lat":-6.159876,"transit":false,"line":5,"station_name":"Bojongindah","station_id":"BOI"},{"line":5,"is_transit":false,"i_long":106.723064,"station_id":"RW","distance":1152,"transit":false,"i_lat":-6.162758,"station_name":"Rawa Buaya","time":4},{"transit":false,"i_lat":-6.166068,"line":5,"i_long":106.701612,"distance":2504,"station_id":"KDS","station_name":"Kalideres","is_transit":false,"time":3},{"is_transit":false,"distance":2548,"station_id":"PI","i_lat":-6.169933,"time":3,"i_long":106.679458,"line":5,"transit":false,"station_name":"Poris"},{"i_long":106.665036,"station_name":"Batuceper","time":3,"station_id":"BPR","is_transit":false,"transit":false,"line":5,"distance":1834,"i_lat":-6.171811}]]}