{"data":[[{"i_lat":-6.255332,"is_transit":false,"station_name":"Duren Kalibata","distance":0,"i_long":106.85449,"transit":false,"line":2,"time":0,"station_id":"DRN"},{"station_id":"CW","station_name":"Cawang","distance":1546,"transit":false,"i_lat":-6.242512,"is_transit":false,"time":3,"i_long":106.856607,"line":2},{"line":2,"station_id":"TEB","station_name":"Tebet","time":2,"i_long":106.857948,"i_lat":-6.226659,"is_transit":false,"distance":1230,"transit":false},{"distance":2610,"station_name":"Manggarai","time":4,"transit":true,"i_lat":-6.209883,"line":2,"i_long":106.84912,"is_transit":true,"station_id":"MRI"},{"i_long":106.822649,"is_transit":false,"station_id":"SUD","distance":3186,"i_lat":-6.202263,"time":4,"station_name":"Sudirman","transit":false,"line":1},{"line":1,"transit":false,"i_long":106.819881,"station_id":"SUDB","time":1,"distance":280,"station_name":"Sudirman Baru","is_transit":false,"i_lat":-6.201433},{"i_lat":-6.20132,"station_id":"KAT","time":1,"is_transit":false,"transit":false,"line":1,"station_name":"Karet","i_long":106.816351,"distance":471},{"i_lat":-6.185545,"line":1,"distance":2029,"station_id":"THB","station_name":"Tanah Abang","transit":true,"i_long":106.811091,"time":5,"is_transit":true},{"i_lat":-6.207404,"station_id":"PLM","distance":3191,"is_transit":false,"transit":false,"line":6,"time":6,"i_long":106.79689,"station_name":"Palmerah"},{"station_id":"KBY","time":7,"line":6,"i_long":106.780334,"distance":3737,"is_transit":false,"transit":false,"station_name":"Kebayoran","i_lat":-6.237242},{"distance":6218,"transit":false,"is_transit":false,"i_lat":-6.276362,"line":6,"i_long":106.74273,"station_name":"Pondokranji","station_id":"PDJ","time":8},{"time":3,"station_id":"JMU","i_lat":-6.288927,"distance":2179,"is_transit":false,"i_long":106.728916,"line":6,"station_name":"Jurangmangu","transit":false},{"station_name":"Sudimara","distance":1994,"i_lat":-6.296963,"station_id":"SDM","is_transit":false,"time":4,"transit":false,"i_long":106.712277,"line":6},{"line":6,"i_lat":-6.314823,"is_transit":false,"time":6,"distance":4566,"station_id":"RU","station_name":"Rawa Buntu","transit":false,"i_long":106.675475},{"line":6,"time":4,"distance":2413,"i_long":106.66566,"transit":false,"station_id":"SRP","station_name":"Serpong","i_lat":-6.319871,"is_transit":false},{"line":3,"station_name":"Cisauk","transit":false,"is_transit":false,"i_lat":-6.32484,"station_id":"CSK","time":4,"distance":1784,"i_long":106.640411}],[{"i_long":106.85449,"line":2,"i_lat":-6.255332,"station_id":"DRN","time":0,"station_name":"Duren Kalibata","distance":0,"is_transit":false,"transit":false},{"line":2,"station_id":"CW","station_name":"Cawang","distance":1546,"is_transit":false,"i_lat":-6.242512,"i_long":106.856607,"transit":false,"time":3},{"time":2,"i_long":106.857948,"line":2,"transit":false,"distance":1230,"i_lat":-6.226659,"station_id":"TEB","station_name":"Tebet","is_transit":false},{"distance":2610,"station_id":"MRI","station_name":"Manggarai","time":4,"i_lat":-6.209883,"transit":false,"i_long":106.84912,"is_transit":false,"line":2},{"station_name":"Cikini","station_id":"CKI","is_transit":false,"i_long":106.840169,"transit":false,"i_lat":-6.198556,"line":2,"distance":1590,"time":4},{"i_lat":-6.186295,"is_transit":false,"transit":false,"line":2,"station_name":"Gondangdia","i_long":106.832183,"time":3,"distance":1750,"station_id":"GDD"},{"i_lat":-6.166716,"is_transit":false,"line":2,"distance":2015,"station_id":"JUA","i_long":106.828284,"time":4,"station_name":"Juanda","transit":false},{"line":2,"is_transit":false,"transit":false,"station_id":"SW","station_name":"Sawah Besar","i_long":106.827103,"time":2,"distance":1149,"i_lat":-6.160725},{"distance":906,"transit":false,"line":2,"station_id":"MGB","is_transit":false,"time":2,"station_name":"Manggabesar","i_long":106.82482,"i_lat":-6.149769},{"i_lat":-6.141205,"i_long":106.820901,"transit":false,"line":2,"distance":1080,"station_name":"Jayakarta","is_transit":false,"time":2,"station_id":"JAY"},{"i_long":106.812439,"i_lat":-6.137569,"is_transit":true,"distance":1264,"station_id":"JAKK","station_name":"Jakarta Kota","line":2,"time":4,"transit":true},{"is_transit":true,"station_id":"KPB","i_lat":-6.132549,"line":4,"distance":1364,"station_name":"Kampung Bandan","transit":true,"time":3,"i_long":106.826365},{"transit":false,"time":9,"is_transit":false,"i_lat":-6.144674,"i_long":106.79867,"distance":4102,"station_id":"AK","line":1,"station_name":"Angke"},{"station_id":"DU","distance":1230,"is_transit":false,"i_lat":-6.155215,"station_name":"Duri","transit":false,"line":1,"i_long":106.800832,"time":4},{"transit":true,"i_lat":-6.185545,"is_transit":true,"i_long":106.811091,"line":1,"station_id":"THB","distance":3632,"station_name":"Tanah Abang","time":8},{"station_id":"PLM","station_name":"Palmerah","is_transit":false,"distance":3191,"transit":false,"i_lat":-6.207404,"line":6,"i_long":106.79689,"time":6},{"station_id":"KBY","is_transit":false,"time":7,"i_lat":-6.237242,"station_name":"Kebayoran","distance":3737,"transit":false,"i_long":106.780334,"line":6},{"station_name":"Pondokranji","line":6,"distance":6218,"is_transit":false,"time":8,"transit":false,"i_long":106.74273,"station_id":"PDJ","i_lat":-6.276362},{"transit":false,"is_transit":false,"time":3,"station_name":"Jurangmangu","i_lat":-6.288927,"i_long":106.728916,"distance":2179,"station_id":"JMU","line":6},{"distance":1994,"time":4,"station_id":"SDM","line":6,"station_name":"Sudimara","is_transit":false,"transit":false,"i_lat":-6.296963,"i_long":106.712277},{"is_transit":false,"time":6,"station_name":"Rawa Buntu","station_id":"RU","distance":4566,"line":6,"transit":false,"i_lat":-6.314823,"i_long":106.675475},{"is_transit":false,"distance":2413,"line":6,"time":4,"i_long":106.66566,"station_id":"SRP","i_lat":-6.319871,"transit":false,"station_name":"Serpong"},{"i_long":106.640411,"distance":1784,"station_name":"Cisauk","is_transit":false,"i_lat":-6.32484,"transit":false,"time":4,"line":3,"station_id":"CSK"}],[{"time":0,"i_long":106.85449,"transit":false,"station_name":"Duren Kalibata","i_lat":-6.255332,"station_id":"DRN","line":2,"distance":0,"is_transit":false},{"station_name":"Cawang","distance":1546,"station_id":"CW","time":3,"transit":false,"i_long":106.856607,"i_lat":-6.242512,"line":2,"is_transit":false},{"time":2,"i_long":106.857948,"station_name":"Tebet","transit":false,"station_id":"TEB","i_lat":-6.226659,"distance":1230,"is_transit":false,"line":2},{"station_id":"MRI","time":4,"is_transit":true,"station_name":"Manggarai","i_lat":-6.209883,"distance":2610,"i_long":106.84912,"line":2,"transit":true},{"distance":1275,"line":1,"is_transit":false,"time":2,"i_lat":-6.212485,"station_id":"MTR","station_name":"Matraman","i_long":106.858896,"transit":false},{"transit":true,"distance":1377,"time":8,"station_name":"Jatinegara","i_lat":-6.215091,"line":1,"is_transit":true,"station_id":"JNG","i_long":106.86807400000001},{"i_long":106.861737,"is_transit":false,"transit":false,"station_id":"POK","station_name":"Pondok Jati","line":11,"i_lat":-6.209188,"distance":1236,"time":2},{"station_name":"Kramat","time":2,"transit":false,"is_transit":false,"distance":1829,"station_id":"KMT","i_long":106.855437,"i_lat":-6.193792,"line":11},{"station_name":"Gang Sentiong","distance":973,"line":11,"station_id":"GST","time":1,"is_transit":false,"i_lat":-6.185975,"transit":false,"i_long":106.850107},{"station_id":"PSE","is_transit":false,"time":8,"line":11,"station_name":"Pasar Senen","distance":1567,"transit":false,"i_lat":-6.174784,"i_long":106.84368},{"is_transit":false,"i_long":106.839204,"station_id":"KMO","station_name":"Kemayoran","distance":1436,"transit":false,"time":4,"i_lat":-6.161728,"line":11},{"station_name":"Rajawali","transit":false,"i_lat":-6.14505,"i_long":106.836569,"time":5,"station_id":"RJW","line":11,"is_transit":false,"distance":1901},{"transit":true,"distance":1444,"i_long":106.826365,"station_id":"KPB","line":4,"time":3,"i_lat":-6.132549,"is_transit":true,"station_name":"Kampung Bandan"},{"i_long":106.79867,"station_name":"Angke","line":1,"transit":false,"i_lat":-6.144674,"station_id":"AK","distance":4102,"time":9,"is_transit":false},{"line":1,"i_lat":-6.155215,"distance":1230,"station_id":"DU","time":4,"station_name":"Duri","transit":false,"is_transit":false,"i_long":106.800832},{"station_name":"Tanah Abang","is_transit":true,"station_id":"THB","distance":3632,"i_long":106.811091,"time":8,"line":1,"i_lat":-6.185545,"transit":true},{"distance":3191,"transit":false,"station_name":"Palmerah","station_id":"PLM","i_lat":-6.207404,"line":6,"is_transit":false,"time":6,"i_long":106.79689},{"station_name":"Kebayoran","station_id":"KBY","i_long":106.780334,"time":7,"distance":3737,"i_lat":-6.237242,"is_transit":false,"transit":false,"line":6},{"time":8,"station_id":"PDJ","line":6,"station_name":"Pondokranji","distance":6218,"is_transit":false,"i_lat":-6.276362,"i_long":106.74273,"transit":false},{"station_name":"Jurangmangu","i_lat":-6.288927,"line":6,"distance":2179,"time":3,"i_long":106.728916,"transit":false,"is_transit":false,"station_id":"JMU"},{"station_name":"Sudimara","transit":false,"line":6,"time":4,"i_lat":-6.296963,"i_long":106.712277,"is_transit":false,"station_id":"SDM","distance":1994},{"is_transit":false,"distance":4566,"i_lat":-6.314823,"time":6,"line":6,"transit":false,"station_id":"RU","station_name":"Rawa Buntu","i_long":106.675475},{"i_lat":-6.319871,"i_long":106.66566,"transit":false,"station_id":"SRP","station_name":"Serpong","time":4,"line":6,"is_transit":false,"distance":2413},{"station_id":"CSK","distance":1784,"line":3,"time":4,"is_transit":false,"station_name":"Cisauk","i_lat":-6.32484,"i_long":106.640411,"transit":false}]]}