{"data":[[{"i_long":106.85449,"transit":false,"station_id":"DRN","time":0,"i_lat":-6.255332,"line":2,"distance":0,"station_name":"Duren Kalibata","is_transit":false},{"time":3,"i_long":106.856607,"station_name":"Cawang","i_lat":-6.242512,"line":2,"station_id":"CW","is_transit":false,"transit":false,"distance":1546},{"distance":1230,"line":2,"time":2,"i_long":106.857948,"station_id":"TEB","transit":false,"station_name":"Tebet","i_lat":-6.226659,"is_transit":false},{"line":2,"is_transit":true,"transit":true,"distance":2610,"time":4,"station_name":"Manggarai","station_id":"MRI","i_lat":-6.209883,"i_long":106.84912},{"line":1,"is_transit":false,"distance":3186,"station_name":"Sudirman","i_long":106.822649,"station_id":"SUD","time":4,"i_lat":-6.202263,"transit":false},{"time":1,"line":1,"is_transit":false,"i_lat":-6.201433,"station_name":"Sudirman Baru","transit":false,"distance":280,"station_id":"SUDB","i_long":106.819881},{"time":1,"station_name":"Karet","i_lat":-6.20132,"line":1,"transit":false,"distance":471,"station_id":"KAT","is_transit":false,"i_long":106.816351},{"station_id":"THB","station_name":"Tanah Abang","line":1,"is_transit":false,"distance":2029,"time":5,"transit":false,"i_long":106.811091,"i_lat":-6.185545},{"time":8,"station_name":"Duri","i_long":106.800832,"distance":3632,"is_transit":true,"i_lat":-6.155215,"station_id":"DU","transit":true,"line":1},{"distance":1700,"is_transit":false,"i_long":106.788277,"time":3,"station_name":"Grogol","station_id":"GGL","transit":false,"line":5,"i_lat":-6.162021},{"i_lat":-6.161433,"line":5,"distance":2036,"station_id":"PSG","station_name":"Pesing","is_transit":false,"transit":false,"i_long":106.771379,"time":2},{"transit":false,"line":5,"i_lat":-6.1587309999999995,"is_transit":false,"station_name":"Taman Kota","i_long":106.756522,"time":2,"station_id":"TKO","distance":1614},{"transit":false,"time":2,"station_name":"Bojongindah","station_id":"BOI","distance":2334,"i_long":106.737035,"line":5,"is_transit":false,"i_lat":-6.159876}],[{"station_name":"Duren Kalibata","i_lat":-6.255332,"i_long":106.85449,"time":0,"distance":0,"is_transit":false,"transit":false,"station_id":"DRN","line":2},{"transit":false,"i_lat":-6.242512,"distance":1546,"line":2,"is_transit":false,"station_name":"Cawang","time":3,"station_id":"CW","i_long":106.856607},{"is_transit":false,"i_long":106.857948,"distance":1230,"station_name":"Tebet","time":2,"line":2,"station_id":"TEB","transit":false,"i_lat":-6.226659},{"i_long":106.84912,"is_transit":false,"station_id":"MRI","station_name":"Manggarai","time":4,"distance":2610,"i_lat":-6.209883,"line":2,"transit":false},{"i_long":106.840169,"station_name":"Cikini","distance":1590,"station_id":"CKI","transit":false,"time":4,"is_transit":false,"i_lat":-6.198556,"line":2},{"transit":false,"station_name":"Gondangdia","i_lat":-6.186295,"time":3,"line":2,"is_transit":false,"station_id":"GDD","distance":1750,"i_long":106.832183},{"i_long":106.828284,"time":4,"i_lat":-6.166716,"is_transit":false,"station_name":"Juanda","station_id":"JUA","transit":false,"line":2,"distance":2015},{"transit":false,"station_id":"SW","i_long":106.827103,"station_name":"Sawah Besar","is_transit":false,"distance":1149,"i_lat":-6.160725,"time":2,"line":2},{"station_name":"Manggabesar","station_id":"MGB","transit":false,"line":2,"i_lat":-6.149769,"time":2,"is_transit":false,"i_long":106.82482,"distance":906},{"transit":false,"time":2,"line":2,"station_name":"Jayakarta","distance":1080,"i_lat":-6.141205,"is_transit":false,"i_long":106.820901,"station_id":"JAY"},{"line":2,"station_name":"Jakarta Kota","distance":1264,"station_id":"JAKK","i_lat":-6.137569,"transit":true,"time":4,"i_long":106.812439,"is_transit":true},{"time":3,"station_name":"Kampung Bandan","i_long":106.826365,"i_lat":-6.132549,"is_transit":true,"line":4,"distance":1364,"transit":true,"station_id":"KPB"},{"distance":4102,"i_lat":-6.144674,"line":1,"station_id":"AK","transit":false,"time":9,"is_transit":false,"station_name":"Angke","i_long":106.79867},{"station_id":"DU","i_lat":-6.155215,"distance":1230,"is_transit":true,"transit":true,"time":4,"station_name":"Duri","line":1,"i_long":106.800832},{"is_transit":false,"line":5,"transit":false,"time":3,"station_name":"Grogol","i_long":106.788277,"i_lat":-6.162021,"distance":1700,"station_id":"GGL"},{"transit":false,"is_transit":false,"line":5,"time":2,"station_name":"Pesing","distance":2036,"station_id":"PSG","i_long":106.771379,"i_lat":-6.161433},{"transit":false,"station_name":"Taman Kota","is_transit":false,"i_lat":-6.1587309999999995,"time":2,"i_long":106.756522,"line":5,"station_id":"TKO","distance":1614},{"is_transit":false,"line":5,"i_long":106.737035,"i_lat":-6.159876,"time":2,"station_id":"BOI","station_name":"Bojongindah","distance":2334,"transit":false}],[{"station_name":"Duren Kalibata","line":2,"i_long":106.85449,"i_lat":-6.255332,"station_id":"DRN","distance":0,"is_transit":false,"transit":false,"time":0},{"distance":1546,"transit":false,"i_long":106.856607,"line":2,"station_id":"CW","i_lat":-6.242512,"time":3,"station_name":"Cawang","is_transit":false},{"station_name":"Tebet","time":2,"transit":false,"distance":1230,"is_transit":false,"line":2,"i_lat":-6.226659,"station_id":"TEB","i_long":106.857948},{"station_name":"Manggarai","transit":true,"i_long":106.84912,"station_id":"MRI","i_lat":-6.209883,"is_transit":true,"distance":2610,"time":4,"line":2},{"station_id":"MTR","transit":false,"i_lat":-6.212485,"line":1,"distance":1275,"i_long":106.858896,"time":2,"station_name":"Matraman","is_transit":false},{"transit":true,"line":1,"station_id":"JNG","time":8,"is_transit":true,"station_name":"Jatinegara","i_long":106.86807400000001,"i_lat":-6.215091,"distance":1377},{"transit":false,"line":11,"i_long":106.861737,"station_name":"Pondok Jati","time":2,"i_lat":-6.209188,"distance":1236,"is_transit":false,"station_id":"POK"},{"i_lat":-6.193792,"transit":false,"time":2,"i_long":106.855437,"line":11,"distance":1829,"station_id":"KMT","station_name":"Kramat","is_transit":false},{"station_name":"Gang Sentiong","i_lat":-6.185975,"transit":false,"is_transit":false,"station_id":"GST","i_long":106.850107,"time":1,"line":11,"distance":973},{"distance":1567,"station_id":"PSE","is_transit":false,"i_lat":-6.174784,"i_long":106.84368,"line":11,"time":8,"station_name":"Pasar Senen","transit":false},{"is_transit":false,"transit":false,"distance":1436,"time":4,"line":11,"station_name":"Kemayoran","station_id":"KMO","i_lat":-6.161728,"i_long":106.839204},{"distance":1901,"is_transit":false,"time":5,"station_name":"Rajawali","i_lat":-6.14505,"station_id":"RJW","i_long":106.836569,"transit":false,"line":11},{"i_long":106.826365,"distance":1444,"time":3,"line":4,"station_id":"KPB","i_lat":-6.132549,"is_transit":true,"transit":true,"station_name":"Kampung Bandan"},{"transit":false,"station_name":"Angke","i_lat":-6.144674,"i_long":106.79867,"distance":4102,"station_id":"AK","is_transit":false,"line":1,"time":9},{"is_transit":true,"station_name":"Duri","i_lat":-6.155215,"i_long":106.800832,"transit":true,"line":1,"distance":1230,"time":4,"station_id":"DU"},{"distance":1700,"i_long":106.788277,"time":3,"station_name":"Grogol","transit":false,"station_id":"GGL","is_transit":false,"i_lat":-6.162021,"line":5},{"station_name":"Pesing","distance":2036,"time":2,"line":5,"i_long":106.771379,"transit":false,"i_lat":-6.161433,"is_transit":false,"station_id":"PSG"},{"time":2,"station_name":"Taman Kota","distance":1614,"is_transit":false,"transit":false,"line":5,"station_id":"TKO","i_lat":-6.1587309999999995,"i_long":106.756522},{"distance":2334,"station_id":"BOI","transit":false,"i_lat":-6.159876,"i_long":106.737035,"time":2,"station_name":"Bojongindah","is_transit":false,"line":5}]]}