{"data":[[{"i_lat":-6.255332,"distance":0,"transit":false,"station_id":"DRN","time":0,"i_long":106.85449,"line":2,"station_name":"Duren Kalibata","is_transit":false},{"i_lat":-6.242512,"station_id":"CW","i_long":106.856607,"transit":false,"time":3,"station_name":"Cawang","is_transit":false,"distance":1546,"line":2},{"i_long":106.857948,"transit":false,"station_name":"Tebet","time":2,"i_lat":-6.226659,"is_transit":false,"station_id":"TEB","distance":1230,"line":2},{"station_name":"Manggarai","station_id":"MRI","time":4,"i_lat":-6.209883,"i_long":106.84912,"transit":true,"distance":2610,"line":2,"is_transit":true},{"is_transit":false,"i_long":106.822649,"transit":false,"line":1,"i_lat":-6.202263,"station_name":"Sudirman","station_id":"SUD","time":4,"distance":3186}],[{"station_id":"DRN","is_transit":false,"time":0,"transit":false,"station_name":"Duren Kalibata","i_lat":-6.255332,"distance":0,"i_long":106.85449,"line":2},{"distance":1546,"station_id":"CW","is_transit":false,"time":3,"transit":false,"i_lat":-6.242512,"station_name":"Cawang","i_long":106.856607,"line":2},{"line":2,"i_lat":-6.226659,"i_long":106.857948,"station_name":"Tebet","is_transit":false,"transit":false,"station_id":"TEB","time":2,"distance":1230},{"i_long":106.84912,"distance":2610,"time":4,"i_lat":-6.209883,"line":2,"station_id":"MRI","transit":false,"station_name":"Manggarai","is_transit":false},{"station_name":"Cikini","i_long":106.840169,"time":4,"distance":1590,"line":2,"is_transit":false,"transit":false,"station_id":"CKI","i_lat":-6.198556},{"i_lat":-6.186295,"station_id":"GDD","distance":1750,"station_name":"Gondangdia","i_long":106.832183,"line":2,"time":3,"transit":false,"is_transit":false},{"station_name":"Juanda","distance":2015,"i_lat":-6.166716,"transit":false,"station_id":"JUA","line":2,"time":4,"is_transit":false,"i_long":106.828284},{"time":2,"station_id":"SW","is_transit":false,"line":2,"i_long":106.827103,"station_name":"Sawah Besar","transit":false,"i_lat":-6.160725,"distance":1149},{"i_long":106.82482,"is_transit":false,"station_name":"Manggabesar","time":2,"i_lat":-6.149769,"transit":false,"station_id":"MGB","line":2,"distance":906},{"distance":1080,"i_lat":-6.141205,"transit":false,"line":2,"station_name":"Jayakarta","station_id":"JAY","is_transit":false,"time":2,"i_long":106.820901},{"i_lat":-6.137569,"station_name":"Jakarta Kota","station_id":"JAKK","distance":1264,"transit":true,"line":2,"is_transit":true,"i_long":106.812439,"time":4},{"i_lat":-6.132549,"time":3,"i_long":106.826365,"line":4,"station_id":"KPB","is_transit":true,"station_name":"Kampung Bandan","transit":true,"distance":1364},{"station_id":"AK","is_transit":false,"distance":4102,"station_name":"Angke","i_lat":-6.144674,"i_long":106.79867,"line":1,"time":9,"transit":false},{"transit":false,"i_lat":-6.155215,"station_id":"DU","time":4,"i_long":106.800832,"line":1,"distance":1230,"is_transit":false,"station_name":"Duri"},{"time":8,"line":1,"i_long":106.811091,"station_id":"THB","transit":false,"is_transit":false,"station_name":"Tanah Abang","distance":3632,"i_lat":-6.185545},{"distance":2029,"time":5,"i_lat":-6.20132,"transit":false,"is_transit":false,"i_long":106.816351,"station_name":"Karet","line":1,"station_id":"KAT"},{"transit":false,"station_name":"Sudirman Baru","station_id":"SUDB","distance":471,"is_transit":false,"i_lat":-6.201433,"i_long":106.819881,"time":1,"line":1},{"i_lat":-6.202263,"station_id":"SUD","transit":false,"distance":280,"is_transit":false,"line":1,"time":1,"i_long":106.822649,"station_name":"Sudirman"}],[{"is_transit":false,"i_long":106.85449,"transit":false,"station_id":"DRN","time":0,"distance":0,"i_lat":-6.255332,"station_name":"Duren Kalibata","line":2},{"station_name":"Cawang","is_transit":false,"distance":1546,"i_long":106.856607,"transit":false,"time":3,"i_lat":-6.242512,"line":2,"station_id":"CW"},{"time":2,"station_name":"Tebet","transit":false,"station_id":"TEB","i_lat":-6.226659,"line":2,"distance":1230,"i_long":106.857948,"is_transit":false},{"is_transit":true,"transit":true,"station_id":"MRI","time":4,"line":2,"i_long":106.84912,"station_name":"Manggarai","distance":2610,"i_lat":-6.209883},{"time":2,"i_lat":-6.212485,"is_transit":false,"transit":false,"station_name":"Matraman","station_id":"MTR","distance":1275,"i_long":106.858896,"line":1},{"station_id":"JNG","transit":true,"line":1,"is_transit":true,"i_long":106.86807400000001,"i_lat":-6.215091,"station_name":"Jatinegara","distance":1377,"time":8},{"line":11,"time":2,"is_transit":false,"i_long":106.861737,"i_lat":-6.209188,"station_id":"POK","station_name":"Pondok Jati","transit":false,"distance":1236},{"i_lat":-6.193792,"i_long":106.855437,"distance":1829,"station_name":"Kramat","line":11,"transit":false,"is_transit":false,"station_id":"KMT","time":2},{"transit":false,"station_name":"Gang Sentiong","line":11,"distance":973,"station_id":"GST","is_transit":false,"time":1,"i_long":106.850107,"i_lat":-6.185975},{"transit":false,"station_id":"PSE","i_lat":-6.174784,"distance":1567,"i_long":106.84368,"is_transit":false,"time":8,"line":11,"station_name":"Pasar Senen"},{"line":11,"is_transit":false,"station_id":"KMO","time":4,"i_lat":-6.161728,"i_long":106.839204,"station_name":"Kemayoran","distance":1436,"transit":false},{"transit":false,"distance":1901,"i_lat":-6.14505,"station_name":"Rajawali","line":11,"i_long":106.836569,"time":5,"is_transit":false,"station_id":"RJW"},{"station_name":"Kampung Bandan","transit":true,"is_transit":true,"i_lat":-6.132549,"i_long":106.826365,"time":3,"distance":1444,"line":4,"station_id":"KPB"},{"i_long":106.79867,"line":1,"station_id":"AK","distance":4102,"transit":false,"is_transit":false,"time":9,"station_name":"Angke","i_lat":-6.144674},{"station_name":"Duri","station_id":"DU","i_long":106.800832,"line":1,"transit":false,"distance":1230,"is_transit":false,"i_lat":-6.155215,"time":4},{"distance":3632,"is_transit":false,"i_lat":-6.185545,"transit":false,"time":8,"station_name":"Tanah Abang","station_id":"THB","i_long":106.811091,"line":1},{"line":1,"time":5,"i_long":106.816351,"i_lat":-6.20132,"station_name":"Karet","transit":false,"station_id":"KAT","is_transit":false,"distance":2029},{"line":1,"distance":471,"i_lat":-6.201433,"i_long":106.819881,"transit":false,"station_id":"SUDB","is_transit":false,"time":1,"station_name":"Sudirman Baru"},{"transit":false,"station_name":"Sudirman","is_transit":false,"line":1,"station_id":"SUD","distance":280,"i_lat":-6.202263,"i_long":106.822649,"time":1}]]}