{"data":[[{"station_id":"DRN","distance":0,"is_transit":false,"line":2,"station_name":"Duren Kalibata","transit":false,"i_long":106.85449,"i_lat":-6.255332,"time":0},{"distance":1546,"i_long":106.856607,"time":3,"station_id":"CW","is_transit":false,"i_lat":-6.242512,"transit":false,"line":2,"station_name":"Cawang"},{"i_long":106.857948,"i_lat":-6.226659,"time":2,"transit":false,"distance":1230,"station_id":"TEB","is_transit":false,"station_name":"Tebet","line":2},{"distance":2610,"station_name":"Manggarai","is_transit":true,"i_long":106.84912,"i_lat":-6.209883,"line":2,"transit":true,"station_id":"MRI","time":4},{"station_id":"SUD","station_name":"Sudirman","distance":3186,"i_long":106.822649,"line":1,"is_transit":false,"transit":false,"i_lat":-6.202263,"time":4},{"distance":280,"station_id":"SUDB","i_lat":-6.201433,"line":1,"is_transit":false,"station_name":"Sudirman Baru","i_long":106.819881,"time":1,"transit":false},{"distance":471,"i_long":106.816351,"station_name":"Karet","line":1,"time":1,"is_transit":false,"i_lat":-6.20132,"transit":false,"station_id":"KAT"},{"line":1,"distance":2029,"i_long":106.811091,"transit":true,"station_name":"Tanah Abang","time":5,"station_id":"THB","is_transit":true,"i_lat":-6.185545},{"line":6,"i_long":106.79689,"i_lat":-6.207404,"distance":3191,"station_name":"Palmerah","transit":false,"station_id":"PLM","time":6,"is_transit":false},{"station_id":"KBY","is_transit":false,"distance":3737,"i_lat":-6.237242,"transit":false,"station_name":"Kebayoran","i_long":106.780334,"line":6,"time":7},{"transit":false,"i_lat":-6.276362,"station_id":"PDJ","line":6,"distance":6218,"station_name":"Pondokranji","i_long":106.74273,"is_transit":false,"time":8},{"time":3,"station_name":"Jurangmangu","station_id":"JMU","i_long":106.728916,"transit":false,"is_transit":false,"distance":2179,"i_lat":-6.288927,"line":6},{"is_transit":false,"station_id":"SDM","time":4,"transit":false,"i_lat":-6.296963,"distance":1994,"station_name":"Sudimara","i_long":106.712277,"line":6},{"time":6,"transit":false,"line":6,"i_lat":-6.314823,"station_id":"RU","distance":4566,"is_transit":false,"station_name":"Rawa Buntu","i_long":106.675475},{"i_long":106.66566,"line":6,"time":4,"transit":false,"station_name":"Serpong","distance":2413,"station_id":"SRP","is_transit":false,"i_lat":-6.319871},{"station_id":"CSK","time":4,"line":3,"distance":1784,"i_lat":-6.32484,"i_long":106.640411,"transit":false,"is_transit":false,"station_name":"Cisauk"},{"i_long":106.617853,"i_lat":-6.329547,"time":4,"station_id":"CC","station_name":"Cicayur","line":3,"distance":2519,"is_transit":false,"transit":false},{"time":8,"is_transit":false,"i_lat":-6.3441410000000005,"transit":false,"station_id":"PRP","station_name":"Parung Panjang","line":6,"i_long":106.568863,"distance":5968},{"is_transit":false,"i_lat":-6.354349,"line":3,"station_name":"Cilejit","distance":7025,"i_long":106.508482,"station_id":"CJT","transit":false,"time":9},{"i_long":106.491338,"line":0,"transit":false,"distance":2675,"i_lat":-6.338021,"is_transit":false,"time":6,"station_name":"Daru","station_id":"DAR"},{"i_lat":-6.327251,"time":5,"station_name":"Tenjo","i_long":106.460812,"line":6,"is_transit":false,"station_id":"TEJ","distance":3902,"transit":false},{"i_lat":-6.328533,"is_transit":false,"i_long":106.425991,"line":6,"station_name":"Tigaraksa","transit":false,"station_id":"TGS","distance":2974,"time":5},{"transit":false,"is_transit":false,"station_id":"CKY","i_long":106.411216,"distance":2651,"time":3,"i_lat":-6.33561,"station_name":"Cikoya","line":3},{"station_id":"MJ","transit":false,"distance":1853,"station_name":"Maja","time":4,"i_lat":-6.332307,"i_long":106.394373,"line":6,"is_transit":false},{"is_transit":false,"line":3,"station_name":"Citeras","transit":false,"i_long":106.332092,"station_id":"CTR","time":10,"i_lat":-6.334892,"distance":7293}],[{"time":0,"line":2,"i_long":106.85449,"i_lat":-6.255332,"is_transit":false,"station_name":"Duren Kalibata","distance":0,"transit":false,"station_id":"DRN"},{"is_transit":false,"distance":1546,"station_name":"Cawang","transit":false,"station_id":"CW","line":2,"i_lat":-6.242512,"i_long":106.856607,"time":3},{"distance":1230,"time":2,"line":2,"i_long":106.857948,"transit":false,"station_name":"Tebet","is_transit":false,"station_id":"TEB","i_lat":-6.226659},{"i_lat":-6.209883,"time":4,"is_transit":false,"station_id":"MRI","i_long":106.84912,"distance":2610,"line":2,"transit":false,"station_name":"Manggarai"},{"distance":1590,"transit":false,"time":4,"i_long":106.840169,"line":2,"station_name":"Cikini","is_transit":false,"station_id":"CKI","i_lat":-6.198556},{"transit":false,"station_id":"GDD","line":2,"is_transit":false,"i_lat":-6.186295,"i_long":106.832183,"distance":1750,"station_name":"Gondangdia","time":3},{"i_lat":-6.166716,"transit":false,"distance":2015,"is_transit":false,"line":2,"i_long":106.828284,"time":4,"station_name":"Juanda","station_id":"JUA"},{"time":2,"is_transit":false,"i_long":106.827103,"line":2,"station_name":"Sawah Besar","i_lat":-6.160725,"station_id":"SW","distance":1149,"transit":false},{"distance":906,"transit":false,"i_lat":-6.149769,"i_long":106.82482,"is_transit":false,"station_id":"MGB","station_name":"Manggabesar","time":2,"line":2},{"station_name":"Jayakarta","station_id":"JAY","line":2,"distance":1080,"time":2,"is_transit":false,"transit":false,"i_lat":-6.141205,"i_long":106.820901},{"station_id":"JAKK","time":4,"is_transit":true,"transit":true,"station_name":"Jakarta Kota","distance":1264,"i_lat":-6.137569,"i_long":106.812439,"line":2},{"i_lat":-6.132549,"time":3,"station_id":"KPB","distance":1364,"transit":true,"station_name":"Kampung Bandan","i_long":106.826365,"is_transit":true,"line":4},{"distance":4102,"time":9,"station_id":"AK","i_lat":-6.144674,"transit":false,"is_transit":false,"i_long":106.79867,"line":1,"station_name":"Angke"},{"i_lat":-6.155215,"station_id":"DU","is_transit":false,"i_long":106.800832,"time":4,"distance":1230,"line":1,"station_name":"Duri","transit":false},{"distance":3632,"time":8,"station_name":"Tanah Abang","station_id":"THB","i_lat":-6.185545,"i_long":106.811091,"transit":true,"is_transit":true,"line":1},{"i_lat":-6.207404,"line":6,"transit":false,"time":6,"station_name":"Palmerah","station_id":"PLM","is_transit":false,"distance":3191,"i_long":106.79689},{"is_transit":false,"i_lat":-6.237242,"i_long":106.780334,"station_name":"Kebayoran","distance":3737,"time":7,"line":6,"transit":false,"station_id":"KBY"},{"distance":6218,"time":8,"i_long":106.74273,"i_lat":-6.276362,"line":6,"station_name":"Pondokranji","is_transit":false,"transit":false,"station_id":"PDJ"},{"is_transit":false,"distance":2179,"station_name":"Jurangmangu","transit":false,"time":3,"station_id":"JMU","i_long":106.728916,"line":6,"i_lat":-6.288927},{"time":4,"station_name":"Sudimara","i_long":106.712277,"line":6,"station_id":"SDM","is_transit":false,"transit":false,"i_lat":-6.296963,"distance":1994},{"time":6,"station_name":"Rawa Buntu","distance":4566,"transit":false,"station_id":"RU","is_transit":false,"i_long":106.675475,"line":6,"i_lat":-6.314823},{"station_id":"SRP","i_long":106.66566,"is_transit":false,"distance":2413,"i_lat":-6.319871,"line":6,"transit":false,"time":4,"station_name":"Serpong"},{"transit":false,"i_lat":-6.32484,"i_long":106.640411,"station_id":"CSK","distance":1784,"is_transit":false,"time":4,"line":3,"station_name":"Cisauk"},{"line":3,"i_lat":-6.329547,"station_id":"CC","time":4,"transit":false,"station_name":"Cicayur","is_transit":false,"i_long":106.617853,"distance":2519},{"transit":false,"i_lat":-6.3441410000000005,"station_id":"PRP","line":6,"time":8,"station_name":"Parung Panjang","i_long":106.568863,"is_transit":false,"distance":5968},{"i_lat":-6.354349,"time":9,"is_transit":false,"i_long":106.508482,"station_name":"Cilejit","transit":false,"station_id":"CJT","distance":7025,"line":3},{"is_transit":false,"i_long":106.491338,"distance":2675,"time":6,"transit":false,"station_name":"Daru","station_id":"DAR","line":0,"i_lat":-6.338021},{"station_name":"Tenjo","line":6,"distance":3902,"station_id":"TEJ","i_long":106.460812,"i_lat":-6.327251,"transit":false,"time":5,"is_transit":false},{"time":5,"station_id":"TGS","i_lat":-6.328533,"line":6,"i_long":106.425991,"distance":2974,"transit":false,"is_transit":false,"station_name":"Tigaraksa"},{"time":3,"station_name":"Cikoya","is_transit":false,"station_id":"CKY","transit":false,"i_lat":-6.33561,"distance":2651,"i_long":106.411216,"line":3},{"time":4,"distance":1853,"is_transit":false,"station_id":"MJ","i_long":106.394373,"i_lat":-6.332307,"station_name":"Maja","line":6,"transit":false},{"distance":7293,"line":3,"is_transit":false,"station_id":"CTR","i_long":106.332092,"station_name":"Citeras","time":10,"i_lat":-6.334892,"transit":false}],[{"i_long":106.85449,"transit":false,"station_name":"Duren Kalibata","station_id":"DRN","is_transit":false,"distance":0,"i_lat":-6.255332,"time":0,"line":2},{"is_transit":false,"transit":false,"line":2,"distance":1546,"station_name":"Cawang","time":3,"station_id":"CW","i_lat":-6.242512,"i_long":106.856607},{"time":2,"distance":1230,"i_lat":-6.226659,"station_id":"TEB","is_transit":false,"station_name":"Tebet","i_long":106.857948,"transit":false,"line":2},{"transit":true,"line":2,"i_lat":-6.209883,"station_name":"Manggarai","distance":2610,"i_long":106.84912,"station_id":"MRI","is_transit":true,"time":4},{"time":2,"line":1,"i_long":106.858896,"station_id":"MTR","transit":false,"i_lat":-6.212485,"station_name":"Matraman","distance":1275,"is_transit":false},{"station_id":"JNG","transit":true,"is_transit":true,"i_lat":-6.215091,"line":1,"distance":1377,"station_name":"Jatinegara","time":8,"i_long":106.86807400000001},{"distance":1236,"i_long":106.861737,"station_id":"POK","time":2,"is_transit":false,"line":11,"station_name":"Pondok Jati","transit":false,"i_lat":-6.209188},{"transit":false,"i_long":106.855437,"station_name":"Kramat","time":2,"i_lat":-6.193792,"is_transit":false,"line":11,"station_id":"KMT","distance":1829},{"station_id":"GST","i_long":106.850107,"transit":false,"distance":973,"line":11,"is_transit":false,"station_name":"Gang Sentiong","time":1,"i_lat":-6.185975},{"is_transit":false,"i_long":106.84368,"station_id":"PSE","line":11,"i_lat":-6.174784,"transit":false,"station_name":"Pasar Senen","distance":1567,"time":8},{"transit":false,"i_long":106.839204,"station_name":"Kemayoran","i_lat":-6.161728,"time":4,"station_id":"KMO","distance":1436,"is_transit":false,"line":11},{"time":5,"is_transit":false,"transit":false,"line":11,"i_long":106.836569,"station_name":"Rajawali","i_lat":-6.14505,"station_id":"RJW","distance":1901},{"station_id":"KPB","i_long":106.826365,"distance":1444,"station_name":"Kampung Bandan","is_transit":true,"transit":true,"time":3,"i_lat":-6.132549,"line":4},{"line":1,"transit":false,"time":9,"distance":4102,"station_name":"Angke","i_long":106.79867,"is_transit":false,"station_id":"AK","i_lat":-6.144674},{"is_transit":false,"i_lat":-6.155215,"time":4,"transit":false,"distance":1230,"station_id":"DU","i_long":106.800832,"station_name":"Duri","line":1},{"i_lat":-6.185545,"is_transit":true,"station_id":"THB","line":1,"station_name":"Tanah Abang","i_long":106.811091,"time":8,"transit":true,"distance":3632},{"i_lat":-6.207404,"distance":3191,"line":6,"station_name":"Palmerah","station_id":"PLM","i_long":106.79689,"is_transit":false,"transit":false,"time":6},{"station_id":"KBY","i_lat":-6.237242,"transit":false,"station_name":"Kebayoran","is_transit":false,"i_long":106.780334,"line":6,"distance":3737,"time":7},{"line":6,"time":8,"station_name":"Pondokranji","transit":false,"is_transit":false,"station_id":"PDJ","i_lat":-6.276362,"distance":6218,"i_long":106.74273},{"station_id":"JMU","station_name":"Jurangmangu","is_transit":false,"distance":2179,"time":3,"i_lat":-6.288927,"transit":false,"i_long":106.728916,"line":6},{"distance":1994,"station_name":"Sudimara","line":6,"i_lat":-6.296963,"transit":false,"is_transit":false,"i_long":106.712277,"station_id":"SDM","time":4},{"station_id":"RU","station_name":"Rawa Buntu","i_lat":-6.314823,"i_long":106.675475,"is_transit":false,"line":6,"transit":false,"time":6,"distance":4566},{"line":6,"distance":2413,"station_name":"Serpong","i_lat":-6.319871,"station_id":"SRP","transit":false,"time":4,"is_transit":false,"i_long":106.66566},{"transit":false,"station_id":"CSK","distance":1784,"line":3,"is_transit":false,"time":4,"i_lat":-6.32484,"i_long":106.640411,"station_name":"Cisauk"},{"line":3,"station_id":"CC","i_lat":-6.329547,"time":4,"station_name":"Cicayur","transit":false,"is_transit":false,"i_long":106.617853,"distance":2519},{"station_id":"PRP","transit":false,"i_lat":-6.3441410000000005,"i_long":106.568863,"station_name":"Parung Panjang","is_transit":false,"line":6,"distance":5968,"time":8},{"i_lat":-6.354349,"transit":false,"time":9,"i_long":106.508482,"station_id":"CJT","is_transit":false,"distance":7025,"station_name":"Cilejit","line":3},{"station_name":"Daru","is_transit":false,"transit":false,"line":0,"i_lat":-6.338021,"time":6,"station_id":"DAR","distance":2675,"i_long":106.491338},{"time":5,"station_id":"TEJ","is_transit":false,"i_long":106.460812,"i_lat":-6.327251,"distance":3902,"transit":false,"line":6,"station_name":"Tenjo"},{"transit":false,"i_long":106.425991,"line":6,"station_name":"Tigaraksa","station_id":"TGS","is_transit":false,"time":5,"i_lat":-6.328533,"distance":2974},{"time":3,"station_id":"CKY","distance":2651,"is_transit":false,"i_lat":-6.33561,"station_name":"Cikoya","transit":false,"line":3,"i_long":106.411216},{"i_lat":-6.332307,"line":6,"time":4,"is_transit":false,"distance":1853,"i_long":106.394373,"station_name":"Maja","station_id":"MJ","transit":false},{"transit":false,"is_transit":false,"i_long":106.332092,"line":3,"distance":7293,"time":10,"i_lat":-6.334892,"station_name":"Citeras","station_id":"CTR"}]]}