{"data":[[{"time":0,"distance":0,"line":0,"i_lat":-6.255332,"station_id":"DRN","transit":false,"i_long":106.85449,"is_transit":false,"station_name":"Duren Kalibata"},{"time":3,"distance":1546,"i_lat":-6.242512,"i_long":106.856607,"transit":false,"line":0,"is_transit":false,"station_id":"CW","station_name":"Cawang"},{"time":2,"i_long":106.857948,"station_id":"TEB","line":2,"is_transit":false,"transit":false,"station_name":"Tebet","i_lat":-6.226659,"distance":1230},{"is_transit":true,"distance":2610,"i_long":106.84912,"i_lat":-6.209883,"time":4,"station_id":"MRI","station_name":"Manggarai","transit":true,"line":0},{"time":4,"station_name":"Sudirman","i_long":106.822649,"distance":3186,"line":1,"i_lat":-6.202263,"station_id":"SUD","is_transit":false,"transit":false},{"is_transit":false,"i_long":106.819881,"station_name":"Sudirman Baru","distance":280,"time":1,"line":1,"transit":false,"station_id":"SUDB","i_lat":-6.201433},{"station_id":"KAT","transit":false,"i_lat":-6.20132,"i_long":106.816351,"is_transit":false,"station_name":"Karet","distance":471,"time":1,"line":1},{"station_name":"Tanah Abang","line":1,"station_id":"THB","i_lat":-6.185545,"time":5,"i_long":106.811091,"transit":false,"is_transit":true,"distance":2029},{"is_transit":true,"transit":true,"time":8,"line":1,"station_id":"DU","station_name":"Duri","i_long":106.800832,"i_lat":-6.155215,"distance":3632},{"distance":1700,"i_lat":-6.162021,"station_name":"Grogol","transit":false,"line":5,"station_id":"GGL","i_long":106.788277,"time":3,"is_transit":false}],[{"station_name":"Duren Kalibata","i_long":106.85449,"time":0,"line":0,"is_transit":false,"station_id":"DRN","distance":0,"transit":false,"i_lat":-6.255332},{"distance":1546,"i_long":106.856607,"line":0,"station_name":"Cawang","i_lat":-6.242512,"transit":false,"time":3,"station_id":"CW","is_transit":false},{"is_transit":false,"transit":false,"i_long":106.857948,"time":2,"distance":1230,"station_id":"TEB","station_name":"Tebet","i_lat":-6.226659,"line":2},{"distance":2610,"transit":true,"station_id":"MRI","is_transit":true,"station_name":"Manggarai","line":0,"i_lat":-6.209883,"time":4,"i_long":106.84912},{"i_lat":-6.198556,"is_transit":false,"transit":false,"station_id":"CKI","time":4,"distance":1590,"station_name":"Cikini","i_long":106.840169,"line":0},{"i_lat":-6.186295,"time":3,"distance":1750,"transit":false,"is_transit":false,"station_name":"Gondangdia","i_long":106.832183,"station_id":"GDD","line":2},{"i_long":106.828284,"distance":2015,"transit":false,"station_id":"JUA","station_name":"Juanda","is_transit":false,"line":2,"time":4,"i_lat":-6.166716},{"transit":false,"i_lat":-6.160725,"i_long":106.827103,"station_id":"SW","station_name":"Sawah Besar","is_transit":false,"line":2,"distance":1149,"time":2},{"is_transit":false,"time":2,"station_name":"Manggabesar","distance":906,"station_id":"MGB","i_lat":-6.149769,"transit":false,"line":2,"i_long":106.82482},{"is_transit":false,"station_name":"Jayakarta","i_lat":-6.141205,"line":7,"transit":false,"station_id":"JAY","time":2,"distance":1080,"i_long":106.820901},{"transit":true,"i_lat":-6.137569,"station_name":"Jakarta Kota","distance":1264,"station_id":"JAKK","time":4,"is_transit":true,"line":0,"i_long":106.812439},{"line":0,"i_long":106.826365,"station_name":"Kampung Bandan","time":3,"station_id":"KPB","transit":false,"is_transit":true,"distance":1364,"i_lat":-6.132549},{"i_long":106.79867,"station_id":"AK","transit":false,"is_transit":false,"time":9,"i_lat":-6.144674,"line":0,"distance":4102,"station_name":"Angke"},{"is_transit":true,"time":4,"station_name":"Duri","transit":true,"i_lat":-6.155215,"i_long":106.800832,"station_id":"DU","distance":1230,"line":1},{"time":3,"station_name":"Grogol","station_id":"GGL","transit":false,"is_transit":false,"distance":1700,"i_lat":-6.162021,"i_long":106.788277,"line":5}],[{"transit":false,"distance":0,"i_lat":-6.255332,"time":0,"i_long":106.85449,"line":0,"station_id":"DRN","is_transit":false,"station_name":"Duren Kalibata"},{"line":0,"i_long":106.856607,"station_name":"Cawang","is_transit":false,"distance":1546,"transit":false,"i_lat":-6.242512,"station_id":"CW","time":3},{"line":2,"i_long":106.857948,"distance":1230,"transit":false,"station_name":"Tebet","i_lat":-6.226659,"time":2,"is_transit":false,"station_id":"TEB"},{"station_id":"MRI","transit":true,"distance":2610,"time":4,"line":0,"is_transit":true,"station_name":"Manggarai","i_lat":-6.209883,"i_long":106.84912},{"i_lat":-6.212485,"station_name":"Matraman","i_long":106.858896,"line":1,"transit":false,"station_id":"MTR","is_transit":false,"time":2,"distance":1275},{"i_long":106.86807400000001,"line":0,"i_lat":-6.215091,"station_id":"JNG","time":8,"distance":1377,"transit":true,"is_transit":true,"station_name":"Jatinegara"},{"time":2,"is_transit":false,"station_id":"POK","station_name":"Pondok Jati","transit":false,"i_lat":-6.209188,"i_long":106.861737,"distance":1236,"line":11},{"transit":false,"time":2,"distance":1829,"i_lat":-6.193792,"line":11,"station_id":"KMT","is_transit":false,"i_long":106.855437,"station_name":"Kramat"},{"station_name":"Gang Sentiong","is_transit":false,"distance":973,"i_lat":-6.185975,"station_id":"GST","time":1,"transit":false,"i_long":106.850107,"line":11},{"line":11,"transit":false,"station_name":"Pasar Senen","i_long":106.84368,"station_id":"PSE","is_transit":false,"time":8,"distance":1567,"i_lat":-6.174784},{"line":11,"i_long":106.839204,"station_id":"KMO","is_transit":false,"time":4,"transit":false,"distance":1436,"station_name":"Kemayoran","i_lat":-6.161728},{"time":5,"station_name":"Rajawali","station_id":"RJW","is_transit":false,"distance":1901,"i_lat":-6.14505,"i_long":106.836569,"transit":false,"line":11},{"i_lat":-6.132549,"is_transit":true,"line":0,"time":3,"station_name":"Kampung Bandan","transit":true,"distance":1444,"i_long":106.826365,"station_id":"KPB"},{"distance":4102,"transit":false,"i_long":106.79867,"time":9,"station_name":"Angke","is_transit":false,"station_id":"AK","i_lat":-6.144674,"line":0},{"distance":1230,"transit":true,"i_long":106.800832,"line":1,"station_id":"DU","time":4,"i_lat":-6.155215,"station_name":"Duri","is_transit":true},{"distance":1700,"transit":false,"is_transit":false,"i_lat":-6.162021,"line":5,"time":3,"station_name":"Grogol","station_id":"GGL","i_long":106.788277}]]}