{"data":[[{"i_lat":-6.255332,"time":0,"is_transit":false,"i_long":106.85449,"station_id":"DRN","line":2,"transit":false,"station_name":"Duren Kalibata","distance":0},{"station_name":"Cawang","distance":1546,"i_lat":-6.242512,"station_id":"CW","is_transit":false,"time":3,"transit":false,"i_long":106.856607,"line":2},{"i_lat":-6.226659,"distance":1230,"transit":false,"station_id":"TEB","line":2,"is_transit":false,"i_long":106.857948,"time":2,"station_name":"Tebet"},{"i_lat":-6.209883,"time":4,"i_long":106.84912,"distance":2610,"transit":true,"station_id":"MRI","station_name":"Manggarai","is_transit":true,"line":2},{"line":1,"distance":3186,"i_long":106.822649,"station_name":"Sudirman","time":4,"i_lat":-6.202263,"station_id":"SUD","is_transit":false,"transit":false},{"transit":false,"time":1,"station_id":"SUDB","is_transit":false,"i_long":106.819881,"i_lat":-6.201433,"line":1,"distance":280,"station_name":"Sudirman Baru"},{"is_transit":false,"transit":false,"i_lat":-6.20132,"line":1,"station_id":"KAT","time":1,"i_long":106.816351,"distance":471,"station_name":"Karet"},{"transit":true,"i_lat":-6.185545,"station_name":"Tanah Abang","line":1,"i_long":106.811091,"time":5,"station_id":"THB","distance":2029,"is_transit":true},{"station_id":"PLM","time":6,"transit":false,"i_lat":-6.207404,"distance":3191,"i_long":106.79689,"line":6,"is_transit":false,"station_name":"Palmerah"},{"distance":3737,"station_id":"KBY","is_transit":false,"time":7,"transit":false,"i_long":106.780334,"line":6,"station_name":"Kebayoran","i_lat":-6.237242},{"line":6,"i_lat":-6.276362,"transit":false,"time":8,"station_id":"PDJ","i_long":106.74273,"station_name":"Pondokranji","distance":6218,"is_transit":false},{"line":6,"time":3,"i_lat":-6.288927,"transit":false,"station_id":"JMU","i_long":106.728916,"distance":2179,"station_name":"Jurangmangu","is_transit":false},{"i_long":106.712277,"distance":1994,"station_id":"SDM","is_transit":false,"time":4,"station_name":"Sudimara","transit":false,"line":6,"i_lat":-6.296963},{"transit":false,"i_long":106.675475,"is_transit":false,"station_name":"Rawa Buntu","i_lat":-6.314823,"line":6,"distance":4566,"station_id":"RU","time":6},{"distance":2413,"time":4,"transit":false,"i_lat":-6.319871,"line":6,"station_name":"Serpong","is_transit":false,"i_long":106.66566,"station_id":"SRP"},{"station_id":"CSK","station_name":"Cisauk","time":4,"is_transit":false,"i_lat":-6.32484,"distance":1784,"line":3,"transit":false,"i_long":106.640411},{"transit":false,"time":4,"i_lat":-6.329547,"line":3,"i_long":106.617853,"distance":2519,"is_transit":false,"station_name":"Cicayur","station_id":"CC"},{"line":6,"is_transit":false,"transit":false,"distance":5968,"i_lat":-6.3441410000000005,"time":8,"station_name":"Parung Panjang","station_id":"PRP","i_long":106.568863},{"station_name":"Cilejit","is_transit":false,"time":9,"transit":false,"station_id":"CJT","line":3,"distance":7025,"i_lat":-6.354349,"i_long":106.508482},{"distance":2675,"station_name":"Daru","i_lat":-6.338021,"time":6,"line":0,"i_long":106.491338,"is_transit":false,"transit":false,"station_id":"DAR"},{"i_lat":-6.327251,"distance":3902,"station_id":"TEJ","station_name":"Tenjo","i_long":106.460812,"transit":false,"is_transit":false,"time":5,"line":6},{"is_transit":false,"transit":false,"line":6,"station_id":"TGS","i_lat":-6.328533,"i_long":106.425991,"distance":2974,"station_name":"Tigaraksa","time":5}],[{"line":2,"transit":false,"distance":0,"i_lat":-6.255332,"station_name":"Duren Kalibata","i_long":106.85449,"time":0,"is_transit":false,"station_id":"DRN"},{"line":2,"is_transit":false,"station_name":"Cawang","i_lat":-6.242512,"station_id":"CW","transit":false,"time":3,"distance":1546,"i_long":106.856607},{"distance":1230,"time":2,"station_name":"Tebet","station_id":"TEB","transit":false,"is_transit":false,"i_long":106.857948,"line":2,"i_lat":-6.226659},{"transit":false,"time":4,"i_lat":-6.209883,"i_long":106.84912,"station_id":"MRI","is_transit":false,"distance":2610,"line":2,"station_name":"Manggarai"},{"station_name":"Cikini","line":2,"transit":false,"time":4,"distance":1590,"i_lat":-6.198556,"station_id":"CKI","is_transit":false,"i_long":106.840169},{"line":2,"distance":1750,"time":3,"transit":false,"is_transit":false,"station_id":"GDD","station_name":"Gondangdia","i_lat":-6.186295,"i_long":106.832183},{"distance":2015,"i_lat":-6.166716,"station_id":"JUA","i_long":106.828284,"line":2,"station_name":"Juanda","transit":false,"is_transit":false,"time":4},{"station_name":"Sawah Besar","transit":false,"distance":1149,"i_lat":-6.160725,"is_transit":false,"station_id":"SW","line":2,"time":2,"i_long":106.827103},{"time":2,"is_transit":false,"station_name":"Manggabesar","i_lat":-6.149769,"i_long":106.82482,"line":2,"distance":906,"transit":false,"station_id":"MGB"},{"is_transit":false,"i_long":106.820901,"time":2,"transit":false,"station_name":"Jayakarta","distance":1080,"i_lat":-6.141205,"station_id":"JAY","line":2},{"i_long":106.812439,"time":4,"i_lat":-6.137569,"is_transit":true,"distance":1264,"line":2,"station_name":"Jakarta Kota","transit":true,"station_id":"JAKK"},{"station_id":"KPB","distance":1364,"station_name":"Kampung Bandan","i_lat":-6.132549,"transit":true,"time":3,"is_transit":true,"line":4,"i_long":106.826365},{"line":1,"is_transit":false,"transit":false,"station_name":"Angke","station_id":"AK","i_long":106.79867,"time":9,"distance":4102,"i_lat":-6.144674},{"i_lat":-6.155215,"line":1,"transit":false,"station_name":"Duri","distance":1230,"i_long":106.800832,"is_transit":false,"station_id":"DU","time":4},{"station_id":"THB","is_transit":true,"time":8,"station_name":"Tanah Abang","i_long":106.811091,"i_lat":-6.185545,"distance":3632,"line":1,"transit":true},{"i_long":106.79689,"line":6,"station_id":"PLM","transit":false,"time":6,"i_lat":-6.207404,"station_name":"Palmerah","is_transit":false,"distance":3191},{"transit":false,"station_name":"Kebayoran","i_long":106.780334,"line":6,"is_transit":false,"station_id":"KBY","time":7,"i_lat":-6.237242,"distance":3737},{"station_id":"PDJ","station_name":"Pondokranji","line":6,"time":8,"transit":false,"is_transit":false,"distance":6218,"i_lat":-6.276362,"i_long":106.74273},{"i_long":106.728916,"i_lat":-6.288927,"line":6,"transit":false,"station_id":"JMU","distance":2179,"is_transit":false,"time":3,"station_name":"Jurangmangu"},{"is_transit":false,"distance":1994,"station_name":"Sudimara","transit":false,"i_lat":-6.296963,"line":6,"time":4,"station_id":"SDM","i_long":106.712277},{"is_transit":false,"station_name":"Rawa Buntu","time":6,"i_lat":-6.314823,"i_long":106.675475,"distance":4566,"line":6,"station_id":"RU","transit":false},{"i_long":106.66566,"line":6,"station_name":"Serpong","transit":false,"time":4,"is_transit":false,"distance":2413,"station_id":"SRP","i_lat":-6.319871},{"line":3,"time":4,"station_name":"Cisauk","i_lat":-6.32484,"is_transit":false,"distance":1784,"station_id":"CSK","transit":false,"i_long":106.640411},{"station_id":"CC","i_long":106.617853,"transit":false,"i_lat":-6.329547,"station_name":"Cicayur","is_transit":false,"time":4,"line":3,"distance":2519},{"is_transit":false,"time":8,"i_lat":-6.3441410000000005,"distance":5968,"station_id":"PRP","station_name":"Parung Panjang","i_long":106.568863,"line":6,"transit":false},{"station_id":"CJT","transit":false,"station_name":"Cilejit","distance":7025,"i_lat":-6.354349,"i_long":106.508482,"line":3,"time":9,"is_transit":false},{"transit":false,"is_transit":false,"station_id":"DAR","i_long":106.491338,"time":6,"i_lat":-6.338021,"station_name":"Daru","distance":2675,"line":0},{"i_long":106.460812,"station_name":"Tenjo","transit":false,"station_id":"TEJ","time":5,"i_lat":-6.327251,"line":6,"is_transit":false,"distance":3902},{"station_name":"Tigaraksa","station_id":"TGS","transit":false,"time":5,"distance":2974,"is_transit":false,"i_lat":-6.328533,"i_long":106.425991,"line":6}],[{"is_transit":false,"transit":false,"line":2,"time":0,"station_id":"DRN","i_long":106.85449,"station_name":"Duren Kalibata","i_lat":-6.255332,"distance":0},{"i_long":106.856607,"line":2,"time":3,"i_lat":-6.242512,"station_name":"Cawang","transit":false,"is_transit":false,"distance":1546,"station_id":"CW"},{"line":2,"is_transit":false,"station_id":"TEB","station_name":"Tebet","distance":1230,"i_lat":-6.226659,"transit":false,"time":2,"i_long":106.857948},{"i_long":106.84912,"station_name":"Manggarai","distance":2610,"time":4,"station_id":"MRI","is_transit":true,"i_lat":-6.209883,"line":2,"transit":true},{"station_id":"MTR","line":1,"is_transit":false,"i_long":106.858896,"time":2,"distance":1275,"station_name":"Matraman","transit":false,"i_lat":-6.212485},{"time":8,"transit":true,"station_name":"Jatinegara","i_long":106.86807400000001,"station_id":"JNG","distance":1377,"is_transit":true,"i_lat":-6.215091,"line":1},{"distance":1236,"i_lat":-6.209188,"transit":false,"station_id":"POK","station_name":"Pondok Jati","is_transit":false,"line":11,"i_long":106.861737,"time":2},{"i_lat":-6.193792,"line":11,"time":2,"is_transit":false,"station_name":"Kramat","i_long":106.855437,"transit":false,"station_id":"KMT","distance":1829},{"i_long":106.850107,"station_name":"Gang Sentiong","line":11,"transit":false,"time":1,"distance":973,"is_transit":false,"i_lat":-6.185975,"station_id":"GST"},{"transit":false,"station_id":"PSE","is_transit":false,"i_lat":-6.174784,"station_name":"Pasar Senen","i_long":106.84368,"distance":1567,"line":11,"time":8},{"line":11,"station_name":"Kemayoran","i_lat":-6.161728,"transit":false,"station_id":"KMO","is_transit":false,"time":4,"distance":1436,"i_long":106.839204},{"station_id":"RJW","distance":1901,"i_lat":-6.14505,"i_long":106.836569,"is_transit":false,"line":11,"time":5,"transit":false,"station_name":"Rajawali"},{"station_id":"KPB","transit":true,"is_transit":true,"station_name":"Kampung Bandan","time":3,"distance":1444,"i_lat":-6.132549,"line":4,"i_long":106.826365},{"is_transit":false,"station_id":"AK","transit":false,"distance":4102,"i_long":106.79867,"i_lat":-6.144674,"station_name":"Angke","line":1,"time":9},{"transit":false,"time":4,"station_id":"DU","distance":1230,"is_transit":false,"i_long":106.800832,"i_lat":-6.155215,"line":1,"station_name":"Duri"},{"line":1,"station_name":"Tanah Abang","time":8,"distance":3632,"i_lat":-6.185545,"is_transit":true,"transit":true,"station_id":"THB","i_long":106.811091},{"station_id":"PLM","transit":false,"is_transit":false,"station_name":"Palmerah","time":6,"i_lat":-6.207404,"distance":3191,"i_long":106.79689,"line":6},{"station_name":"Kebayoran","transit":false,"is_transit":false,"line":6,"time":7,"distance":3737,"station_id":"KBY","i_lat":-6.237242,"i_long":106.780334},{"line":6,"i_lat":-6.276362,"distance":6218,"i_long":106.74273,"transit":false,"station_id":"PDJ","station_name":"Pondokranji","is_transit":false,"time":8},{"station_id":"JMU","time":3,"station_name":"Jurangmangu","distance":2179,"i_lat":-6.288927,"is_transit":false,"transit":false,"i_long":106.728916,"line":6},{"is_transit":false,"i_long":106.712277,"distance":1994,"time":4,"line":6,"transit":false,"station_name":"Sudimara","station_id":"SDM","i_lat":-6.296963},{"time":6,"i_lat":-6.314823,"distance":4566,"line":6,"station_id":"RU","i_long":106.675475,"transit":false,"is_transit":false,"station_name":"Rawa Buntu"},{"distance":2413,"i_long":106.66566,"line":6,"transit":false,"is_transit":false,"i_lat":-6.319871,"station_name":"Serpong","station_id":"SRP","time":4},{"i_lat":-6.32484,"is_transit":false,"distance":1784,"station_id":"CSK","transit":false,"time":4,"i_long":106.640411,"station_name":"Cisauk","line":3},{"distance":2519,"i_long":106.617853,"time":4,"transit":false,"station_name":"Cicayur","line":3,"station_id":"CC","i_lat":-6.329547,"is_transit":false},{"line":6,"is_transit":false,"i_lat":-6.3441410000000005,"transit":false,"station_name":"Parung Panjang","i_long":106.568863,"distance":5968,"time":8,"station_id":"PRP"},{"time":9,"line":3,"i_long":106.508482,"station_name":"Cilejit","station_id":"CJT","distance":7025,"is_transit":false,"i_lat":-6.354349,"transit":false},{"line":0,"time":6,"i_long":106.491338,"i_lat":-6.338021,"transit":false,"is_transit":false,"distance":2675,"station_id":"DAR","station_name":"Daru"},{"distance":3902,"station_id":"TEJ","line":6,"is_transit":false,"time":5,"station_name":"Tenjo","transit":false,"i_lat":-6.327251,"i_long":106.460812},{"i_long":106.425991,"station_name":"Tigaraksa","distance":2974,"line":6,"i_lat":-6.328533,"time":5,"transit":false,"station_id":"TGS","is_transit":false}]]}