{"data":[[{"line":2,"i_long":106.85449,"transit":false,"station_id":"DRN","time":0,"station_name":"Duren Kalibata","i_lat":-6.255332,"distance":0,"is_transit":false},{"i_long":106.856607,"i_lat":-6.242512,"distance":1546,"transit":false,"station_id":"CW","station_name":"Cawang","time":3,"line":2,"is_transit":false},{"line":2,"i_lat":-6.226659,"station_id":"TEB","transit":false,"distance":1230,"i_long":106.857948,"time":2,"is_transit":false,"station_name":"Tebet"},{"distance":2610,"is_transit":true,"time":4,"station_id":"MRI","i_long":106.84912,"line":2,"i_lat":-6.209883,"station_name":"Manggarai","transit":true},{"distance":3186,"i_lat":-6.202263,"line":1,"time":4,"station_id":"SUD","transit":false,"i_long":106.822649,"is_transit":false,"station_name":"Sudirman"},{"is_transit":false,"transit":false,"i_long":106.819881,"station_id":"SUDB","station_name":"Sudirman Baru","i_lat":-6.201433,"distance":280,"time":1,"line":1},{"i_lat":-6.20132,"is_transit":false,"distance":471,"i_long":106.816351,"station_id":"KAT","time":1,"transit":false,"station_name":"Karet","line":1},{"i_lat":-6.185545,"transit":true,"station_id":"THB","distance":2029,"is_transit":true,"station_name":"Tanah Abang","time":5,"i_long":106.811091,"line":1},{"transit":false,"station_name":"Palmerah","is_transit":false,"distance":3191,"i_lat":-6.207404,"i_long":106.79689,"time":6,"station_id":"PLM","line":6},{"time":7,"transit":false,"station_name":"Kebayoran","line":6,"i_long":106.780334,"distance":3737,"is_transit":false,"i_lat":-6.237242,"station_id":"KBY"},{"station_name":"Pondokranji","is_transit":false,"station_id":"PDJ","distance":6218,"transit":false,"time":8,"line":6,"i_long":106.74273,"i_lat":-6.276362},{"i_lat":-6.288927,"time":3,"line":6,"station_name":"Jurangmangu","station_id":"JMU","i_long":106.728916,"distance":2179,"is_transit":false,"transit":false},{"station_id":"SDM","distance":1994,"i_long":106.712277,"i_lat":-6.296963,"is_transit":false,"station_name":"Sudimara","time":4,"transit":false,"line":6},{"transit":false,"time":6,"i_lat":-6.314823,"distance":4566,"is_transit":false,"i_long":106.675475,"line":6,"station_id":"RU","station_name":"Rawa Buntu"},{"station_id":"SRP","i_lat":-6.319871,"distance":2413,"time":4,"line":6,"transit":false,"is_transit":false,"station_name":"Serpong","i_long":106.66566},{"transit":false,"distance":1784,"station_name":"Cisauk","time":4,"i_lat":-6.32484,"is_transit":false,"line":3,"station_id":"CSK","i_long":106.640411},{"transit":false,"station_id":"CC","i_lat":-6.329547,"i_long":106.617853,"time":4,"is_transit":false,"line":3,"distance":2519,"station_name":"Cicayur"},{"i_lat":-6.3441410000000005,"station_id":"PRP","distance":5968,"is_transit":false,"line":6,"time":8,"station_name":"Parung Panjang","transit":false,"i_long":106.568863},{"i_lat":-6.354349,"time":9,"station_id":"CJT","distance":7025,"i_long":106.508482,"line":3,"is_transit":false,"station_name":"Cilejit","transit":false}],[{"time":0,"i_long":106.85449,"line":2,"transit":false,"distance":0,"station_name":"Duren Kalibata","is_transit":false,"i_lat":-6.255332,"station_id":"DRN"},{"time":3,"line":2,"distance":1546,"i_long":106.856607,"i_lat":-6.242512,"is_transit":false,"transit":false,"station_id":"CW","station_name":"Cawang"},{"distance":1230,"station_name":"Tebet","time":2,"i_long":106.857948,"line":2,"is_transit":false,"transit":false,"station_id":"TEB","i_lat":-6.226659},{"station_id":"MRI","i_lat":-6.209883,"i_long":106.84912,"station_name":"Manggarai","is_transit":false,"transit":false,"distance":2610,"time":4,"line":2},{"is_transit":false,"distance":1590,"time":4,"i_lat":-6.198556,"line":2,"station_id":"CKI","transit":false,"i_long":106.840169,"station_name":"Cikini"},{"distance":1750,"line":2,"station_name":"Gondangdia","time":3,"station_id":"GDD","transit":false,"is_transit":false,"i_long":106.832183,"i_lat":-6.186295},{"is_transit":false,"distance":2015,"i_lat":-6.166716,"transit":false,"station_id":"JUA","station_name":"Juanda","line":2,"time":4,"i_long":106.828284},{"distance":1149,"station_id":"SW","transit":false,"line":2,"i_lat":-6.160725,"time":2,"station_name":"Sawah Besar","i_long":106.827103,"is_transit":false},{"i_long":106.82482,"station_name":"Manggabesar","transit":false,"station_id":"MGB","line":2,"time":2,"i_lat":-6.149769,"is_transit":false,"distance":906},{"station_id":"JAY","time":2,"i_long":106.820901,"line":2,"is_transit":false,"i_lat":-6.141205,"transit":false,"distance":1080,"station_name":"Jayakarta"},{"station_name":"Jakarta Kota","time":4,"distance":1264,"line":2,"station_id":"JAKK","i_long":106.812439,"i_lat":-6.137569,"is_transit":true,"transit":true},{"i_long":106.826365,"i_lat":-6.132549,"station_name":"Kampung Bandan","time":3,"line":4,"station_id":"KPB","transit":true,"distance":1364,"is_transit":true},{"station_name":"Angke","time":9,"station_id":"AK","distance":4102,"is_transit":false,"i_lat":-6.144674,"i_long":106.79867,"transit":false,"line":1},{"i_long":106.800832,"time":4,"is_transit":false,"station_name":"Duri","line":1,"transit":false,"i_lat":-6.155215,"station_id":"DU","distance":1230},{"transit":true,"station_id":"THB","i_lat":-6.185545,"distance":3632,"is_transit":true,"time":8,"i_long":106.811091,"line":1,"station_name":"Tanah Abang"},{"time":6,"transit":false,"i_lat":-6.207404,"line":6,"is_transit":false,"i_long":106.79689,"station_id":"PLM","station_name":"Palmerah","distance":3191},{"distance":3737,"time":7,"is_transit":false,"i_long":106.780334,"station_id":"KBY","station_name":"Kebayoran","transit":false,"line":6,"i_lat":-6.237242},{"is_transit":false,"distance":6218,"i_lat":-6.276362,"time":8,"transit":false,"i_long":106.74273,"station_name":"Pondokranji","line":6,"station_id":"PDJ"},{"time":3,"station_id":"JMU","distance":2179,"i_long":106.728916,"is_transit":false,"i_lat":-6.288927,"line":6,"transit":false,"station_name":"Jurangmangu"},{"transit":false,"distance":1994,"station_name":"Sudimara","station_id":"SDM","i_lat":-6.296963,"time":4,"line":6,"is_transit":false,"i_long":106.712277},{"transit":false,"i_lat":-6.314823,"i_long":106.675475,"is_transit":false,"distance":4566,"time":6,"line":6,"station_name":"Rawa Buntu","station_id":"RU"},{"i_long":106.66566,"distance":2413,"time":4,"i_lat":-6.319871,"station_name":"Serpong","line":6,"is_transit":false,"station_id":"SRP","transit":false},{"station_id":"CSK","distance":1784,"station_name":"Cisauk","time":4,"is_transit":false,"i_long":106.640411,"line":3,"i_lat":-6.32484,"transit":false},{"i_long":106.617853,"is_transit":false,"transit":false,"distance":2519,"station_name":"Cicayur","i_lat":-6.329547,"line":3,"time":4,"station_id":"CC"},{"i_lat":-6.3441410000000005,"station_name":"Parung Panjang","transit":false,"i_long":106.568863,"is_transit":false,"distance":5968,"time":8,"station_id":"PRP","line":6},{"transit":false,"station_id":"CJT","station_name":"Cilejit","i_lat":-6.354349,"distance":7025,"i_long":106.508482,"line":3,"is_transit":false,"time":9}],[{"line":2,"distance":0,"i_long":106.85449,"i_lat":-6.255332,"time":0,"transit":false,"station_id":"DRN","is_transit":false,"station_name":"Duren Kalibata"},{"line":2,"i_long":106.856607,"transit":false,"station_id":"CW","is_transit":false,"distance":1546,"i_lat":-6.242512,"station_name":"Cawang","time":3},{"i_lat":-6.226659,"is_transit":false,"time":2,"line":2,"station_id":"TEB","i_long":106.857948,"distance":1230,"station_name":"Tebet","transit":false},{"distance":2610,"i_long":106.84912,"is_transit":true,"transit":true,"station_name":"Manggarai","time":4,"line":2,"i_lat":-6.209883,"station_id":"MRI"},{"station_id":"MTR","distance":1275,"i_lat":-6.212485,"i_long":106.858896,"transit":false,"is_transit":false,"time":2,"line":1,"station_name":"Matraman"},{"is_transit":true,"line":1,"transit":true,"distance":1377,"i_lat":-6.215091,"i_long":106.86807400000001,"time":8,"station_name":"Jatinegara","station_id":"JNG"},{"transit":false,"i_lat":-6.209188,"station_name":"Pondok Jati","station_id":"POK","i_long":106.861737,"distance":1236,"line":11,"is_transit":false,"time":2},{"station_id":"KMT","distance":1829,"i_lat":-6.193792,"time":2,"transit":false,"i_long":106.855437,"line":11,"is_transit":false,"station_name":"Kramat"},{"time":1,"station_name":"Gang Sentiong","line":11,"station_id":"GST","transit":false,"is_transit":false,"distance":973,"i_lat":-6.185975,"i_long":106.850107},{"transit":false,"distance":1567,"is_transit":false,"station_name":"Pasar Senen","i_lat":-6.174784,"line":11,"station_id":"PSE","i_long":106.84368,"time":8},{"transit":false,"station_name":"Kemayoran","line":11,"i_long":106.839204,"is_transit":false,"station_id":"KMO","time":4,"i_lat":-6.161728,"distance":1436},{"station_name":"Rajawali","time":5,"i_lat":-6.14505,"transit":false,"distance":1901,"is_transit":false,"station_id":"RJW","i_long":106.836569,"line":11},{"i_long":106.826365,"line":4,"time":3,"distance":1444,"station_id":"KPB","is_transit":true,"i_lat":-6.132549,"station_name":"Kampung Bandan","transit":true},{"station_id":"AK","transit":false,"distance":4102,"time":9,"station_name":"Angke","is_transit":false,"i_lat":-6.144674,"line":1,"i_long":106.79867},{"station_name":"Duri","time":4,"line":1,"i_lat":-6.155215,"i_long":106.800832,"transit":false,"station_id":"DU","distance":1230,"is_transit":false},{"transit":true,"line":1,"station_id":"THB","station_name":"Tanah Abang","time":8,"i_lat":-6.185545,"i_long":106.811091,"distance":3632,"is_transit":true},{"time":6,"distance":3191,"is_transit":false,"transit":false,"station_id":"PLM","station_name":"Palmerah","i_long":106.79689,"line":6,"i_lat":-6.207404},{"distance":3737,"i_lat":-6.237242,"i_long":106.780334,"line":6,"transit":false,"time":7,"is_transit":false,"station_name":"Kebayoran","station_id":"KBY"},{"line":6,"transit":false,"i_long":106.74273,"station_id":"PDJ","is_transit":false,"station_name":"Pondokranji","time":8,"i_lat":-6.276362,"distance":6218},{"line":6,"distance":2179,"station_name":"Jurangmangu","i_lat":-6.288927,"transit":false,"i_long":106.728916,"station_id":"JMU","time":3,"is_transit":false},{"distance":1994,"station_id":"SDM","transit":false,"is_transit":false,"i_lat":-6.296963,"line":6,"time":4,"station_name":"Sudimara","i_long":106.712277},{"i_lat":-6.314823,"station_name":"Rawa Buntu","i_long":106.675475,"line":6,"time":6,"distance":4566,"transit":false,"station_id":"RU","is_transit":false},{"line":6,"distance":2413,"is_transit":false,"i_lat":-6.319871,"station_name":"Serpong","i_long":106.66566,"time":4,"station_id":"SRP","transit":false},{"is_transit":false,"i_lat":-6.32484,"i_long":106.640411,"time":4,"station_name":"Cisauk","distance":1784,"station_id":"CSK","line":3,"transit":false},{"is_transit":false,"station_id":"CC","time":4,"i_long":106.617853,"distance":2519,"i_lat":-6.329547,"station_name":"Cicayur","line":3,"transit":false},{"station_name":"Parung Panjang","station_id":"PRP","is_transit":false,"line":6,"transit":false,"time":8,"i_lat":-6.3441410000000005,"i_long":106.568863,"distance":5968},{"distance":7025,"is_transit":false,"station_id":"CJT","transit":false,"time":9,"i_long":106.508482,"line":3,"station_name":"Cilejit","i_lat":-6.354349}]]}