{"data":[[{"time":0,"i_lat":-6.255332,"i_long":106.85449,"distance":0,"line":2,"station_id":"DRN","station_name":"Duren Kalibata","is_transit":false,"transit":false},{"station_id":"CW","transit":false,"time":3,"i_long":106.856607,"line":2,"station_name":"Cawang","distance":1546,"i_lat":-6.242512,"is_transit":false},{"is_transit":false,"transit":false,"i_long":106.857948,"distance":1230,"station_id":"TEB","line":2,"i_lat":-6.226659,"station_name":"Tebet","time":2},{"distance":2610,"transit":true,"station_name":"Manggarai","station_id":"MRI","time":4,"i_lat":-6.209883,"i_long":106.84912,"line":2,"is_transit":true},{"station_name":"Sudirman","distance":3186,"time":4,"station_id":"SUD","transit":false,"i_lat":-6.202263,"i_long":106.822649,"is_transit":false,"line":1},{"time":1,"i_long":106.819881,"line":1,"is_transit":false,"distance":280,"station_name":"Sudirman Baru","transit":false,"i_lat":-6.201433,"station_id":"SUDB"},{"station_id":"KAT","distance":471,"station_name":"Karet","is_transit":false,"i_lat":-6.20132,"i_long":106.816351,"line":1,"time":1,"transit":false}],[{"line":2,"transit":false,"time":0,"i_long":106.85449,"distance":0,"station_name":"Duren Kalibata","is_transit":false,"station_id":"DRN","i_lat":-6.255332},{"station_id":"CW","transit":false,"station_name":"Cawang","is_transit":false,"i_long":106.856607,"line":2,"time":3,"i_lat":-6.242512,"distance":1546},{"station_name":"Tebet","distance":1230,"i_long":106.857948,"station_id":"TEB","time":2,"line":2,"is_transit":false,"transit":false,"i_lat":-6.226659},{"distance":2610,"i_lat":-6.209883,"i_long":106.84912,"station_name":"Manggarai","is_transit":false,"time":4,"station_id":"MRI","transit":false,"line":2},{"i_long":106.840169,"transit":false,"station_id":"CKI","time":4,"station_name":"Cikini","line":2,"distance":1590,"is_transit":false,"i_lat":-6.198556},{"station_id":"GDD","transit":false,"i_lat":-6.186295,"station_name":"Gondangdia","is_transit":false,"i_long":106.832183,"line":2,"distance":1750,"time":3},{"i_long":106.828284,"line":2,"i_lat":-6.166716,"distance":2015,"transit":false,"time":4,"station_id":"JUA","is_transit":false,"station_name":"Juanda"},{"i_long":106.827103,"station_name":"Sawah Besar","is_transit":false,"time":2,"station_id":"SW","transit":false,"line":2,"i_lat":-6.160725,"distance":1149},{"time":2,"i_long":106.82482,"is_transit":false,"line":2,"station_name":"Manggabesar","transit":false,"station_id":"MGB","i_lat":-6.149769,"distance":906},{"time":2,"i_lat":-6.141205,"distance":1080,"line":2,"is_transit":false,"station_id":"JAY","i_long":106.820901,"transit":false,"station_name":"Jayakarta"},{"station_id":"JAKK","time":4,"transit":true,"distance":1264,"station_name":"Jakarta Kota","i_lat":-6.137569,"is_transit":true,"line":2,"i_long":106.812439},{"time":3,"i_lat":-6.132549,"transit":true,"i_long":106.826365,"station_id":"KPB","line":4,"station_name":"Kampung Bandan","distance":1364,"is_transit":true},{"is_transit":false,"station_id":"AK","i_lat":-6.144674,"distance":4102,"i_long":106.79867,"station_name":"Angke","time":9,"transit":false,"line":1},{"line":1,"i_long":106.800832,"distance":1230,"time":4,"transit":false,"is_transit":false,"station_id":"DU","station_name":"Duri","i_lat":-6.155215},{"distance":3632,"time":8,"line":1,"i_lat":-6.185545,"station_id":"THB","station_name":"Tanah Abang","transit":false,"is_transit":false,"i_long":106.811091},{"station_name":"Karet","transit":false,"i_lat":-6.20132,"is_transit":false,"distance":2029,"line":1,"time":5,"i_long":106.816351,"station_id":"KAT"}],[{"station_name":"Duren Kalibata","distance":0,"time":0,"station_id":"DRN","transit":false,"i_long":106.85449,"line":2,"i_lat":-6.255332,"is_transit":false},{"distance":1546,"transit":false,"i_long":106.856607,"station_id":"CW","i_lat":-6.242512,"is_transit":false,"time":3,"station_name":"Cawang","line":2},{"station_name":"Tebet","distance":1230,"station_id":"TEB","i_lat":-6.226659,"i_long":106.857948,"line":2,"is_transit":false,"transit":false,"time":2},{"i_lat":-6.209883,"is_transit":true,"distance":2610,"station_id":"MRI","transit":true,"time":4,"line":2,"station_name":"Manggarai","i_long":106.84912},{"transit":false,"i_lat":-6.212485,"time":2,"is_transit":false,"station_id":"MTR","distance":1275,"i_long":106.858896,"station_name":"Matraman","line":1},{"time":8,"i_long":106.86807400000001,"station_name":"Jatinegara","is_transit":true,"transit":true,"i_lat":-6.215091,"station_id":"JNG","line":1,"distance":1377},{"station_id":"POK","i_lat":-6.209188,"is_transit":false,"distance":1236,"i_long":106.861737,"line":11,"station_name":"Pondok Jati","time":2,"transit":false},{"distance":1829,"station_id":"KMT","transit":false,"i_lat":-6.193792,"station_name":"Kramat","is_transit":false,"time":2,"i_long":106.855437,"line":11},{"time":1,"station_id":"GST","transit":false,"line":11,"distance":973,"station_name":"Gang Sentiong","is_transit":false,"i_long":106.850107,"i_lat":-6.185975},{"time":8,"distance":1567,"transit":false,"line":11,"station_name":"Pasar Senen","is_transit":false,"i_lat":-6.174784,"i_long":106.84368,"station_id":"PSE"},{"line":11,"transit":false,"station_id":"KMO","station_name":"Kemayoran","i_lat":-6.161728,"i_long":106.839204,"is_transit":false,"time":4,"distance":1436},{"station_name":"Rajawali","time":5,"i_lat":-6.14505,"line":11,"distance":1901,"is_transit":false,"station_id":"RJW","transit":false,"i_long":106.836569},{"i_lat":-6.132549,"line":4,"distance":1444,"is_transit":true,"i_long":106.826365,"station_id":"KPB","time":3,"transit":true,"station_name":"Kampung Bandan"},{"line":1,"time":9,"is_transit":false,"i_lat":-6.144674,"transit":false,"station_name":"Angke","station_id":"AK","i_long":106.79867,"distance":4102},{"i_long":106.800832,"station_id":"DU","station_name":"Duri","transit":false,"i_lat":-6.155215,"time":4,"distance":1230,"is_transit":false,"line":1},{"distance":3632,"line":1,"is_transit":false,"station_id":"THB","station_name":"Tanah Abang","i_lat":-6.185545,"transit":false,"time":8,"i_long":106.811091},{"line":1,"is_transit":false,"i_long":106.816351,"i_lat":-6.20132,"station_name":"Karet","distance":2029,"transit":false,"station_id":"KAT","time":5}]]}