{"data":[[{"line":2,"i_long":106.85449,"time":0,"distance":0,"station_id":"DRN","transit":false,"station_name":"Duren Kalibata","is_transit":false,"i_lat":-6.255332},{"transit":false,"time":3,"i_lat":-6.242512,"is_transit":false,"line":2,"i_long":106.856607,"station_id":"CW","station_name":"Cawang","distance":1546},{"station_name":"Tebet","transit":false,"i_lat":-6.226659,"time":2,"station_id":"TEB","is_transit":false,"i_long":106.857948,"line":2,"distance":1230},{"is_transit":true,"station_id":"MRI","line":2,"time":4,"distance":2610,"transit":true,"i_long":106.84912,"station_name":"Manggarai","i_lat":-6.209883},{"is_transit":false,"transit":false,"station_name":"Sudirman","i_lat":-6.202263,"time":4,"i_long":106.822649,"line":1,"distance":3186,"station_id":"SUD"},{"station_id":"SUDB","distance":280,"is_transit":false,"time":1,"i_long":106.819881,"line":1,"transit":false,"station_name":"Sudirman Baru","i_lat":-6.201433},{"distance":471,"i_long":106.816351,"transit":false,"line":1,"station_id":"KAT","is_transit":false,"i_lat":-6.20132,"station_name":"Karet","time":1},{"distance":2029,"station_name":"Tanah Abang","time":5,"station_id":"THB","is_transit":false,"i_lat":-6.185545,"line":1,"i_long":106.811091,"transit":false},{"line":1,"time":8,"station_name":"Duri","distance":3632,"is_transit":true,"i_lat":-6.155215,"transit":true,"i_long":106.800832,"station_id":"DU"},{"is_transit":false,"station_id":"GRG","station_name":"Grogol","transit":false,"i_lat":-6.162021,"i_long":106.788277,"line":5,"distance":1700,"time":3},{"time":2,"line":5,"i_lat":-6.161433,"i_long":106.771379,"distance":2036,"is_transit":false,"station_id":"PSG","transit":false,"station_name":"Pesing"},{"i_lat":-6.1587309999999995,"i_long":106.756522,"time":2,"station_id":"TKO","distance":1614,"station_name":"Taman Kota","is_transit":false,"transit":false,"line":5},{"time":2,"station_id":"BOI","station_name":"Bojongindah","transit":false,"i_lat":-6.159876,"line":5,"i_long":106.737035,"distance":2334,"is_transit":false},{"i_long":106.723064,"is_transit":false,"i_lat":-6.162758,"station_id":"RW","time":4,"transit":false,"line":5,"station_name":"Rawa Buaya","distance":1152},{"station_name":"Kalideres","is_transit":false,"time":3,"transit":false,"distance":2504,"station_id":"KDS","i_long":106.701612,"line":5,"i_lat":-6.166068},{"transit":false,"station_id":"PI","i_long":106.679458,"line":5,"distance":2548,"is_transit":false,"time":3,"station_name":"Poris","i_lat":-6.169933},{"station_id":"BPR","is_transit":false,"i_lat":-6.171811,"time":3,"line":5,"distance":1834,"station_name":"Batuceper","i_long":106.665036,"transit":false}],[{"time":0,"station_name":"Duren Kalibata","i_long":106.85449,"is_transit":false,"i_lat":-6.255332,"transit":false,"station_id":"DRN","line":2,"distance":0},{"time":3,"i_long":106.856607,"is_transit":false,"transit":false,"line":2,"distance":1546,"station_id":"CW","station_name":"Cawang","i_lat":-6.242512},{"distance":1230,"time":2,"transit":false,"i_lat":-6.226659,"is_transit":false,"station_id":"TEB","station_name":"Tebet","i_long":106.857948,"line":2},{"transit":false,"is_transit":false,"station_name":"Manggarai","distance":2610,"line":2,"i_lat":-6.209883,"station_id":"MRI","i_long":106.84912,"time":4},{"time":4,"transit":false,"station_name":"Cikini","station_id":"CKI","distance":1590,"line":2,"i_long":106.840169,"i_lat":-6.198556,"is_transit":false},{"transit":false,"station_name":"Gondangdia","time":3,"station_id":"GDD","is_transit":false,"line":2,"i_long":106.832183,"i_lat":-6.186295,"distance":1750},{"i_long":106.828284,"line":2,"time":4,"distance":2015,"is_transit":false,"i_lat":-6.166716,"station_id":"JUA","transit":false,"station_name":"Juanda"},{"is_transit":false,"station_id":"SW","i_long":106.827103,"i_lat":-6.160725,"time":2,"station_name":"Sawah Besar","transit":false,"distance":1149,"line":2},{"is_transit":false,"line":2,"i_lat":-6.149769,"i_long":106.82482,"station_id":"MGB","time":2,"transit":false,"station_name":"Manggabesar","distance":906},{"is_transit":false,"station_name":"Jayakarta","time":2,"i_lat":-6.141205,"transit":false,"station_id":"JAY","i_long":106.820901,"line":2,"distance":1080},{"is_transit":true,"time":4,"i_long":106.812439,"distance":1264,"station_name":"Jakarta Kota","line":2,"i_lat":-6.137569,"station_id":"JAKK","transit":true},{"line":4,"station_name":"Kampung Bandan","i_lat":-6.132549,"i_long":106.826365,"transit":true,"is_transit":true,"distance":1364,"station_id":"KPB","time":3},{"time":9,"transit":false,"i_long":106.79867,"i_lat":-6.144674,"distance":4102,"station_id":"AK","is_transit":false,"station_name":"Angke","line":1},{"line":1,"transit":true,"station_name":"Duri","station_id":"DU","distance":1230,"time":4,"i_lat":-6.155215,"is_transit":true,"i_long":106.800832},{"transit":false,"i_long":106.788277,"station_id":"GRG","i_lat":-6.162021,"time":3,"is_transit":false,"distance":1700,"station_name":"Grogol","line":5},{"i_long":106.771379,"station_id":"PSG","is_transit":false,"time":2,"distance":2036,"station_name":"Pesing","line":5,"i_lat":-6.161433,"transit":false},{"transit":false,"station_name":"Taman Kota","station_id":"TKO","i_lat":-6.1587309999999995,"is_transit":false,"distance":1614,"time":2,"i_long":106.756522,"line":5},{"distance":2334,"i_long":106.737035,"is_transit":false,"station_id":"BOI","time":2,"i_lat":-6.159876,"line":5,"transit":false,"station_name":"Bojongindah"},{"is_transit":false,"time":4,"i_lat":-6.162758,"transit":false,"station_id":"RW","station_name":"Rawa Buaya","line":5,"i_long":106.723064,"distance":1152},{"is_transit":false,"i_lat":-6.166068,"line":5,"station_name":"Kalideres","distance":2504,"i_long":106.701612,"station_id":"KDS","transit":false,"time":3},{"i_long":106.679458,"line":5,"transit":false,"distance":2548,"i_lat":-6.169933,"is_transit":false,"time":3,"station_name":"Poris","station_id":"PI"},{"i_lat":-6.171811,"time":3,"station_name":"Batuceper","i_long":106.665036,"line":5,"is_transit":false,"station_id":"BPR","distance":1834,"transit":false}],[{"i_lat":-6.255332,"is_transit":false,"i_long":106.85449,"line":2,"station_name":"Duren Kalibata","transit":false,"station_id":"DRN","distance":0,"time":0},{"transit":false,"is_transit":false,"station_id":"CW","i_long":106.856607,"distance":1546,"time":3,"i_lat":-6.242512,"station_name":"Cawang","line":2},{"station_id":"TEB","transit":false,"distance":1230,"station_name":"Tebet","time":2,"i_lat":-6.226659,"i_long":106.857948,"line":2,"is_transit":false},{"is_transit":true,"line":2,"station_name":"Manggarai","transit":true,"i_long":106.84912,"station_id":"MRI","time":4,"i_lat":-6.209883,"distance":2610},{"time":2,"line":1,"i_long":106.858896,"i_lat":-6.212485,"is_transit":false,"station_name":"Matraman","distance":1275,"transit":false,"station_id":"MTR"},{"time":8,"distance":1377,"station_name":"Jatinegara","transit":true,"station_id":"JNG","line":1,"i_lat":-6.215091,"i_long":106.86807400000001,"is_transit":true},{"distance":1236,"time":2,"line":11,"i_long":106.861737,"transit":false,"station_name":"Pondok Jati","is_transit":false,"station_id":"POK","i_lat":-6.209188},{"i_lat":-6.193792,"time":2,"is_transit":false,"station_id":"KMT","i_long":106.855437,"distance":1829,"line":11,"transit":false,"station_name":"Kramat"},{"distance":973,"transit":false,"time":1,"i_long":106.850107,"line":11,"is_transit":false,"station_name":"Gang Sentiong","station_id":"GST","i_lat":-6.185975},{"transit":false,"station_id":"PSE","line":11,"is_transit":false,"i_lat":-6.174784,"i_long":106.84368,"distance":1567,"station_name":"Pasar Senen","time":8},{"i_lat":-6.161728,"transit":false,"distance":1436,"is_transit":false,"line":11,"i_long":106.839204,"time":4,"station_name":"Kemayoran","station_id":"KMO"},{"is_transit":false,"time":5,"i_long":106.836569,"line":11,"station_name":"Rajawali","i_lat":-6.14505,"station_id":"RJW","distance":1901,"transit":false},{"distance":1444,"transit":true,"i_lat":-6.132549,"i_long":106.826365,"is_transit":true,"station_id":"KPB","station_name":"Kampung Bandan","time":3,"line":4},{"station_name":"Angke","station_id":"AK","line":1,"distance":4102,"time":9,"is_transit":false,"transit":false,"i_lat":-6.144674,"i_long":106.79867},{"station_id":"DU","is_transit":true,"time":4,"transit":true,"station_name":"Duri","distance":1230,"i_lat":-6.155215,"i_long":106.800832,"line":1},{"i_lat":-6.162021,"time":3,"station_id":"GRG","distance":1700,"transit":false,"station_name":"Grogol","i_long":106.788277,"is_transit":false,"line":5},{"distance":2036,"time":2,"station_id":"PSG","i_lat":-6.161433,"transit":false,"is_transit":false,"i_long":106.771379,"line":5,"station_name":"Pesing"},{"station_name":"Taman Kota","station_id":"TKO","distance":1614,"i_lat":-6.1587309999999995,"i_long":106.756522,"time":2,"is_transit":false,"line":5,"transit":false},{"transit":false,"station_id":"BOI","i_long":106.737035,"line":5,"distance":2334,"is_transit":false,"i_lat":-6.159876,"time":2,"station_name":"Bojongindah"},{"transit":false,"is_transit":false,"i_lat":-6.162758,"line":5,"station_name":"Rawa Buaya","station_id":"RW","distance":1152,"i_long":106.723064,"time":4},{"distance":2504,"line":5,"transit":false,"is_transit":false,"station_id":"KDS","i_long":106.701612,"i_lat":-6.166068,"time":3,"station_name":"Kalideres"},{"distance":2548,"time":3,"i_long":106.679458,"i_lat":-6.169933,"line":5,"station_name":"Poris","is_transit":false,"transit":false,"station_id":"PI"},{"is_transit":false,"distance":1834,"station_name":"Batuceper","transit":false,"time":3,"station_id":"BPR","i_long":106.665036,"line":5,"i_lat":-6.171811}]]}