{"data":[[{"i_lat":-6.255332,"distance":0,"i_long":106.85449,"transit":false,"line":2,"time":0,"station_id":"DRN","station_name":"Duren Kalibata","is_transit":false},{"is_transit":false,"transit":false,"i_lat":-6.242512,"station_name":"Cawang","line":2,"station_id":"CW","i_long":106.856607,"distance":1546,"time":3},{"station_name":"Tebet","station_id":"TEB","i_long":106.857948,"time":2,"distance":1230,"i_lat":-6.226659,"line":2,"transit":false,"is_transit":false},{"station_name":"Manggarai","time":4,"is_transit":true,"i_lat":-6.209883,"station_id":"MRI","i_long":106.84912,"transit":true,"line":2,"distance":2610},{"transit":false,"time":4,"station_id":"SUD","distance":3186,"i_long":106.822649,"i_lat":-6.202263,"line":1,"station_name":"Sudirman","is_transit":false},{"line":1,"station_id":"SUDB","time":1,"i_lat":-6.201433,"distance":280,"i_long":106.819881,"station_name":"Sudirman Baru","is_transit":false,"transit":false},{"transit":false,"distance":471,"i_long":106.816351,"line":1,"station_id":"KAT","is_transit":false,"station_name":"Karet","i_lat":-6.20132,"time":1},{"time":5,"is_transit":true,"station_name":"Tanah Abang","i_long":106.811091,"distance":2029,"station_id":"THB","line":1,"i_lat":-6.185545,"transit":true},{"i_lat":-6.207404,"transit":false,"distance":3191,"line":6,"i_long":106.79689,"time":6,"station_id":"PLM","station_name":"Palmerah","is_transit":false},{"distance":3737,"station_id":"KBY","i_lat":-6.237242,"transit":false,"i_long":106.780334,"station_name":"Kebayoran","time":7,"is_transit":false,"line":6},{"time":8,"i_lat":-6.276362,"i_long":106.74273,"distance":6218,"station_id":"PDJ","transit":false,"is_transit":false,"station_name":"Pondokranji","line":6},{"i_long":106.728916,"time":3,"station_id":"JMU","station_name":"Jurangmangu","is_transit":false,"transit":false,"i_lat":-6.288927,"line":6,"distance":2179},{"time":4,"distance":1994,"station_name":"Sudimara","i_lat":-6.296963,"line":6,"is_transit":false,"transit":false,"i_long":106.712277,"station_id":"SDM"},{"i_long":106.675475,"transit":false,"line":6,"distance":4566,"i_lat":-6.314823,"is_transit":false,"time":6,"station_id":"RU","station_name":"Rawa Buntu"},{"station_id":"SRP","i_lat":-6.319871,"line":6,"time":4,"is_transit":false,"transit":false,"distance":2413,"i_long":106.66566,"station_name":"Serpong"},{"line":3,"is_transit":false,"i_lat":-6.32484,"distance":1784,"station_id":"CSK","station_name":"Cisauk","transit":false,"time":4,"i_long":106.640411}],[{"transit":false,"station_id":"DRN","i_lat":-6.255332,"distance":0,"station_name":"Duren Kalibata","time":0,"line":2,"i_long":106.85449,"is_transit":false},{"distance":1546,"station_name":"Cawang","line":2,"transit":false,"i_long":106.856607,"station_id":"CW","time":3,"i_lat":-6.242512,"is_transit":false},{"i_long":106.857948,"time":2,"i_lat":-6.226659,"distance":1230,"line":2,"is_transit":false,"station_name":"Tebet","transit":false,"station_id":"TEB"},{"transit":false,"i_lat":-6.209883,"time":4,"station_id":"MRI","line":2,"i_long":106.84912,"station_name":"Manggarai","distance":2610,"is_transit":false},{"i_long":106.840169,"station_name":"Cikini","time":4,"distance":1590,"station_id":"CKI","is_transit":false,"transit":false,"i_lat":-6.198556,"line":2},{"time":3,"line":2,"i_long":106.832183,"i_lat":-6.186295,"distance":1750,"is_transit":false,"transit":false,"station_name":"Gondangdia","station_id":"GDD"},{"i_lat":-6.166716,"station_id":"JUA","transit":false,"distance":2015,"station_name":"Juanda","is_transit":false,"time":4,"line":2,"i_long":106.828284},{"i_long":106.827103,"line":2,"station_id":"SW","is_transit":false,"station_name":"Sawah Besar","transit":false,"i_lat":-6.160725,"distance":1149,"time":2},{"i_long":106.82482,"station_name":"Manggabesar","transit":false,"is_transit":false,"i_lat":-6.149769,"line":2,"distance":906,"time":2,"station_id":"MGB"},{"i_long":106.820901,"station_id":"JAY","distance":1080,"is_transit":false,"i_lat":-6.141205,"station_name":"Jayakarta","time":2,"transit":false,"line":2},{"i_long":106.812439,"transit":true,"line":2,"is_transit":true,"time":4,"station_name":"Jakarta Kota","distance":1264,"i_lat":-6.137569,"station_id":"JAKK"},{"station_name":"Kampung Bandan","time":3,"station_id":"KPB","line":4,"i_lat":-6.132549,"is_transit":true,"transit":true,"distance":1364,"i_long":106.826365},{"line":1,"transit":false,"station_id":"AK","i_lat":-6.144674,"time":9,"i_long":106.79867,"distance":4102,"is_transit":false,"station_name":"Angke"},{"time":4,"distance":1230,"is_transit":false,"line":1,"station_name":"Duri","station_id":"DU","i_lat":-6.155215,"i_long":106.800832,"transit":false},{"is_transit":true,"distance":3632,"station_name":"Tanah Abang","transit":true,"line":1,"i_long":106.811091,"station_id":"THB","i_lat":-6.185545,"time":8},{"distance":3191,"is_transit":false,"time":6,"transit":false,"station_id":"PLM","station_name":"Palmerah","i_lat":-6.207404,"i_long":106.79689,"line":6},{"distance":3737,"station_name":"Kebayoran","i_lat":-6.237242,"line":6,"time":7,"transit":false,"is_transit":false,"station_id":"KBY","i_long":106.780334},{"i_lat":-6.276362,"is_transit":false,"i_long":106.74273,"distance":6218,"station_name":"Pondokranji","station_id":"PDJ","transit":false,"time":8,"line":6},{"station_id":"JMU","station_name":"Jurangmangu","i_lat":-6.288927,"i_long":106.728916,"transit":false,"distance":2179,"line":6,"time":3,"is_transit":false},{"i_long":106.712277,"transit":false,"station_id":"SDM","time":4,"distance":1994,"is_transit":false,"i_lat":-6.296963,"line":6,"station_name":"Sudimara"},{"i_long":106.675475,"transit":false,"is_transit":false,"line":6,"distance":4566,"station_id":"RU","i_lat":-6.314823,"station_name":"Rawa Buntu","time":6},{"station_name":"Serpong","is_transit":false,"distance":2413,"transit":false,"i_lat":-6.319871,"i_long":106.66566,"line":6,"station_id":"SRP","time":4},{"is_transit":false,"distance":1784,"line":3,"i_lat":-6.32484,"station_name":"Cisauk","station_id":"CSK","time":4,"transit":false,"i_long":106.640411}],[{"distance":0,"station_id":"DRN","i_long":106.85449,"station_name":"Duren Kalibata","transit":false,"is_transit":false,"i_lat":-6.255332,"line":2,"time":0},{"i_lat":-6.242512,"station_id":"CW","is_transit":false,"time":3,"transit":false,"i_long":106.856607,"station_name":"Cawang","distance":1546,"line":2},{"i_lat":-6.226659,"station_id":"TEB","line":2,"is_transit":false,"station_name":"Tebet","time":2,"distance":1230,"transit":false,"i_long":106.857948},{"i_lat":-6.209883,"i_long":106.84912,"distance":2610,"station_id":"MRI","time":4,"transit":true,"station_name":"Manggarai","is_transit":true,"line":2},{"is_transit":false,"transit":false,"time":2,"distance":1275,"i_long":106.858896,"line":1,"station_id":"MTR","i_lat":-6.212485,"station_name":"Matraman"},{"time":8,"station_name":"Jatinegara","station_id":"JNG","transit":true,"is_transit":true,"distance":1377,"i_long":106.86807400000001,"i_lat":-6.215091,"line":1},{"station_name":"Pondok Jati","time":2,"is_transit":false,"i_long":106.861737,"distance":1236,"station_id":"POK","line":11,"i_lat":-6.209188,"transit":false},{"distance":1829,"is_transit":false,"station_name":"Kramat","i_lat":-6.193792,"time":2,"transit":false,"line":11,"station_id":"KMT","i_long":106.855437},{"station_id":"GST","is_transit":false,"i_long":106.850107,"transit":false,"i_lat":-6.185975,"station_name":"Gang Sentiong","line":11,"distance":973,"time":1},{"line":11,"i_lat":-6.174784,"distance":1567,"station_name":"Pasar Senen","station_id":"PSE","i_long":106.84368,"is_transit":false,"time":8,"transit":false},{"i_lat":-6.161728,"line":11,"i_long":106.839204,"distance":1436,"is_transit":false,"station_id":"KMO","transit":false,"station_name":"Kemayoran","time":4},{"line":11,"i_lat":-6.14505,"distance":1901,"is_transit":false,"i_long":106.836569,"station_name":"Rajawali","station_id":"RJW","transit":false,"time":5},{"is_transit":true,"time":3,"distance":1444,"i_long":106.826365,"station_id":"KPB","transit":true,"station_name":"Kampung Bandan","i_lat":-6.132549,"line":4},{"station_id":"AK","transit":false,"line":1,"station_name":"Angke","time":9,"is_transit":false,"distance":4102,"i_lat":-6.144674,"i_long":106.79867},{"time":4,"distance":1230,"i_long":106.800832,"i_lat":-6.155215,"line":1,"station_name":"Duri","station_id":"DU","transit":false,"is_transit":false},{"distance":3632,"i_lat":-6.185545,"station_name":"Tanah Abang","is_transit":true,"station_id":"THB","time":8,"i_long":106.811091,"transit":true,"line":1},{"line":6,"i_long":106.79689,"station_name":"Palmerah","i_lat":-6.207404,"transit":false,"is_transit":false,"time":6,"station_id":"PLM","distance":3191},{"i_lat":-6.237242,"time":7,"distance":3737,"is_transit":false,"transit":false,"i_long":106.780334,"station_id":"KBY","station_name":"Kebayoran","line":6},{"time":8,"distance":6218,"station_name":"Pondokranji","line":6,"transit":false,"station_id":"PDJ","i_lat":-6.276362,"is_transit":false,"i_long":106.74273},{"distance":2179,"time":3,"station_id":"JMU","i_long":106.728916,"line":6,"station_name":"Jurangmangu","transit":false,"is_transit":false,"i_lat":-6.288927},{"line":6,"time":4,"station_id":"SDM","i_long":106.712277,"i_lat":-6.296963,"transit":false,"station_name":"Sudimara","distance":1994,"is_transit":false},{"time":6,"is_transit":false,"station_id":"RU","distance":4566,"station_name":"Rawa Buntu","transit":false,"i_lat":-6.314823,"i_long":106.675475,"line":6},{"time":4,"i_lat":-6.319871,"station_name":"Serpong","i_long":106.66566,"distance":2413,"transit":false,"is_transit":false,"station_id":"SRP","line":6},{"i_long":106.640411,"station_id":"CSK","distance":1784,"is_transit":false,"transit":false,"i_lat":-6.32484,"station_name":"Cisauk","time":4,"line":3}]]}