{"data":[[{"time":0,"i_lat":-6.255332,"station_id":"DRN","distance":0,"transit":false,"i_long":106.85449,"station_name":"Duren Kalibata","is_transit":false,"line":0},{"is_transit":false,"time":3,"transit":false,"distance":1546,"i_long":106.856607,"station_name":"Cawang","i_lat":-6.242512,"line":0,"station_id":"CW"},{"transit":false,"station_id":"TEB","station_name":"Tebet","i_long":106.857948,"time":2,"is_transit":false,"distance":1230,"i_lat":-6.226659,"line":2},{"station_name":"Manggarai","time":4,"line":0,"station_id":"MRI","i_long":106.84912,"is_transit":true,"distance":2610,"transit":true,"i_lat":-6.209883},{"station_name":"Cikini","transit":false,"line":0,"station_id":"CKI","is_transit":false,"time":4,"distance":1590,"i_lat":-6.198556,"i_long":106.840169},{"is_transit":false,"i_long":106.832183,"transit":false,"i_lat":-6.186295,"station_name":"Gondangdia","distance":1750,"line":2,"time":3,"station_id":"GDD"},{"time":4,"transit":false,"i_lat":-6.166716,"station_id":"JUA","is_transit":false,"line":2,"distance":2015,"i_long":106.828284,"station_name":"Juanda"},{"i_lat":-6.160725,"i_long":106.827103,"is_transit":false,"station_id":"SW","distance":1149,"station_name":"Sawah Besar","line":2,"time":2,"transit":false},{"line":2,"i_long":106.82482,"time":2,"transit":false,"station_id":"MGB","distance":906,"i_lat":-6.149769,"station_name":"Manggabesar","is_transit":false},{"i_long":106.820901,"station_name":"Jayakarta","distance":1080,"line":7,"station_id":"JAY","is_transit":false,"i_lat":-6.141205,"time":2,"transit":false},{"station_id":"JAKK","transit":false,"is_transit":true,"distance":1264,"time":4,"i_long":106.812439,"line":0,"station_name":"Jakarta Kota","i_lat":-6.137569}],[{"is_transit":false,"station_name":"Duren Kalibata","station_id":"DRN","distance":0,"i_long":106.85449,"i_lat":-6.255332,"line":0,"time":0,"transit":false},{"i_long":106.856607,"station_name":"Cawang","i_lat":-6.242512,"transit":false,"line":0,"time":3,"station_id":"CW","distance":1546,"is_transit":false},{"time":2,"station_id":"TEB","distance":1230,"line":2,"i_long":106.857948,"i_lat":-6.226659,"station_name":"Tebet","transit":false,"is_transit":false},{"station_name":"Manggarai","is_transit":true,"time":4,"transit":true,"i_lat":-6.209883,"i_long":106.84912,"line":0,"station_id":"MRI","distance":2610},{"time":4,"i_lat":-6.202263,"distance":3186,"line":1,"station_id":"SUD","transit":false,"i_long":106.822649,"is_transit":false,"station_name":"Sudirman"},{"i_long":106.819881,"time":1,"station_id":"SUDB","station_name":"Sudirman Baru","is_transit":false,"distance":280,"line":1,"transit":false,"i_lat":-6.201433},{"i_long":106.816351,"line":1,"time":1,"station_name":"Karet","distance":471,"transit":false,"i_lat":-6.20132,"is_transit":false,"station_id":"KAT"},{"is_transit":true,"station_name":"Tanah Abang","distance":2029,"i_lat":-6.185545,"transit":false,"line":1,"station_id":"THB","i_long":106.811091,"time":5},{"transit":true,"line":1,"station_name":"Duri","distance":3632,"i_lat":-6.155215,"i_long":106.800832,"is_transit":true,"station_id":"DU","time":8},{"distance":1230,"station_name":"Angke","line":0,"station_id":"AK","time":4,"transit":false,"is_transit":false,"i_lat":-6.144674,"i_long":106.79867},{"line":0,"distance":4102,"i_lat":-6.132549,"transit":false,"station_name":"Kampung Bandan","is_transit":true,"i_long":106.826365,"time":9,"station_id":"KPB"},{"i_long":106.812439,"i_lat":-6.137569,"time":3,"is_transit":true,"distance":1364,"station_name":"Jakarta Kota","line":0,"transit":false,"station_id":"JAKK"}],[{"time":0,"is_transit":false,"station_name":"Duren Kalibata","distance":0,"transit":false,"i_long":106.85449,"station_id":"DRN","line":0,"i_lat":-6.255332},{"time":3,"transit":false,"line":0,"i_long":106.856607,"station_id":"CW","station_name":"Cawang","distance":1546,"i_lat":-6.242512,"is_transit":false},{"i_long":106.857948,"line":2,"transit":false,"station_id":"TEB","time":2,"station_name":"Tebet","distance":1230,"is_transit":false,"i_lat":-6.226659},{"i_long":106.84912,"station_name":"Manggarai","time":4,"transit":true,"station_id":"MRI","distance":2610,"i_lat":-6.209883,"line":0,"is_transit":true},{"i_lat":-6.212485,"line":1,"is_transit":false,"station_name":"Matraman","station_id":"MTR","transit":false,"distance":1275,"i_long":106.858896,"time":2},{"i_long":106.86807400000001,"transit":true,"i_lat":-6.215091,"distance":1377,"time":8,"line":0,"station_id":"JNG","is_transit":true,"station_name":"Jatinegara"},{"station_id":"POK","time":2,"station_name":"Pondok Jati","i_lat":-6.209188,"is_transit":false,"transit":false,"distance":1236,"line":11,"i_long":106.861737},{"is_transit":false,"i_long":106.855437,"station_id":"KMT","time":2,"distance":1829,"i_lat":-6.193792,"line":11,"station_name":"Kramat","transit":false},{"i_long":106.850107,"time":1,"is_transit":false,"transit":false,"station_id":"GST","line":11,"i_lat":-6.185975,"distance":973,"station_name":"Gang Sentiong"},{"transit":false,"station_name":"Pasar Senen","is_transit":false,"distance":1567,"station_id":"PSE","time":8,"i_lat":-6.174784,"i_long":106.84368,"line":11},{"station_name":"Kemayoran","transit":false,"station_id":"KMO","time":4,"distance":1436,"i_lat":-6.161728,"i_long":106.839204,"line":11,"is_transit":false},{"station_name":"Rajawali","is_transit":false,"distance":1901,"line":11,"station_id":"RJW","time":5,"i_lat":-6.14505,"i_long":106.836569,"transit":false},{"distance":1444,"is_transit":true,"i_long":106.826365,"station_id":"KPB","station_name":"Kampung Bandan","time":3,"i_lat":-6.132549,"line":0,"transit":true},{"distance":1364,"transit":false,"time":3,"station_id":"JAKK","station_name":"Jakarta Kota","i_lat":-6.137569,"is_transit":true,"line":0,"i_long":106.812439}]]}