{"data":[[{"i_lat":-6.255332,"is_transit":false,"i_long":106.85449,"time":0,"transit":false,"station_name":"Duren Kalibata","distance":0,"station_id":"DRN","line":0},{"station_id":"CW","distance":1546,"i_lat":-6.242512,"is_transit":false,"transit":false,"line":0,"i_long":106.856607,"time":3,"station_name":"Cawang"},{"time":2,"station_name":"Tebet","station_id":"TEB","distance":1230,"i_long":106.857948,"is_transit":false,"i_lat":-6.226659,"transit":false,"line":2},{"station_id":"MRI","transit":true,"station_name":"Manggarai","time":4,"is_transit":true,"i_lat":-6.209883,"line":0,"i_long":106.84912,"distance":2610},{"station_id":"SUD","i_long":106.822649,"station_name":"Sudirman","line":1,"i_lat":-6.202263,"distance":3186,"time":4,"transit":false,"is_transit":false},{"i_lat":-6.201433,"time":1,"station_id":"SUDB","is_transit":false,"distance":280,"transit":false,"line":1,"i_long":106.819881,"station_name":"Sudirman Baru"},{"station_id":"KAT","i_lat":-6.20132,"station_name":"Karet","i_long":106.816351,"is_transit":false,"transit":false,"line":1,"distance":471,"time":1},{"line":1,"is_transit":true,"station_id":"THB","i_lat":-6.185545,"i_long":106.811091,"transit":false,"station_name":"Tanah Abang","time":5,"distance":2029},{"line":1,"i_lat":-6.155215,"distance":3632,"transit":true,"time":8,"i_long":106.800832,"station_id":"DU","is_transit":true,"station_name":"Duri"},{"i_lat":-6.162021,"station_id":"GGL","transit":false,"distance":1700,"i_long":106.788277,"time":3,"line":5,"station_name":"Grogol","is_transit":false},{"i_long":106.771379,"i_lat":-6.161433,"line":5,"station_name":"Pesing","station_id":"PSG","distance":2036,"is_transit":false,"transit":false,"time":2},{"i_long":106.756522,"transit":false,"is_transit":false,"distance":1614,"time":2,"i_lat":-6.1587309999999995,"line":5,"station_name":"Taman Kota","station_id":"TKO"},{"station_name":"Bojongindah","is_transit":false,"i_lat":-6.159876,"time":2,"i_long":106.737035,"transit":false,"distance":2334,"station_id":"BOI","line":0},{"i_lat":-6.162758,"i_long":106.723064,"transit":false,"station_id":"RW","distance":1152,"station_name":"Rawa Buaya","is_transit":false,"time":4,"line":5}],[{"station_id":"DRN","i_long":106.85449,"transit":false,"station_name":"Duren Kalibata","line":0,"distance":0,"time":0,"is_transit":false,"i_lat":-6.255332},{"station_id":"CW","distance":1546,"station_name":"Cawang","time":3,"i_lat":-6.242512,"line":0,"is_transit":false,"transit":false,"i_long":106.856607},{"transit":false,"time":2,"i_long":106.857948,"line":2,"i_lat":-6.226659,"station_name":"Tebet","station_id":"TEB","distance":1230,"is_transit":false},{"distance":2610,"i_lat":-6.209883,"station_id":"MRI","is_transit":true,"time":4,"i_long":106.84912,"line":0,"transit":true,"station_name":"Manggarai"},{"station_id":"CKI","time":4,"distance":1590,"transit":false,"line":0,"i_long":106.840169,"is_transit":false,"station_name":"Cikini","i_lat":-6.198556},{"i_lat":-6.186295,"distance":1750,"station_name":"Gondangdia","transit":false,"time":3,"line":2,"is_transit":false,"station_id":"GDD","i_long":106.832183},{"distance":2015,"station_name":"Juanda","time":4,"i_lat":-6.166716,"i_long":106.828284,"line":2,"station_id":"JUA","transit":false,"is_transit":false},{"station_name":"Sawah Besar","transit":false,"time":2,"is_transit":false,"station_id":"SW","distance":1149,"i_lat":-6.160725,"i_long":106.827103,"line":2},{"transit":false,"i_long":106.82482,"i_lat":-6.149769,"station_id":"MGB","line":2,"time":2,"distance":906,"is_transit":false,"station_name":"Manggabesar"},{"line":7,"station_id":"JAY","distance":1080,"i_lat":-6.141205,"is_transit":false,"transit":false,"station_name":"Jayakarta","time":2,"i_long":106.820901},{"time":4,"i_lat":-6.137569,"transit":true,"i_long":106.812439,"distance":1264,"station_id":"JAKK","is_transit":true,"station_name":"Jakarta Kota","line":0},{"is_transit":true,"station_name":"Kampung Bandan","i_lat":-6.132549,"i_long":106.826365,"distance":1364,"station_id":"KPB","transit":false,"time":3,"line":0},{"distance":4102,"i_long":106.79867,"is_transit":false,"time":9,"line":0,"station_name":"Angke","i_lat":-6.144674,"station_id":"AK","transit":false},{"transit":true,"line":1,"distance":1230,"station_name":"Duri","is_transit":true,"i_lat":-6.155215,"time":4,"i_long":106.800832,"station_id":"DU"},{"is_transit":false,"transit":false,"station_id":"GGL","line":5,"i_lat":-6.162021,"distance":1700,"station_name":"Grogol","i_long":106.788277,"time":3},{"line":5,"transit":false,"station_id":"PSG","i_lat":-6.161433,"station_name":"Pesing","time":2,"is_transit":false,"i_long":106.771379,"distance":2036},{"is_transit":false,"transit":false,"time":2,"i_lat":-6.1587309999999995,"distance":1614,"line":5,"station_name":"Taman Kota","station_id":"TKO","i_long":106.756522},{"station_id":"BOI","distance":2334,"i_lat":-6.159876,"line":0,"station_name":"Bojongindah","transit":false,"i_long":106.737035,"is_transit":false,"time":2},{"station_id":"RW","station_name":"Rawa Buaya","distance":1152,"i_lat":-6.162758,"i_long":106.723064,"is_transit":false,"transit":false,"time":4,"line":5}],[{"is_transit":false,"transit":false,"distance":0,"time":0,"station_id":"DRN","station_name":"Duren Kalibata","i_lat":-6.255332,"line":0,"i_long":106.85449},{"station_name":"Cawang","transit":false,"station_id":"CW","time":3,"i_long":106.856607,"i_lat":-6.242512,"line":0,"distance":1546,"is_transit":false},{"i_long":106.857948,"station_id":"TEB","line":2,"is_transit":false,"transit":false,"distance":1230,"station_name":"Tebet","time":2,"i_lat":-6.226659},{"station_name":"Manggarai","station_id":"MRI","line":0,"i_long":106.84912,"distance":2610,"is_transit":true,"i_lat":-6.209883,"transit":true,"time":4},{"i_lat":-6.212485,"line":1,"time":2,"distance":1275,"is_transit":false,"i_long":106.858896,"station_id":"MTR","station_name":"Matraman","transit":false},{"station_name":"Jatinegara","station_id":"JNG","distance":1377,"line":0,"i_lat":-6.215091,"time":8,"transit":true,"i_long":106.86807400000001,"is_transit":true},{"time":2,"distance":1236,"i_lat":-6.209188,"is_transit":false,"station_name":"Pondok Jati","i_long":106.861737,"transit":false,"line":11,"station_id":"POK"},{"is_transit":false,"distance":1829,"station_name":"Kramat","time":2,"line":11,"i_long":106.855437,"i_lat":-6.193792,"transit":false,"station_id":"KMT"},{"transit":false,"i_lat":-6.185975,"station_name":"Gang Sentiong","station_id":"GST","time":1,"is_transit":false,"i_long":106.850107,"line":11,"distance":973},{"i_lat":-6.174784,"i_long":106.84368,"transit":false,"line":11,"distance":1567,"is_transit":false,"station_id":"PSE","time":8,"station_name":"Pasar Senen"},{"station_name":"Kemayoran","time":4,"i_lat":-6.161728,"line":11,"transit":false,"is_transit":false,"station_id":"KMO","i_long":106.839204,"distance":1436},{"transit":false,"line":11,"station_id":"RJW","distance":1901,"time":5,"is_transit":false,"i_long":106.836569,"i_lat":-6.14505,"station_name":"Rajawali"},{"station_name":"Kampung Bandan","i_lat":-6.132549,"station_id":"KPB","is_transit":true,"time":3,"distance":1444,"i_long":106.826365,"transit":true,"line":0},{"i_long":106.79867,"time":9,"is_transit":false,"transit":false,"station_id":"AK","station_name":"Angke","distance":4102,"i_lat":-6.144674,"line":0},{"i_long":106.800832,"station_id":"DU","station_name":"Duri","i_lat":-6.155215,"line":1,"is_transit":true,"transit":true,"distance":1230,"time":4},{"station_name":"Grogol","transit":false,"time":3,"i_lat":-6.162021,"distance":1700,"station_id":"GGL","i_long":106.788277,"is_transit":false,"line":5},{"i_lat":-6.161433,"i_long":106.771379,"distance":2036,"time":2,"station_name":"Pesing","is_transit":false,"line":5,"transit":false,"station_id":"PSG"},{"i_long":106.756522,"transit":false,"station_id":"TKO","time":2,"distance":1614,"station_name":"Taman Kota","i_lat":-6.1587309999999995,"line":5,"is_transit":false},{"transit":false,"station_id":"BOI","station_name":"Bojongindah","line":0,"distance":2334,"is_transit":false,"time":2,"i_lat":-6.159876,"i_long":106.737035},{"station_name":"Rawa Buaya","distance":1152,"line":5,"station_id":"RW","i_lat":-6.162758,"i_long":106.723064,"transit":false,"is_transit":false,"time":4}]]}