{"data":[[{"station_id":"DRN","is_transit":false,"i_long":106.85449,"i_lat":-6.255332,"time":0,"transit":false,"distance":0,"line":2,"station_name":"Duren Kalibata"},{"distance":1546,"transit":false,"station_id":"CW","line":2,"is_transit":false,"i_long":106.856607,"i_lat":-6.242512,"time":3,"station_name":"Cawang"},{"station_id":"TEB","time":2,"distance":1230,"i_long":106.857948,"station_name":"Tebet","transit":false,"i_lat":-6.226659,"line":2,"is_transit":false},{"line":2,"is_transit":true,"i_lat":-6.209883,"station_name":"Manggarai","i_long":106.84912,"time":4,"station_id":"MRI","transit":true,"distance":2610},{"transit":false,"station_name":"Sudirman","i_long":106.822649,"time":4,"distance":3186,"is_transit":false,"line":1,"i_lat":-6.202263,"station_id":"SUD"},{"transit":false,"time":1,"station_name":"Sudirman Baru","distance":280,"i_long":106.819881,"line":1,"i_lat":-6.201433,"station_id":"SUDB","is_transit":false},{"i_long":106.816351,"station_id":"KAT","station_name":"Karet","time":1,"is_transit":false,"distance":471,"i_lat":-6.20132,"transit":false,"line":1},{"i_long":106.811091,"station_name":"Tanah Abang","line":1,"transit":true,"distance":2029,"station_id":"THB","time":5,"is_transit":true,"i_lat":-6.185545},{"time":6,"distance":3191,"transit":false,"i_lat":-6.207404,"station_id":"PLM","is_transit":false,"i_long":106.79689,"line":6,"station_name":"Palmerah"},{"i_lat":-6.237242,"i_long":106.780334,"line":6,"is_transit":false,"transit":false,"time":7,"station_id":"KBY","distance":3737,"station_name":"Kebayoran"},{"time":8,"distance":6218,"transit":false,"i_lat":-6.276362,"station_id":"PDJ","line":6,"is_transit":false,"station_name":"Pondokranji","i_long":106.74273},{"station_name":"Jurangmangu","i_long":106.728916,"time":3,"is_transit":false,"distance":2179,"station_id":"JMU","i_lat":-6.288927,"transit":false,"line":6},{"time":4,"line":6,"station_name":"Sudimara","distance":1994,"i_lat":-6.296963,"i_long":106.712277,"is_transit":false,"transit":false,"station_id":"SDM"},{"station_name":"Rawa Buntu","is_transit":false,"transit":false,"line":6,"i_long":106.675475,"i_lat":-6.314823,"distance":4566,"time":6,"station_id":"RU"},{"station_id":"SRP","station_name":"Serpong","i_lat":-6.319871,"distance":2413,"i_long":106.66566,"is_transit":false,"time":4,"line":6,"transit":false},{"time":4,"transit":false,"i_lat":-6.32484,"i_long":106.640411,"station_id":"CSK","is_transit":false,"line":3,"distance":1784,"station_name":"Cisauk"},{"i_lat":-6.329547,"i_long":106.617853,"time":4,"station_id":"CC","distance":2519,"line":3,"is_transit":false,"transit":false,"station_name":"Cicayur"},{"time":8,"distance":5968,"i_long":106.568863,"station_name":"Parung Panjang","is_transit":false,"station_id":"PRP","transit":false,"i_lat":-6.3441410000000005,"line":6},{"i_lat":-6.354349,"station_name":"Cilejit","is_transit":false,"i_long":106.508482,"time":9,"distance":7025,"transit":false,"line":3,"station_id":"CJT"}],[{"i_long":106.85449,"is_transit":false,"i_lat":-6.255332,"transit":false,"station_id":"DRN","time":0,"distance":0,"station_name":"Duren Kalibata","line":2},{"i_long":106.856607,"line":2,"transit":false,"station_name":"Cawang","is_transit":false,"distance":1546,"time":3,"i_lat":-6.242512,"station_id":"CW"},{"transit":false,"station_name":"Tebet","is_transit":false,"distance":1230,"time":2,"station_id":"TEB","i_lat":-6.226659,"i_long":106.857948,"line":2},{"i_long":106.84912,"distance":2610,"i_lat":-6.209883,"station_name":"Manggarai","transit":false,"time":4,"is_transit":false,"station_id":"MRI","line":2},{"station_name":"Cikini","is_transit":false,"transit":false,"i_lat":-6.198556,"time":4,"station_id":"CKI","i_long":106.840169,"distance":1590,"line":2},{"i_long":106.832183,"distance":1750,"is_transit":false,"time":3,"line":2,"transit":false,"station_name":"Gondangdia","station_id":"GDD","i_lat":-6.186295},{"i_long":106.828284,"is_transit":false,"station_id":"JUA","distance":2015,"i_lat":-6.166716,"transit":false,"station_name":"Juanda","line":2,"time":4},{"line":2,"distance":1149,"i_lat":-6.160725,"is_transit":false,"transit":false,"i_long":106.827103,"station_id":"SW","station_name":"Sawah Besar","time":2},{"station_name":"Manggabesar","line":2,"station_id":"MGB","time":2,"i_lat":-6.149769,"transit":false,"is_transit":false,"i_long":106.82482,"distance":906},{"time":2,"transit":false,"i_long":106.820901,"line":2,"station_name":"Jayakarta","distance":1080,"i_lat":-6.141205,"is_transit":false,"station_id":"JAY"},{"i_long":106.812439,"i_lat":-6.137569,"station_name":"Jakarta Kota","line":2,"distance":1264,"station_id":"JAKK","is_transit":true,"time":4,"transit":true},{"line":4,"time":3,"distance":1364,"station_id":"KPB","station_name":"Kampung Bandan","i_lat":-6.132549,"is_transit":true,"transit":true,"i_long":106.826365},{"line":1,"distance":4102,"station_name":"Angke","transit":false,"station_id":"AK","i_long":106.79867,"time":9,"i_lat":-6.144674,"is_transit":false},{"i_lat":-6.155215,"i_long":106.800832,"line":1,"transit":false,"distance":1230,"time":4,"is_transit":false,"station_name":"Duri","station_id":"DU"},{"is_transit":true,"distance":3632,"i_long":106.811091,"line":1,"station_name":"Tanah Abang","station_id":"THB","i_lat":-6.185545,"transit":true,"time":8},{"transit":false,"line":6,"is_transit":false,"time":6,"i_lat":-6.207404,"i_long":106.79689,"station_id":"PLM","distance":3191,"station_name":"Palmerah"},{"time":7,"transit":false,"station_id":"KBY","i_lat":-6.237242,"is_transit":false,"line":6,"i_long":106.780334,"distance":3737,"station_name":"Kebayoran"},{"transit":false,"is_transit":false,"distance":6218,"line":6,"station_name":"Pondokranji","station_id":"PDJ","i_lat":-6.276362,"i_long":106.74273,"time":8},{"time":3,"distance":2179,"station_id":"JMU","station_name":"Jurangmangu","transit":false,"is_transit":false,"i_long":106.728916,"line":6,"i_lat":-6.288927},{"station_id":"SDM","i_long":106.712277,"line":6,"time":4,"is_transit":false,"station_name":"Sudimara","transit":false,"distance":1994,"i_lat":-6.296963},{"is_transit":false,"station_id":"RU","distance":4566,"i_lat":-6.314823,"station_name":"Rawa Buntu","transit":false,"line":6,"time":6,"i_long":106.675475},{"station_name":"Serpong","station_id":"SRP","i_lat":-6.319871,"transit":false,"distance":2413,"is_transit":false,"i_long":106.66566,"time":4,"line":6},{"i_lat":-6.32484,"station_name":"Cisauk","station_id":"CSK","line":3,"is_transit":false,"distance":1784,"time":4,"i_long":106.640411,"transit":false},{"distance":2519,"i_lat":-6.329547,"station_name":"Cicayur","i_long":106.617853,"time":4,"transit":false,"is_transit":false,"station_id":"CC","line":3},{"is_transit":false,"station_id":"PRP","transit":false,"distance":5968,"i_lat":-6.3441410000000005,"i_long":106.568863,"time":8,"station_name":"Parung Panjang","line":6},{"time":9,"transit":false,"station_id":"CJT","is_transit":false,"line":3,"i_lat":-6.354349,"station_name":"Cilejit","i_long":106.508482,"distance":7025}],[{"station_name":"Duren Kalibata","i_long":106.85449,"time":0,"i_lat":-6.255332,"station_id":"DRN","distance":0,"transit":false,"line":2,"is_transit":false},{"distance":1546,"i_lat":-6.242512,"line":2,"is_transit":false,"station_id":"CW","station_name":"Cawang","time":3,"i_long":106.856607,"transit":false},{"station_name":"Tebet","time":2,"line":2,"distance":1230,"i_lat":-6.226659,"station_id":"TEB","transit":false,"i_long":106.857948,"is_transit":false},{"i_long":106.84912,"transit":true,"is_transit":true,"station_id":"MRI","line":2,"distance":2610,"station_name":"Manggarai","i_lat":-6.209883,"time":4},{"station_id":"MTR","transit":false,"time":2,"station_name":"Matraman","i_lat":-6.212485,"distance":1275,"is_transit":false,"i_long":106.858896,"line":1},{"time":8,"i_lat":-6.215091,"station_name":"Jatinegara","i_long":106.86807400000001,"distance":1377,"transit":true,"is_transit":true,"station_id":"JNG","line":1},{"i_long":106.861737,"distance":1236,"station_id":"POK","time":2,"i_lat":-6.209188,"station_name":"Pondok Jati","is_transit":false,"line":11,"transit":false},{"i_long":106.855437,"line":11,"transit":false,"station_id":"KMT","i_lat":-6.193792,"is_transit":false,"station_name":"Kramat","time":2,"distance":1829},{"station_name":"Gang Sentiong","distance":973,"is_transit":false,"station_id":"GST","i_lat":-6.185975,"i_long":106.850107,"transit":false,"time":1,"line":11},{"transit":false,"i_lat":-6.174784,"line":11,"time":8,"distance":1567,"station_name":"Pasar Senen","is_transit":false,"station_id":"PSE","i_long":106.84368},{"station_id":"KMO","line":11,"distance":1436,"time":4,"transit":false,"is_transit":false,"i_long":106.839204,"i_lat":-6.161728,"station_name":"Kemayoran"},{"time":5,"station_id":"RJW","line":11,"distance":1901,"transit":false,"is_transit":false,"i_long":106.836569,"station_name":"Rajawali","i_lat":-6.14505},{"distance":1444,"line":4,"station_name":"Kampung Bandan","i_lat":-6.132549,"i_long":106.826365,"is_transit":true,"transit":true,"station_id":"KPB","time":3},{"i_long":106.79867,"transit":false,"station_id":"AK","time":9,"station_name":"Angke","distance":4102,"is_transit":false,"line":1,"i_lat":-6.144674},{"time":4,"line":1,"transit":false,"i_lat":-6.155215,"station_id":"DU","distance":1230,"i_long":106.800832,"is_transit":false,"station_name":"Duri"},{"is_transit":true,"i_long":106.811091,"distance":3632,"time":8,"line":1,"station_name":"Tanah Abang","transit":true,"i_lat":-6.185545,"station_id":"THB"},{"i_lat":-6.207404,"line":6,"station_name":"Palmerah","station_id":"PLM","is_transit":false,"i_long":106.79689,"distance":3191,"transit":false,"time":6},{"i_lat":-6.237242,"i_long":106.780334,"line":6,"station_id":"KBY","transit":false,"station_name":"Kebayoran","distance":3737,"is_transit":false,"time":7},{"station_id":"PDJ","is_transit":false,"i_long":106.74273,"distance":6218,"line":6,"time":8,"i_lat":-6.276362,"station_name":"Pondokranji","transit":false},{"station_id":"JMU","transit":false,"i_lat":-6.288927,"distance":2179,"i_long":106.728916,"line":6,"station_name":"Jurangmangu","time":3,"is_transit":false},{"line":6,"time":4,"i_lat":-6.296963,"station_name":"Sudimara","i_long":106.712277,"is_transit":false,"distance":1994,"station_id":"SDM","transit":false},{"is_transit":false,"i_long":106.675475,"distance":4566,"time":6,"i_lat":-6.314823,"line":6,"station_name":"Rawa Buntu","station_id":"RU","transit":false},{"station_name":"Serpong","distance":2413,"i_lat":-6.319871,"i_long":106.66566,"transit":false,"line":6,"time":4,"is_transit":false,"station_id":"SRP"},{"i_long":106.640411,"transit":false,"distance":1784,"station_id":"CSK","line":3,"time":4,"station_name":"Cisauk","i_lat":-6.32484,"is_transit":false},{"transit":false,"station_name":"Cicayur","i_lat":-6.329547,"i_long":106.617853,"distance":2519,"line":3,"station_id":"CC","time":4,"is_transit":false},{"line":6,"is_transit":false,"distance":5968,"time":8,"i_lat":-6.3441410000000005,"i_long":106.568863,"transit":false,"station_id":"PRP","station_name":"Parung Panjang"},{"time":9,"i_lat":-6.354349,"distance":7025,"station_id":"CJT","is_transit":false,"station_name":"Cilejit","i_long":106.508482,"line":3,"transit":false}]]}