{"data":[[{"i_lat":-6.255332,"station_id":"DRN","is_transit":false,"transit":false,"station_name":"Duren Kalibata","line":2,"i_long":106.85449,"time":0,"distance":0},{"station_name":"Cawang","station_id":"CW","i_long":106.856607,"time":3,"distance":1546,"i_lat":-6.242512,"transit":false,"is_transit":false,"line":2},{"time":2,"distance":1230,"i_long":106.857948,"line":2,"transit":false,"station_name":"Tebet","is_transit":false,"station_id":"TEB","i_lat":-6.226659},{"line":2,"time":4,"distance":2610,"transit":true,"station_id":"MRI","is_transit":true,"station_name":"Manggarai","i_lat":-6.209883,"i_long":106.84912},{"station_id":"SUD","time":4,"station_name":"Sudirman","line":1,"is_transit":false,"transit":false,"distance":3186,"i_lat":-6.202263,"i_long":106.822649},{"station_name":"Sudirman Baru","transit":false,"station_id":"SUDB","is_transit":false,"time":1,"i_lat":-6.201433,"distance":280,"i_long":106.819881,"line":1},{"i_lat":-6.20132,"time":1,"station_id":"KAT","transit":false,"station_name":"Karet","line":1,"distance":471,"is_transit":false,"i_long":106.816351},{"station_id":"THB","transit":false,"is_transit":false,"i_lat":-6.185545,"line":1,"i_long":106.811091,"distance":2029,"time":5,"station_name":"Tanah Abang"},{"i_lat":-6.155215,"station_name":"Duri","transit":true,"line":1,"i_long":106.800832,"station_id":"DU","time":8,"is_transit":true,"distance":3632},{"station_name":"Grogol","line":5,"i_lat":-6.162021,"i_long":106.788277,"is_transit":false,"distance":1700,"transit":false,"time":3,"station_id":"GGL"},{"line":5,"station_name":"Pesing","i_long":106.771379,"is_transit":false,"i_lat":-6.161433,"transit":false,"distance":2036,"time":2,"station_id":"PSG"},{"i_lat":-6.1587309999999995,"i_long":106.756522,"station_name":"Taman Kota","is_transit":false,"station_id":"TKO","time":2,"line":5,"transit":false,"distance":1614},{"i_lat":-6.159876,"line":5,"distance":2334,"i_long":106.737035,"station_id":"BOI","transit":false,"time":2,"is_transit":false,"station_name":"Bojongindah"},{"transit":false,"time":4,"i_long":106.723064,"i_lat":-6.162758,"station_name":"Rawa Buaya","is_transit":false,"distance":1152,"line":5,"station_id":"RW"}],[{"station_id":"DRN","station_name":"Duren Kalibata","is_transit":false,"transit":false,"distance":0,"i_lat":-6.255332,"time":0,"line":2,"i_long":106.85449},{"is_transit":false,"i_long":106.856607,"i_lat":-6.242512,"distance":1546,"line":2,"station_name":"Cawang","time":3,"station_id":"CW","transit":false},{"i_lat":-6.226659,"line":2,"station_id":"TEB","is_transit":false,"time":2,"i_long":106.857948,"distance":1230,"transit":false,"station_name":"Tebet"},{"station_name":"Manggarai","is_transit":false,"distance":2610,"station_id":"MRI","i_lat":-6.209883,"time":4,"transit":false,"i_long":106.84912,"line":2},{"time":4,"line":2,"i_lat":-6.198556,"distance":1590,"i_long":106.840169,"station_name":"Cikini","station_id":"CKI","transit":false,"is_transit":false},{"line":2,"time":3,"station_name":"Gondangdia","transit":false,"station_id":"GDD","distance":1750,"is_transit":false,"i_lat":-6.186295,"i_long":106.832183},{"i_long":106.828284,"transit":false,"line":2,"distance":2015,"i_lat":-6.166716,"station_id":"JUA","is_transit":false,"time":4,"station_name":"Juanda"},{"station_name":"Sawah Besar","transit":false,"distance":1149,"i_lat":-6.160725,"i_long":106.827103,"time":2,"line":2,"station_id":"SW","is_transit":false},{"station_name":"Manggabesar","time":2,"i_long":106.82482,"station_id":"MGB","line":2,"is_transit":false,"transit":false,"distance":906,"i_lat":-6.149769},{"transit":false,"line":2,"station_id":"JAY","i_long":106.820901,"i_lat":-6.141205,"station_name":"Jayakarta","is_transit":false,"time":2,"distance":1080},{"transit":true,"time":4,"distance":1264,"i_lat":-6.137569,"is_transit":true,"i_long":106.812439,"station_name":"Jakarta Kota","station_id":"JAKK","line":2},{"line":4,"station_name":"Kampung Bandan","i_long":106.826365,"i_lat":-6.132549,"time":3,"station_id":"KPB","transit":true,"is_transit":true,"distance":1364},{"station_name":"Angke","station_id":"AK","distance":4102,"transit":false,"line":1,"i_long":106.79867,"i_lat":-6.144674,"is_transit":false,"time":9},{"time":4,"station_id":"DU","transit":true,"i_lat":-6.155215,"line":1,"station_name":"Duri","i_long":106.800832,"is_transit":true,"distance":1230},{"i_lat":-6.162021,"line":5,"station_name":"Grogol","i_long":106.788277,"is_transit":false,"time":3,"station_id":"GGL","distance":1700,"transit":false},{"transit":false,"is_transit":false,"i_lat":-6.161433,"station_name":"Pesing","line":5,"station_id":"PSG","time":2,"distance":2036,"i_long":106.771379},{"station_id":"TKO","time":2,"line":5,"distance":1614,"i_long":106.756522,"i_lat":-6.1587309999999995,"is_transit":false,"transit":false,"station_name":"Taman Kota"},{"i_long":106.737035,"station_name":"Bojongindah","distance":2334,"line":5,"i_lat":-6.159876,"station_id":"BOI","transit":false,"is_transit":false,"time":2},{"i_long":106.723064,"is_transit":false,"station_name":"Rawa Buaya","time":4,"distance":1152,"line":5,"station_id":"RW","transit":false,"i_lat":-6.162758}],[{"i_long":106.85449,"distance":0,"is_transit":false,"station_name":"Duren Kalibata","time":0,"transit":false,"i_lat":-6.255332,"line":2,"station_id":"DRN"},{"i_lat":-6.242512,"line":2,"is_transit":false,"transit":false,"time":3,"station_name":"Cawang","distance":1546,"i_long":106.856607,"station_id":"CW"},{"time":2,"distance":1230,"transit":false,"station_name":"Tebet","i_long":106.857948,"line":2,"i_lat":-6.226659,"station_id":"TEB","is_transit":false},{"distance":2610,"i_long":106.84912,"line":2,"station_id":"MRI","is_transit":true,"transit":true,"time":4,"i_lat":-6.209883,"station_name":"Manggarai"},{"i_long":106.858896,"line":1,"distance":1275,"i_lat":-6.212485,"time":2,"is_transit":false,"station_name":"Matraman","station_id":"MTR","transit":false},{"station_name":"Jatinegara","is_transit":true,"transit":true,"i_lat":-6.215091,"time":8,"line":1,"distance":1377,"station_id":"JNG","i_long":106.86807400000001},{"i_lat":-6.209188,"i_long":106.861737,"station_id":"POK","line":11,"distance":1236,"station_name":"Pondok Jati","time":2,"transit":false,"is_transit":false},{"is_transit":false,"distance":1829,"i_lat":-6.193792,"i_long":106.855437,"line":11,"station_id":"KMT","transit":false,"station_name":"Kramat","time":2},{"is_transit":false,"station_id":"GST","station_name":"Gang Sentiong","line":11,"i_lat":-6.185975,"i_long":106.850107,"distance":973,"time":1,"transit":false},{"station_id":"PSE","is_transit":false,"time":8,"distance":1567,"i_lat":-6.174784,"i_long":106.84368,"transit":false,"station_name":"Pasar Senen","line":11},{"time":4,"station_name":"Kemayoran","station_id":"KMO","distance":1436,"i_long":106.839204,"line":11,"transit":false,"i_lat":-6.161728,"is_transit":false},{"line":11,"distance":1901,"station_name":"Rajawali","is_transit":false,"i_long":106.836569,"station_id":"RJW","transit":false,"i_lat":-6.14505,"time":5},{"transit":true,"distance":1444,"i_lat":-6.132549,"i_long":106.826365,"line":4,"station_id":"KPB","is_transit":true,"time":3,"station_name":"Kampung Bandan"},{"is_transit":false,"station_id":"AK","i_lat":-6.144674,"station_name":"Angke","distance":4102,"line":1,"i_long":106.79867,"transit":false,"time":9},{"transit":true,"i_long":106.800832,"i_lat":-6.155215,"distance":1230,"station_name":"Duri","is_transit":true,"time":4,"line":1,"station_id":"DU"},{"station_id":"GGL","line":5,"i_lat":-6.162021,"transit":false,"station_name":"Grogol","distance":1700,"i_long":106.788277,"time":3,"is_transit":false},{"transit":false,"is_transit":false,"station_name":"Pesing","i_long":106.771379,"station_id":"PSG","distance":2036,"i_lat":-6.161433,"time":2,"line":5},{"time":2,"distance":1614,"i_lat":-6.1587309999999995,"station_name":"Taman Kota","i_long":106.756522,"transit":false,"line":5,"station_id":"TKO","is_transit":false},{"is_transit":false,"time":2,"distance":2334,"i_long":106.737035,"station_name":"Bojongindah","line":5,"station_id":"BOI","i_lat":-6.159876,"transit":false},{"transit":false,"distance":1152,"i_long":106.723064,"station_name":"Rawa Buaya","is_transit":false,"i_lat":-6.162758,"station_id":"RW","line":5,"time":4}]]}