{"data":[[{"i_long":106.85449,"is_transit":false,"i_lat":-6.255332,"distance":0,"station_id":"DRN","station_name":"Duren Kalibata","transit":false,"line":2,"time":0},{"station_name":"Cawang","distance":1546,"station_id":"CW","is_transit":false,"transit":false,"i_lat":-6.242512,"line":2,"time":3,"i_long":106.856607},{"i_long":106.857948,"line":2,"is_transit":false,"station_name":"Tebet","distance":1230,"station_id":"TEB","i_lat":-6.226659,"time":2,"transit":false},{"transit":true,"is_transit":true,"i_lat":-6.209883,"i_long":106.84912,"line":2,"time":4,"distance":2610,"station_id":"MRI","station_name":"Manggarai"},{"time":4,"distance":3186,"i_long":106.822649,"transit":false,"station_id":"SUD","station_name":"Sudirman","i_lat":-6.202263,"line":1,"is_transit":false},{"transit":false,"station_id":"SUDB","station_name":"Sudirman Baru","is_transit":false,"time":1,"i_long":106.819881,"line":1,"i_lat":-6.201433,"distance":280},{"time":1,"transit":false,"station_id":"KAT","i_lat":-6.20132,"is_transit":false,"line":1,"distance":471,"station_name":"Karet","i_long":106.816351},{"line":1,"i_long":106.811091,"station_id":"THB","time":5,"station_name":"Tanah Abang","is_transit":true,"transit":true,"distance":2029,"i_lat":-6.185545},{"time":6,"i_long":106.79689,"transit":false,"i_lat":-6.207404,"station_id":"PLM","station_name":"Palmerah","is_transit":false,"line":6,"distance":3191},{"line":6,"time":7,"i_lat":-6.237242,"distance":3737,"station_id":"KBY","station_name":"Kebayoran","transit":false,"i_long":106.780334,"is_transit":false}],[{"line":2,"time":0,"distance":0,"i_lat":-6.255332,"station_id":"DRN","station_name":"Duren Kalibata","transit":false,"i_long":106.85449,"is_transit":false},{"i_lat":-6.242512,"is_transit":false,"transit":false,"line":2,"time":3,"station_id":"CW","i_long":106.856607,"distance":1546,"station_name":"Cawang"},{"transit":false,"i_long":106.857948,"i_lat":-6.226659,"is_transit":false,"station_name":"Tebet","station_id":"TEB","line":2,"time":2,"distance":1230},{"line":2,"station_name":"Manggarai","distance":2610,"time":4,"is_transit":false,"i_lat":-6.209883,"station_id":"MRI","transit":false,"i_long":106.84912},{"station_id":"CKI","i_lat":-6.198556,"transit":false,"distance":1590,"station_name":"Cikini","time":4,"i_long":106.840169,"is_transit":false,"line":2},{"line":2,"i_lat":-6.186295,"is_transit":false,"distance":1750,"station_id":"GDD","time":3,"station_name":"Gondangdia","i_long":106.832183,"transit":false},{"distance":2015,"i_long":106.828284,"i_lat":-6.166716,"line":2,"transit":false,"is_transit":false,"station_id":"JUA","station_name":"Juanda","time":4},{"time":2,"line":2,"station_name":"Sawah Besar","i_lat":-6.160725,"distance":1149,"transit":false,"i_long":106.827103,"station_id":"SW","is_transit":false},{"is_transit":false,"time":2,"i_lat":-6.149769,"station_id":"MGB","i_long":106.82482,"distance":906,"line":2,"station_name":"Manggabesar","transit":false},{"transit":false,"station_id":"JAY","i_long":106.820901,"distance":1080,"station_name":"Jayakarta","line":2,"i_lat":-6.141205,"time":2,"is_transit":false},{"is_transit":true,"i_long":106.812439,"station_id":"JAKK","distance":1264,"i_lat":-6.137569,"time":4,"station_name":"Jakarta Kota","transit":true,"line":2},{"station_id":"KPB","station_name":"Kampung Bandan","is_transit":true,"i_lat":-6.132549,"time":3,"line":4,"distance":1364,"i_long":106.826365,"transit":true},{"transit":false,"i_long":106.79867,"distance":4102,"i_lat":-6.144674,"line":1,"station_name":"Angke","time":9,"station_id":"AK","is_transit":false},{"time":4,"i_lat":-6.155215,"line":1,"station_name":"Duri","distance":1230,"transit":false,"i_long":106.800832,"is_transit":false,"station_id":"DU"},{"transit":true,"time":8,"i_lat":-6.185545,"station_id":"THB","distance":3632,"line":1,"i_long":106.811091,"station_name":"Tanah Abang","is_transit":true},{"distance":3191,"station_id":"PLM","i_long":106.79689,"transit":false,"time":6,"station_name":"Palmerah","i_lat":-6.207404,"line":6,"is_transit":false},{"distance":3737,"i_long":106.780334,"time":7,"station_id":"KBY","transit":false,"station_name":"Kebayoran","is_transit":false,"i_lat":-6.237242,"line":6}],[{"station_id":"DRN","distance":0,"transit":false,"is_transit":false,"i_lat":-6.255332,"time":0,"line":2,"i_long":106.85449,"station_name":"Duren Kalibata"},{"transit":false,"i_lat":-6.242512,"line":2,"i_long":106.856607,"is_transit":false,"station_id":"CW","distance":1546,"station_name":"Cawang","time":3},{"time":2,"is_transit":false,"i_lat":-6.226659,"transit":false,"line":2,"distance":1230,"station_name":"Tebet","i_long":106.857948,"station_id":"TEB"},{"i_long":106.84912,"line":2,"transit":true,"distance":2610,"is_transit":true,"i_lat":-6.209883,"time":4,"station_name":"Manggarai","station_id":"MRI"},{"i_long":106.858896,"is_transit":false,"time":2,"transit":false,"line":1,"station_id":"MTR","distance":1275,"station_name":"Matraman","i_lat":-6.212485},{"time":8,"line":1,"transit":true,"station_name":"Jatinegara","is_transit":true,"i_lat":-6.215091,"distance":1377,"station_id":"JNG","i_long":106.86807400000001},{"is_transit":false,"line":11,"station_id":"POK","distance":1236,"transit":false,"station_name":"Pondok Jati","time":2,"i_lat":-6.209188,"i_long":106.861737},{"station_name":"Kramat","i_lat":-6.193792,"line":11,"transit":false,"distance":1829,"station_id":"KMT","time":2,"is_transit":false,"i_long":106.855437},{"i_long":106.850107,"is_transit":false,"distance":973,"transit":false,"station_name":"Gang Sentiong","i_lat":-6.185975,"line":11,"station_id":"GST","time":1},{"i_long":106.84368,"line":11,"station_name":"Pasar Senen","time":8,"station_id":"PSE","i_lat":-6.174784,"transit":false,"distance":1567,"is_transit":false},{"line":11,"i_long":106.839204,"station_id":"KMO","transit":false,"distance":1436,"time":4,"is_transit":false,"i_lat":-6.161728,"station_name":"Kemayoran"},{"station_id":"RJW","is_transit":false,"i_long":106.836569,"station_name":"Rajawali","time":5,"i_lat":-6.14505,"transit":false,"distance":1901,"line":11},{"distance":1444,"transit":true,"i_lat":-6.132549,"line":4,"station_name":"Kampung Bandan","time":3,"is_transit":true,"i_long":106.826365,"station_id":"KPB"},{"station_id":"AK","i_lat":-6.144674,"station_name":"Angke","transit":false,"is_transit":false,"i_long":106.79867,"time":9,"distance":4102,"line":1},{"transit":false,"station_name":"Duri","line":1,"time":4,"distance":1230,"i_lat":-6.155215,"i_long":106.800832,"station_id":"DU","is_transit":false},{"is_transit":true,"line":1,"distance":3632,"time":8,"i_lat":-6.185545,"station_name":"Tanah Abang","i_long":106.811091,"transit":true,"station_id":"THB"},{"is_transit":false,"transit":false,"i_lat":-6.207404,"station_name":"Palmerah","distance":3191,"time":6,"station_id":"PLM","line":6,"i_long":106.79689},{"i_lat":-6.237242,"station_id":"KBY","i_long":106.780334,"station_name":"Kebayoran","time":7,"distance":3737,"transit":false,"line":6,"is_transit":false}]]}