{"data":[[{"station_id":"DRN","line":0,"time":0,"transit":false,"i_lat":-6.255332,"is_transit":false,"distance":0,"station_name":"Duren Kalibata","i_long":106.85449},{"i_long":106.856607,"line":0,"transit":false,"is_transit":false,"distance":1546,"station_id":"CW","i_lat":-6.242512,"time":3,"station_name":"Cawang"},{"station_name":"Tebet","station_id":"TEB","distance":1230,"transit":false,"line":2,"is_transit":false,"i_lat":-6.226659,"i_long":106.857948,"time":2},{"is_transit":true,"i_lat":-6.209883,"time":4,"transit":true,"i_long":106.84912,"line":0,"station_id":"MRI","distance":2610,"station_name":"Manggarai"},{"i_long":106.822649,"station_name":"Sudirman","is_transit":false,"station_id":"SUD","distance":3186,"transit":false,"time":4,"i_lat":-6.202263,"line":1},{"line":1,"is_transit":false,"transit":false,"i_long":106.819881,"distance":280,"i_lat":-6.201433,"time":1,"station_name":"Sudirman Baru","station_id":"SUDB"},{"station_name":"Karet","station_id":"KAT","transit":false,"is_transit":false,"i_lat":-6.20132,"distance":471,"i_long":106.816351,"time":1,"line":1}],[{"i_long":106.85449,"distance":0,"is_transit":false,"time":0,"station_name":"Duren Kalibata","transit":false,"line":0,"station_id":"DRN","i_lat":-6.255332},{"station_id":"CW","transit":false,"distance":1546,"i_long":106.856607,"line":0,"time":3,"is_transit":false,"station_name":"Cawang","i_lat":-6.242512},{"distance":1230,"i_lat":-6.226659,"line":2,"is_transit":false,"time":2,"station_id":"TEB","station_name":"Tebet","transit":false,"i_long":106.857948},{"i_long":106.84912,"transit":true,"station_name":"Manggarai","distance":2610,"station_id":"MRI","line":0,"time":4,"i_lat":-6.209883,"is_transit":true},{"station_name":"Cikini","line":0,"station_id":"CKI","i_long":106.840169,"distance":1590,"i_lat":-6.198556,"is_transit":false,"time":4,"transit":false},{"i_long":106.832183,"time":3,"station_name":"Gondangdia","transit":false,"is_transit":false,"line":2,"i_lat":-6.186295,"distance":1750,"station_id":"GDD"},{"i_long":106.828284,"transit":false,"is_transit":false,"station_name":"Juanda","time":4,"i_lat":-6.166716,"line":2,"distance":2015,"station_id":"JUA"},{"line":2,"i_lat":-6.160725,"distance":1149,"station_name":"Sawah Besar","station_id":"SW","is_transit":false,"transit":false,"time":2,"i_long":106.827103},{"transit":false,"i_long":106.82482,"i_lat":-6.149769,"line":2,"distance":906,"station_name":"Manggabesar","is_transit":false,"station_id":"MGB","time":2},{"station_id":"JAY","i_lat":-6.141205,"station_name":"Jayakarta","time":2,"i_long":106.820901,"line":7,"is_transit":false,"distance":1080,"transit":false},{"station_name":"Jakarta Kota","distance":1264,"line":0,"transit":true,"time":4,"is_transit":true,"station_id":"JAKK","i_lat":-6.137569,"i_long":106.812439},{"station_id":"KPB","is_transit":true,"station_name":"Kampung Bandan","line":0,"distance":1364,"i_long":106.826365,"transit":false,"time":3,"i_lat":-6.132549},{"distance":4102,"line":0,"is_transit":false,"time":9,"i_long":106.79867,"station_id":"AK","transit":false,"station_name":"Angke","i_lat":-6.144674},{"station_name":"Duri","i_lat":-6.155215,"i_long":106.800832,"station_id":"DU","distance":1230,"line":1,"transit":true,"time":4,"is_transit":true},{"line":1,"i_lat":-6.185545,"distance":3632,"transit":false,"station_id":"THB","station_name":"Tanah Abang","i_long":106.811091,"is_transit":true,"time":8},{"line":1,"i_lat":-6.20132,"time":5,"transit":false,"station_name":"Karet","station_id":"KAT","distance":2029,"is_transit":false,"i_long":106.816351}],[{"time":0,"i_lat":-6.255332,"line":0,"i_long":106.85449,"distance":0,"station_name":"Duren Kalibata","station_id":"DRN","is_transit":false,"transit":false},{"i_lat":-6.242512,"i_long":106.856607,"time":3,"distance":1546,"station_id":"CW","station_name":"Cawang","transit":false,"is_transit":false,"line":0},{"i_lat":-6.226659,"transit":false,"station_id":"TEB","distance":1230,"time":2,"i_long":106.857948,"line":2,"is_transit":false,"station_name":"Tebet"},{"line":0,"station_name":"Manggarai","i_lat":-6.209883,"time":4,"station_id":"MRI","is_transit":true,"transit":true,"i_long":106.84912,"distance":2610},{"line":1,"time":2,"station_name":"Matraman","station_id":"MTR","is_transit":false,"i_lat":-6.212485,"i_long":106.858896,"transit":false,"distance":1275},{"i_long":106.86807400000001,"transit":true,"line":0,"is_transit":true,"time":8,"station_id":"JNG","distance":1377,"i_lat":-6.215091,"station_name":"Jatinegara"},{"i_long":106.861737,"time":2,"distance":1236,"i_lat":-6.209188,"line":11,"is_transit":false,"station_id":"POK","transit":false,"station_name":"Pondok Jati"},{"i_long":106.855437,"transit":false,"line":11,"station_id":"KMT","time":2,"station_name":"Kramat","is_transit":false,"i_lat":-6.193792,"distance":1829},{"station_id":"GST","time":1,"line":11,"transit":false,"is_transit":false,"distance":973,"station_name":"Gang Sentiong","i_lat":-6.185975,"i_long":106.850107},{"distance":1567,"is_transit":false,"transit":false,"line":11,"i_long":106.84368,"time":8,"station_id":"PSE","station_name":"Pasar Senen","i_lat":-6.174784},{"distance":1436,"station_id":"KMO","is_transit":false,"i_lat":-6.161728,"line":11,"station_name":"Kemayoran","i_long":106.839204,"time":4,"transit":false},{"distance":1901,"time":5,"station_id":"RJW","line":11,"i_lat":-6.14505,"is_transit":false,"i_long":106.836569,"transit":false,"station_name":"Rajawali"},{"is_transit":true,"i_lat":-6.132549,"station_name":"Kampung Bandan","station_id":"KPB","time":3,"distance":1444,"i_long":106.826365,"transit":true,"line":0},{"station_id":"AK","line":0,"i_long":106.79867,"time":9,"is_transit":false,"station_name":"Angke","distance":4102,"transit":false,"i_lat":-6.144674},{"station_name":"Duri","transit":true,"distance":1230,"i_long":106.800832,"i_lat":-6.155215,"station_id":"DU","line":1,"time":4,"is_transit":true},{"station_id":"THB","station_name":"Tanah Abang","is_transit":true,"i_lat":-6.185545,"time":8,"transit":false,"line":1,"i_long":106.811091,"distance":3632},{"station_name":"Karet","station_id":"KAT","is_transit":false,"transit":false,"i_long":106.816351,"line":1,"i_lat":-6.20132,"time":5,"distance":2029}]]}