{"data":[[{"station_id":"DRN","time":0,"i_long":106.85449,"is_transit":false,"station_name":"Duren Kalibata","line":0,"i_lat":-6.255332,"transit":false,"distance":0},{"station_id":"CW","line":0,"time":3,"station_name":"Cawang","i_lat":-6.242512,"is_transit":false,"distance":1546,"i_long":106.856607,"transit":false},{"is_transit":false,"transit":false,"station_name":"Tebet","i_long":106.857948,"station_id":"TEB","distance":1230,"time":2,"i_lat":-6.226659,"line":2},{"station_id":"MRI","line":0,"is_transit":true,"station_name":"Manggarai","i_long":106.84912,"i_lat":-6.209883,"time":4,"transit":true,"distance":2610},{"time":2,"station_name":"Matraman","distance":1275,"is_transit":false,"i_lat":-6.212485,"station_id":"MTR","transit":false,"i_long":106.858896,"line":1},{"station_id":"JNG","transit":false,"station_name":"Jatinegara","i_long":106.86807400000001,"line":0,"time":8,"is_transit":true,"i_lat":-6.215091,"distance":1377},{"time":3,"is_transit":false,"distance":3395,"station_id":"KLD","station_name":"Klender","i_lat":-6.2135,"i_long":106.899548,"line":1,"transit":false},{"distance":3100,"station_id":"BUA","station_name":"Buaran","time":2,"transit":false,"is_transit":false,"line":0,"i_lat":-6.215568,"i_long":106.922662},{"time":1,"i_long":106.939679,"distance":1305,"station_id":"KLDB","transit":false,"is_transit":false,"station_name":"Klenderbaru","line":1,"i_lat":-6.217455},{"station_id":"CUK","i_lat":-6.219053,"line":0,"is_transit":false,"distance":1385,"i_long":106.951283,"time":8,"transit":false,"station_name":"Cakung"}],[{"i_long":106.85449,"station_id":"DRN","i_lat":-6.255332,"is_transit":false,"line":0,"distance":0,"transit":false,"time":0,"station_name":"Duren Kalibata"},{"is_transit":false,"station_id":"CW","station_name":"Cawang","i_long":106.856607,"i_lat":-6.242512,"line":0,"transit":false,"time":3,"distance":1546},{"station_id":"TEB","distance":1230,"time":2,"i_lat":-6.226659,"is_transit":false,"transit":false,"station_name":"Tebet","line":2,"i_long":106.857948},{"time":4,"station_id":"MRI","distance":2610,"is_transit":true,"transit":true,"station_name":"Manggarai","line":0,"i_lat":-6.209883,"i_long":106.84912},{"station_name":"Sudirman","distance":3186,"station_id":"SUD","i_long":106.822649,"is_transit":false,"i_lat":-6.202263,"transit":false,"line":1,"time":4},{"time":1,"station_id":"SUDB","i_lat":-6.201433,"transit":false,"distance":280,"line":1,"i_long":106.819881,"station_name":"Sudirman Baru","is_transit":false},{"distance":471,"station_name":"Karet","is_transit":false,"i_lat":-6.20132,"i_long":106.816351,"line":1,"time":1,"station_id":"KAT","transit":false},{"distance":2029,"transit":false,"is_transit":true,"i_long":106.811091,"station_id":"THB","time":5,"station_name":"Tanah Abang","i_lat":-6.185545,"line":1},{"distance":3632,"is_transit":true,"station_name":"Duri","line":1,"station_id":"DU","time":8,"transit":true,"i_lat":-6.155215,"i_long":106.800832},{"station_id":"AK","time":4,"station_name":"Angke","is_transit":false,"distance":1230,"i_lat":-6.144674,"transit":false,"i_long":106.79867,"line":0},{"station_id":"KPB","i_long":106.826365,"distance":4102,"is_transit":true,"line":0,"i_lat":-6.132549,"station_name":"Kampung Bandan","transit":true,"time":9},{"i_long":106.836569,"transit":false,"distance":1444,"station_id":"RJW","station_name":"Rajawali","line":11,"time":3,"is_transit":false,"i_lat":-6.14505},{"station_name":"Kemayoran","time":5,"transit":false,"i_lat":-6.161728,"line":11,"station_id":"KMO","i_long":106.839204,"is_transit":false,"distance":1901},{"transit":false,"line":11,"distance":1436,"i_lat":-6.174784,"i_long":106.84368,"time":4,"station_id":"PSE","is_transit":false,"station_name":"Pasar Senen"},{"line":11,"station_id":"GST","time":8,"i_lat":-6.185975,"transit":false,"distance":1567,"station_name":"Gang Sentiong","is_transit":false,"i_long":106.850107},{"station_name":"Kramat","transit":false,"is_transit":false,"time":1,"distance":973,"i_lat":-6.193792,"line":11,"station_id":"KMT","i_long":106.855437},{"time":2,"is_transit":false,"station_name":"Pondok Jati","i_lat":-6.209188,"line":11,"distance":1829,"station_id":"POK","transit":false,"i_long":106.861737},{"i_lat":-6.215091,"station_id":"JNG","i_long":106.86807400000001,"line":0,"station_name":"Jatinegara","distance":1236,"time":9,"is_transit":true,"transit":true},{"line":1,"time":3,"transit":false,"station_id":"KLD","distance":3395,"i_lat":-6.2135,"is_transit":false,"i_long":106.899548,"station_name":"Klender"},{"time":2,"transit":false,"station_id":"BUA","is_transit":false,"i_lat":-6.215568,"line":0,"station_name":"Buaran","distance":3100,"i_long":106.922662},{"line":1,"is_transit":false,"station_name":"Klenderbaru","i_lat":-6.217455,"i_long":106.939679,"transit":false,"time":1,"distance":1305,"station_id":"KLDB"},{"i_lat":-6.219053,"station_id":"CUK","line":0,"i_long":106.951283,"is_transit":false,"time":8,"distance":1385,"transit":false,"station_name":"Cakung"}],[{"time":0,"transit":false,"i_long":106.85449,"is_transit":false,"line":0,"station_name":"Duren Kalibata","distance":0,"station_id":"DRN","i_lat":-6.255332},{"is_transit":false,"distance":1546,"transit":false,"time":3,"station_name":"Cawang","i_long":106.856607,"i_lat":-6.242512,"line":0,"station_id":"CW"},{"line":2,"station_id":"TEB","time":2,"station_name":"Tebet","i_lat":-6.226659,"distance":1230,"i_long":106.857948,"transit":false,"is_transit":false},{"i_lat":-6.209883,"time":4,"is_transit":true,"station_name":"Manggarai","i_long":106.84912,"station_id":"MRI","distance":2610,"transit":true,"line":0},{"transit":false,"i_long":106.840169,"line":0,"station_id":"CKI","station_name":"Cikini","i_lat":-6.198556,"time":4,"is_transit":false,"distance":1590},{"line":2,"i_long":106.832183,"distance":1750,"station_name":"Gondangdia","i_lat":-6.186295,"time":3,"station_id":"GDD","transit":false,"is_transit":false},{"station_name":"Juanda","line":2,"distance":2015,"transit":false,"i_lat":-6.166716,"i_long":106.828284,"time":4,"is_transit":false,"station_id":"JUA"},{"transit":false,"i_lat":-6.160725,"line":2,"distance":1149,"station_id":"SW","i_long":106.827103,"is_transit":false,"time":2,"station_name":"Sawah Besar"},{"transit":false,"station_id":"MGB","time":2,"is_transit":false,"i_long":106.82482,"i_lat":-6.149769,"line":2,"station_name":"Manggabesar","distance":906},{"distance":1080,"transit":false,"station_name":"Jayakarta","line":7,"i_lat":-6.141205,"i_long":106.820901,"is_transit":false,"station_id":"JAY","time":2},{"i_long":106.812439,"is_transit":true,"station_id":"JAKK","transit":true,"time":4,"distance":1264,"line":0,"i_lat":-6.137569,"station_name":"Jakarta Kota"},{"transit":true,"is_transit":true,"time":3,"line":0,"i_long":106.826365,"i_lat":-6.132549,"station_id":"KPB","distance":1364,"station_name":"Kampung Bandan"},{"distance":1444,"station_name":"Rajawali","is_transit":false,"i_lat":-6.14505,"i_long":106.836569,"line":11,"time":3,"transit":false,"station_id":"RJW"},{"station_name":"Kemayoran","line":11,"time":5,"i_lat":-6.161728,"station_id":"KMO","i_long":106.839204,"is_transit":false,"transit":false,"distance":1901},{"transit":false,"i_lat":-6.174784,"station_id":"PSE","distance":1436,"line":11,"time":4,"station_name":"Pasar Senen","is_transit":false,"i_long":106.84368},{"station_id":"GST","i_long":106.850107,"distance":1567,"station_name":"Gang Sentiong","i_lat":-6.185975,"is_transit":false,"line":11,"transit":false,"time":8},{"time":1,"i_lat":-6.193792,"station_id":"KMT","station_name":"Kramat","transit":false,"i_long":106.855437,"line":11,"distance":973,"is_transit":false},{"i_long":106.861737,"is_transit":false,"distance":1829,"line":11,"transit":false,"time":2,"i_lat":-6.209188,"station_id":"POK","station_name":"Pondok Jati"},{"station_name":"Jatinegara","time":9,"station_id":"JNG","distance":1236,"i_long":106.86807400000001,"i_lat":-6.215091,"transit":true,"is_transit":true,"line":0},{"is_transit":false,"station_id":"KLD","station_name":"Klender","i_lat":-6.2135,"i_long":106.899548,"time":3,"line":1,"transit":false,"distance":3395},{"time":2,"i_lat":-6.215568,"i_long":106.922662,"transit":false,"line":0,"is_transit":false,"station_name":"Buaran","station_id":"BUA","distance":3100},{"i_long":106.939679,"i_lat":-6.217455,"line":1,"time":1,"distance":1305,"station_id":"KLDB","station_name":"Klenderbaru","is_transit":false,"transit":false},{"time":8,"station_id":"CUK","transit":false,"station_name":"Cakung","is_transit":false,"distance":1385,"i_lat":-6.219053,"i_long":106.951283,"line":0}]]}