{"data":[[{"station_id":"DRN","line":2,"i_lat":-6.255332,"i_long":106.85449,"time":0,"transit":false,"distance":0,"is_transit":false,"station_name":"Duren Kalibata"},{"station_id":"PSMB","is_transit":false,"line":2,"station_name":"Pasar Minggu Baru","i_lat":-6.263214,"distance":824,"transit":false,"time":2,"i_long":106.851577},{"is_transit":false,"i_long":106.843999,"transit":false,"line":2,"station_id":"PSM","distance":2380,"time":2,"i_lat":-6.2842400000000005,"station_name":"Pasar Minggu"},{"station_name":"Tanjung Barat","station_id":"TNT","i_lat":-6.3080680000000005,"i_long":106.838896,"line":2,"distance":2820,"is_transit":false,"transit":false,"time":4},{"station_id":"LNA","transit":false,"line":2,"station_name":"Lenteng Agung","is_transit":false,"i_lat":-6.330363,"distance":2671,"i_long":106.832616,"time":3},{"station_id":"UP","line":2,"i_long":106.834175,"distance":1029,"transit":false,"is_transit":false,"station_name":"Univ. Pancasila","i_lat":-6.339291,"time":2},{"transit":false,"line":2,"station_name":"Univ. Indonesia","station_id":"UI","is_transit":false,"i_long":106.831474,"time":3,"i_lat":-6.360749,"distance":2264},{"station_id":"POC","station_name":"Pondok Cina","distance":1109,"time":2,"line":2,"i_long":106.831114,"is_transit":false,"transit":false,"i_lat":-6.369073},{"transit":false,"distance":2727,"line":2,"i_lat":-6.391065,"station_id":"DPB","time":4,"is_transit":false,"i_long":106.819451,"station_name":"Depokbaru"},{"i_lat":-6.405256,"time":3,"station_id":"DP","transit":false,"i_long":106.816926,"station_name":"Depok","is_transit":false,"distance":1584,"line":2},{"transit":false,"station_id":"CTA","distance":5084,"is_transit":false,"i_long":106.800298,"line":2,"station_name":"Citayam","time":6,"i_lat":-6.448811},{"station_name":"Bojonggede","i_long":106.792719,"line":2,"transit":false,"station_id":"BJD","is_transit":false,"time":5,"i_lat":-6.493243,"distance":5197},{"line":2,"distance":4331,"is_transit":false,"transit":false,"time":5,"i_lat":-6.530544,"i_long":106.800016,"station_name":"Cilebut","station_id":"CLT"}]]}