{"data":[[{"station_id":"DRN","transit":false,"i_long":106.85449,"distance":0,"line":2,"station_name":"Duren Kalibata","is_transit":false,"i_lat":-6.255332,"time":0},{"station_name":"Cawang","distance":1546,"time":3,"i_long":106.856607,"transit":false,"is_transit":false,"station_id":"CW","line":2,"i_lat":-6.242512},{"distance":1230,"line":2,"transit":false,"time":2,"i_lat":-6.226659,"i_long":106.857948,"station_name":"Tebet","station_id":"TEB","is_transit":false},{"is_transit":true,"i_lat":-6.209883,"transit":true,"i_long":106.84912,"station_name":"Manggarai","station_id":"MRI","time":4,"line":2,"distance":2610},{"distance":3186,"station_id":"SUD","line":1,"transit":false,"time":4,"i_lat":-6.202263,"i_long":106.822649,"station_name":"Sudirman","is_transit":false},{"transit":false,"station_name":"Sudirman Baru","station_id":"SUDB","distance":280,"is_transit":false,"i_lat":-6.201433,"i_long":106.819881,"line":1,"time":1},{"line":1,"transit":false,"time":1,"i_long":106.816351,"is_transit":false,"station_name":"Karet","distance":471,"station_id":"KAT","i_lat":-6.20132},{"i_lat":-6.185545,"i_long":106.811091,"line":1,"station_name":"Tanah Abang","time":5,"is_transit":false,"station_id":"THB","distance":2029,"transit":false},{"time":8,"line":1,"is_transit":true,"station_name":"Duri","i_lat":-6.155215,"distance":3632,"transit":true,"i_long":106.800832,"station_id":"DU"},{"station_name":"Grogol","time":3,"i_lat":-6.162021,"distance":1700,"is_transit":false,"transit":false,"i_long":106.788277,"line":5,"station_id":"GGL"},{"is_transit":false,"i_long":106.771379,"time":2,"line":5,"i_lat":-6.161433,"station_id":"PSG","distance":2036,"transit":false,"station_name":"Pesing"},{"is_transit":false,"station_id":"TKO","line":5,"station_name":"Taman Kota","transit":false,"distance":1614,"time":2,"i_lat":-6.1587309999999995,"i_long":106.756522},{"is_transit":false,"i_lat":-6.159876,"i_long":106.737035,"distance":2334,"transit":false,"station_id":"BOI","time":2,"station_name":"Bojongindah","line":5},{"transit":false,"station_name":"Rawa Buaya","distance":1152,"line":5,"time":4,"is_transit":false,"station_id":"RW","i_lat":-6.162758,"i_long":106.723064},{"is_transit":false,"station_id":"KDS","distance":2504,"i_lat":-6.166068,"line":5,"station_name":"Kalideres","i_long":106.701612,"transit":false,"time":3}],[{"line":2,"transit":false,"i_lat":-6.255332,"station_name":"Duren Kalibata","station_id":"DRN","time":0,"is_transit":false,"distance":0,"i_long":106.85449},{"station_name":"Cawang","i_long":106.856607,"is_transit":false,"time":3,"distance":1546,"line":2,"i_lat":-6.242512,"transit":false,"station_id":"CW"},{"station_name":"Tebet","station_id":"TEB","i_lat":-6.226659,"i_long":106.857948,"line":2,"transit":false,"time":2,"is_transit":false,"distance":1230},{"transit":false,"i_long":106.84912,"station_name":"Manggarai","line":2,"distance":2610,"time":4,"i_lat":-6.209883,"is_transit":false,"station_id":"MRI"},{"distance":1590,"time":4,"i_lat":-6.198556,"line":2,"station_name":"Cikini","i_long":106.840169,"is_transit":false,"transit":false,"station_id":"CKI"},{"distance":1750,"i_long":106.832183,"station_id":"GDD","line":2,"i_lat":-6.186295,"transit":false,"station_name":"Gondangdia","is_transit":false,"time":3},{"is_transit":false,"i_long":106.828284,"time":4,"station_name":"Juanda","transit":false,"station_id":"JUA","distance":2015,"i_lat":-6.166716,"line":2},{"line":2,"time":2,"transit":false,"station_name":"Sawah Besar","station_id":"SW","i_lat":-6.160725,"i_long":106.827103,"distance":1149,"is_transit":false},{"transit":false,"station_name":"Manggabesar","line":2,"i_lat":-6.149769,"station_id":"MGB","time":2,"is_transit":false,"distance":906,"i_long":106.82482},{"station_name":"Jayakarta","distance":1080,"station_id":"JAY","i_long":106.820901,"transit":false,"i_lat":-6.141205,"time":2,"line":2,"is_transit":false},{"i_long":106.812439,"time":4,"station_id":"JAKK","transit":true,"is_transit":true,"line":2,"station_name":"Jakarta Kota","distance":1264,"i_lat":-6.137569},{"i_long":106.826365,"i_lat":-6.132549,"is_transit":true,"line":4,"time":3,"station_id":"KPB","station_name":"Kampung Bandan","distance":1364,"transit":true},{"time":9,"is_transit":false,"station_id":"AK","distance":4102,"i_lat":-6.144674,"i_long":106.79867,"line":1,"transit":false,"station_name":"Angke"},{"transit":true,"is_transit":true,"time":4,"i_lat":-6.155215,"i_long":106.800832,"line":1,"station_name":"Duri","distance":1230,"station_id":"DU"},{"i_lat":-6.162021,"time":3,"transit":false,"station_id":"GGL","is_transit":false,"distance":1700,"i_long":106.788277,"line":5,"station_name":"Grogol"},{"is_transit":false,"transit":false,"distance":2036,"station_id":"PSG","line":5,"station_name":"Pesing","time":2,"i_lat":-6.161433,"i_long":106.771379},{"station_id":"TKO","station_name":"Taman Kota","i_lat":-6.1587309999999995,"is_transit":false,"i_long":106.756522,"line":5,"time":2,"distance":1614,"transit":false},{"distance":2334,"station_name":"Bojongindah","i_lat":-6.159876,"is_transit":false,"station_id":"BOI","line":5,"time":2,"i_long":106.737035,"transit":false},{"i_lat":-6.162758,"station_id":"RW","is_transit":false,"transit":false,"station_name":"Rawa Buaya","line":5,"i_long":106.723064,"time":4,"distance":1152},{"station_name":"Kalideres","station_id":"KDS","i_long":106.701612,"time":3,"distance":2504,"i_lat":-6.166068,"transit":false,"is_transit":false,"line":5}],[{"time":0,"distance":0,"i_long":106.85449,"line":2,"transit":false,"station_name":"Duren Kalibata","is_transit":false,"station_id":"DRN","i_lat":-6.255332},{"line":2,"time":3,"distance":1546,"transit":false,"station_id":"CW","is_transit":false,"station_name":"Cawang","i_lat":-6.242512,"i_long":106.856607},{"station_id":"TEB","time":2,"station_name":"Tebet","line":2,"is_transit":false,"transit":false,"distance":1230,"i_lat":-6.226659,"i_long":106.857948},{"station_name":"Manggarai","transit":true,"is_transit":true,"station_id":"MRI","time":4,"i_lat":-6.209883,"distance":2610,"i_long":106.84912,"line":2},{"i_lat":-6.212485,"time":2,"station_id":"MTR","transit":false,"station_name":"Matraman","line":1,"distance":1275,"is_transit":false,"i_long":106.858896},{"station_id":"JNG","transit":true,"is_transit":true,"i_lat":-6.215091,"line":1,"i_long":106.86807400000001,"distance":1377,"time":8,"station_name":"Jatinegara"},{"i_lat":-6.209188,"station_name":"Pondok Jati","transit":false,"line":11,"i_long":106.861737,"station_id":"POK","time":2,"is_transit":false,"distance":1236},{"station_id":"KMT","line":11,"i_lat":-6.193792,"i_long":106.855437,"is_transit":false,"distance":1829,"transit":false,"time":2,"station_name":"Kramat"},{"line":11,"station_name":"Gang Sentiong","i_long":106.850107,"is_transit":false,"i_lat":-6.185975,"transit":false,"distance":973,"time":1,"station_id":"GST"},{"i_lat":-6.174784,"i_long":106.84368,"station_name":"Pasar Senen","time":8,"is_transit":false,"station_id":"PSE","line":11,"transit":false,"distance":1567},{"i_lat":-6.161728,"line":11,"distance":1436,"i_long":106.839204,"transit":false,"time":4,"station_id":"KMO","is_transit":false,"station_name":"Kemayoran"},{"transit":false,"time":5,"i_long":106.836569,"i_lat":-6.14505,"station_name":"Rajawali","is_transit":false,"distance":1901,"line":11,"station_id":"RJW"},{"station_id":"KPB","station_name":"Kampung Bandan","is_transit":true,"transit":true,"distance":1444,"i_lat":-6.132549,"time":3,"line":4,"i_long":106.826365},{"is_transit":false,"i_long":106.79867,"i_lat":-6.144674,"distance":4102,"line":1,"station_name":"Angke","time":9,"station_id":"AK","transit":false},{"i_lat":-6.155215,"line":1,"station_id":"DU","time":4,"is_transit":true,"i_long":106.800832,"distance":1230,"transit":true,"station_name":"Duri"},{"station_name":"Grogol","is_transit":false,"distance":1700,"station_id":"GGL","i_lat":-6.162021,"time":3,"transit":false,"i_long":106.788277,"line":5},{"time":2,"line":5,"i_lat":-6.161433,"distance":2036,"i_long":106.771379,"station_name":"Pesing","transit":false,"station_id":"PSG","is_transit":false},{"i_lat":-6.1587309999999995,"station_id":"TKO","station_name":"Taman Kota","time":2,"i_long":106.756522,"line":5,"distance":1614,"is_transit":false,"transit":false},{"station_id":"BOI","time":2,"is_transit":false,"i_lat":-6.159876,"i_long":106.737035,"transit":false,"line":5,"distance":2334,"station_name":"Bojongindah"},{"transit":false,"station_name":"Rawa Buaya","i_long":106.723064,"line":5,"station_id":"RW","i_lat":-6.162758,"is_transit":false,"time":4,"distance":1152},{"transit":false,"time":3,"distance":2504,"i_lat":-6.166068,"i_long":106.701612,"line":5,"station_id":"KDS","station_name":"Kalideres","is_transit":false}]]}