{"data":[[{"station_name":"Duren Kalibata","i_lat":-6.255332,"i_long":106.85449,"transit":false,"time":0,"distance":0,"line":2,"station_id":"DRN","is_transit":false},{"is_transit":false,"i_lat":-6.263214,"station_name":"Pasar Minggu Baru","i_long":106.851577,"line":2,"distance":824,"time":2,"transit":false,"station_id":"PSMB"},{"is_transit":false,"station_name":"Pasar Minggu","line":2,"transit":false,"station_id":"PSM","distance":2380,"i_long":106.843999,"i_lat":-6.2842400000000005,"time":2},{"i_lat":-6.3080680000000005,"station_id":"TNT","line":2,"time":4,"station_name":"Tanjung Barat","transit":false,"distance":2820,"is_transit":false,"i_long":106.838896},{"time":3,"station_id":"LNA","station_name":"Lenteng Agung","transit":false,"is_transit":false,"i_lat":-6.330363,"distance":2671,"i_long":106.832616,"line":2},{"is_transit":false,"distance":1029,"time":2,"i_long":106.834175,"station_id":"UP","station_name":"Univ. Pancasila","transit":false,"i_lat":-6.339291,"line":2},{"station_id":"UI","is_transit":false,"station_name":"Univ. Indonesia","transit":false,"i_long":106.831474,"i_lat":-6.360749,"distance":2264,"line":2,"time":3},{"time":2,"i_long":106.831114,"distance":1109,"station_name":"Pondok Cina","i_lat":-6.369073,"line":2,"transit":false,"is_transit":false,"station_id":"POC"},{"station_id":"DPB","transit":false,"i_lat":-6.391065,"station_name":"Depokbaru","i_long":106.819451,"line":2,"time":4,"is_transit":false,"distance":2727},{"station_id":"DP","i_lat":-6.405256,"station_name":"Depok","distance":1584,"line":2,"transit":false,"time":3,"is_transit":false,"i_long":106.816926}]]}