{"data":[[{"distance":0,"is_transit":false,"i_lat":-6.255332,"line":2,"transit":false,"time":0,"station_id":"DRN","i_long":106.85449,"station_name":"Duren Kalibata"},{"line":2,"transit":false,"time":3,"is_transit":false,"i_lat":-6.242512,"station_id":"CW","distance":1546,"i_long":106.856607,"station_name":"Cawang"},{"station_name":"Tebet","station_id":"TEB","time":2,"is_transit":false,"transit":false,"i_lat":-6.226659,"line":2,"i_long":106.857948,"distance":1230},{"time":4,"transit":true,"distance":2610,"station_name":"Manggarai","line":2,"i_lat":-6.209883,"station_id":"MRI","is_transit":true,"i_long":106.84912},{"time":4,"transit":false,"line":1,"i_long":106.822649,"station_name":"Sudirman","i_lat":-6.202263,"is_transit":false,"distance":3186,"station_id":"SUD"},{"i_long":106.819881,"line":1,"station_id":"SUDB","transit":false,"time":1,"distance":280,"station_name":"Sudirman Baru","i_lat":-6.201433,"is_transit":false},{"time":1,"line":1,"station_id":"KAT","transit":false,"station_name":"Karet","distance":471,"is_transit":false,"i_long":106.816351,"i_lat":-6.20132},{"station_id":"THB","transit":false,"line":1,"i_long":106.811091,"distance":2029,"is_transit":false,"time":5,"station_name":"Tanah Abang","i_lat":-6.185545},{"transit":true,"distance":3632,"time":8,"i_lat":-6.155215,"station_name":"Duri","station_id":"DU","i_long":106.800832,"is_transit":true,"line":1},{"transit":false,"line":5,"distance":1700,"time":3,"station_id":"GGL","is_transit":false,"station_name":"Grogol","i_long":106.788277,"i_lat":-6.162021}],[{"i_long":106.85449,"station_name":"Duren Kalibata","is_transit":false,"transit":false,"station_id":"DRN","line":2,"i_lat":-6.255332,"time":0,"distance":0},{"distance":1546,"station_id":"CW","station_name":"Cawang","i_lat":-6.242512,"i_long":106.856607,"is_transit":false,"transit":false,"line":2,"time":3},{"time":2,"i_long":106.857948,"transit":false,"distance":1230,"station_id":"TEB","station_name":"Tebet","is_transit":false,"i_lat":-6.226659,"line":2},{"i_long":106.84912,"time":4,"station_id":"MRI","is_transit":false,"line":2,"distance":2610,"i_lat":-6.209883,"station_name":"Manggarai","transit":false},{"distance":1590,"is_transit":false,"i_lat":-6.198556,"station_name":"Cikini","transit":false,"i_long":106.840169,"time":4,"station_id":"CKI","line":2},{"i_long":106.832183,"i_lat":-6.186295,"time":3,"transit":false,"distance":1750,"line":2,"station_id":"GDD","station_name":"Gondangdia","is_transit":false},{"i_long":106.828284,"line":2,"distance":2015,"station_id":"JUA","i_lat":-6.166716,"transit":false,"time":4,"station_name":"Juanda","is_transit":false},{"i_lat":-6.160725,"transit":false,"line":2,"is_transit":false,"station_id":"SW","distance":1149,"station_name":"Sawah Besar","time":2,"i_long":106.827103},{"i_lat":-6.149769,"is_transit":false,"i_long":106.82482,"distance":906,"transit":false,"time":2,"line":2,"station_name":"Manggabesar","station_id":"MGB"},{"time":2,"transit":false,"is_transit":false,"distance":1080,"station_name":"Jayakarta","station_id":"JAY","i_lat":-6.141205,"i_long":106.820901,"line":2},{"is_transit":true,"time":4,"station_name":"Jakarta Kota","i_long":106.812439,"distance":1264,"station_id":"JAKK","transit":true,"i_lat":-6.137569,"line":2},{"line":4,"station_id":"KPB","i_lat":-6.132549,"time":3,"transit":true,"station_name":"Kampung Bandan","is_transit":true,"i_long":106.826365,"distance":1364},{"station_id":"AK","is_transit":false,"distance":4102,"station_name":"Angke","transit":false,"i_lat":-6.144674,"time":9,"line":1,"i_long":106.79867},{"distance":1230,"is_transit":true,"i_lat":-6.155215,"transit":true,"station_name":"Duri","station_id":"DU","i_long":106.800832,"line":1,"time":4},{"station_name":"Grogol","transit":false,"line":5,"time":3,"station_id":"GGL","is_transit":false,"i_long":106.788277,"i_lat":-6.162021,"distance":1700}],[{"line":2,"time":0,"i_long":106.85449,"station_id":"DRN","distance":0,"station_name":"Duren Kalibata","is_transit":false,"i_lat":-6.255332,"transit":false},{"time":3,"station_id":"CW","distance":1546,"is_transit":false,"line":2,"i_long":106.856607,"station_name":"Cawang","transit":false,"i_lat":-6.242512},{"distance":1230,"i_lat":-6.226659,"transit":false,"time":2,"is_transit":false,"line":2,"station_id":"TEB","i_long":106.857948,"station_name":"Tebet"},{"time":4,"distance":2610,"station_id":"MRI","is_transit":true,"i_long":106.84912,"station_name":"Manggarai","line":2,"transit":true,"i_lat":-6.209883},{"is_transit":false,"station_name":"Matraman","transit":false,"line":1,"distance":1275,"station_id":"MTR","i_lat":-6.212485,"time":2,"i_long":106.858896},{"station_id":"JNG","line":1,"distance":1377,"station_name":"Jatinegara","is_transit":true,"i_lat":-6.215091,"i_long":106.86807400000001,"time":8,"transit":true},{"distance":1236,"transit":false,"is_transit":false,"station_name":"Pondok Jati","i_long":106.861737,"station_id":"POK","line":11,"i_lat":-6.209188,"time":2},{"line":11,"transit":false,"station_id":"KMT","time":2,"is_transit":false,"distance":1829,"i_lat":-6.193792,"i_long":106.855437,"station_name":"Kramat"},{"i_lat":-6.185975,"i_long":106.850107,"distance":973,"is_transit":false,"line":11,"station_id":"GST","time":1,"transit":false,"station_name":"Gang Sentiong"},{"is_transit":false,"i_lat":-6.174784,"transit":false,"station_id":"PSE","line":11,"i_long":106.84368,"distance":1567,"station_name":"Pasar Senen","time":8},{"i_lat":-6.161728,"distance":1436,"is_transit":false,"transit":false,"line":11,"i_long":106.839204,"station_name":"Kemayoran","time":4,"station_id":"KMO"},{"time":5,"station_name":"Rajawali","station_id":"RJW","transit":false,"i_long":106.836569,"i_lat":-6.14505,"distance":1901,"line":11,"is_transit":false},{"line":4,"distance":1444,"time":3,"station_id":"KPB","station_name":"Kampung Bandan","is_transit":true,"transit":true,"i_lat":-6.132549,"i_long":106.826365},{"station_id":"AK","station_name":"Angke","transit":false,"distance":4102,"time":9,"is_transit":false,"i_lat":-6.144674,"line":1,"i_long":106.79867},{"line":1,"is_transit":true,"station_name":"Duri","distance":1230,"station_id":"DU","i_lat":-6.155215,"time":4,"transit":true,"i_long":106.800832},{"station_id":"GGL","distance":1700,"is_transit":false,"transit":false,"i_lat":-6.162021,"time":3,"line":5,"i_long":106.788277,"station_name":"Grogol"}]]}