{"data":[[{"i_long":106.85449,"line":2,"transit":false,"station_name":"Duren Kalibata","distance":0,"i_lat":-6.255332,"station_id":"DRN","is_transit":false,"time":0},{"transit":false,"i_long":106.856607,"is_transit":false,"time":3,"station_id":"CW","station_name":"Cawang","distance":1546,"i_lat":-6.242512,"line":2},{"i_long":106.857948,"distance":1230,"i_lat":-6.226659,"transit":false,"line":2,"station_name":"Tebet","time":2,"is_transit":false,"station_id":"TEB"},{"time":4,"line":2,"station_id":"MRI","i_lat":-6.209883,"transit":true,"i_long":106.84912,"station_name":"Manggarai","distance":2610,"is_transit":true},{"distance":3186,"station_id":"SUD","i_lat":-6.202263,"is_transit":false,"i_long":106.822649,"line":1,"transit":false,"time":4,"station_name":"Sudirman"},{"i_long":106.819881,"line":1,"time":1,"is_transit":false,"transit":false,"station_name":"Sudirman Baru","station_id":"SUDB","distance":280,"i_lat":-6.201433},{"transit":false,"station_name":"Karet","is_transit":false,"distance":471,"station_id":"KAT","time":1,"i_lat":-6.20132,"i_long":106.816351,"line":1},{"i_long":106.811091,"station_id":"THB","station_name":"Tanah Abang","is_transit":true,"distance":2029,"line":1,"transit":true,"time":5,"i_lat":-6.185545},{"transit":false,"station_name":"Palmerah","is_transit":false,"distance":3191,"i_long":106.79689,"station_id":"PLM","time":6,"i_lat":-6.207404,"line":6},{"time":7,"line":6,"transit":false,"station_name":"Kebayoran","distance":3737,"i_lat":-6.237242,"i_long":106.780334,"station_id":"KBY","is_transit":false}],[{"time":0,"distance":0,"line":2,"station_id":"DRN","is_transit":false,"i_lat":-6.255332,"i_long":106.85449,"station_name":"Duren Kalibata","transit":false},{"line":2,"transit":false,"station_name":"Cawang","station_id":"CW","is_transit":false,"distance":1546,"time":3,"i_lat":-6.242512,"i_long":106.856607},{"station_name":"Tebet","transit":false,"station_id":"TEB","i_lat":-6.226659,"line":2,"is_transit":false,"time":2,"distance":1230,"i_long":106.857948},{"distance":2610,"station_id":"MRI","line":2,"i_lat":-6.209883,"is_transit":false,"time":4,"station_name":"Manggarai","transit":false,"i_long":106.84912},{"line":2,"time":4,"i_long":106.840169,"transit":false,"station_name":"Cikini","is_transit":false,"station_id":"CKI","distance":1590,"i_lat":-6.198556},{"i_long":106.832183,"station_name":"Gondangdia","transit":false,"time":3,"is_transit":false,"distance":1750,"station_id":"GDD","i_lat":-6.186295,"line":2},{"i_lat":-6.166716,"is_transit":false,"station_name":"Juanda","i_long":106.828284,"transit":false,"time":4,"line":2,"station_id":"JUA","distance":2015},{"station_id":"SW","is_transit":false,"line":2,"i_long":106.827103,"station_name":"Sawah Besar","distance":1149,"transit":false,"time":2,"i_lat":-6.160725},{"station_id":"MGB","transit":false,"station_name":"Manggabesar","time":2,"i_long":106.82482,"is_transit":false,"line":2,"distance":906,"i_lat":-6.149769},{"is_transit":false,"distance":1080,"i_lat":-6.141205,"time":2,"i_long":106.820901,"station_id":"JAY","line":2,"transit":false,"station_name":"Jayakarta"},{"station_name":"Jakarta Kota","is_transit":true,"time":4,"distance":1264,"transit":true,"i_long":106.812439,"line":2,"station_id":"JAKK","i_lat":-6.137569},{"line":4,"time":3,"distance":1364,"station_id":"KPB","i_long":106.826365,"transit":true,"is_transit":true,"station_name":"Kampung Bandan","i_lat":-6.132549},{"station_name":"Angke","i_lat":-6.144674,"line":1,"transit":false,"time":9,"distance":4102,"i_long":106.79867,"station_id":"AK","is_transit":false},{"station_id":"DU","time":4,"distance":1230,"i_lat":-6.155215,"station_name":"Duri","transit":false,"line":1,"i_long":106.800832,"is_transit":false},{"station_id":"THB","i_long":106.811091,"line":1,"is_transit":true,"i_lat":-6.185545,"distance":3632,"time":8,"station_name":"Tanah Abang","transit":true},{"transit":false,"is_transit":false,"station_id":"PLM","distance":3191,"station_name":"Palmerah","i_lat":-6.207404,"i_long":106.79689,"time":6,"line":6},{"station_id":"KBY","i_long":106.780334,"transit":false,"i_lat":-6.237242,"time":7,"is_transit":false,"station_name":"Kebayoran","distance":3737,"line":6}],[{"transit":false,"is_transit":false,"time":0,"distance":0,"station_name":"Duren Kalibata","station_id":"DRN","i_long":106.85449,"i_lat":-6.255332,"line":2},{"time":3,"i_long":106.856607,"station_name":"Cawang","i_lat":-6.242512,"line":2,"is_transit":false,"distance":1546,"transit":false,"station_id":"CW"},{"distance":1230,"i_lat":-6.226659,"i_long":106.857948,"time":2,"line":2,"station_id":"TEB","transit":false,"station_name":"Tebet","is_transit":false},{"station_id":"MRI","line":2,"i_lat":-6.209883,"transit":true,"i_long":106.84912,"station_name":"Manggarai","distance":2610,"time":4,"is_transit":true},{"station_name":"Matraman","line":1,"station_id":"MTR","i_lat":-6.212485,"i_long":106.858896,"distance":1275,"time":2,"is_transit":false,"transit":false},{"station_id":"JNG","time":8,"distance":1377,"i_lat":-6.215091,"line":1,"station_name":"Jatinegara","transit":true,"is_transit":true,"i_long":106.86807400000001},{"station_id":"POK","transit":false,"i_lat":-6.209188,"i_long":106.861737,"distance":1236,"is_transit":false,"station_name":"Pondok Jati","line":11,"time":2},{"time":2,"station_id":"KMT","transit":false,"line":11,"i_long":106.855437,"i_lat":-6.193792,"distance":1829,"station_name":"Kramat","is_transit":false},{"line":11,"is_transit":false,"transit":false,"distance":973,"station_name":"Gang Sentiong","i_lat":-6.185975,"station_id":"GST","time":1,"i_long":106.850107},{"station_name":"Pasar Senen","is_transit":false,"station_id":"PSE","line":11,"i_long":106.84368,"transit":false,"i_lat":-6.174784,"time":8,"distance":1567},{"i_long":106.839204,"station_id":"KMO","transit":false,"station_name":"Kemayoran","is_transit":false,"time":4,"line":11,"distance":1436,"i_lat":-6.161728},{"time":5,"transit":false,"i_lat":-6.14505,"distance":1901,"is_transit":false,"line":11,"i_long":106.836569,"station_name":"Rajawali","station_id":"RJW"},{"line":4,"is_transit":true,"i_lat":-6.132549,"station_id":"KPB","transit":true,"distance":1444,"time":3,"station_name":"Kampung Bandan","i_long":106.826365},{"time":9,"station_name":"Angke","distance":4102,"transit":false,"i_lat":-6.144674,"line":1,"i_long":106.79867,"station_id":"AK","is_transit":false},{"station_name":"Duri","station_id":"DU","i_long":106.800832,"line":1,"distance":1230,"time":4,"transit":false,"is_transit":false,"i_lat":-6.155215},{"station_name":"Tanah Abang","distance":3632,"is_transit":true,"station_id":"THB","i_lat":-6.185545,"i_long":106.811091,"transit":true,"time":8,"line":1},{"time":6,"i_long":106.79689,"line":6,"i_lat":-6.207404,"station_name":"Palmerah","transit":false,"is_transit":false,"distance":3191,"station_id":"PLM"},{"transit":false,"time":7,"station_name":"Kebayoran","is_transit":false,"station_id":"KBY","i_long":106.780334,"line":6,"i_lat":-6.237242,"distance":3737}]]}