{"data":[[{"distance":0,"i_lat":-6.255332,"station_id":"DRN","transit":false,"station_name":"Duren Kalibata","is_transit":false,"time":0,"i_long":106.85449,"line":2},{"is_transit":false,"station_name":"Cawang","distance":1546,"i_lat":-6.242512,"i_long":106.856607,"line":2,"time":3,"transit":false,"station_id":"CW"},{"station_id":"TEB","station_name":"Tebet","i_lat":-6.226659,"i_long":106.857948,"distance":1230,"line":2,"time":2,"transit":false,"is_transit":false},{"line":2,"i_lat":-6.209883,"time":4,"station_name":"Manggarai","is_transit":true,"distance":2610,"transit":true,"station_id":"MRI","i_long":106.84912},{"transit":false,"time":2,"station_id":"MTR","i_lat":-6.212485,"is_transit":false,"i_long":106.858896,"station_name":"Matraman","distance":1275,"line":1},{"i_lat":-6.215091,"i_long":106.86807400000001,"line":1,"is_transit":false,"distance":1377,"time":8,"transit":false,"station_name":"Jatinegara","station_id":"JNG"},{"time":3,"distance":3395,"transit":false,"i_long":106.899548,"station_name":"Klender","station_id":"KLD","line":1,"is_transit":false,"i_lat":-6.2135},{"i_lat":-6.215568,"station_name":"Buaran","time":2,"i_long":106.922662,"line":1,"is_transit":false,"station_id":"BUA","distance":3100,"transit":false},{"distance":1305,"station_id":"KLDB","transit":false,"is_transit":false,"i_long":106.939679,"time":1,"i_lat":-6.217455,"line":1,"station_name":"Klenderbaru"},{"line":1,"is_transit":false,"distance":1385,"i_long":106.951283,"station_id":"CUK","transit":false,"i_lat":-6.219053,"station_name":"Cakung","time":8}],[{"is_transit":false,"line":2,"station_name":"Duren Kalibata","i_lat":-6.255332,"distance":0,"i_long":106.85449,"time":0,"transit":false,"station_id":"DRN"},{"time":3,"transit":false,"distance":1546,"station_id":"CW","is_transit":false,"station_name":"Cawang","i_lat":-6.242512,"line":2,"i_long":106.856607},{"time":2,"transit":false,"station_name":"Tebet","is_transit":false,"station_id":"TEB","i_long":106.857948,"distance":1230,"line":2,"i_lat":-6.226659},{"is_transit":true,"time":4,"line":2,"distance":2610,"i_lat":-6.209883,"station_id":"MRI","transit":true,"station_name":"Manggarai","i_long":106.84912},{"station_id":"SUD","is_transit":false,"time":4,"distance":3186,"i_lat":-6.202263,"line":1,"station_name":"Sudirman","transit":false,"i_long":106.822649},{"line":1,"is_transit":false,"station_id":"SUDB","i_long":106.819881,"distance":280,"transit":false,"time":1,"station_name":"Sudirman Baru","i_lat":-6.201433},{"transit":false,"i_long":106.816351,"distance":471,"station_id":"KAT","time":1,"line":1,"is_transit":false,"station_name":"Karet","i_lat":-6.20132},{"is_transit":false,"time":5,"transit":false,"distance":2029,"station_name":"Tanah Abang","i_long":106.811091,"line":1,"station_id":"THB","i_lat":-6.185545},{"i_long":106.800832,"i_lat":-6.155215,"transit":false,"station_id":"DU","distance":3632,"station_name":"Duri","line":1,"is_transit":false,"time":8},{"is_transit":false,"i_long":106.79867,"station_id":"AK","line":1,"distance":1230,"station_name":"Angke","i_lat":-6.144674,"time":4,"transit":false},{"line":4,"time":9,"station_name":"Kampung Bandan","distance":4102,"i_lat":-6.132549,"i_long":106.826365,"is_transit":true,"station_id":"KPB","transit":true},{"is_transit":false,"i_long":106.836569,"transit":false,"i_lat":-6.14505,"time":3,"station_id":"RJW","line":11,"distance":1444,"station_name":"Rajawali"},{"transit":false,"station_id":"KMO","i_lat":-6.161728,"i_long":106.839204,"is_transit":false,"distance":1901,"station_name":"Kemayoran","line":11,"time":5},{"station_id":"PSE","i_lat":-6.174784,"station_name":"Pasar Senen","transit":false,"time":4,"is_transit":false,"i_long":106.84368,"line":11,"distance":1436},{"distance":1567,"line":11,"is_transit":false,"time":8,"transit":false,"i_lat":-6.185975,"station_id":"GST","station_name":"Gang Sentiong","i_long":106.850107},{"distance":973,"i_long":106.855437,"i_lat":-6.193792,"line":11,"transit":false,"is_transit":false,"time":1,"station_id":"KMT","station_name":"Kramat"},{"station_id":"POK","line":11,"station_name":"Pondok Jati","transit":false,"time":2,"distance":1829,"is_transit":false,"i_lat":-6.209188,"i_long":106.861737},{"i_long":106.86807400000001,"time":9,"line":1,"transit":true,"station_name":"Jatinegara","distance":1236,"station_id":"JNG","is_transit":true,"i_lat":-6.215091},{"station_id":"KLD","is_transit":false,"i_lat":-6.2135,"i_long":106.899548,"transit":false,"line":1,"station_name":"Klender","time":3,"distance":3395},{"station_id":"BUA","time":2,"i_long":106.922662,"line":1,"distance":3100,"transit":false,"station_name":"Buaran","is_transit":false,"i_lat":-6.215568},{"station_name":"Klenderbaru","distance":1305,"is_transit":false,"transit":false,"time":1,"i_lat":-6.217455,"i_long":106.939679,"station_id":"KLDB","line":1},{"distance":1385,"is_transit":false,"transit":false,"time":8,"line":1,"i_lat":-6.219053,"i_long":106.951283,"station_name":"Cakung","station_id":"CUK"}],[{"line":2,"i_lat":-6.255332,"station_name":"Duren Kalibata","i_long":106.85449,"is_transit":false,"distance":0,"transit":false,"time":0,"station_id":"DRN"},{"station_name":"Cawang","i_lat":-6.242512,"station_id":"CW","i_long":106.856607,"line":2,"time":3,"distance":1546,"is_transit":false,"transit":false},{"line":2,"time":2,"i_long":106.857948,"distance":1230,"i_lat":-6.226659,"station_id":"TEB","is_transit":false,"station_name":"Tebet","transit":false},{"line":2,"station_id":"MRI","transit":false,"distance":2610,"i_long":106.84912,"station_name":"Manggarai","i_lat":-6.209883,"is_transit":false,"time":4},{"distance":1590,"line":2,"is_transit":false,"transit":false,"time":4,"station_id":"CKI","i_long":106.840169,"i_lat":-6.198556,"station_name":"Cikini"},{"line":2,"station_name":"Gondangdia","station_id":"GDD","i_lat":-6.186295,"is_transit":false,"distance":1750,"transit":false,"time":3,"i_long":106.832183},{"is_transit":false,"time":4,"station_id":"JUA","i_lat":-6.166716,"line":2,"transit":false,"distance":2015,"station_name":"Juanda","i_long":106.828284},{"distance":1149,"station_name":"Sawah Besar","time":2,"i_lat":-6.160725,"line":2,"transit":false,"station_id":"SW","is_transit":false,"i_long":106.827103},{"time":2,"is_transit":false,"transit":false,"distance":906,"i_lat":-6.149769,"i_long":106.82482,"station_name":"Manggabesar","line":2,"station_id":"MGB"},{"time":2,"station_id":"JAY","transit":false,"line":2,"i_lat":-6.141205,"distance":1080,"is_transit":false,"i_long":106.820901,"station_name":"Jayakarta"},{"transit":true,"time":4,"station_id":"JAKK","i_long":106.812439,"station_name":"Jakarta Kota","i_lat":-6.137569,"line":2,"is_transit":true,"distance":1264},{"time":3,"station_id":"KPB","distance":1364,"i_lat":-6.132549,"transit":true,"station_name":"Kampung Bandan","line":4,"is_transit":true,"i_long":106.826365},{"line":11,"station_id":"RJW","i_lat":-6.14505,"transit":false,"distance":1444,"i_long":106.836569,"is_transit":false,"time":3,"station_name":"Rajawali"},{"station_name":"Kemayoran","time":5,"distance":1901,"i_long":106.839204,"line":11,"station_id":"KMO","i_lat":-6.161728,"is_transit":false,"transit":false},{"station_name":"Pasar Senen","line":11,"transit":false,"station_id":"PSE","i_lat":-6.174784,"i_long":106.84368,"distance":1436,"is_transit":false,"time":4},{"station_name":"Gang Sentiong","time":8,"line":11,"is_transit":false,"transit":false,"i_lat":-6.185975,"station_id":"GST","i_long":106.850107,"distance":1567},{"distance":973,"transit":false,"time":1,"i_lat":-6.193792,"line":11,"station_id":"KMT","i_long":106.855437,"is_transit":false,"station_name":"Kramat"},{"transit":false,"i_lat":-6.209188,"line":11,"time":2,"i_long":106.861737,"distance":1829,"station_id":"POK","station_name":"Pondok Jati","is_transit":false},{"station_id":"JNG","i_lat":-6.215091,"line":1,"is_transit":true,"i_long":106.86807400000001,"distance":1236,"station_name":"Jatinegara","transit":true,"time":9},{"distance":3395,"station_name":"Klender","i_lat":-6.2135,"is_transit":false,"station_id":"KLD","line":1,"transit":false,"i_long":106.899548,"time":3},{"i_long":106.922662,"is_transit":false,"line":1,"i_lat":-6.215568,"transit":false,"time":2,"station_id":"BUA","station_name":"Buaran","distance":3100},{"is_transit":false,"station_id":"KLDB","transit":false,"distance":1305,"line":1,"i_long":106.939679,"i_lat":-6.217455,"time":1,"station_name":"Klenderbaru"},{"station_name":"Cakung","time":8,"transit":false,"distance":1385,"station_id":"CUK","is_transit":false,"line":1,"i_lat":-6.219053,"i_long":106.951283}]]}