{"data":[[{"transit":false,"is_transit":false,"i_long":106.85449,"station_id":"DRN","time":0,"station_name":"Duren Kalibata","line":0,"distance":0,"i_lat":-6.255332},{"station_name":"Cawang","i_lat":-6.242512,"is_transit":false,"transit":false,"line":0,"distance":1546,"station_id":"CW","i_long":106.856607,"time":3},{"time":2,"i_lat":-6.226659,"station_name":"Tebet","transit":false,"station_id":"TEB","distance":1230,"is_transit":false,"i_long":106.857948,"line":2},{"i_lat":-6.209883,"line":0,"transit":true,"i_long":106.84912,"time":4,"station_id":"MRI","station_name":"Manggarai","is_transit":true,"distance":2610},{"station_name":"Sudirman","time":4,"line":1,"is_transit":false,"station_id":"SUD","i_long":106.822649,"distance":3186,"transit":false,"i_lat":-6.202263},{"i_long":106.819881,"station_name":"Sudirman Baru","is_transit":false,"time":1,"distance":280,"transit":false,"line":1,"station_id":"SUDB","i_lat":-6.201433},{"station_name":"Karet","line":1,"time":1,"station_id":"KAT","is_transit":false,"transit":false,"i_long":106.816351,"distance":471,"i_lat":-6.20132},{"time":5,"transit":true,"i_lat":-6.185545,"distance":2029,"i_long":106.811091,"station_id":"THB","station_name":"Tanah Abang","is_transit":true,"line":1},{"time":6,"station_name":"Palmerah","is_transit":false,"distance":3191,"i_lat":-6.207404,"transit":false,"i_long":106.79689,"line":6,"station_id":"PLM"},{"station_name":"Kebayoran","is_transit":false,"line":6,"transit":false,"i_lat":-6.237242,"i_long":106.780334,"station_id":"KBY","distance":3737,"time":7},{"line":6,"station_id":"PDJ","is_transit":false,"time":8,"i_lat":-6.276362,"distance":6218,"i_long":106.74273,"station_name":"Pondokranji","transit":false},{"station_name":"Jurangmangu","time":3,"i_lat":-6.288927,"i_long":106.728916,"transit":false,"distance":2179,"station_id":"JMU","is_transit":false,"line":6},{"time":4,"i_lat":-6.296963,"i_long":106.712277,"is_transit":false,"line":6,"station_name":"Sudimara","transit":false,"station_id":"SDM","distance":1994},{"i_lat":-6.314823,"station_id":"RU","time":6,"distance":4566,"i_long":106.675475,"station_name":"Rawa Buntu","transit":false,"line":6,"is_transit":false},{"i_long":106.66566,"station_name":"Serpong","distance":2413,"i_lat":-6.319871,"line":6,"time":4,"station_id":"SRP","transit":false,"is_transit":false},{"i_lat":-6.32484,"station_name":"Cisauk","is_transit":false,"station_id":"CSK","time":4,"line":0,"distance":1784,"i_long":106.640411,"transit":false},{"i_long":106.617853,"i_lat":-6.329547,"time":4,"station_id":"CC","is_transit":false,"station_name":"Cicayur","distance":2519,"transit":false,"line":0},{"station_name":"Parung Panjang","time":8,"line":6,"i_lat":-6.3441410000000005,"is_transit":false,"transit":false,"distance":5968,"station_id":"PRP","i_long":106.568863},{"station_id":"CJT","distance":7025,"i_lat":-6.354349,"i_long":106.508482,"time":9,"transit":false,"is_transit":false,"line":0,"station_name":"Cilejit"}],[{"station_id":"DRN","distance":0,"is_transit":false,"line":0,"station_name":"Duren Kalibata","i_long":106.85449,"time":0,"i_lat":-6.255332,"transit":false},{"station_name":"Cawang","i_lat":-6.242512,"is_transit":false,"i_long":106.856607,"time":3,"line":0,"transit":false,"distance":1546,"station_id":"CW"},{"line":2,"station_id":"TEB","station_name":"Tebet","distance":1230,"i_lat":-6.226659,"i_long":106.857948,"transit":false,"is_transit":false,"time":2},{"line":0,"distance":2610,"is_transit":true,"transit":true,"i_lat":-6.209883,"i_long":106.84912,"station_id":"MRI","station_name":"Manggarai","time":4},{"line":0,"time":4,"station_id":"CKI","i_lat":-6.198556,"transit":false,"station_name":"Cikini","distance":1590,"is_transit":false,"i_long":106.840169},{"transit":false,"line":2,"is_transit":false,"time":3,"distance":1750,"i_long":106.832183,"station_name":"Gondangdia","station_id":"GDD","i_lat":-6.186295},{"i_long":106.828284,"i_lat":-6.166716,"line":2,"station_id":"JUA","station_name":"Juanda","is_transit":false,"time":4,"distance":2015,"transit":false},{"i_long":106.827103,"time":2,"line":2,"station_id":"SW","distance":1149,"transit":false,"i_lat":-6.160725,"station_name":"Sawah Besar","is_transit":false},{"station_name":"Manggabesar","line":2,"i_lat":-6.149769,"station_id":"MGB","is_transit":false,"distance":906,"transit":false,"i_long":106.82482,"time":2},{"station_id":"JAY","station_name":"Jayakarta","distance":1080,"is_transit":false,"time":2,"transit":false,"i_lat":-6.141205,"line":7,"i_long":106.820901},{"time":4,"i_long":106.812439,"i_lat":-6.137569,"line":0,"station_id":"JAKK","station_name":"Jakarta Kota","transit":true,"is_transit":true,"distance":1264},{"station_id":"KPB","distance":1364,"station_name":"Kampung Bandan","i_long":106.826365,"time":3,"i_lat":-6.132549,"line":0,"transit":false,"is_transit":true},{"transit":false,"i_lat":-6.144674,"line":0,"station_id":"AK","i_long":106.79867,"station_name":"Angke","is_transit":false,"distance":4102,"time":9},{"station_name":"Duri","time":4,"i_long":106.800832,"station_id":"DU","transit":true,"i_lat":-6.155215,"is_transit":true,"line":1,"distance":1230},{"station_name":"Tanah Abang","i_long":106.811091,"distance":3632,"time":8,"i_lat":-6.185545,"station_id":"THB","is_transit":true,"line":1,"transit":true},{"station_name":"Palmerah","transit":false,"is_transit":false,"distance":3191,"line":6,"i_long":106.79689,"station_id":"PLM","time":6,"i_lat":-6.207404},{"distance":3737,"line":6,"station_name":"Kebayoran","is_transit":false,"station_id":"KBY","time":7,"transit":false,"i_lat":-6.237242,"i_long":106.780334},{"i_lat":-6.276362,"i_long":106.74273,"is_transit":false,"distance":6218,"station_name":"Pondokranji","station_id":"PDJ","line":6,"time":8,"transit":false},{"station_name":"Jurangmangu","i_lat":-6.288927,"station_id":"JMU","line":6,"time":3,"distance":2179,"transit":false,"i_long":106.728916,"is_transit":false},{"is_transit":false,"distance":1994,"i_lat":-6.296963,"station_name":"Sudimara","i_long":106.712277,"line":6,"station_id":"SDM","time":4,"transit":false},{"station_name":"Rawa Buntu","is_transit":false,"i_lat":-6.314823,"transit":false,"line":6,"station_id":"RU","distance":4566,"time":6,"i_long":106.675475},{"is_transit":false,"transit":false,"distance":2413,"line":6,"i_long":106.66566,"station_id":"SRP","station_name":"Serpong","i_lat":-6.319871,"time":4},{"transit":false,"is_transit":false,"line":0,"distance":1784,"time":4,"i_lat":-6.32484,"i_long":106.640411,"station_name":"Cisauk","station_id":"CSK"},{"station_name":"Cicayur","i_long":106.617853,"distance":2519,"station_id":"CC","transit":false,"is_transit":false,"time":4,"i_lat":-6.329547,"line":0},{"time":8,"i_lat":-6.3441410000000005,"is_transit":false,"station_name":"Parung Panjang","i_long":106.568863,"transit":false,"line":6,"station_id":"PRP","distance":5968},{"is_transit":false,"station_name":"Cilejit","distance":7025,"transit":false,"i_lat":-6.354349,"line":0,"i_long":106.508482,"station_id":"CJT","time":9}],[{"time":0,"transit":false,"i_lat":-6.255332,"distance":0,"station_name":"Duren Kalibata","i_long":106.85449,"is_transit":false,"line":0,"station_id":"DRN"},{"station_name":"Cawang","line":0,"is_transit":false,"distance":1546,"time":3,"i_long":106.856607,"i_lat":-6.242512,"transit":false,"station_id":"CW"},{"transit":false,"time":2,"i_lat":-6.226659,"distance":1230,"i_long":106.857948,"station_id":"TEB","is_transit":false,"line":2,"station_name":"Tebet"},{"distance":2610,"line":0,"i_long":106.84912,"time":4,"station_id":"MRI","is_transit":true,"i_lat":-6.209883,"station_name":"Manggarai","transit":true},{"station_id":"MTR","station_name":"Matraman","line":1,"transit":false,"is_transit":false,"distance":1275,"time":2,"i_lat":-6.212485,"i_long":106.858896},{"distance":1377,"station_id":"JNG","i_long":106.86807400000001,"time":8,"i_lat":-6.215091,"line":0,"is_transit":true,"station_name":"Jatinegara","transit":true},{"line":11,"is_transit":false,"station_id":"POK","time":2,"distance":1236,"station_name":"Pondok Jati","transit":false,"i_lat":-6.209188,"i_long":106.861737},{"time":2,"line":11,"transit":false,"i_lat":-6.193792,"distance":1829,"station_id":"KMT","i_long":106.855437,"station_name":"Kramat","is_transit":false},{"time":1,"distance":973,"line":11,"station_name":"Gang Sentiong","station_id":"GST","is_transit":false,"i_long":106.850107,"transit":false,"i_lat":-6.185975},{"line":11,"i_long":106.84368,"station_name":"Pasar Senen","i_lat":-6.174784,"distance":1567,"time":8,"is_transit":false,"station_id":"PSE","transit":false},{"station_name":"Kemayoran","distance":1436,"time":4,"transit":false,"i_long":106.839204,"station_id":"KMO","i_lat":-6.161728,"is_transit":false,"line":11},{"distance":1901,"i_lat":-6.14505,"station_name":"Rajawali","i_long":106.836569,"line":11,"is_transit":false,"station_id":"RJW","time":5,"transit":false},{"distance":1444,"line":0,"i_lat":-6.132549,"transit":true,"time":3,"i_long":106.826365,"is_transit":true,"station_id":"KPB","station_name":"Kampung Bandan"},{"time":9,"distance":4102,"line":0,"i_long":106.79867,"i_lat":-6.144674,"transit":false,"station_id":"AK","station_name":"Angke","is_transit":false},{"line":1,"i_long":106.800832,"station_id":"DU","is_transit":true,"time":4,"i_lat":-6.155215,"station_name":"Duri","transit":true,"distance":1230},{"i_long":106.811091,"line":1,"station_id":"THB","is_transit":true,"transit":true,"i_lat":-6.185545,"station_name":"Tanah Abang","time":8,"distance":3632},{"i_lat":-6.207404,"i_long":106.79689,"line":6,"is_transit":false,"station_id":"PLM","station_name":"Palmerah","time":6,"transit":false,"distance":3191},{"transit":false,"station_name":"Kebayoran","i_lat":-6.237242,"line":6,"distance":3737,"station_id":"KBY","is_transit":false,"time":7,"i_long":106.780334},{"is_transit":false,"transit":false,"i_lat":-6.276362,"distance":6218,"time":8,"i_long":106.74273,"line":6,"station_id":"PDJ","station_name":"Pondokranji"},{"is_transit":false,"time":3,"station_name":"Jurangmangu","transit":false,"line":6,"i_long":106.728916,"distance":2179,"station_id":"JMU","i_lat":-6.288927},{"station_name":"Sudimara","transit":false,"is_transit":false,"i_long":106.712277,"distance":1994,"time":4,"line":6,"i_lat":-6.296963,"station_id":"SDM"},{"time":6,"station_name":"Rawa Buntu","i_lat":-6.314823,"line":6,"i_long":106.675475,"is_transit":false,"transit":false,"station_id":"RU","distance":4566},{"time":4,"is_transit":false,"line":6,"station_id":"SRP","distance":2413,"i_lat":-6.319871,"transit":false,"station_name":"Serpong","i_long":106.66566},{"transit":false,"is_transit":false,"i_long":106.640411,"line":0,"station_name":"Cisauk","station_id":"CSK","time":4,"i_lat":-6.32484,"distance":1784},{"station_id":"CC","line":0,"is_transit":false,"time":4,"distance":2519,"station_name":"Cicayur","i_long":106.617853,"transit":false,"i_lat":-6.329547},{"transit":false,"distance":5968,"station_id":"PRP","station_name":"Parung Panjang","time":8,"i_lat":-6.3441410000000005,"is_transit":false,"i_long":106.568863,"line":6},{"station_id":"CJT","line":0,"transit":false,"distance":7025,"time":9,"i_lat":-6.354349,"station_name":"Cilejit","is_transit":false,"i_long":106.508482}]]}