{"data":[[{"time":0,"station_id":"DRN","distance":0,"i_lat":-6.255332,"transit":false,"is_transit":false,"station_name":"Duren Kalibata","i_long":106.85449,"line":2},{"time":2,"transit":false,"station_name":"Pasar Minggu Baru","station_id":"PSMB","i_lat":-6.263214,"line":2,"distance":824,"is_transit":false,"i_long":106.851577},{"distance":2380,"transit":false,"station_name":"Pasar Minggu","line":2,"i_long":106.843999,"station_id":"PSM","i_lat":-6.2842400000000005,"is_transit":false,"time":2},{"is_transit":false,"station_id":"TNT","i_lat":-6.3080680000000005,"i_long":106.838896,"transit":false,"line":2,"station_name":"Tanjung Barat","distance":2820,"time":4},{"line":2,"distance":2671,"transit":false,"i_long":106.832616,"i_lat":-6.330363,"time":3,"station_name":"Lenteng Agung","station_id":"LNA","is_transit":false},{"i_long":106.834175,"distance":1029,"is_transit":false,"i_lat":-6.339291,"line":2,"station_id":"UP","transit":false,"time":2,"station_name":"Univ. Pancasila"},{"is_transit":false,"station_name":"Univ. Indonesia","i_long":106.831474,"distance":2264,"time":3,"station_id":"UI","line":2,"i_lat":-6.360749,"transit":false},{"transit":false,"station_name":"Pondok Cina","distance":1109,"is_transit":false,"time":2,"i_long":106.831114,"station_id":"POC","i_lat":-6.369073,"line":2},{"station_id":"DPB","distance":2727,"time":4,"transit":false,"station_name":"Depokbaru","is_transit":false,"i_lat":-6.391065,"i_long":106.819451,"line":2},{"i_lat":-6.405256,"station_id":"DP","distance":1584,"i_long":106.816926,"line":2,"is_transit":false,"time":3,"station_name":"Depok","transit":false},{"station_name":"Citayam","i_lat":-6.448811,"time":6,"distance":5084,"is_transit":false,"transit":false,"station_id":"CTA","line":2,"i_long":106.800298},{"station_id":"BJD","i_lat":-6.493243,"distance":5197,"i_long":106.792719,"station_name":"Bojonggede","is_transit":false,"line":2,"transit":false,"time":5},{"station_name":"Cilebut","time":5,"distance":4331,"line":2,"transit":false,"is_transit":false,"i_lat":-6.530544,"i_long":106.800016,"station_id":"CLT"}]]}