{"data":[[{"station_id":"DRN","transit":false,"time":0,"distance":0,"i_long":106.85449,"station_name":"Duren Kalibata","is_transit":false,"line":0,"i_lat":-6.255332},{"line":0,"time":3,"transit":false,"is_transit":false,"station_name":"Cawang","i_lat":-6.242512,"i_long":106.856607,"station_id":"CW","distance":1546},{"station_id":"TEB","is_transit":false,"station_name":"Tebet","time":2,"transit":false,"line":2,"i_lat":-6.226659,"i_long":106.857948,"distance":1230},{"line":0,"i_long":106.84912,"transit":true,"distance":2610,"is_transit":true,"station_name":"Manggarai","station_id":"MRI","time":4,"i_lat":-6.209883},{"distance":3186,"i_lat":-6.202263,"is_transit":false,"line":1,"time":4,"transit":false,"station_id":"SUD","station_name":"Sudirman","i_long":106.822649},{"i_lat":-6.201433,"i_long":106.819881,"distance":280,"line":1,"transit":false,"station_id":"SUDB","station_name":"Sudirman Baru","time":1,"is_transit":false},{"is_transit":false,"distance":471,"station_id":"KAT","i_long":106.816351,"i_lat":-6.20132,"line":1,"station_name":"Karet","time":1,"transit":false},{"i_long":106.811091,"is_transit":true,"transit":false,"i_lat":-6.185545,"station_id":"THB","time":5,"line":1,"station_name":"Tanah Abang","distance":2029},{"time":8,"transit":true,"i_long":106.800832,"is_transit":true,"line":1,"distance":3632,"i_lat":-6.155215,"station_name":"Duri","station_id":"DU"},{"line":5,"distance":1700,"transit":false,"is_transit":false,"station_id":"GGL","time":3,"i_lat":-6.162021,"i_long":106.788277,"station_name":"Grogol"},{"station_id":"PSG","i_lat":-6.161433,"line":5,"transit":false,"i_long":106.771379,"is_transit":false,"distance":2036,"station_name":"Pesing","time":2},{"is_transit":false,"i_long":106.756522,"station_name":"Taman Kota","distance":1614,"station_id":"TKO","time":2,"line":5,"i_lat":-6.1587309999999995,"transit":false},{"transit":false,"distance":2334,"line":0,"station_id":"BOI","is_transit":false,"station_name":"Bojongindah","time":2,"i_lat":-6.159876,"i_long":106.737035}],[{"line":0,"i_lat":-6.255332,"distance":0,"time":0,"transit":false,"station_name":"Duren Kalibata","is_transit":false,"i_long":106.85449,"station_id":"DRN"},{"is_transit":false,"i_lat":-6.242512,"time":3,"i_long":106.856607,"station_id":"CW","station_name":"Cawang","transit":false,"line":0,"distance":1546},{"distance":1230,"is_transit":false,"i_long":106.857948,"line":2,"transit":false,"time":2,"station_id":"TEB","station_name":"Tebet","i_lat":-6.226659},{"distance":2610,"i_lat":-6.209883,"time":4,"i_long":106.84912,"transit":true,"line":0,"is_transit":true,"station_id":"MRI","station_name":"Manggarai"},{"time":4,"distance":1590,"transit":false,"station_name":"Cikini","is_transit":false,"i_long":106.840169,"line":0,"station_id":"CKI","i_lat":-6.198556},{"i_lat":-6.186295,"distance":1750,"line":2,"station_id":"GDD","station_name":"Gondangdia","time":3,"i_long":106.832183,"transit":false,"is_transit":false},{"i_lat":-6.166716,"time":4,"is_transit":false,"distance":2015,"transit":false,"i_long":106.828284,"station_id":"JUA","station_name":"Juanda","line":2},{"i_long":106.827103,"transit":false,"time":2,"is_transit":false,"station_id":"SW","distance":1149,"station_name":"Sawah Besar","i_lat":-6.160725,"line":2},{"line":2,"i_lat":-6.149769,"station_id":"MGB","time":2,"is_transit":false,"distance":906,"transit":false,"station_name":"Manggabesar","i_long":106.82482},{"transit":false,"station_name":"Jayakarta","station_id":"JAY","is_transit":false,"line":7,"time":2,"distance":1080,"i_lat":-6.141205,"i_long":106.820901},{"transit":true,"station_id":"JAKK","is_transit":true,"i_lat":-6.137569,"time":4,"station_name":"Jakarta Kota","distance":1264,"i_long":106.812439,"line":0},{"transit":false,"line":0,"i_lat":-6.132549,"station_id":"KPB","is_transit":true,"distance":1364,"station_name":"Kampung Bandan","time":3,"i_long":106.826365},{"is_transit":false,"transit":false,"distance":4102,"i_long":106.79867,"station_name":"Angke","line":0,"i_lat":-6.144674,"time":9,"station_id":"AK"},{"i_long":106.800832,"transit":true,"is_transit":true,"station_id":"DU","station_name":"Duri","i_lat":-6.155215,"line":1,"distance":1230,"time":4},{"station_id":"GGL","is_transit":false,"transit":false,"distance":1700,"station_name":"Grogol","i_lat":-6.162021,"time":3,"line":5,"i_long":106.788277},{"line":5,"station_name":"Pesing","i_long":106.771379,"is_transit":false,"distance":2036,"transit":false,"station_id":"PSG","time":2,"i_lat":-6.161433},{"line":5,"station_name":"Taman Kota","station_id":"TKO","transit":false,"is_transit":false,"time":2,"distance":1614,"i_lat":-6.1587309999999995,"i_long":106.756522},{"time":2,"is_transit":false,"transit":false,"distance":2334,"station_id":"BOI","i_long":106.737035,"line":0,"i_lat":-6.159876,"station_name":"Bojongindah"}],[{"is_transit":false,"station_id":"DRN","distance":0,"station_name":"Duren Kalibata","line":0,"transit":false,"time":0,"i_lat":-6.255332,"i_long":106.85449},{"distance":1546,"station_name":"Cawang","i_long":106.856607,"line":0,"is_transit":false,"transit":false,"i_lat":-6.242512,"time":3,"station_id":"CW"},{"i_long":106.857948,"transit":false,"station_id":"TEB","is_transit":false,"station_name":"Tebet","time":2,"i_lat":-6.226659,"distance":1230,"line":2},{"line":0,"i_long":106.84912,"station_id":"MRI","time":4,"distance":2610,"transit":true,"i_lat":-6.209883,"station_name":"Manggarai","is_transit":true},{"station_name":"Matraman","i_lat":-6.212485,"line":1,"time":2,"distance":1275,"i_long":106.858896,"transit":false,"station_id":"MTR","is_transit":false},{"time":8,"station_id":"JNG","i_long":106.86807400000001,"distance":1377,"i_lat":-6.215091,"transit":true,"is_transit":true,"station_name":"Jatinegara","line":0},{"time":2,"transit":false,"i_long":106.861737,"station_name":"Pondok Jati","i_lat":-6.209188,"line":11,"station_id":"POK","distance":1236,"is_transit":false},{"line":11,"station_id":"KMT","transit":false,"i_long":106.855437,"distance":1829,"station_name":"Kramat","is_transit":false,"time":2,"i_lat":-6.193792},{"i_long":106.850107,"station_name":"Gang Sentiong","line":11,"i_lat":-6.185975,"station_id":"GST","is_transit":false,"time":1,"transit":false,"distance":973},{"station_name":"Pasar Senen","station_id":"PSE","transit":false,"i_long":106.84368,"is_transit":false,"line":11,"i_lat":-6.174784,"distance":1567,"time":8},{"is_transit":false,"i_long":106.839204,"station_name":"Kemayoran","transit":false,"i_lat":-6.161728,"station_id":"KMO","distance":1436,"time":4,"line":11},{"station_name":"Rajawali","time":5,"distance":1901,"i_lat":-6.14505,"line":11,"transit":false,"station_id":"RJW","i_long":106.836569,"is_transit":false},{"i_long":106.826365,"station_name":"Kampung Bandan","transit":true,"line":0,"station_id":"KPB","is_transit":true,"time":3,"distance":1444,"i_lat":-6.132549},{"line":0,"is_transit":false,"station_name":"Angke","transit":false,"distance":4102,"time":9,"i_long":106.79867,"i_lat":-6.144674,"station_id":"AK"},{"line":1,"time":4,"is_transit":true,"transit":true,"i_long":106.800832,"distance":1230,"i_lat":-6.155215,"station_name":"Duri","station_id":"DU"},{"transit":false,"station_id":"GGL","station_name":"Grogol","is_transit":false,"i_lat":-6.162021,"time":3,"distance":1700,"line":5,"i_long":106.788277},{"i_lat":-6.161433,"station_id":"PSG","distance":2036,"transit":false,"station_name":"Pesing","line":5,"i_long":106.771379,"is_transit":false,"time":2},{"i_lat":-6.1587309999999995,"transit":false,"station_name":"Taman Kota","i_long":106.756522,"line":5,"distance":1614,"station_id":"TKO","is_transit":false,"time":2},{"station_id":"BOI","i_long":106.737035,"time":2,"transit":false,"i_lat":-6.159876,"distance":2334,"line":0,"is_transit":false,"station_name":"Bojongindah"}]]}