{"data":[[{"station_id":"DRN","time":0,"i_lat":-6.255332,"i_long":106.85449,"transit":false,"is_transit":false,"line":2,"distance":0,"station_name":"Duren Kalibata"},{"is_transit":false,"i_lat":-6.263214,"i_long":106.851577,"station_id":"PSMB","station_name":"Pasar Minggu Baru","time":2,"line":2,"distance":824,"transit":false},{"i_lat":-6.2842400000000005,"station_id":"PSM","i_long":106.843999,"line":2,"transit":false,"distance":2380,"station_name":"Pasar Minggu","is_transit":false,"time":2},{"line":2,"station_name":"Tanjung Barat","station_id":"TNT","i_long":106.838896,"is_transit":false,"transit":false,"distance":2820,"i_lat":-6.3080680000000005,"time":4},{"i_lat":-6.330363,"station_id":"LNA","i_long":106.832616,"time":3,"station_name":"Lenteng Agung","is_transit":false,"transit":false,"distance":2671,"line":2},{"time":2,"station_name":"Univ. Pancasila","i_long":106.834175,"distance":1029,"transit":false,"i_lat":-6.339291,"line":2,"station_id":"UP","is_transit":false},{"distance":2264,"i_lat":-6.360749,"station_name":"Univ. Indonesia","is_transit":false,"time":3,"transit":false,"i_long":106.831474,"line":2,"station_id":"UI"},{"i_long":106.831114,"line":2,"station_id":"POC","is_transit":false,"i_lat":-6.369073,"time":2,"station_name":"Pondok Cina","distance":1109,"transit":false},{"station_id":"DPB","line":2,"time":4,"station_name":"Depokbaru","distance":2727,"is_transit":false,"i_long":106.819451,"transit":false,"i_lat":-6.391065},{"is_transit":false,"time":3,"distance":1584,"line":2,"i_lat":-6.405256,"transit":false,"station_name":"Depok","i_long":106.816926,"station_id":"DP"}]]}