{"data":[[{"i_lat":-6.255332,"line":2,"i_long":106.85449,"distance":0,"is_transit":false,"station_name":"Duren Kalibata","station_id":"DRN","transit":false,"time":0},{"i_lat":-6.263214,"is_transit":false,"distance":824,"time":2,"i_long":106.851577,"station_id":"PSMB","line":2,"station_name":"Pasar Minggu Baru","transit":false},{"station_name":"Pasar Minggu","station_id":"PSM","i_long":106.843999,"time":2,"is_transit":false,"transit":false,"line":2,"i_lat":-6.2842400000000005,"distance":2380},{"station_id":"TNT","i_long":106.838896,"line":2,"is_transit":false,"station_name":"Tanjung Barat","i_lat":-6.3080680000000005,"transit":false,"distance":2820,"time":4},{"i_long":106.832616,"time":3,"line":2,"transit":false,"is_transit":false,"i_lat":-6.330363,"station_id":"LNA","station_name":"Lenteng Agung","distance":2671},{"i_long":106.834175,"transit":false,"time":2,"station_name":"Univ. Pancasila","station_id":"UP","line":2,"is_transit":false,"i_lat":-6.339291,"distance":1029},{"transit":false,"station_id":"UI","distance":2264,"i_long":106.831474,"station_name":"Univ. Indonesia","line":2,"is_transit":false,"time":3,"i_lat":-6.360749},{"station_name":"Pondok Cina","i_lat":-6.369073,"distance":1109,"line":2,"is_transit":false,"transit":false,"time":2,"i_long":106.831114,"station_id":"POC"},{"time":4,"distance":2727,"i_long":106.819451,"station_id":"DPB","line":2,"is_transit":false,"station_name":"Depokbaru","transit":false,"i_lat":-6.391065},{"time":3,"is_transit":false,"i_lat":-6.405256,"distance":1584,"line":2,"station_name":"Depok","i_long":106.816926,"transit":false,"station_id":"DP"},{"station_name":"Citayam","transit":true,"station_id":"CTA","line":2,"time":6,"is_transit":true,"distance":5084,"i_long":106.800298,"i_lat":-6.448811},{"station_name":"Pondok Rajeg","distance":0,"i_long":106.824374,"time":0,"transit":false,"station_id":"PDRG","i_lat":-6.460735,"is_transit":false,"line":21}]]}