{"data":[[{"i_long":106.85449,"distance":0,"i_lat":-6.255332,"station_name":"Duren Kalibata","time":0,"transit":false,"line":2,"is_transit":false,"station_id":"DRN"},{"i_lat":-6.242512,"i_long":106.856607,"station_name":"Cawang","time":3,"line":2,"distance":1546,"station_id":"CW","is_transit":false,"transit":false},{"station_id":"TEB","i_long":106.857948,"is_transit":false,"time":2,"distance":1230,"i_lat":-6.226659,"station_name":"Tebet","transit":false,"line":2},{"transit":false,"i_lat":-6.209883,"distance":2610,"i_long":106.84912,"line":2,"is_transit":false,"station_name":"Manggarai","time":4,"station_id":"MRI"},{"transit":false,"time":4,"station_name":"Cikini","distance":1590,"line":2,"i_lat":-6.198556,"i_long":106.840169,"station_id":"CKI","is_transit":false},{"station_id":"GDD","station_name":"Gondangdia","is_transit":false,"time":3,"i_lat":-6.186295,"line":2,"i_long":106.832183,"transit":false,"distance":1750},{"i_lat":-6.166716,"transit":false,"line":2,"station_name":"Juanda","is_transit":false,"station_id":"JUA","distance":2015,"time":4,"i_long":106.828284},{"is_transit":false,"i_lat":-6.160725,"line":2,"station_id":"SW","i_long":106.827103,"transit":false,"time":2,"station_name":"Sawah Besar","distance":1149},{"station_id":"MGB","transit":false,"distance":906,"time":2,"i_long":106.82482,"station_name":"Manggabesar","line":2,"i_lat":-6.149769,"is_transit":false},{"i_lat":-6.141205,"station_id":"JAY","station_name":"Jayakarta","line":2,"i_long":106.820901,"time":2,"transit":false,"is_transit":false,"distance":1080},{"time":4,"is_transit":false,"line":2,"distance":1264,"station_name":"Jakarta Kota","transit":false,"station_id":"JAKK","i_lat":-6.137569,"i_long":106.812439}],[{"transit":false,"i_lat":-6.255332,"i_long":106.85449,"distance":0,"is_transit":false,"time":0,"station_id":"DRN","line":2,"station_name":"Duren Kalibata"},{"distance":1546,"is_transit":false,"i_long":106.856607,"line":2,"time":3,"station_name":"Cawang","station_id":"CW","i_lat":-6.242512,"transit":false},{"transit":false,"i_long":106.857948,"distance":1230,"is_transit":false,"time":2,"line":2,"station_id":"TEB","i_lat":-6.226659,"station_name":"Tebet"},{"time":4,"station_name":"Manggarai","distance":2610,"is_transit":true,"i_lat":-6.209883,"i_long":106.84912,"station_id":"MRI","transit":true,"line":2},{"distance":3186,"station_name":"Sudirman","transit":false,"i_long":106.822649,"is_transit":false,"i_lat":-6.202263,"line":1,"time":4,"station_id":"SUD"},{"i_long":106.819881,"distance":280,"line":1,"i_lat":-6.201433,"transit":false,"is_transit":false,"station_name":"Sudirman Baru","station_id":"SUDB","time":1},{"station_name":"Karet","time":1,"i_long":106.816351,"i_lat":-6.20132,"is_transit":false,"station_id":"KAT","line":1,"transit":false,"distance":471},{"i_lat":-6.185545,"transit":false,"station_id":"THB","is_transit":false,"distance":2029,"i_long":106.811091,"time":5,"line":1,"station_name":"Tanah Abang"},{"time":8,"i_lat":-6.155215,"is_transit":false,"transit":false,"station_name":"Duri","i_long":106.800832,"line":1,"distance":3632,"station_id":"DU"},{"time":4,"is_transit":false,"i_lat":-6.144674,"i_long":106.79867,"station_name":"Angke","line":1,"station_id":"AK","transit":false,"distance":1230},{"is_transit":true,"transit":true,"distance":4102,"line":4,"time":9,"i_lat":-6.132549,"station_id":"KPB","i_long":106.826365,"station_name":"Kampung Bandan"},{"i_lat":-6.137569,"i_long":106.812439,"is_transit":false,"station_id":"JAKK","station_name":"Jakarta Kota","transit":false,"line":2,"distance":1364,"time":3}],[{"i_long":106.85449,"time":0,"is_transit":false,"transit":false,"i_lat":-6.255332,"distance":0,"station_id":"DRN","station_name":"Duren Kalibata","line":2},{"station_id":"CW","transit":false,"time":3,"station_name":"Cawang","i_lat":-6.242512,"line":2,"distance":1546,"i_long":106.856607,"is_transit":false},{"transit":false,"station_id":"TEB","distance":1230,"line":2,"is_transit":false,"i_long":106.857948,"time":2,"i_lat":-6.226659,"station_name":"Tebet"},{"i_long":106.84912,"is_transit":true,"station_id":"MRI","station_name":"Manggarai","time":4,"i_lat":-6.209883,"transit":true,"distance":2610,"line":2},{"station_id":"MTR","line":1,"is_transit":false,"time":2,"i_lat":-6.212485,"distance":1275,"transit":false,"i_long":106.858896,"station_name":"Matraman"},{"i_lat":-6.215091,"i_long":106.86807400000001,"time":8,"is_transit":true,"transit":true,"line":1,"station_name":"Jatinegara","station_id":"JNG","distance":1377},{"time":2,"distance":1236,"is_transit":false,"line":11,"station_name":"Pondok Jati","i_long":106.861737,"transit":false,"i_lat":-6.209188,"station_id":"POK"},{"time":2,"i_lat":-6.193792,"is_transit":false,"i_long":106.855437,"station_id":"KMT","line":11,"transit":false,"distance":1829,"station_name":"Kramat"},{"line":11,"transit":false,"station_name":"Gang Sentiong","distance":973,"i_long":106.850107,"time":1,"station_id":"GST","i_lat":-6.185975,"is_transit":false},{"time":8,"i_lat":-6.174784,"line":11,"station_name":"Pasar Senen","distance":1567,"i_long":106.84368,"station_id":"PSE","transit":false,"is_transit":false},{"is_transit":false,"distance":1436,"station_name":"Kemayoran","station_id":"KMO","time":4,"i_lat":-6.161728,"i_long":106.839204,"line":11,"transit":false},{"station_name":"Rajawali","transit":false,"distance":1901,"line":11,"i_lat":-6.14505,"station_id":"RJW","is_transit":false,"time":5,"i_long":106.836569},{"i_lat":-6.132549,"station_name":"Kampung Bandan","i_long":106.826365,"time":3,"is_transit":true,"line":4,"station_id":"KPB","transit":true,"distance":1444},{"station_id":"JAKK","i_lat":-6.137569,"line":2,"distance":1364,"station_name":"Jakarta Kota","is_transit":false,"transit":false,"i_long":106.812439,"time":3}]]}