{"data":[[{"i_long":106.85449,"is_transit":false,"time":0,"transit":false,"distance":0,"station_id":"DRN","i_lat":-6.255332,"line":2,"station_name":"Duren Kalibata"},{"i_long":106.856607,"line":2,"is_transit":false,"station_id":"CW","distance":1546,"transit":false,"station_name":"Cawang","time":3,"i_lat":-6.242512},{"station_id":"TEB","time":2,"distance":1230,"i_lat":-6.226659,"i_long":106.857948,"line":2,"is_transit":false,"station_name":"Tebet","transit":false},{"distance":2610,"transit":true,"station_id":"MRI","station_name":"Manggarai","time":4,"line":2,"is_transit":true,"i_lat":-6.209883,"i_long":106.84912},{"station_name":"Sudirman","transit":false,"is_transit":false,"distance":3186,"i_long":106.822649,"i_lat":-6.202263,"line":1,"station_id":"SUD","time":4}],[{"transit":false,"is_transit":false,"time":0,"station_id":"DRN","distance":0,"station_name":"Duren Kalibata","i_lat":-6.255332,"i_long":106.85449,"line":2},{"is_transit":false,"transit":false,"line":2,"station_id":"CW","time":3,"i_lat":-6.242512,"i_long":106.856607,"distance":1546,"station_name":"Cawang"},{"transit":false,"station_id":"TEB","line":2,"is_transit":false,"i_long":106.857948,"time":2,"distance":1230,"station_name":"Tebet","i_lat":-6.226659},{"line":2,"transit":false,"is_transit":false,"i_long":106.84912,"station_id":"MRI","distance":2610,"i_lat":-6.209883,"station_name":"Manggarai","time":4},{"i_lat":-6.198556,"i_long":106.840169,"line":2,"is_transit":false,"distance":1590,"transit":false,"station_id":"CKI","time":4,"station_name":"Cikini"},{"distance":1750,"transit":false,"station_name":"Gondangdia","i_long":106.832183,"time":3,"station_id":"GDD","i_lat":-6.186295,"line":2,"is_transit":false},{"distance":2015,"station_name":"Juanda","station_id":"JUA","transit":false,"time":4,"is_transit":false,"i_long":106.828284,"line":2,"i_lat":-6.166716},{"line":2,"distance":1149,"time":2,"is_transit":false,"transit":false,"i_lat":-6.160725,"station_name":"Sawah Besar","i_long":106.827103,"station_id":"SW"},{"i_lat":-6.149769,"line":2,"is_transit":false,"transit":false,"station_name":"Manggabesar","time":2,"station_id":"MGB","i_long":106.82482,"distance":906},{"i_lat":-6.141205,"i_long":106.820901,"station_name":"Jayakarta","time":2,"distance":1080,"station_id":"JAY","transit":false,"line":2,"is_transit":false},{"station_id":"JAKK","distance":1264,"time":4,"station_name":"Jakarta Kota","is_transit":true,"i_lat":-6.137569,"transit":true,"i_long":106.812439,"line":2},{"is_transit":true,"i_lat":-6.132549,"time":3,"i_long":106.826365,"station_name":"Kampung Bandan","transit":true,"station_id":"KPB","distance":1364,"line":4},{"is_transit":false,"time":9,"i_lat":-6.144674,"station_id":"AK","transit":false,"i_long":106.79867,"line":1,"station_name":"Angke","distance":4102},{"i_long":106.800832,"transit":false,"station_id":"DU","is_transit":false,"time":4,"line":1,"i_lat":-6.155215,"distance":1230,"station_name":"Duri"},{"time":8,"distance":3632,"station_name":"Tanah Abang","line":1,"station_id":"THB","i_lat":-6.185545,"transit":false,"i_long":106.811091,"is_transit":false},{"station_id":"KAT","line":1,"transit":false,"time":5,"is_transit":false,"station_name":"Karet","i_lat":-6.20132,"i_long":106.816351,"distance":2029},{"station_id":"SUDB","transit":false,"station_name":"Sudirman Baru","i_lat":-6.201433,"i_long":106.819881,"time":1,"distance":471,"is_transit":false,"line":1},{"i_lat":-6.202263,"transit":false,"is_transit":false,"time":1,"station_name":"Sudirman","i_long":106.822649,"station_id":"SUD","line":1,"distance":280}],[{"transit":false,"station_id":"DRN","i_long":106.85449,"distance":0,"line":2,"i_lat":-6.255332,"is_transit":false,"time":0,"station_name":"Duren Kalibata"},{"distance":1546,"transit":false,"i_long":106.856607,"time":3,"station_name":"Cawang","i_lat":-6.242512,"line":2,"is_transit":false,"station_id":"CW"},{"is_transit":false,"time":2,"i_lat":-6.226659,"line":2,"transit":false,"station_name":"Tebet","distance":1230,"station_id":"TEB","i_long":106.857948},{"line":2,"station_name":"Manggarai","station_id":"MRI","distance":2610,"i_long":106.84912,"transit":true,"is_transit":true,"time":4,"i_lat":-6.209883},{"is_transit":false,"transit":false,"i_lat":-6.212485,"station_id":"MTR","line":1,"i_long":106.858896,"time":2,"station_name":"Matraman","distance":1275},{"i_lat":-6.215091,"is_transit":true,"transit":true,"time":8,"line":1,"station_id":"JNG","distance":1377,"i_long":106.86807400000001,"station_name":"Jatinegara"},{"transit":false,"station_name":"Pondok Jati","i_long":106.861737,"i_lat":-6.209188,"time":2,"line":11,"station_id":"POK","is_transit":false,"distance":1236},{"time":2,"station_name":"Kramat","transit":false,"station_id":"KMT","line":11,"i_lat":-6.193792,"is_transit":false,"i_long":106.855437,"distance":1829},{"transit":false,"is_transit":false,"station_name":"Gang Sentiong","i_lat":-6.185975,"i_long":106.850107,"line":11,"time":1,"distance":973,"station_id":"GST"},{"station_name":"Pasar Senen","line":11,"station_id":"PSE","i_lat":-6.174784,"transit":false,"time":8,"is_transit":false,"distance":1567,"i_long":106.84368},{"i_lat":-6.161728,"station_id":"KMO","is_transit":false,"transit":false,"time":4,"station_name":"Kemayoran","i_long":106.839204,"distance":1436,"line":11},{"i_lat":-6.14505,"i_long":106.836569,"line":11,"is_transit":false,"time":5,"transit":false,"distance":1901,"station_id":"RJW","station_name":"Rajawali"},{"transit":true,"station_name":"Kampung Bandan","time":3,"distance":1444,"i_long":106.826365,"station_id":"KPB","line":4,"i_lat":-6.132549,"is_transit":true},{"transit":false,"station_id":"AK","station_name":"Angke","line":1,"is_transit":false,"time":9,"i_lat":-6.144674,"i_long":106.79867,"distance":4102},{"line":1,"i_long":106.800832,"station_name":"Duri","station_id":"DU","distance":1230,"is_transit":false,"transit":false,"time":4,"i_lat":-6.155215},{"distance":3632,"transit":false,"is_transit":false,"time":8,"station_id":"THB","i_lat":-6.185545,"i_long":106.811091,"line":1,"station_name":"Tanah Abang"},{"station_name":"Karet","i_lat":-6.20132,"distance":2029,"is_transit":false,"transit":false,"station_id":"KAT","time":5,"i_long":106.816351,"line":1},{"distance":471,"transit":false,"line":1,"i_long":106.819881,"station_id":"SUDB","station_name":"Sudirman Baru","time":1,"i_lat":-6.201433,"is_transit":false},{"transit":false,"is_transit":false,"station_name":"Sudirman","i_lat":-6.202263,"line":1,"i_long":106.822649,"station_id":"SUD","distance":280,"time":1}]]}