{"data":[[{"station_id":"DRN","station_name":"Duren Kalibata","line":2,"distance":0,"is_transit":false,"transit":false,"i_lat":-6.255332,"i_long":106.85449,"time":0},{"station_id":"CW","time":3,"distance":1546,"transit":false,"line":2,"station_name":"Cawang","i_lat":-6.242512,"is_transit":false,"i_long":106.856607},{"time":2,"station_name":"Tebet","is_transit":false,"station_id":"TEB","line":2,"i_lat":-6.226659,"distance":1230,"transit":false,"i_long":106.857948},{"distance":2610,"time":4,"transit":true,"station_name":"Manggarai","i_long":106.84912,"is_transit":true,"line":2,"station_id":"MRI","i_lat":-6.209883},{"distance":1275,"transit":false,"i_lat":-6.212485,"time":2,"line":1,"is_transit":false,"station_name":"Matraman","station_id":"MTR","i_long":106.858896},{"station_name":"Jatinegara","station_id":"JNG","time":8,"is_transit":true,"transit":true,"i_lat":-6.215091,"line":1,"distance":1377,"i_long":106.86807400000001},{"line":11,"station_name":"Pondok Jati","time":2,"distance":1236,"i_long":106.861737,"i_lat":-6.209188,"is_transit":false,"transit":false,"station_id":"POK"},{"line":11,"time":2,"station_name":"Kramat","i_long":106.855437,"i_lat":-6.193792,"is_transit":false,"distance":1829,"transit":false,"station_id":"KMT"},{"distance":973,"transit":false,"station_id":"GST","line":11,"i_lat":-6.185975,"station_name":"Gang Sentiong","time":1,"is_transit":false,"i_long":106.850107}],[{"i_lat":-6.255332,"distance":0,"time":0,"transit":false,"station_name":"Duren Kalibata","is_transit":false,"line":2,"station_id":"DRN","i_long":106.85449},{"is_transit":false,"distance":1546,"transit":false,"station_name":"Cawang","time":3,"i_long":106.856607,"i_lat":-6.242512,"line":2,"station_id":"CW"},{"station_name":"Tebet","transit":false,"line":2,"station_id":"TEB","time":2,"distance":1230,"i_long":106.857948,"i_lat":-6.226659,"is_transit":false},{"i_long":106.84912,"transit":true,"time":4,"is_transit":true,"distance":2610,"station_id":"MRI","station_name":"Manggarai","i_lat":-6.209883,"line":2},{"station_id":"SUD","is_transit":false,"distance":3186,"i_long":106.822649,"transit":false,"station_name":"Sudirman","line":1,"time":4,"i_lat":-6.202263},{"i_lat":-6.201433,"is_transit":false,"transit":false,"i_long":106.819881,"station_name":"Sudirman Baru","distance":280,"time":1,"line":1,"station_id":"SUDB"},{"station_id":"KAT","transit":false,"line":1,"station_name":"Karet","i_long":106.816351,"i_lat":-6.20132,"time":1,"is_transit":false,"distance":471},{"distance":2029,"i_long":106.811091,"station_name":"Tanah Abang","i_lat":-6.185545,"transit":false,"time":5,"line":1,"is_transit":false,"station_id":"THB"},{"time":8,"is_transit":false,"transit":false,"station_name":"Duri","i_long":106.800832,"line":1,"distance":3632,"i_lat":-6.155215,"station_id":"DU"},{"transit":false,"distance":1230,"station_id":"AK","is_transit":false,"station_name":"Angke","i_lat":-6.144674,"i_long":106.79867,"time":4,"line":1},{"i_lat":-6.132549,"station_name":"Kampung Bandan","transit":true,"is_transit":true,"time":9,"distance":4102,"i_long":106.826365,"line":4,"station_id":"KPB"},{"distance":1444,"station_name":"Rajawali","line":11,"station_id":"RJW","time":3,"i_lat":-6.14505,"is_transit":false,"i_long":106.836569,"transit":false},{"time":5,"station_name":"Kemayoran","station_id":"KMO","i_long":106.839204,"line":11,"transit":false,"i_lat":-6.161728,"is_transit":false,"distance":1901},{"transit":false,"i_lat":-6.174784,"is_transit":false,"distance":1436,"time":4,"station_id":"PSE","i_long":106.84368,"station_name":"Pasar Senen","line":11},{"distance":1567,"i_lat":-6.185975,"line":11,"station_name":"Gang Sentiong","transit":false,"station_id":"GST","time":8,"is_transit":false,"i_long":106.850107}],[{"distance":0,"station_id":"DRN","is_transit":false,"i_lat":-6.255332,"line":2,"transit":false,"time":0,"i_long":106.85449,"station_name":"Duren Kalibata"},{"transit":false,"time":3,"is_transit":false,"distance":1546,"station_id":"CW","station_name":"Cawang","i_long":106.856607,"line":2,"i_lat":-6.242512},{"i_lat":-6.226659,"line":2,"station_name":"Tebet","time":2,"distance":1230,"transit":false,"is_transit":false,"station_id":"TEB","i_long":106.857948},{"transit":false,"is_transit":false,"time":4,"station_id":"MRI","station_name":"Manggarai","i_lat":-6.209883,"distance":2610,"i_long":106.84912,"line":2},{"time":4,"transit":false,"line":2,"station_id":"CKI","station_name":"Cikini","distance":1590,"i_long":106.840169,"i_lat":-6.198556,"is_transit":false},{"distance":1750,"station_id":"GDD","line":2,"i_lat":-6.186295,"time":3,"i_long":106.832183,"is_transit":false,"station_name":"Gondangdia","transit":false},{"i_long":106.828284,"is_transit":false,"transit":false,"distance":2015,"line":2,"time":4,"station_id":"JUA","i_lat":-6.166716,"station_name":"Juanda"},{"distance":1149,"time":2,"i_lat":-6.160725,"i_long":106.827103,"is_transit":false,"station_id":"SW","line":2,"transit":false,"station_name":"Sawah Besar"},{"i_lat":-6.149769,"station_name":"Manggabesar","i_long":106.82482,"distance":906,"line":2,"transit":false,"time":2,"is_transit":false,"station_id":"MGB"},{"transit":false,"station_name":"Jayakarta","distance":1080,"line":2,"i_long":106.820901,"is_transit":false,"i_lat":-6.141205,"station_id":"JAY","time":2},{"station_id":"JAKK","station_name":"Jakarta Kota","is_transit":true,"time":4,"i_lat":-6.137569,"distance":1264,"transit":true,"i_long":106.812439,"line":2},{"i_lat":-6.132549,"distance":1364,"line":4,"station_name":"Kampung Bandan","is_transit":true,"station_id":"KPB","i_long":106.826365,"time":3,"transit":true},{"i_long":106.836569,"transit":false,"time":3,"station_name":"Rajawali","i_lat":-6.14505,"line":11,"distance":1444,"station_id":"RJW","is_transit":false},{"i_long":106.839204,"time":5,"is_transit":false,"distance":1901,"line":11,"station_name":"Kemayoran","transit":false,"station_id":"KMO","i_lat":-6.161728},{"station_name":"Pasar Senen","distance":1436,"transit":false,"i_long":106.84368,"line":11,"i_lat":-6.174784,"is_transit":false,"time":4,"station_id":"PSE"},{"is_transit":false,"i_long":106.850107,"line":11,"time":8,"station_id":"GST","transit":false,"distance":1567,"i_lat":-6.185975,"station_name":"Gang Sentiong"}]]}