{"data":[[{"line":0,"distance":0,"is_transit":false,"i_lat":-6.255332,"station_name":"Duren Kalibata","station_id":"DRN","i_long":106.85449,"transit":false,"time":0},{"line":2,"distance":824,"transit":false,"i_long":106.851577,"station_id":"PSMB","is_transit":false,"i_lat":-6.263214,"station_name":"Pasar Minggu Baru","time":2},{"i_lat":-6.2842400000000005,"time":2,"station_name":"Pasar Minggu","is_transit":false,"transit":false,"distance":2380,"line":2,"i_long":106.843999,"station_id":"PSM"},{"station_name":"Tanjung Barat","station_id":"TNT","i_lat":-6.3080680000000005,"line":2,"distance":2820,"transit":false,"i_long":106.838896,"is_transit":false,"time":4},{"line":2,"distance":2671,"time":3,"i_lat":-6.330363,"transit":false,"station_name":"Lenteng Agung","is_transit":false,"station_id":"LNA","i_long":106.832616},{"transit":false,"station_id":"UP","i_lat":-6.339291,"i_long":106.834175,"line":2,"time":2,"station_name":"Univ. Pancasila","is_transit":false,"distance":1029},{"station_id":"UI","is_transit":false,"time":3,"distance":2264,"i_lat":-6.360749,"line":2,"i_long":106.831474,"transit":false,"station_name":"Univ. Indonesia"},{"station_id":"POC","station_name":"Pondok Cina","i_lat":-6.369073,"distance":1109,"transit":false,"is_transit":false,"time":2,"line":2,"i_long":106.831114},{"transit":false,"station_name":"Depokbaru","distance":2727,"i_lat":-6.391065,"line":0,"time":4,"station_id":"DPB","is_transit":false,"i_long":106.819451},{"line":0,"is_transit":false,"station_name":"Depok","transit":false,"i_long":106.816926,"time":3,"distance":1584,"station_id":"DP","i_lat":-6.405256}]]}