{"data":[[{"i_long":106.85449,"line":2,"transit":false,"station_name":"Duren Kalibata","distance":0,"i_lat":-6.255332,"station_id":"DRN","is_transit":false,"time":0},{"transit":false,"i_long":106.856607,"is_transit":false,"time":3,"station_id":"CW","station_name":"Cawang","distance":1546,"i_lat":-6.242512,"line":2},{"i_long":106.857948,"distance":1230,"i_lat":-6.226659,"transit":false,"line":2,"station_name":"Tebet","time":2,"is_transit":false,"station_id":"TEB"},{"time":4,"line":2,"station_id":"MRI","i_lat":-6.209883,"transit":true,"i_long":106.84912,"station_name":"Manggarai","distance":2610,"is_transit":true},{"distance":3186,"station_id":"SUD","i_lat":-6.202263,"is_transit":false,"i_long":106.822649,"line":1,"transit":false,"time":4,"station_name":"Sudirman"},{"i_long":106.819881,"line":1,"time":1,"is_transit":false,"transit":false,"station_name":"Sudirman Baru","station_id":"SUDB","distance":280,"i_lat":-6.201433},{"transit":false,"station_name":"Karet","is_transit":false,"distance":471,"station_id":"KAT","time":1,"i_lat":-6.20132,"i_long":106.816351,"line":1},{"i_long":106.811091,"station_id":"THB","station_name":"Tanah Abang","is_transit":false,"distance":2029,"line":1,"transit":false,"time":5,"i_lat":-6.185545},{"transit":true,"station_name":"Duri","is_transit":true,"distance":3632,"i_long":106.800832,"station_id":"DU","time":8,"i_lat":-6.155215,"line":1},{"time":3,"line":5,"transit":false,"station_name":"Grogol","distance":1700,"i_lat":-6.162021,"i_long":106.788277,"station_id":"GGL","is_transit":false},{"time":2,"distance":2036,"line":5,"station_id":"PSG","is_transit":false,"i_lat":-6.161433,"i_long":106.771379,"station_name":"Pesing","transit":false},{"line":5,"transit":false,"station_name":"Taman Kota","station_id":"TKO","is_transit":false,"distance":1614,"time":2,"i_lat":-6.1587309999999995,"i_long":106.756522},{"station_name":"Bojongindah","transit":false,"station_id":"BOI","i_lat":-6.159876,"line":5,"is_transit":false,"time":2,"distance":2334,"i_long":106.737035},{"distance":1152,"station_id":"RW","line":5,"i_lat":-6.162758,"is_transit":false,"time":4,"station_name":"Rawa Buaya","transit":false,"i_long":106.723064},{"line":5,"time":3,"i_long":106.701612,"transit":false,"station_name":"Kalideres","is_transit":false,"station_id":"KDS","distance":2504,"i_lat":-6.166068}],[{"i_long":106.85449,"station_name":"Duren Kalibata","transit":false,"time":0,"is_transit":false,"distance":0,"station_id":"DRN","i_lat":-6.255332,"line":2},{"i_lat":-6.242512,"is_transit":false,"station_name":"Cawang","i_long":106.856607,"transit":false,"time":3,"line":2,"station_id":"CW","distance":1546},{"station_id":"TEB","is_transit":false,"line":2,"i_long":106.857948,"station_name":"Tebet","distance":1230,"transit":false,"time":2,"i_lat":-6.226659},{"station_id":"MRI","transit":false,"station_name":"Manggarai","time":4,"i_long":106.84912,"is_transit":false,"line":2,"distance":2610,"i_lat":-6.209883},{"is_transit":false,"distance":1590,"i_lat":-6.198556,"time":4,"i_long":106.840169,"station_id":"CKI","line":2,"transit":false,"station_name":"Cikini"},{"station_name":"Gondangdia","is_transit":false,"time":3,"distance":1750,"transit":false,"i_long":106.832183,"line":2,"station_id":"GDD","i_lat":-6.186295},{"line":2,"time":4,"distance":2015,"station_id":"JUA","i_long":106.828284,"transit":false,"is_transit":false,"station_name":"Juanda","i_lat":-6.166716},{"station_name":"Sawah Besar","i_lat":-6.160725,"line":2,"transit":false,"time":2,"distance":1149,"i_long":106.827103,"station_id":"SW","is_transit":false},{"station_id":"MGB","time":2,"distance":906,"i_lat":-6.149769,"station_name":"Manggabesar","transit":false,"line":2,"i_long":106.82482,"is_transit":false},{"station_id":"JAY","i_long":106.820901,"line":2,"is_transit":false,"i_lat":-6.141205,"distance":1080,"time":2,"station_name":"Jayakarta","transit":false},{"transit":true,"is_transit":true,"station_id":"JAKK","distance":1264,"station_name":"Jakarta Kota","i_lat":-6.137569,"i_long":106.812439,"time":4,"line":2},{"station_id":"KPB","i_long":106.826365,"transit":true,"i_lat":-6.132549,"time":3,"is_transit":true,"station_name":"Kampung Bandan","distance":1364,"line":4},{"transit":false,"station_name":"Angke","distance":4102,"i_lat":-6.144674,"line":1,"station_id":"AK","time":9,"i_long":106.79867,"is_transit":false},{"station_name":"Duri","is_transit":true,"line":1,"i_lat":-6.155215,"distance":1230,"station_id":"DU","i_long":106.800832,"time":4,"transit":true},{"station_id":"GGL","i_long":106.788277,"transit":false,"station_name":"Grogol","line":5,"i_lat":-6.162021,"time":3,"is_transit":false,"distance":1700},{"station_id":"PSG","is_transit":false,"time":2,"station_name":"Pesing","distance":2036,"i_lat":-6.161433,"i_long":106.771379,"line":5,"transit":false},{"transit":false,"station_name":"Taman Kota","distance":1614,"line":5,"i_lat":-6.1587309999999995,"time":2,"i_long":106.756522,"station_id":"TKO","is_transit":false},{"station_id":"BOI","time":2,"distance":2334,"i_lat":-6.159876,"line":5,"station_name":"Bojongindah","transit":false,"is_transit":false,"i_long":106.737035},{"station_name":"Rawa Buaya","station_id":"RW","distance":1152,"line":5,"i_long":106.723064,"i_lat":-6.162758,"time":4,"transit":false,"is_transit":false},{"i_lat":-6.166068,"i_long":106.701612,"station_id":"KDS","is_transit":false,"transit":false,"time":3,"distance":2504,"line":5,"station_name":"Kalideres"}],[{"transit":false,"i_long":106.85449,"i_lat":-6.255332,"distance":0,"is_transit":false,"station_id":"DRN","station_name":"Duren Kalibata","time":0,"line":2},{"is_transit":false,"station_id":"CW","i_lat":-6.242512,"transit":false,"distance":1546,"time":3,"line":2,"station_name":"Cawang","i_long":106.856607},{"i_long":106.857948,"transit":false,"line":2,"time":2,"distance":1230,"station_id":"TEB","i_lat":-6.226659,"is_transit":false,"station_name":"Tebet"},{"transit":true,"station_id":"MRI","station_name":"Manggarai","time":4,"distance":2610,"line":2,"i_lat":-6.209883,"i_long":106.84912,"is_transit":true},{"line":1,"is_transit":false,"i_long":106.858896,"time":2,"transit":false,"i_lat":-6.212485,"station_id":"MTR","station_name":"Matraman","distance":1275},{"is_transit":true,"station_name":"Jatinegara","time":8,"station_id":"JNG","transit":true,"distance":1377,"i_long":106.86807400000001,"line":1,"i_lat":-6.215091},{"is_transit":false,"transit":false,"station_id":"POK","i_long":106.861737,"time":2,"line":11,"i_lat":-6.209188,"station_name":"Pondok Jati","distance":1236},{"distance":1829,"i_lat":-6.193792,"time":2,"line":11,"station_name":"Kramat","transit":false,"is_transit":false,"i_long":106.855437,"station_id":"KMT"},{"i_long":106.850107,"station_name":"Gang Sentiong","time":1,"i_lat":-6.185975,"line":11,"station_id":"GST","is_transit":false,"distance":973,"transit":false},{"station_name":"Pasar Senen","station_id":"PSE","i_long":106.84368,"line":11,"transit":false,"distance":1567,"is_transit":false,"i_lat":-6.174784,"time":8},{"transit":false,"station_name":"Kemayoran","i_long":106.839204,"is_transit":false,"distance":1436,"station_id":"KMO","i_lat":-6.161728,"line":11,"time":4},{"is_transit":false,"i_lat":-6.14505,"station_id":"RJW","distance":1901,"time":5,"i_long":106.836569,"line":11,"transit":false,"station_name":"Rajawali"},{"distance":1444,"station_id":"KPB","time":3,"i_lat":-6.132549,"station_name":"Kampung Bandan","transit":true,"is_transit":true,"i_long":106.826365,"line":4},{"i_lat":-6.144674,"line":1,"station_name":"Angke","station_id":"AK","is_transit":false,"time":9,"i_long":106.79867,"transit":false,"distance":4102},{"i_lat":-6.155215,"i_long":106.800832,"is_transit":true,"line":1,"transit":true,"station_name":"Duri","time":4,"distance":1230,"station_id":"DU"},{"time":3,"is_transit":false,"distance":1700,"line":5,"station_id":"GGL","i_lat":-6.162021,"transit":false,"station_name":"Grogol","i_long":106.788277},{"station_name":"Pesing","station_id":"PSG","line":5,"i_lat":-6.161433,"time":2,"distance":2036,"transit":false,"i_long":106.771379,"is_transit":false},{"line":5,"i_lat":-6.1587309999999995,"time":2,"station_id":"TKO","station_name":"Taman Kota","i_long":106.756522,"is_transit":false,"distance":1614,"transit":false},{"transit":false,"time":2,"i_lat":-6.159876,"station_id":"BOI","i_long":106.737035,"line":5,"station_name":"Bojongindah","distance":2334,"is_transit":false},{"transit":false,"station_id":"RW","time":4,"line":5,"station_name":"Rawa Buaya","is_transit":false,"i_long":106.723064,"distance":1152,"i_lat":-6.162758},{"is_transit":false,"i_lat":-6.166068,"i_long":106.701612,"distance":2504,"time":3,"station_name":"Kalideres","station_id":"KDS","transit":false,"line":5}]]}