{"data":[[{"station_name":"Duren Kalibata","line":2,"time":0,"distance":0,"station_id":"DRN","i_long":106.85449,"is_transit":false,"transit":false,"i_lat":-6.255332},{"station_id":"CW","line":2,"time":3,"station_name":"Cawang","is_transit":false,"i_lat":-6.242512,"transit":false,"distance":1546,"i_long":106.856607},{"transit":false,"i_lat":-6.226659,"station_name":"Tebet","distance":1230,"i_long":106.857948,"station_id":"TEB","line":2,"time":2,"is_transit":false},{"time":4,"i_lat":-6.209883,"transit":true,"distance":2610,"line":2,"station_id":"MRI","i_long":106.84912,"station_name":"Manggarai","is_transit":true},{"station_id":"SUD","i_long":106.822649,"time":4,"is_transit":false,"i_lat":-6.202263,"station_name":"Sudirman","line":1,"distance":3186,"transit":false},{"distance":280,"station_id":"SUDB","transit":false,"i_long":106.819881,"line":1,"station_name":"Sudirman Baru","is_transit":false,"time":1,"i_lat":-6.201433},{"distance":471,"transit":false,"station_name":"Karet","i_lat":-6.20132,"line":1,"time":1,"is_transit":false,"station_id":"KAT","i_long":106.816351}],[{"time":0,"station_name":"Duren Kalibata","is_transit":false,"i_lat":-6.255332,"distance":0,"station_id":"DRN","line":2,"i_long":106.85449,"transit":false},{"i_lat":-6.242512,"station_id":"CW","station_name":"Cawang","time":3,"is_transit":false,"distance":1546,"i_long":106.856607,"transit":false,"line":2},{"time":2,"i_lat":-6.226659,"transit":false,"station_id":"TEB","line":2,"i_long":106.857948,"distance":1230,"is_transit":false,"station_name":"Tebet"},{"i_lat":-6.209883,"line":2,"time":4,"transit":false,"is_transit":false,"station_name":"Manggarai","i_long":106.84912,"distance":2610,"station_id":"MRI"},{"station_name":"Cikini","transit":false,"i_long":106.840169,"time":4,"distance":1590,"i_lat":-6.198556,"line":2,"station_id":"CKI","is_transit":false},{"distance":1750,"station_name":"Gondangdia","is_transit":false,"line":2,"station_id":"GDD","i_long":106.832183,"time":3,"i_lat":-6.186295,"transit":false},{"is_transit":false,"transit":false,"station_id":"JUA","distance":2015,"line":2,"time":4,"i_long":106.828284,"station_name":"Juanda","i_lat":-6.166716},{"i_lat":-6.160725,"line":2,"time":2,"station_name":"Sawah Besar","station_id":"SW","is_transit":false,"transit":false,"i_long":106.827103,"distance":1149},{"i_lat":-6.149769,"i_long":106.82482,"line":2,"station_name":"Manggabesar","time":2,"is_transit":false,"distance":906,"station_id":"MGB","transit":false},{"station_name":"Jayakarta","i_long":106.820901,"time":2,"i_lat":-6.141205,"is_transit":false,"transit":false,"distance":1080,"line":2,"station_id":"JAY"},{"is_transit":true,"i_lat":-6.137569,"transit":true,"distance":1264,"time":4,"line":2,"station_id":"JAKK","i_long":106.812439,"station_name":"Jakarta Kota"},{"time":3,"line":4,"station_name":"Kampung Bandan","station_id":"KPB","distance":1364,"i_lat":-6.132549,"is_transit":true,"transit":true,"i_long":106.826365},{"time":9,"is_transit":false,"i_long":106.79867,"distance":4102,"transit":false,"station_id":"AK","i_lat":-6.144674,"line":1,"station_name":"Angke"},{"station_id":"DU","i_lat":-6.155215,"time":4,"is_transit":false,"line":1,"distance":1230,"station_name":"Duri","transit":false,"i_long":106.800832},{"i_long":106.811091,"line":1,"transit":false,"station_id":"THB","distance":3632,"is_transit":false,"i_lat":-6.185545,"station_name":"Tanah Abang","time":8},{"line":1,"station_id":"KAT","station_name":"Karet","distance":2029,"is_transit":false,"i_lat":-6.20132,"transit":false,"i_long":106.816351,"time":5}],[{"station_id":"DRN","i_lat":-6.255332,"station_name":"Duren Kalibata","time":0,"i_long":106.85449,"is_transit":false,"line":2,"transit":false,"distance":0},{"station_name":"Cawang","is_transit":false,"distance":1546,"transit":false,"i_lat":-6.242512,"line":2,"time":3,"i_long":106.856607,"station_id":"CW"},{"distance":1230,"is_transit":false,"i_long":106.857948,"station_name":"Tebet","i_lat":-6.226659,"time":2,"station_id":"TEB","transit":false,"line":2},{"time":4,"station_id":"MRI","is_transit":true,"distance":2610,"i_long":106.84912,"line":2,"i_lat":-6.209883,"station_name":"Manggarai","transit":true},{"distance":1275,"line":1,"station_name":"Matraman","station_id":"MTR","is_transit":false,"transit":false,"i_lat":-6.212485,"time":2,"i_long":106.858896},{"i_lat":-6.215091,"transit":true,"i_long":106.86807400000001,"station_id":"JNG","line":1,"is_transit":true,"station_name":"Jatinegara","time":8,"distance":1377},{"transit":false,"station_id":"POK","is_transit":false,"i_long":106.861737,"line":11,"i_lat":-6.209188,"time":2,"distance":1236,"station_name":"Pondok Jati"},{"transit":false,"i_lat":-6.193792,"i_long":106.855437,"station_name":"Kramat","time":2,"distance":1829,"station_id":"KMT","line":11,"is_transit":false},{"time":1,"station_id":"GST","transit":false,"line":11,"i_long":106.850107,"station_name":"Gang Sentiong","is_transit":false,"distance":973,"i_lat":-6.185975},{"transit":false,"line":11,"i_long":106.84368,"time":8,"station_name":"Pasar Senen","station_id":"PSE","distance":1567,"is_transit":false,"i_lat":-6.174784},{"i_lat":-6.161728,"station_id":"KMO","station_name":"Kemayoran","distance":1436,"transit":false,"i_long":106.839204,"time":4,"line":11,"is_transit":false},{"is_transit":false,"time":5,"station_name":"Rajawali","distance":1901,"line":11,"station_id":"RJW","i_long":106.836569,"transit":false,"i_lat":-6.14505},{"i_lat":-6.132549,"station_name":"Kampung Bandan","i_long":106.826365,"is_transit":true,"line":4,"time":3,"distance":1444,"transit":true,"station_id":"KPB"},{"distance":4102,"station_id":"AK","i_long":106.79867,"i_lat":-6.144674,"is_transit":false,"line":1,"station_name":"Angke","transit":false,"time":9},{"i_long":106.800832,"i_lat":-6.155215,"station_id":"DU","station_name":"Duri","time":4,"distance":1230,"transit":false,"line":1,"is_transit":false},{"line":1,"is_transit":false,"distance":3632,"time":8,"i_lat":-6.185545,"i_long":106.811091,"station_id":"THB","transit":false,"station_name":"Tanah Abang"},{"time":5,"i_lat":-6.20132,"distance":2029,"station_id":"KAT","is_transit":false,"station_name":"Karet","i_long":106.816351,"line":1,"transit":false}]]}