{"data":[[{"station_id":"DRN","distance":0,"is_transit":false,"transit":false,"i_long":106.85449,"line":2,"station_name":"Duren Kalibata","i_lat":-6.255332,"time":0},{"is_transit":false,"station_id":"CW","i_lat":-6.242512,"transit":false,"i_long":106.856607,"station_name":"Cawang","line":2,"time":3,"distance":1546},{"is_transit":false,"i_long":106.857948,"distance":1230,"transit":false,"line":2,"i_lat":-6.226659,"station_id":"TEB","time":2,"station_name":"Tebet"},{"line":2,"i_lat":-6.209883,"is_transit":true,"time":4,"station_id":"MRI","station_name":"Manggarai","transit":true,"i_long":106.84912,"distance":2610},{"time":4,"i_long":106.822649,"distance":3186,"station_id":"SUD","i_lat":-6.202263,"transit":false,"is_transit":false,"station_name":"Sudirman","line":1},{"is_transit":false,"transit":false,"distance":280,"time":1,"station_name":"Sudirman Baru","i_lat":-6.201433,"i_long":106.819881,"station_id":"SUDB","line":1},{"is_transit":false,"station_id":"KAT","time":1,"i_lat":-6.20132,"distance":471,"line":1,"i_long":106.816351,"transit":false,"station_name":"Karet"},{"distance":2029,"time":5,"station_name":"Tanah Abang","i_lat":-6.185545,"is_transit":true,"transit":true,"station_id":"THB","i_long":106.811091,"line":1},{"i_lat":-6.207404,"i_long":106.79689,"line":6,"time":6,"transit":false,"station_name":"Palmerah","station_id":"PLM","distance":3191,"is_transit":false},{"line":6,"station_name":"Kebayoran","distance":3737,"i_long":106.780334,"i_lat":-6.237242,"station_id":"KBY","is_transit":false,"time":7,"transit":false},{"line":6,"time":8,"i_long":106.74273,"is_transit":false,"transit":false,"station_name":"Pondokranji","i_lat":-6.276362,"station_id":"PDJ","distance":6218},{"line":6,"transit":false,"i_long":106.728916,"station_name":"Jurangmangu","is_transit":false,"station_id":"JMU","distance":2179,"i_lat":-6.288927,"time":3},{"time":4,"i_lat":-6.296963,"line":6,"i_long":106.712277,"is_transit":false,"distance":1994,"station_id":"SDM","transit":false,"station_name":"Sudimara"},{"station_id":"RU","station_name":"Rawa Buntu","line":6,"distance":4566,"transit":false,"is_transit":false,"i_lat":-6.314823,"time":6,"i_long":106.675475},{"station_id":"SRP","line":6,"time":4,"distance":2413,"is_transit":false,"station_name":"Serpong","i_lat":-6.319871,"transit":false,"i_long":106.66566},{"is_transit":false,"line":3,"station_name":"Cisauk","time":4,"station_id":"CSK","i_lat":-6.32484,"distance":1784,"transit":false,"i_long":106.640411},{"distance":2519,"time":4,"i_long":106.617853,"is_transit":false,"station_name":"Cicayur","line":3,"i_lat":-6.329547,"transit":false,"station_id":"CC"},{"time":8,"distance":5968,"station_id":"PRP","station_name":"Parung Panjang","i_lat":-6.3441410000000005,"is_transit":false,"line":6,"i_long":106.568863,"transit":false},{"station_id":"CJT","transit":false,"is_transit":false,"time":9,"station_name":"Cilejit","line":3,"i_lat":-6.354349,"distance":7025,"i_long":106.508482},{"is_transit":false,"time":6,"transit":false,"station_id":"DAR","line":0,"distance":2675,"station_name":"Daru","i_lat":-6.338021,"i_long":106.491338},{"time":5,"station_name":"Tenjo","i_long":106.460812,"distance":3902,"i_lat":-6.327251,"station_id":"TEJ","transit":false,"is_transit":false,"line":6},{"station_name":"Tigaraksa","time":5,"station_id":"TGS","distance":2974,"is_transit":false,"transit":false,"i_lat":-6.328533,"i_long":106.425991,"line":6}],[{"transit":false,"i_lat":-6.255332,"line":2,"is_transit":false,"i_long":106.85449,"station_id":"DRN","distance":0,"station_name":"Duren Kalibata","time":0},{"station_id":"CW","transit":false,"time":3,"distance":1546,"i_long":106.856607,"station_name":"Cawang","is_transit":false,"line":2,"i_lat":-6.242512},{"is_transit":false,"time":2,"i_long":106.857948,"i_lat":-6.226659,"distance":1230,"station_id":"TEB","transit":false,"line":2,"station_name":"Tebet"},{"i_long":106.84912,"line":2,"time":4,"distance":2610,"is_transit":false,"transit":false,"i_lat":-6.209883,"station_name":"Manggarai","station_id":"MRI"},{"is_transit":false,"station_name":"Cikini","transit":false,"i_lat":-6.198556,"distance":1590,"station_id":"CKI","line":2,"time":4,"i_long":106.840169},{"transit":false,"is_transit":false,"time":3,"station_id":"GDD","i_long":106.832183,"distance":1750,"i_lat":-6.186295,"station_name":"Gondangdia","line":2},{"station_id":"JUA","time":4,"station_name":"Juanda","distance":2015,"is_transit":false,"i_long":106.828284,"transit":false,"line":2,"i_lat":-6.166716},{"station_id":"SW","i_long":106.827103,"transit":false,"distance":1149,"is_transit":false,"station_name":"Sawah Besar","line":2,"i_lat":-6.160725,"time":2},{"is_transit":false,"distance":906,"line":2,"station_name":"Manggabesar","i_lat":-6.149769,"transit":false,"i_long":106.82482,"station_id":"MGB","time":2},{"station_id":"JAY","is_transit":false,"station_name":"Jayakarta","line":2,"transit":false,"i_long":106.820901,"time":2,"distance":1080,"i_lat":-6.141205},{"station_name":"Jakarta Kota","station_id":"JAKK","distance":1264,"is_transit":true,"i_lat":-6.137569,"i_long":106.812439,"line":2,"transit":true,"time":4},{"is_transit":true,"i_long":106.826365,"transit":true,"time":3,"distance":1364,"station_name":"Kampung Bandan","i_lat":-6.132549,"line":4,"station_id":"KPB"},{"i_lat":-6.144674,"i_long":106.79867,"is_transit":false,"line":1,"time":9,"transit":false,"station_id":"AK","distance":4102,"station_name":"Angke"},{"i_lat":-6.155215,"i_long":106.800832,"station_id":"DU","transit":false,"is_transit":false,"time":4,"station_name":"Duri","line":1,"distance":1230},{"station_id":"THB","time":8,"station_name":"Tanah Abang","i_lat":-6.185545,"distance":3632,"line":1,"transit":true,"is_transit":true,"i_long":106.811091},{"station_id":"PLM","distance":3191,"line":6,"is_transit":false,"transit":false,"time":6,"i_long":106.79689,"i_lat":-6.207404,"station_name":"Palmerah"},{"time":7,"station_name":"Kebayoran","i_long":106.780334,"distance":3737,"i_lat":-6.237242,"station_id":"KBY","transit":false,"line":6,"is_transit":false},{"i_lat":-6.276362,"line":6,"time":8,"station_name":"Pondokranji","station_id":"PDJ","i_long":106.74273,"transit":false,"distance":6218,"is_transit":false},{"station_name":"Jurangmangu","distance":2179,"i_lat":-6.288927,"transit":false,"station_id":"JMU","is_transit":false,"line":6,"i_long":106.728916,"time":3},{"time":4,"station_id":"SDM","transit":false,"i_long":106.712277,"i_lat":-6.296963,"station_name":"Sudimara","distance":1994,"line":6,"is_transit":false},{"station_id":"RU","is_transit":false,"i_lat":-6.314823,"station_name":"Rawa Buntu","i_long":106.675475,"distance":4566,"time":6,"transit":false,"line":6},{"time":4,"i_lat":-6.319871,"line":6,"is_transit":false,"distance":2413,"station_id":"SRP","transit":false,"station_name":"Serpong","i_long":106.66566},{"station_id":"CSK","distance":1784,"transit":false,"is_transit":false,"time":4,"station_name":"Cisauk","i_lat":-6.32484,"line":3,"i_long":106.640411},{"distance":2519,"is_transit":false,"time":4,"i_lat":-6.329547,"line":3,"i_long":106.617853,"station_id":"CC","transit":false,"station_name":"Cicayur"},{"i_long":106.568863,"time":8,"i_lat":-6.3441410000000005,"is_transit":false,"line":6,"distance":5968,"transit":false,"station_name":"Parung Panjang","station_id":"PRP"},{"is_transit":false,"i_lat":-6.354349,"time":9,"station_id":"CJT","transit":false,"distance":7025,"line":3,"station_name":"Cilejit","i_long":106.508482},{"line":0,"is_transit":false,"transit":false,"station_name":"Daru","i_long":106.491338,"time":6,"distance":2675,"i_lat":-6.338021,"station_id":"DAR"},{"time":5,"i_lat":-6.327251,"is_transit":false,"transit":false,"station_name":"Tenjo","station_id":"TEJ","distance":3902,"i_long":106.460812,"line":6},{"line":6,"time":5,"distance":2974,"station_id":"TGS","i_long":106.425991,"transit":false,"is_transit":false,"i_lat":-6.328533,"station_name":"Tigaraksa"}],[{"is_transit":false,"transit":false,"line":2,"time":0,"station_name":"Duren Kalibata","i_long":106.85449,"i_lat":-6.255332,"station_id":"DRN","distance":0},{"line":2,"transit":false,"distance":1546,"station_name":"Cawang","station_id":"CW","i_long":106.856607,"time":3,"i_lat":-6.242512,"is_transit":false},{"transit":false,"line":2,"station_name":"Tebet","is_transit":false,"time":2,"station_id":"TEB","i_lat":-6.226659,"i_long":106.857948,"distance":1230},{"time":4,"i_lat":-6.209883,"distance":2610,"line":2,"transit":true,"station_name":"Manggarai","station_id":"MRI","i_long":106.84912,"is_transit":true},{"line":1,"station_id":"MTR","i_long":106.858896,"is_transit":false,"i_lat":-6.212485,"time":2,"station_name":"Matraman","distance":1275,"transit":false},{"line":1,"time":8,"i_long":106.86807400000001,"distance":1377,"station_id":"JNG","is_transit":true,"station_name":"Jatinegara","i_lat":-6.215091,"transit":true},{"line":11,"distance":1236,"time":2,"i_long":106.861737,"station_name":"Pondok Jati","station_id":"POK","is_transit":false,"i_lat":-6.209188,"transit":false},{"transit":false,"distance":1829,"is_transit":false,"line":11,"i_lat":-6.193792,"station_id":"KMT","time":2,"station_name":"Kramat","i_long":106.855437},{"i_lat":-6.185975,"time":1,"transit":false,"station_name":"Gang Sentiong","i_long":106.850107,"distance":973,"is_transit":false,"line":11,"station_id":"GST"},{"is_transit":false,"i_lat":-6.174784,"line":11,"station_id":"PSE","station_name":"Pasar Senen","time":8,"transit":false,"i_long":106.84368,"distance":1567},{"station_name":"Kemayoran","line":11,"i_lat":-6.161728,"time":4,"distance":1436,"transit":false,"i_long":106.839204,"is_transit":false,"station_id":"KMO"},{"i_long":106.836569,"line":11,"transit":false,"i_lat":-6.14505,"is_transit":false,"station_id":"RJW","distance":1901,"time":5,"station_name":"Rajawali"},{"i_lat":-6.132549,"transit":true,"i_long":106.826365,"line":4,"time":3,"station_name":"Kampung Bandan","is_transit":true,"station_id":"KPB","distance":1444},{"station_name":"Angke","i_lat":-6.144674,"is_transit":false,"time":9,"i_long":106.79867,"line":1,"station_id":"AK","distance":4102,"transit":false},{"station_name":"Duri","i_long":106.800832,"transit":false,"i_lat":-6.155215,"time":4,"is_transit":false,"station_id":"DU","distance":1230,"line":1},{"time":8,"line":1,"i_lat":-6.185545,"distance":3632,"station_id":"THB","is_transit":true,"i_long":106.811091,"station_name":"Tanah Abang","transit":true},{"station_name":"Palmerah","i_long":106.79689,"line":6,"is_transit":false,"station_id":"PLM","distance":3191,"transit":false,"i_lat":-6.207404,"time":6},{"transit":false,"station_id":"KBY","is_transit":false,"station_name":"Kebayoran","distance":3737,"line":6,"i_long":106.780334,"i_lat":-6.237242,"time":7},{"transit":false,"i_lat":-6.276362,"station_name":"Pondokranji","station_id":"PDJ","is_transit":false,"distance":6218,"line":6,"i_long":106.74273,"time":8},{"station_name":"Jurangmangu","transit":false,"i_lat":-6.288927,"i_long":106.728916,"distance":2179,"station_id":"JMU","time":3,"line":6,"is_transit":false},{"station_name":"Sudimara","transit":false,"station_id":"SDM","line":6,"time":4,"i_long":106.712277,"i_lat":-6.296963,"distance":1994,"is_transit":false},{"i_long":106.675475,"is_transit":false,"transit":false,"station_name":"Rawa Buntu","i_lat":-6.314823,"distance":4566,"time":6,"station_id":"RU","line":6},{"transit":false,"station_id":"SRP","is_transit":false,"line":6,"i_long":106.66566,"distance":2413,"station_name":"Serpong","i_lat":-6.319871,"time":4},{"is_transit":false,"line":3,"distance":1784,"station_id":"CSK","i_long":106.640411,"i_lat":-6.32484,"transit":false,"time":4,"station_name":"Cisauk"},{"time":4,"station_id":"CC","distance":2519,"is_transit":false,"transit":false,"i_lat":-6.329547,"station_name":"Cicayur","line":3,"i_long":106.617853},{"i_long":106.568863,"line":6,"distance":5968,"i_lat":-6.3441410000000005,"station_id":"PRP","transit":false,"time":8,"is_transit":false,"station_name":"Parung Panjang"},{"time":9,"distance":7025,"station_name":"Cilejit","i_lat":-6.354349,"is_transit":false,"line":3,"i_long":106.508482,"transit":false,"station_id":"CJT"},{"time":6,"i_long":106.491338,"station_name":"Daru","distance":2675,"is_transit":false,"station_id":"DAR","i_lat":-6.338021,"line":0,"transit":false},{"time":5,"i_long":106.460812,"line":6,"station_name":"Tenjo","transit":false,"i_lat":-6.327251,"distance":3902,"is_transit":false,"station_id":"TEJ"},{"is_transit":false,"station_name":"Tigaraksa","line":6,"transit":false,"i_long":106.425991,"i_lat":-6.328533,"distance":2974,"station_id":"TGS","time":5}]]}