{"data":[[{"station_name":"Duren Kalibata","i_lat":-6.255332,"is_transit":false,"distance":0,"time":0,"station_id":"DRN","line":2,"transit":false,"i_long":106.85449},{"i_lat":-6.242512,"time":3,"distance":1546,"station_id":"CW","station_name":"Cawang","is_transit":false,"transit":false,"line":2,"i_long":106.856607},{"distance":1230,"transit":false,"line":2,"i_lat":-6.226659,"is_transit":false,"i_long":106.857948,"time":2,"station_id":"TEB","station_name":"Tebet"},{"transit":true,"distance":2610,"station_id":"MRI","station_name":"Manggarai","i_lat":-6.209883,"line":2,"time":4,"is_transit":true,"i_long":106.84912},{"is_transit":false,"distance":3186,"time":4,"line":1,"station_name":"Sudirman","i_long":106.822649,"transit":false,"station_id":"SUD","i_lat":-6.202263},{"i_long":106.819881,"station_name":"Sudirman Baru","transit":false,"distance":280,"time":1,"station_id":"SUDB","is_transit":false,"line":1,"i_lat":-6.201433},{"i_lat":-6.20132,"i_long":106.816351,"time":1,"is_transit":false,"transit":false,"station_name":"Karet","line":1,"distance":471,"station_id":"KAT"},{"station_name":"Tanah Abang","distance":2029,"i_lat":-6.185545,"line":1,"is_transit":false,"station_id":"THB","i_long":106.811091,"transit":false,"time":5},{"transit":true,"station_id":"DU","station_name":"Duri","i_long":106.800832,"line":1,"time":8,"is_transit":true,"distance":3632,"i_lat":-6.155215},{"transit":false,"time":3,"distance":1700,"is_transit":false,"station_id":"GRG","i_lat":-6.162021,"i_long":106.788277,"line":5,"station_name":"Grogol"},{"i_lat":-6.161433,"is_transit":false,"station_name":"Pesing","time":2,"station_id":"PSG","transit":false,"distance":2036,"i_long":106.771379,"line":5},{"i_lat":-6.1587309999999995,"station_name":"Taman Kota","distance":1614,"station_id":"TKO","transit":false,"time":2,"line":5,"is_transit":false,"i_long":106.756522},{"time":2,"i_long":106.737035,"station_name":"Bojongindah","distance":2334,"is_transit":false,"station_id":"BOI","i_lat":-6.159876,"transit":false,"line":5},{"station_id":"RW","i_long":106.723064,"distance":1152,"time":4,"is_transit":false,"transit":false,"line":5,"i_lat":-6.162758,"station_name":"Rawa Buaya"},{"i_long":106.701612,"line":5,"is_transit":false,"time":3,"transit":false,"distance":2504,"i_lat":-6.166068,"station_name":"Kalideres","station_id":"KDS"}],[{"is_transit":false,"station_id":"DRN","time":0,"station_name":"Duren Kalibata","line":2,"transit":false,"i_lat":-6.255332,"distance":0,"i_long":106.85449},{"line":2,"distance":1546,"i_lat":-6.242512,"transit":false,"time":3,"station_id":"CW","is_transit":false,"i_long":106.856607,"station_name":"Cawang"},{"time":2,"i_lat":-6.226659,"distance":1230,"station_id":"TEB","station_name":"Tebet","transit":false,"is_transit":false,"line":2,"i_long":106.857948},{"is_transit":false,"transit":false,"time":4,"line":2,"distance":2610,"i_long":106.84912,"station_id":"MRI","station_name":"Manggarai","i_lat":-6.209883},{"i_lat":-6.198556,"time":4,"i_long":106.840169,"distance":1590,"station_id":"CKI","line":2,"station_name":"Cikini","is_transit":false,"transit":false},{"is_transit":false,"i_long":106.832183,"time":3,"station_id":"GDD","i_lat":-6.186295,"transit":false,"line":2,"distance":1750,"station_name":"Gondangdia"},{"i_lat":-6.166716,"is_transit":false,"distance":2015,"station_name":"Juanda","line":2,"transit":false,"i_long":106.828284,"time":4,"station_id":"JUA"},{"station_name":"Sawah Besar","transit":false,"i_lat":-6.160725,"i_long":106.827103,"distance":1149,"station_id":"SW","time":2,"is_transit":false,"line":2},{"transit":false,"i_long":106.82482,"station_name":"Manggabesar","line":2,"station_id":"MGB","is_transit":false,"i_lat":-6.149769,"time":2,"distance":906},{"station_id":"JAY","is_transit":false,"station_name":"Jayakarta","i_long":106.820901,"line":2,"i_lat":-6.141205,"time":2,"distance":1080,"transit":false},{"station_id":"JAKK","time":4,"distance":1264,"i_long":106.812439,"is_transit":true,"line":2,"transit":true,"i_lat":-6.137569,"station_name":"Jakarta Kota"},{"station_name":"Kampung Bandan","transit":true,"i_lat":-6.132549,"time":3,"distance":1364,"line":4,"is_transit":true,"i_long":106.826365,"station_id":"KPB"},{"i_lat":-6.144674,"station_id":"AK","station_name":"Angke","line":1,"time":9,"i_long":106.79867,"transit":false,"distance":4102,"is_transit":false},{"station_id":"DU","is_transit":true,"distance":1230,"line":1,"i_lat":-6.155215,"transit":true,"i_long":106.800832,"time":4,"station_name":"Duri"},{"distance":1700,"station_name":"Grogol","is_transit":false,"transit":false,"i_lat":-6.162021,"time":3,"station_id":"GRG","i_long":106.788277,"line":5},{"station_id":"PSG","time":2,"i_long":106.771379,"transit":false,"line":5,"is_transit":false,"i_lat":-6.161433,"station_name":"Pesing","distance":2036},{"station_id":"TKO","i_long":106.756522,"time":2,"distance":1614,"station_name":"Taman Kota","is_transit":false,"transit":false,"line":5,"i_lat":-6.1587309999999995},{"i_long":106.737035,"transit":false,"distance":2334,"station_id":"BOI","line":5,"time":2,"station_name":"Bojongindah","i_lat":-6.159876,"is_transit":false},{"transit":false,"station_name":"Rawa Buaya","i_lat":-6.162758,"i_long":106.723064,"distance":1152,"line":5,"station_id":"RW","time":4,"is_transit":false},{"i_lat":-6.166068,"transit":false,"station_id":"KDS","distance":2504,"station_name":"Kalideres","line":5,"time":3,"is_transit":false,"i_long":106.701612}],[{"distance":0,"station_id":"DRN","time":0,"station_name":"Duren Kalibata","transit":false,"i_lat":-6.255332,"line":2,"is_transit":false,"i_long":106.85449},{"line":2,"distance":1546,"i_long":106.856607,"station_name":"Cawang","station_id":"CW","time":3,"transit":false,"is_transit":false,"i_lat":-6.242512},{"station_id":"TEB","time":2,"i_lat":-6.226659,"distance":1230,"is_transit":false,"station_name":"Tebet","transit":false,"i_long":106.857948,"line":2},{"line":2,"distance":2610,"i_long":106.84912,"station_name":"Manggarai","i_lat":-6.209883,"station_id":"MRI","transit":true,"is_transit":true,"time":4},{"is_transit":false,"line":1,"station_name":"Matraman","transit":false,"station_id":"MTR","distance":1275,"i_lat":-6.212485,"i_long":106.858896,"time":2},{"time":8,"i_lat":-6.215091,"station_id":"JNG","line":1,"station_name":"Jatinegara","is_transit":true,"transit":true,"distance":1377,"i_long":106.86807400000001},{"i_long":106.861737,"station_id":"POK","is_transit":false,"transit":false,"station_name":"Pondok Jati","time":2,"line":11,"distance":1236,"i_lat":-6.209188},{"station_id":"KMT","distance":1829,"time":2,"is_transit":false,"line":11,"i_lat":-6.193792,"station_name":"Kramat","i_long":106.855437,"transit":false},{"distance":973,"station_name":"Gang Sentiong","i_lat":-6.185975,"station_id":"GST","time":1,"is_transit":false,"i_long":106.850107,"line":11,"transit":false},{"i_long":106.84368,"line":11,"distance":1567,"station_name":"Pasar Senen","i_lat":-6.174784,"time":8,"is_transit":false,"transit":false,"station_id":"PSE"},{"station_name":"Kemayoran","time":4,"station_id":"KMO","i_lat":-6.161728,"line":11,"transit":false,"is_transit":false,"i_long":106.839204,"distance":1436},{"time":5,"station_id":"RJW","is_transit":false,"i_lat":-6.14505,"station_name":"Rajawali","transit":false,"i_long":106.836569,"distance":1901,"line":11},{"station_id":"KPB","is_transit":true,"distance":1444,"transit":true,"i_lat":-6.132549,"line":4,"i_long":106.826365,"station_name":"Kampung Bandan","time":3},{"i_lat":-6.144674,"time":9,"i_long":106.79867,"station_name":"Angke","distance":4102,"station_id":"AK","is_transit":false,"transit":false,"line":1},{"i_long":106.800832,"time":4,"i_lat":-6.155215,"is_transit":true,"station_name":"Duri","distance":1230,"transit":true,"line":1,"station_id":"DU"},{"transit":false,"distance":1700,"is_transit":false,"i_long":106.788277,"station_id":"GRG","line":5,"station_name":"Grogol","time":3,"i_lat":-6.162021},{"i_lat":-6.161433,"line":5,"transit":false,"is_transit":false,"i_long":106.771379,"station_name":"Pesing","distance":2036,"station_id":"PSG","time":2},{"is_transit":false,"station_id":"TKO","transit":false,"time":2,"station_name":"Taman Kota","i_lat":-6.1587309999999995,"i_long":106.756522,"line":5,"distance":1614},{"station_id":"BOI","distance":2334,"line":5,"time":2,"i_lat":-6.159876,"i_long":106.737035,"station_name":"Bojongindah","is_transit":false,"transit":false},{"station_name":"Rawa Buaya","station_id":"RW","transit":false,"time":4,"is_transit":false,"i_long":106.723064,"line":5,"i_lat":-6.162758,"distance":1152},{"transit":false,"i_long":106.701612,"time":3,"is_transit":false,"station_name":"Kalideres","i_lat":-6.166068,"station_id":"KDS","line":5,"distance":2504}]]}