{"data":[[{"line":2,"station_name":"Duren Kalibata","time":0,"i_lat":-6.255332,"distance":0,"is_transit":false,"i_long":106.85449,"station_id":"DRN","transit":false},{"is_transit":false,"i_long":106.856607,"line":2,"time":3,"distance":1546,"station_name":"Cawang","station_id":"CW","i_lat":-6.242512,"transit":false},{"is_transit":false,"i_long":106.857948,"transit":false,"station_id":"TEB","time":2,"distance":1230,"i_lat":-6.226659,"station_name":"Tebet","line":2},{"station_name":"Manggarai","is_transit":true,"distance":2610,"i_long":106.84912,"transit":true,"time":4,"i_lat":-6.209883,"line":2,"station_id":"MRI"},{"time":2,"station_name":"Matraman","transit":false,"station_id":"MTR","i_lat":-6.212485,"line":1,"distance":1275,"i_long":106.858896,"is_transit":false}],[{"is_transit":false,"transit":false,"station_id":"DRN","time":0,"line":2,"i_long":106.85449,"station_name":"Duren Kalibata","distance":0,"i_lat":-6.255332},{"time":3,"i_lat":-6.242512,"is_transit":false,"transit":false,"station_name":"Cawang","station_id":"CW","distance":1546,"i_long":106.856607,"line":2},{"station_id":"TEB","transit":false,"line":2,"is_transit":false,"i_long":106.857948,"i_lat":-6.226659,"station_name":"Tebet","distance":1230,"time":2},{"line":2,"time":4,"is_transit":true,"i_long":106.84912,"i_lat":-6.209883,"station_id":"MRI","station_name":"Manggarai","transit":true,"distance":2610},{"i_lat":-6.202263,"i_long":106.822649,"distance":3186,"station_name":"Sudirman","line":1,"transit":false,"is_transit":false,"station_id":"SUD","time":4},{"transit":false,"station_name":"Sudirman Baru","line":1,"distance":280,"station_id":"SUDB","is_transit":false,"time":1,"i_long":106.819881,"i_lat":-6.201433},{"transit":false,"station_id":"KAT","i_lat":-6.20132,"distance":471,"i_long":106.816351,"is_transit":false,"time":1,"line":1,"station_name":"Karet"},{"line":1,"is_transit":false,"station_id":"THB","time":5,"i_lat":-6.185545,"i_long":106.811091,"station_name":"Tanah Abang","distance":2029,"transit":false},{"transit":false,"distance":3632,"i_lat":-6.155215,"station_name":"Duri","line":1,"i_long":106.800832,"time":8,"is_transit":false,"station_id":"DU"},{"station_name":"Angke","transit":false,"is_transit":false,"i_lat":-6.144674,"i_long":106.79867,"time":4,"distance":1230,"line":1,"station_id":"AK"},{"i_long":106.826365,"line":4,"station_id":"KPB","distance":4102,"transit":true,"is_transit":true,"time":9,"station_name":"Kampung Bandan","i_lat":-6.132549},{"station_name":"Rajawali","station_id":"RJW","i_long":106.836569,"line":11,"transit":false,"distance":1444,"is_transit":false,"i_lat":-6.14505,"time":3},{"distance":1901,"is_transit":false,"i_lat":-6.161728,"transit":false,"time":5,"station_name":"Kemayoran","station_id":"KMO","i_long":106.839204,"line":11},{"line":11,"time":4,"i_long":106.84368,"i_lat":-6.174784,"station_name":"Pasar Senen","transit":false,"station_id":"PSE","is_transit":false,"distance":1436},{"station_name":"Gang Sentiong","i_long":106.850107,"time":8,"line":11,"transit":false,"distance":1567,"is_transit":false,"station_id":"GST","i_lat":-6.185975},{"is_transit":false,"time":1,"i_lat":-6.193792,"line":11,"i_long":106.855437,"distance":973,"station_name":"Kramat","transit":false,"station_id":"KMT"},{"line":11,"i_lat":-6.209188,"station_id":"POK","distance":1829,"station_name":"Pondok Jati","is_transit":false,"time":2,"transit":false,"i_long":106.861737},{"distance":1236,"i_lat":-6.215091,"station_id":"JNG","i_long":106.86807400000001,"transit":true,"station_name":"Jatinegara","line":1,"is_transit":true,"time":9},{"transit":false,"station_name":"Matraman","time":2,"line":1,"i_lat":-6.212485,"is_transit":false,"i_long":106.858896,"station_id":"MTR","distance":1377}],[{"distance":0,"is_transit":false,"time":0,"i_long":106.85449,"i_lat":-6.255332,"transit":false,"station_id":"DRN","station_name":"Duren Kalibata","line":2},{"line":2,"is_transit":false,"time":3,"i_lat":-6.242512,"station_name":"Cawang","i_long":106.856607,"distance":1546,"transit":false,"station_id":"CW"},{"i_lat":-6.226659,"is_transit":false,"station_name":"Tebet","line":2,"transit":false,"time":2,"i_long":106.857948,"distance":1230,"station_id":"TEB"},{"station_name":"Manggarai","station_id":"MRI","is_transit":false,"time":4,"distance":2610,"i_lat":-6.209883,"line":2,"i_long":106.84912,"transit":false},{"time":4,"i_lat":-6.198556,"i_long":106.840169,"station_id":"CKI","station_name":"Cikini","is_transit":false,"distance":1590,"line":2,"transit":false},{"distance":1750,"i_lat":-6.186295,"line":2,"station_name":"Gondangdia","i_long":106.832183,"is_transit":false,"time":3,"transit":false,"station_id":"GDD"},{"i_long":106.828284,"time":4,"distance":2015,"i_lat":-6.166716,"line":2,"station_name":"Juanda","transit":false,"is_transit":false,"station_id":"JUA"},{"i_long":106.827103,"station_name":"Sawah Besar","distance":1149,"line":2,"station_id":"SW","is_transit":false,"transit":false,"time":2,"i_lat":-6.160725},{"line":2,"time":2,"station_id":"MGB","i_long":106.82482,"transit":false,"station_name":"Manggabesar","is_transit":false,"i_lat":-6.149769,"distance":906},{"line":2,"distance":1080,"i_long":106.820901,"is_transit":false,"transit":false,"station_name":"Jayakarta","station_id":"JAY","i_lat":-6.141205,"time":2},{"station_name":"Jakarta Kota","time":4,"station_id":"JAKK","distance":1264,"i_long":106.812439,"line":2,"transit":true,"is_transit":true,"i_lat":-6.137569},{"distance":1364,"station_name":"Kampung Bandan","line":4,"i_lat":-6.132549,"time":3,"i_long":106.826365,"is_transit":true,"transit":true,"station_id":"KPB"},{"i_long":106.836569,"i_lat":-6.14505,"is_transit":false,"time":3,"station_name":"Rajawali","station_id":"RJW","distance":1444,"line":11,"transit":false},{"distance":1901,"line":11,"station_name":"Kemayoran","transit":false,"station_id":"KMO","is_transit":false,"time":5,"i_long":106.839204,"i_lat":-6.161728},{"station_id":"PSE","transit":false,"distance":1436,"station_name":"Pasar Senen","i_long":106.84368,"line":11,"i_lat":-6.174784,"time":4,"is_transit":false},{"i_lat":-6.185975,"time":8,"distance":1567,"line":11,"i_long":106.850107,"station_name":"Gang Sentiong","station_id":"GST","transit":false,"is_transit":false},{"station_name":"Kramat","transit":false,"station_id":"KMT","is_transit":false,"time":1,"i_long":106.855437,"i_lat":-6.193792,"line":11,"distance":973},{"station_name":"Pondok Jati","is_transit":false,"i_lat":-6.209188,"distance":1829,"i_long":106.861737,"station_id":"POK","line":11,"time":2,"transit":false},{"i_long":106.86807400000001,"time":9,"distance":1236,"transit":true,"station_name":"Jatinegara","i_lat":-6.215091,"line":1,"is_transit":true,"station_id":"JNG"},{"station_name":"Matraman","i_lat":-6.212485,"is_transit":false,"distance":1377,"i_long":106.858896,"line":1,"station_id":"MTR","time":2,"transit":false}]]}