{"data":[[{"line":2,"time":0,"i_long":106.85449,"i_lat":-6.255332,"transit":false,"station_id":"DRN","station_name":"Duren Kalibata","distance":0,"is_transit":false},{"station_id":"CW","transit":false,"i_lat":-6.242512,"line":2,"i_long":106.856607,"time":3,"station_name":"Cawang","distance":1546,"is_transit":false},{"i_long":106.857948,"station_name":"Tebet","station_id":"TEB","line":2,"distance":1230,"i_lat":-6.226659,"transit":false,"time":2,"is_transit":false},{"station_id":"MRI","is_transit":true,"i_lat":-6.209883,"transit":true,"i_long":106.84912,"line":2,"time":4,"station_name":"Manggarai","distance":2610},{"station_id":"SUD","distance":3186,"transit":false,"i_lat":-6.202263,"i_long":106.822649,"station_name":"Sudirman","line":1,"time":4,"is_transit":false},{"time":1,"station_name":"Sudirman Baru","line":1,"is_transit":false,"transit":false,"station_id":"SUDB","distance":280,"i_lat":-6.201433,"i_long":106.819881},{"i_lat":-6.20132,"i_long":106.816351,"time":1,"is_transit":false,"line":1,"station_id":"KAT","transit":false,"distance":471,"station_name":"Karet"},{"station_id":"THB","is_transit":true,"station_name":"Tanah Abang","distance":2029,"line":1,"transit":true,"time":5,"i_long":106.811091,"i_lat":-6.185545},{"transit":false,"station_name":"Palmerah","i_lat":-6.207404,"time":6,"distance":3191,"station_id":"PLM","is_transit":false,"line":6,"i_long":106.79689},{"i_long":106.780334,"station_id":"KBY","distance":3737,"transit":false,"is_transit":false,"i_lat":-6.237242,"line":6,"station_name":"Kebayoran","time":7},{"is_transit":false,"time":8,"i_long":106.74273,"transit":false,"line":6,"i_lat":-6.276362,"station_id":"PDJ","distance":6218,"station_name":"Pondokranji"},{"station_id":"JMU","i_lat":-6.288927,"distance":2179,"line":6,"station_name":"Jurangmangu","time":3,"i_long":106.728916,"is_transit":false,"transit":false},{"distance":1994,"is_transit":false,"station_name":"Sudimara","transit":false,"i_lat":-6.296963,"i_long":106.712277,"line":6,"station_id":"SDM","time":4},{"i_lat":-6.314823,"i_long":106.675475,"line":6,"time":6,"station_id":"RU","is_transit":false,"distance":4566,"transit":false,"station_name":"Rawa Buntu"},{"line":6,"i_lat":-6.319871,"transit":false,"i_long":106.66566,"is_transit":false,"distance":2413,"station_id":"SRP","station_name":"Serpong","time":4},{"distance":1784,"station_id":"CSK","i_lat":-6.32484,"i_long":106.640411,"station_name":"Cisauk","line":3,"time":4,"transit":false,"is_transit":false},{"is_transit":false,"station_id":"CC","line":3,"time":4,"station_name":"Cicayur","transit":false,"i_lat":-6.329547,"i_long":106.617853,"distance":2519},{"station_id":"PRP","line":6,"station_name":"Parung Panjang","is_transit":false,"i_lat":-6.3441410000000005,"transit":false,"i_long":106.568863,"distance":5968,"time":8},{"i_lat":-6.354349,"i_long":106.508482,"time":9,"is_transit":false,"station_id":"CJT","distance":7025,"station_name":"Cilejit","transit":false,"line":3}],[{"i_lat":-6.255332,"is_transit":false,"station_name":"Duren Kalibata","time":0,"station_id":"DRN","transit":false,"i_long":106.85449,"distance":0,"line":2},{"transit":false,"station_id":"CW","i_long":106.856607,"i_lat":-6.242512,"line":2,"distance":1546,"is_transit":false,"station_name":"Cawang","time":3},{"i_lat":-6.226659,"i_long":106.857948,"line":2,"time":2,"station_id":"TEB","is_transit":false,"station_name":"Tebet","distance":1230,"transit":false},{"station_id":"MRI","is_transit":false,"transit":false,"i_lat":-6.209883,"i_long":106.84912,"time":4,"line":2,"station_name":"Manggarai","distance":2610},{"time":4,"i_long":106.840169,"line":2,"distance":1590,"i_lat":-6.198556,"station_id":"CKI","station_name":"Cikini","transit":false,"is_transit":false},{"station_id":"GDD","transit":false,"time":3,"is_transit":false,"station_name":"Gondangdia","i_long":106.832183,"i_lat":-6.186295,"line":2,"distance":1750},{"distance":2015,"line":2,"is_transit":false,"i_long":106.828284,"station_id":"JUA","i_lat":-6.166716,"station_name":"Juanda","transit":false,"time":4},{"station_name":"Sawah Besar","time":2,"station_id":"SW","is_transit":false,"distance":1149,"line":2,"transit":false,"i_lat":-6.160725,"i_long":106.827103},{"is_transit":false,"time":2,"station_name":"Manggabesar","transit":false,"i_lat":-6.149769,"station_id":"MGB","distance":906,"i_long":106.82482,"line":2},{"distance":1080,"station_name":"Jayakarta","transit":false,"i_long":106.820901,"station_id":"JAY","line":2,"time":2,"i_lat":-6.141205,"is_transit":false},{"transit":true,"time":4,"i_long":106.812439,"distance":1264,"station_id":"JAKK","is_transit":true,"i_lat":-6.137569,"line":2,"station_name":"Jakarta Kota"},{"i_long":106.826365,"i_lat":-6.132549,"distance":1364,"time":3,"is_transit":true,"station_id":"KPB","station_name":"Kampung Bandan","transit":true,"line":4},{"time":9,"is_transit":false,"line":1,"distance":4102,"station_name":"Angke","i_lat":-6.144674,"transit":false,"i_long":106.79867,"station_id":"AK"},{"station_name":"Duri","station_id":"DU","time":4,"is_transit":false,"i_long":106.800832,"line":1,"distance":1230,"transit":false,"i_lat":-6.155215},{"distance":3632,"time":8,"station_id":"THB","transit":true,"i_long":106.811091,"i_lat":-6.185545,"station_name":"Tanah Abang","is_transit":true,"line":1},{"time":6,"station_id":"PLM","distance":3191,"i_lat":-6.207404,"station_name":"Palmerah","is_transit":false,"i_long":106.79689,"line":6,"transit":false},{"is_transit":false,"time":7,"station_id":"KBY","distance":3737,"station_name":"Kebayoran","transit":false,"i_long":106.780334,"line":6,"i_lat":-6.237242},{"i_lat":-6.276362,"distance":6218,"i_long":106.74273,"station_id":"PDJ","station_name":"Pondokranji","time":8,"is_transit":false,"transit":false,"line":6},{"time":3,"i_lat":-6.288927,"is_transit":false,"transit":false,"station_name":"Jurangmangu","i_long":106.728916,"station_id":"JMU","distance":2179,"line":6},{"distance":1994,"is_transit":false,"station_id":"SDM","i_lat":-6.296963,"line":6,"time":4,"transit":false,"i_long":106.712277,"station_name":"Sudimara"},{"i_long":106.675475,"time":6,"station_name":"Rawa Buntu","line":6,"is_transit":false,"transit":false,"distance":4566,"i_lat":-6.314823,"station_id":"RU"},{"time":4,"line":6,"station_id":"SRP","i_lat":-6.319871,"distance":2413,"i_long":106.66566,"is_transit":false,"station_name":"Serpong","transit":false},{"line":3,"i_long":106.640411,"i_lat":-6.32484,"transit":false,"station_id":"CSK","distance":1784,"time":4,"station_name":"Cisauk","is_transit":false},{"station_id":"CC","transit":false,"i_lat":-6.329547,"is_transit":false,"distance":2519,"i_long":106.617853,"time":4,"station_name":"Cicayur","line":3},{"line":6,"transit":false,"station_id":"PRP","i_long":106.568863,"station_name":"Parung Panjang","is_transit":false,"distance":5968,"i_lat":-6.3441410000000005,"time":8},{"station_name":"Cilejit","line":3,"distance":7025,"is_transit":false,"i_lat":-6.354349,"station_id":"CJT","transit":false,"time":9,"i_long":106.508482}],[{"time":0,"i_lat":-6.255332,"station_id":"DRN","is_transit":false,"i_long":106.85449,"line":2,"transit":false,"distance":0,"station_name":"Duren Kalibata"},{"time":3,"station_name":"Cawang","is_transit":false,"station_id":"CW","distance":1546,"i_lat":-6.242512,"transit":false,"i_long":106.856607,"line":2},{"i_long":106.857948,"transit":false,"station_name":"Tebet","is_transit":false,"station_id":"TEB","time":2,"distance":1230,"i_lat":-6.226659,"line":2},{"line":2,"i_lat":-6.209883,"station_name":"Manggarai","distance":2610,"station_id":"MRI","transit":true,"is_transit":true,"time":4,"i_long":106.84912},{"station_name":"Matraman","i_lat":-6.212485,"line":1,"time":2,"station_id":"MTR","distance":1275,"i_long":106.858896,"transit":false,"is_transit":false},{"station_id":"JNG","is_transit":true,"i_long":106.86807400000001,"station_name":"Jatinegara","i_lat":-6.215091,"line":1,"time":8,"distance":1377,"transit":true},{"i_lat":-6.209188,"distance":1236,"station_id":"POK","station_name":"Pondok Jati","transit":false,"is_transit":false,"i_long":106.861737,"line":11,"time":2},{"station_name":"Kramat","transit":false,"distance":1829,"time":2,"i_long":106.855437,"line":11,"is_transit":false,"station_id":"KMT","i_lat":-6.193792},{"i_lat":-6.185975,"line":11,"i_long":106.850107,"distance":973,"station_name":"Gang Sentiong","time":1,"station_id":"GST","is_transit":false,"transit":false},{"i_lat":-6.174784,"i_long":106.84368,"station_name":"Pasar Senen","time":8,"transit":false,"station_id":"PSE","is_transit":false,"distance":1567,"line":11},{"distance":1436,"station_name":"Kemayoran","transit":false,"is_transit":false,"i_long":106.839204,"i_lat":-6.161728,"time":4,"line":11,"station_id":"KMO"},{"distance":1901,"time":5,"station_name":"Rajawali","transit":false,"i_lat":-6.14505,"is_transit":false,"station_id":"RJW","i_long":106.836569,"line":11},{"transit":true,"time":3,"line":4,"station_id":"KPB","station_name":"Kampung Bandan","is_transit":true,"distance":1444,"i_lat":-6.132549,"i_long":106.826365},{"station_id":"AK","is_transit":false,"i_lat":-6.144674,"time":9,"line":1,"transit":false,"i_long":106.79867,"distance":4102,"station_name":"Angke"},{"i_long":106.800832,"is_transit":false,"time":4,"i_lat":-6.155215,"station_id":"DU","transit":false,"line":1,"station_name":"Duri","distance":1230},{"line":1,"is_transit":true,"i_long":106.811091,"station_name":"Tanah Abang","i_lat":-6.185545,"time":8,"transit":true,"distance":3632,"station_id":"THB"},{"station_id":"PLM","i_long":106.79689,"time":6,"is_transit":false,"distance":3191,"transit":false,"i_lat":-6.207404,"line":6,"station_name":"Palmerah"},{"station_id":"KBY","station_name":"Kebayoran","time":7,"is_transit":false,"transit":false,"line":6,"i_long":106.780334,"distance":3737,"i_lat":-6.237242},{"distance":6218,"station_name":"Pondokranji","station_id":"PDJ","is_transit":false,"i_long":106.74273,"i_lat":-6.276362,"transit":false,"line":6,"time":8},{"is_transit":false,"i_lat":-6.288927,"station_id":"JMU","i_long":106.728916,"line":6,"distance":2179,"station_name":"Jurangmangu","time":3,"transit":false},{"is_transit":false,"distance":1994,"time":4,"i_lat":-6.296963,"station_id":"SDM","transit":false,"line":6,"i_long":106.712277,"station_name":"Sudimara"},{"time":6,"station_name":"Rawa Buntu","line":6,"station_id":"RU","transit":false,"is_transit":false,"i_lat":-6.314823,"i_long":106.675475,"distance":4566},{"i_long":106.66566,"station_name":"Serpong","station_id":"SRP","is_transit":false,"transit":false,"time":4,"i_lat":-6.319871,"distance":2413,"line":6},{"station_name":"Cisauk","distance":1784,"station_id":"CSK","transit":false,"line":3,"is_transit":false,"time":4,"i_lat":-6.32484,"i_long":106.640411},{"is_transit":false,"transit":false,"station_name":"Cicayur","i_lat":-6.329547,"time":4,"station_id":"CC","line":3,"distance":2519,"i_long":106.617853},{"transit":false,"time":8,"i_long":106.568863,"line":6,"i_lat":-6.3441410000000005,"station_id":"PRP","is_transit":false,"station_name":"Parung Panjang","distance":5968},{"line":3,"distance":7025,"is_transit":false,"i_long":106.508482,"i_lat":-6.354349,"station_id":"CJT","time":9,"station_name":"Cilejit","transit":false}]]}