{"data":[[{"i_lat":-6.255332,"time":0,"line":2,"i_long":106.85449,"distance":0,"is_transit":false,"station_id":"DRN","station_name":"Duren Kalibata","transit":false},{"station_id":"CW","i_long":106.856607,"line":2,"is_transit":false,"i_lat":-6.242512,"transit":false,"distance":1546,"station_name":"Cawang","time":3},{"i_lat":-6.226659,"station_name":"Tebet","i_long":106.857948,"station_id":"TEB","distance":1230,"is_transit":false,"transit":false,"line":2,"time":2},{"station_id":"MRI","i_lat":-6.209883,"time":4,"distance":2610,"is_transit":true,"transit":true,"station_name":"Manggarai","i_long":106.84912,"line":2},{"station_name":"Sudirman","transit":false,"i_lat":-6.202263,"i_long":106.822649,"line":1,"station_id":"SUD","time":4,"is_transit":false,"distance":3186},{"distance":280,"line":1,"is_transit":false,"transit":false,"station_name":"Sudirman Baru","time":1,"i_long":106.819881,"i_lat":-6.201433,"station_id":"SUDB"},{"station_name":"Karet","i_long":106.816351,"station_id":"KAT","distance":471,"is_transit":false,"transit":false,"i_lat":-6.20132,"line":1,"time":1},{"transit":true,"time":5,"i_lat":-6.185545,"is_transit":true,"line":1,"distance":2029,"i_long":106.811091,"station_id":"THB","station_name":"Tanah Abang"},{"time":6,"station_name":"Palmerah","i_long":106.79689,"is_transit":false,"line":6,"station_id":"PLM","i_lat":-6.207404,"transit":false,"distance":3191},{"time":7,"i_lat":-6.237242,"distance":3737,"station_id":"KBY","is_transit":false,"transit":false,"i_long":106.780334,"station_name":"Kebayoran","line":6},{"station_id":"PDJ","transit":false,"station_name":"Pondokranji","i_lat":-6.276362,"i_long":106.74273,"time":8,"distance":6218,"line":6,"is_transit":false},{"station_name":"Jurangmangu","i_long":106.728916,"is_transit":false,"time":3,"distance":2179,"i_lat":-6.288927,"transit":false,"station_id":"JMU","line":6},{"time":4,"transit":false,"station_id":"SDM","i_lat":-6.296963,"i_long":106.712277,"line":6,"is_transit":false,"distance":1994,"station_name":"Sudimara"},{"station_id":"RU","time":6,"line":6,"i_lat":-6.314823,"transit":false,"i_long":106.675475,"is_transit":false,"station_name":"Rawa Buntu","distance":4566},{"transit":false,"time":4,"station_id":"SRP","i_lat":-6.319871,"line":6,"station_name":"Serpong","is_transit":false,"distance":2413,"i_long":106.66566},{"station_id":"CSK","time":4,"station_name":"Cisauk","i_lat":-6.32484,"i_long":106.640411,"line":3,"is_transit":false,"transit":false,"distance":1784},{"i_lat":-6.329547,"i_long":106.617853,"line":3,"time":4,"is_transit":false,"transit":false,"station_id":"CC","station_name":"Cicayur","distance":2519},{"distance":5968,"station_id":"PRP","time":8,"i_lat":-6.3441410000000005,"i_long":106.568863,"is_transit":false,"line":6,"station_name":"Parung Panjang","transit":false},{"transit":false,"is_transit":false,"distance":7025,"station_id":"CJT","station_name":"Cilejit","i_lat":-6.354349,"line":3,"i_long":106.508482,"time":9},{"time":6,"line":0,"is_transit":false,"station_name":"Daru","i_long":106.491338,"distance":2675,"transit":false,"station_id":"DAR","i_lat":-6.338021}],[{"station_name":"Duren Kalibata","is_transit":false,"i_lat":-6.255332,"time":0,"i_long":106.85449,"distance":0,"transit":false,"station_id":"DRN","line":2},{"time":3,"is_transit":false,"transit":false,"station_name":"Cawang","station_id":"CW","line":2,"distance":1546,"i_long":106.856607,"i_lat":-6.242512},{"distance":1230,"i_lat":-6.226659,"time":2,"transit":false,"station_name":"Tebet","i_long":106.857948,"is_transit":false,"station_id":"TEB","line":2},{"i_long":106.84912,"is_transit":false,"time":4,"line":2,"station_name":"Manggarai","distance":2610,"station_id":"MRI","i_lat":-6.209883,"transit":false},{"station_id":"CKI","i_lat":-6.198556,"distance":1590,"i_long":106.840169,"is_transit":false,"line":2,"time":4,"transit":false,"station_name":"Cikini"},{"i_long":106.832183,"line":2,"station_id":"GDD","transit":false,"distance":1750,"station_name":"Gondangdia","time":3,"i_lat":-6.186295,"is_transit":false},{"station_id":"JUA","distance":2015,"is_transit":false,"i_long":106.828284,"transit":false,"station_name":"Juanda","i_lat":-6.166716,"line":2,"time":4},{"distance":1149,"station_id":"SW","time":2,"station_name":"Sawah Besar","i_long":106.827103,"is_transit":false,"transit":false,"i_lat":-6.160725,"line":2},{"time":2,"is_transit":false,"transit":false,"i_lat":-6.149769,"distance":906,"i_long":106.82482,"line":2,"station_id":"MGB","station_name":"Manggabesar"},{"is_transit":false,"transit":false,"distance":1080,"station_name":"Jayakarta","time":2,"line":2,"station_id":"JAY","i_lat":-6.141205,"i_long":106.820901},{"i_lat":-6.137569,"time":4,"transit":true,"is_transit":true,"distance":1264,"i_long":106.812439,"line":2,"station_id":"JAKK","station_name":"Jakarta Kota"},{"distance":1364,"i_lat":-6.132549,"transit":true,"station_name":"Kampung Bandan","is_transit":true,"time":3,"i_long":106.826365,"station_id":"KPB","line":4},{"station_id":"AK","line":1,"is_transit":false,"distance":4102,"time":9,"transit":false,"i_lat":-6.144674,"station_name":"Angke","i_long":106.79867},{"transit":false,"station_id":"DU","distance":1230,"station_name":"Duri","line":1,"is_transit":false,"i_lat":-6.155215,"i_long":106.800832,"time":4},{"transit":true,"station_name":"Tanah Abang","is_transit":true,"station_id":"THB","distance":3632,"time":8,"i_long":106.811091,"line":1,"i_lat":-6.185545},{"station_name":"Palmerah","is_transit":false,"station_id":"PLM","time":6,"distance":3191,"line":6,"i_lat":-6.207404,"i_long":106.79689,"transit":false},{"i_lat":-6.237242,"station_name":"Kebayoran","distance":3737,"time":7,"line":6,"transit":false,"is_transit":false,"i_long":106.780334,"station_id":"KBY"},{"time":8,"i_long":106.74273,"station_id":"PDJ","is_transit":false,"transit":false,"i_lat":-6.276362,"station_name":"Pondokranji","line":6,"distance":6218},{"station_id":"JMU","time":3,"i_lat":-6.288927,"is_transit":false,"line":6,"station_name":"Jurangmangu","distance":2179,"transit":false,"i_long":106.728916},{"is_transit":false,"distance":1994,"line":6,"station_id":"SDM","station_name":"Sudimara","i_long":106.712277,"i_lat":-6.296963,"transit":false,"time":4},{"is_transit":false,"transit":false,"station_id":"RU","i_lat":-6.314823,"line":6,"i_long":106.675475,"distance":4566,"station_name":"Rawa Buntu","time":6},{"line":6,"i_lat":-6.319871,"station_name":"Serpong","time":4,"transit":false,"station_id":"SRP","i_long":106.66566,"distance":2413,"is_transit":false},{"line":3,"is_transit":false,"station_name":"Cisauk","i_lat":-6.32484,"time":4,"transit":false,"i_long":106.640411,"station_id":"CSK","distance":1784},{"distance":2519,"station_id":"CC","is_transit":false,"line":3,"transit":false,"i_lat":-6.329547,"time":4,"i_long":106.617853,"station_name":"Cicayur"},{"distance":5968,"station_name":"Parung Panjang","i_long":106.568863,"transit":false,"time":8,"is_transit":false,"i_lat":-6.3441410000000005,"line":6,"station_id":"PRP"},{"i_lat":-6.354349,"i_long":106.508482,"line":3,"is_transit":false,"transit":false,"distance":7025,"time":9,"station_id":"CJT","station_name":"Cilejit"},{"transit":false,"line":0,"station_id":"DAR","is_transit":false,"distance":2675,"station_name":"Daru","i_lat":-6.338021,"i_long":106.491338,"time":6}],[{"station_id":"DRN","distance":0,"station_name":"Duren Kalibata","line":2,"time":0,"transit":false,"i_lat":-6.255332,"i_long":106.85449,"is_transit":false},{"station_name":"Cawang","transit":false,"station_id":"CW","is_transit":false,"distance":1546,"line":2,"i_long":106.856607,"time":3,"i_lat":-6.242512},{"distance":1230,"station_id":"TEB","time":2,"is_transit":false,"i_long":106.857948,"line":2,"station_name":"Tebet","i_lat":-6.226659,"transit":false},{"i_lat":-6.209883,"is_transit":true,"station_name":"Manggarai","time":4,"i_long":106.84912,"station_id":"MRI","line":2,"transit":true,"distance":2610},{"transit":false,"station_name":"Matraman","is_transit":false,"station_id":"MTR","i_lat":-6.212485,"time":2,"line":1,"distance":1275,"i_long":106.858896},{"line":1,"time":8,"station_name":"Jatinegara","is_transit":true,"station_id":"JNG","transit":true,"distance":1377,"i_lat":-6.215091,"i_long":106.86807400000001},{"distance":1236,"i_lat":-6.209188,"is_transit":false,"transit":false,"line":11,"station_name":"Pondok Jati","station_id":"POK","time":2,"i_long":106.861737},{"is_transit":false,"transit":false,"station_name":"Kramat","i_lat":-6.193792,"station_id":"KMT","distance":1829,"time":2,"line":11,"i_long":106.855437},{"station_name":"Gang Sentiong","distance":973,"i_lat":-6.185975,"i_long":106.850107,"is_transit":false,"time":1,"transit":false,"station_id":"GST","line":11},{"is_transit":false,"transit":false,"station_name":"Pasar Senen","time":8,"i_lat":-6.174784,"i_long":106.84368,"line":11,"distance":1567,"station_id":"PSE"},{"station_name":"Kemayoran","is_transit":false,"distance":1436,"i_long":106.839204,"transit":false,"station_id":"KMO","time":4,"line":11,"i_lat":-6.161728},{"is_transit":false,"line":11,"i_lat":-6.14505,"distance":1901,"i_long":106.836569,"transit":false,"station_id":"RJW","time":5,"station_name":"Rajawali"},{"is_transit":true,"station_name":"Kampung Bandan","time":3,"i_lat":-6.132549,"station_id":"KPB","distance":1444,"i_long":106.826365,"transit":true,"line":4},{"station_id":"AK","station_name":"Angke","time":9,"transit":false,"is_transit":false,"distance":4102,"i_long":106.79867,"line":1,"i_lat":-6.144674},{"i_long":106.800832,"is_transit":false,"time":4,"distance":1230,"station_name":"Duri","station_id":"DU","line":1,"transit":false,"i_lat":-6.155215},{"transit":true,"i_lat":-6.185545,"line":1,"distance":3632,"station_name":"Tanah Abang","time":8,"i_long":106.811091,"is_transit":true,"station_id":"THB"},{"station_name":"Palmerah","station_id":"PLM","time":6,"transit":false,"i_lat":-6.207404,"i_long":106.79689,"line":6,"is_transit":false,"distance":3191},{"transit":false,"station_name":"Kebayoran","station_id":"KBY","i_long":106.780334,"i_lat":-6.237242,"line":6,"distance":3737,"time":7,"is_transit":false},{"line":6,"i_lat":-6.276362,"time":8,"transit":false,"station_name":"Pondokranji","is_transit":false,"distance":6218,"i_long":106.74273,"station_id":"PDJ"},{"station_id":"JMU","i_lat":-6.288927,"i_long":106.728916,"is_transit":false,"transit":false,"distance":2179,"station_name":"Jurangmangu","line":6,"time":3},{"i_lat":-6.296963,"time":4,"station_id":"SDM","i_long":106.712277,"transit":false,"is_transit":false,"station_name":"Sudimara","line":6,"distance":1994},{"time":6,"distance":4566,"i_lat":-6.314823,"line":6,"is_transit":false,"station_id":"RU","i_long":106.675475,"transit":false,"station_name":"Rawa Buntu"},{"i_long":106.66566,"station_name":"Serpong","station_id":"SRP","is_transit":false,"transit":false,"distance":2413,"time":4,"i_lat":-6.319871,"line":6},{"time":4,"line":3,"distance":1784,"station_id":"CSK","is_transit":false,"i_long":106.640411,"i_lat":-6.32484,"transit":false,"station_name":"Cisauk"},{"transit":false,"i_lat":-6.329547,"station_id":"CC","station_name":"Cicayur","i_long":106.617853,"distance":2519,"line":3,"time":4,"is_transit":false},{"time":8,"i_long":106.568863,"line":6,"transit":false,"i_lat":-6.3441410000000005,"station_name":"Parung Panjang","is_transit":false,"station_id":"PRP","distance":5968},{"i_long":106.508482,"i_lat":-6.354349,"transit":false,"is_transit":false,"line":3,"station_name":"Cilejit","time":9,"station_id":"CJT","distance":7025},{"i_long":106.491338,"distance":2675,"station_name":"Daru","station_id":"DAR","i_lat":-6.338021,"time":6,"line":0,"is_transit":false,"transit":false}]]}