{"data":[[{"station_id":"DRN","i_long":106.85449,"station_name":"Duren Kalibata","i_lat":-6.255332,"time":0,"transit":false,"distance":0,"is_transit":false,"line":0},{"station_name":"Cawang","is_transit":false,"i_lat":-6.242512,"i_long":106.856607,"line":0,"distance":1546,"time":3,"transit":false,"station_id":"CW"},{"is_transit":false,"i_lat":-6.226659,"time":2,"transit":false,"station_id":"TEB","distance":1230,"i_long":106.857948,"line":2,"station_name":"Tebet"},{"i_lat":-6.209883,"line":0,"station_id":"MRI","station_name":"Manggarai","transit":true,"is_transit":true,"i_long":106.84912,"time":4,"distance":2610},{"line":1,"station_id":"MTR","is_transit":false,"transit":false,"time":2,"distance":1275,"i_long":106.858896,"i_lat":-6.212485,"station_name":"Matraman"},{"station_id":"JNG","i_long":106.86807400000001,"i_lat":-6.215091,"line":0,"distance":1377,"time":8,"station_name":"Jatinegara","transit":true,"is_transit":true},{"station_name":"Pondok Jati","transit":false,"i_lat":-6.209188,"i_long":106.861737,"station_id":"POK","line":11,"time":2,"is_transit":false,"distance":1236},{"station_name":"Kramat","is_transit":false,"time":2,"i_lat":-6.193792,"distance":1829,"station_id":"KMT","transit":false,"line":11,"i_long":106.855437},{"is_transit":false,"i_long":106.850107,"time":1,"station_name":"Gang Sentiong","transit":false,"i_lat":-6.185975,"line":11,"distance":973,"station_id":"GST"},{"station_id":"PSE","i_long":106.84368,"line":11,"i_lat":-6.174784,"distance":1567,"station_name":"Pasar Senen","time":8,"transit":false,"is_transit":false}],[{"distance":0,"station_name":"Duren Kalibata","time":0,"station_id":"DRN","is_transit":false,"i_lat":-6.255332,"i_long":106.85449,"line":0,"transit":false},{"distance":1546,"line":0,"i_long":106.856607,"station_name":"Cawang","time":3,"station_id":"CW","transit":false,"i_lat":-6.242512,"is_transit":false},{"i_lat":-6.226659,"line":2,"distance":1230,"is_transit":false,"station_id":"TEB","time":2,"station_name":"Tebet","i_long":106.857948,"transit":false},{"time":4,"line":0,"i_long":106.84912,"station_id":"MRI","is_transit":true,"i_lat":-6.209883,"transit":true,"station_name":"Manggarai","distance":2610},{"i_long":106.822649,"time":4,"is_transit":false,"distance":3186,"station_id":"SUD","line":1,"station_name":"Sudirman","transit":false,"i_lat":-6.202263},{"transit":false,"station_name":"Sudirman Baru","line":1,"distance":280,"station_id":"SUDB","is_transit":false,"i_long":106.819881,"time":1,"i_lat":-6.201433},{"time":1,"transit":false,"is_transit":false,"station_name":"Karet","i_long":106.816351,"distance":471,"station_id":"KAT","i_lat":-6.20132,"line":1},{"line":1,"transit":false,"is_transit":true,"i_lat":-6.185545,"station_id":"THB","distance":2029,"i_long":106.811091,"time":5,"station_name":"Tanah Abang"},{"i_long":106.800832,"station_id":"DU","transit":true,"is_transit":true,"time":8,"station_name":"Duri","i_lat":-6.155215,"line":1,"distance":3632},{"i_lat":-6.144674,"line":0,"station_name":"Angke","station_id":"AK","transit":false,"is_transit":false,"i_long":106.79867,"time":4,"distance":1230},{"distance":4102,"is_transit":true,"i_long":106.826365,"transit":true,"station_id":"KPB","time":9,"i_lat":-6.132549,"line":0,"station_name":"Kampung Bandan"},{"station_id":"RJW","transit":false,"is_transit":false,"time":3,"i_long":106.836569,"distance":1444,"station_name":"Rajawali","line":11,"i_lat":-6.14505},{"i_lat":-6.161728,"time":5,"i_long":106.839204,"distance":1901,"station_name":"Kemayoran","transit":false,"line":11,"is_transit":false,"station_id":"KMO"},{"i_long":106.84368,"station_id":"PSE","i_lat":-6.174784,"station_name":"Pasar Senen","transit":false,"line":11,"time":4,"is_transit":false,"distance":1436}],[{"line":0,"time":0,"i_long":106.85449,"station_id":"DRN","is_transit":false,"i_lat":-6.255332,"station_name":"Duren Kalibata","transit":false,"distance":0},{"station_name":"Cawang","transit":false,"is_transit":false,"i_long":106.856607,"line":0,"i_lat":-6.242512,"distance":1546,"station_id":"CW","time":3},{"time":2,"i_long":106.857948,"station_name":"Tebet","is_transit":false,"line":2,"station_id":"TEB","i_lat":-6.226659,"transit":false,"distance":1230},{"time":4,"line":0,"station_name":"Manggarai","transit":true,"distance":2610,"is_transit":true,"i_lat":-6.209883,"station_id":"MRI","i_long":106.84912},{"i_long":106.840169,"distance":1590,"i_lat":-6.198556,"transit":false,"line":0,"station_name":"Cikini","is_transit":false,"station_id":"CKI","time":4},{"is_transit":false,"distance":1750,"time":3,"i_lat":-6.186295,"i_long":106.832183,"line":2,"station_name":"Gondangdia","station_id":"GDD","transit":false},{"i_lat":-6.166716,"i_long":106.828284,"station_name":"Juanda","is_transit":false,"distance":2015,"line":2,"time":4,"transit":false,"station_id":"JUA"},{"transit":false,"time":2,"station_name":"Sawah Besar","is_transit":false,"distance":1149,"station_id":"SW","line":2,"i_lat":-6.160725,"i_long":106.827103},{"i_lat":-6.149769,"time":2,"is_transit":false,"line":2,"distance":906,"station_id":"MGB","station_name":"Manggabesar","transit":false,"i_long":106.82482},{"transit":false,"station_id":"JAY","is_transit":false,"line":7,"i_long":106.820901,"station_name":"Jayakarta","i_lat":-6.141205,"distance":1080,"time":2},{"line":0,"transit":true,"i_long":106.812439,"distance":1264,"station_id":"JAKK","is_transit":true,"station_name":"Jakarta Kota","i_lat":-6.137569,"time":4},{"i_long":106.826365,"time":3,"station_id":"KPB","line":0,"transit":true,"is_transit":true,"i_lat":-6.132549,"distance":1364,"station_name":"Kampung Bandan"},{"transit":false,"station_name":"Rajawali","station_id":"RJW","is_transit":false,"time":3,"line":11,"i_long":106.836569,"i_lat":-6.14505,"distance":1444},{"time":5,"transit":false,"is_transit":false,"i_long":106.839204,"station_id":"KMO","line":11,"station_name":"Kemayoran","i_lat":-6.161728,"distance":1901},{"time":4,"is_transit":false,"distance":1436,"line":11,"station_name":"Pasar Senen","i_long":106.84368,"transit":false,"station_id":"PSE","i_lat":-6.174784}]]}