{"data":[[{"time":0,"i_lat":-6.255332,"i_long":106.85449,"distance":0,"station_name":"Duren Kalibata","is_transit":false,"line":2,"station_id":"DRN","transit":false},{"line":2,"station_name":"Cawang","time":3,"distance":1546,"station_id":"CW","is_transit":false,"transit":false,"i_lat":-6.242512,"i_long":106.856607},{"station_id":"TEB","line":2,"i_long":106.857948,"transit":false,"is_transit":false,"i_lat":-6.226659,"station_name":"Tebet","time":2,"distance":1230},{"transit":false,"station_name":"Manggarai","distance":2610,"time":4,"line":2,"i_lat":-6.209883,"is_transit":false,"i_long":106.84912,"station_id":"MRI"},{"station_id":"CKI","station_name":"Cikini","is_transit":false,"time":4,"i_lat":-6.198556,"i_long":106.840169,"line":2,"transit":false,"distance":1590},{"transit":false,"station_name":"Gondangdia","i_long":106.832183,"line":2,"time":3,"is_transit":false,"distance":1750,"i_lat":-6.186295,"station_id":"GDD"},{"is_transit":false,"i_long":106.828284,"i_lat":-6.166716,"time":4,"station_id":"JUA","distance":2015,"transit":false,"line":2,"station_name":"Juanda"},{"transit":false,"station_id":"SW","is_transit":false,"time":2,"distance":1149,"i_lat":-6.160725,"line":2,"station_name":"Sawah Besar","i_long":106.827103},{"distance":906,"time":2,"i_long":106.82482,"transit":false,"line":2,"station_id":"MGB","is_transit":false,"station_name":"Manggabesar","i_lat":-6.149769},{"time":2,"station_name":"Jayakarta","transit":false,"distance":1080,"is_transit":false,"station_id":"JAY","i_lat":-6.141205,"i_long":106.820901,"line":2},{"station_id":"JAKK","line":2,"is_transit":false,"time":4,"distance":1264,"station_name":"Jakarta Kota","i_lat":-6.137569,"i_long":106.812439,"transit":false}],[{"station_id":"DRN","line":2,"i_long":106.85449,"is_transit":false,"transit":false,"station_name":"Duren Kalibata","i_lat":-6.255332,"distance":0,"time":0},{"transit":false,"i_lat":-6.242512,"station_id":"CW","is_transit":false,"time":3,"line":2,"distance":1546,"station_name":"Cawang","i_long":106.856607},{"distance":1230,"line":2,"is_transit":false,"station_id":"TEB","time":2,"i_long":106.857948,"transit":false,"station_name":"Tebet","i_lat":-6.226659},{"station_id":"MRI","time":4,"i_lat":-6.209883,"is_transit":true,"transit":true,"station_name":"Manggarai","line":2,"distance":2610,"i_long":106.84912},{"i_lat":-6.202263,"i_long":106.822649,"distance":3186,"line":1,"transit":false,"is_transit":false,"time":4,"station_id":"SUD","station_name":"Sudirman"},{"time":1,"i_long":106.819881,"distance":280,"station_id":"SUDB","is_transit":false,"station_name":"Sudirman Baru","transit":false,"line":1,"i_lat":-6.201433},{"is_transit":false,"i_long":106.816351,"distance":471,"station_id":"KAT","station_name":"Karet","line":1,"time":1,"i_lat":-6.20132,"transit":false},{"i_lat":-6.185545,"i_long":106.811091,"line":1,"distance":2029,"transit":false,"station_name":"Tanah Abang","is_transit":false,"station_id":"THB","time":5},{"distance":3632,"station_id":"DU","station_name":"Duri","line":1,"transit":false,"time":8,"i_long":106.800832,"is_transit":false,"i_lat":-6.155215},{"line":1,"i_lat":-6.144674,"time":4,"distance":1230,"transit":false,"station_name":"Angke","station_id":"AK","is_transit":false,"i_long":106.79867},{"line":4,"transit":true,"i_long":106.826365,"distance":4102,"station_name":"Kampung Bandan","i_lat":-6.132549,"is_transit":true,"time":9,"station_id":"KPB"},{"i_long":106.812439,"distance":1364,"line":2,"time":3,"station_name":"Jakarta Kota","i_lat":-6.137569,"is_transit":false,"transit":false,"station_id":"JAKK"}],[{"station_name":"Duren Kalibata","i_lat":-6.255332,"distance":0,"station_id":"DRN","is_transit":false,"time":0,"transit":false,"i_long":106.85449,"line":2},{"i_lat":-6.242512,"time":3,"distance":1546,"station_name":"Cawang","station_id":"CW","transit":false,"i_long":106.856607,"line":2,"is_transit":false},{"is_transit":false,"time":2,"transit":false,"station_id":"TEB","i_lat":-6.226659,"i_long":106.857948,"distance":1230,"line":2,"station_name":"Tebet"},{"time":4,"distance":2610,"station_name":"Manggarai","i_lat":-6.209883,"i_long":106.84912,"is_transit":true,"station_id":"MRI","transit":true,"line":2},{"line":1,"is_transit":false,"time":2,"station_name":"Matraman","transit":false,"i_lat":-6.212485,"distance":1275,"station_id":"MTR","i_long":106.858896},{"is_transit":true,"distance":1377,"station_name":"Jatinegara","line":1,"transit":true,"time":8,"i_long":106.86807400000001,"i_lat":-6.215091,"station_id":"JNG"},{"i_long":106.861737,"station_name":"Pondok Jati","distance":1236,"is_transit":false,"station_id":"POK","time":2,"transit":false,"line":11,"i_lat":-6.209188},{"transit":false,"i_long":106.855437,"station_id":"KMT","distance":1829,"station_name":"Kramat","is_transit":false,"line":11,"time":2,"i_lat":-6.193792},{"is_transit":false,"station_name":"Gang Sentiong","distance":973,"transit":false,"i_lat":-6.185975,"i_long":106.850107,"station_id":"GST","line":11,"time":1},{"line":11,"transit":false,"i_lat":-6.174784,"distance":1567,"time":8,"is_transit":false,"station_name":"Pasar Senen","station_id":"PSE","i_long":106.84368},{"station_name":"Kemayoran","i_lat":-6.161728,"i_long":106.839204,"time":4,"line":11,"distance":1436,"is_transit":false,"station_id":"KMO","transit":false},{"is_transit":false,"i_long":106.836569,"distance":1901,"i_lat":-6.14505,"line":11,"station_name":"Rajawali","time":5,"transit":false,"station_id":"RJW"},{"time":3,"i_lat":-6.132549,"station_id":"KPB","i_long":106.826365,"distance":1444,"line":4,"transit":true,"is_transit":true,"station_name":"Kampung Bandan"},{"station_id":"JAKK","station_name":"Jakarta Kota","is_transit":false,"i_lat":-6.137569,"distance":1364,"transit":false,"time":3,"i_long":106.812439,"line":2}]]}