{"data":[[{"distance":0,"line":2,"transit":false,"station_id":"DRN","i_long":106.85449,"i_lat":-6.255332,"is_transit":false,"station_name":"Duren Kalibata","time":0},{"transit":false,"line":2,"station_name":"Cawang","is_transit":false,"station_id":"CW","time":3,"i_lat":-6.242512,"i_long":106.856607,"distance":1546},{"station_id":"TEB","station_name":"Tebet","i_lat":-6.226659,"transit":false,"line":2,"time":2,"i_long":106.857948,"is_transit":false,"distance":1230},{"station_id":"MRI","i_lat":-6.209883,"line":2,"transit":true,"distance":2610,"is_transit":true,"time":4,"station_name":"Manggarai","i_long":106.84912},{"time":4,"distance":3186,"line":1,"transit":false,"i_long":106.822649,"i_lat":-6.202263,"station_name":"Sudirman","is_transit":false,"station_id":"SUD"},{"station_id":"SUDB","station_name":"Sudirman Baru","is_transit":false,"time":1,"distance":280,"i_lat":-6.201433,"i_long":106.819881,"transit":false,"line":1},{"i_lat":-6.20132,"station_id":"KAT","distance":471,"i_long":106.816351,"line":1,"time":1,"station_name":"Karet","is_transit":false,"transit":false},{"line":1,"transit":false,"time":5,"station_name":"Tanah Abang","i_lat":-6.185545,"i_long":106.811091,"distance":2029,"is_transit":false,"station_id":"THB"},{"distance":3632,"transit":true,"station_id":"DU","is_transit":true,"time":8,"i_lat":-6.155215,"station_name":"Duri","i_long":106.800832,"line":1},{"is_transit":false,"transit":false,"station_name":"Grogol","station_id":"GGL","time":3,"distance":1700,"i_lat":-6.162021,"line":5,"i_long":106.788277},{"i_long":106.771379,"station_id":"PSG","time":2,"distance":2036,"line":5,"transit":false,"station_name":"Pesing","is_transit":false,"i_lat":-6.161433},{"line":5,"station_id":"TKO","i_lat":-6.1587309999999995,"time":2,"distance":1614,"is_transit":false,"transit":false,"i_long":106.756522,"station_name":"Taman Kota"},{"i_long":106.737035,"station_name":"Bojongindah","time":2,"i_lat":-6.159876,"transit":false,"station_id":"BOI","line":5,"distance":2334,"is_transit":false}],[{"i_long":106.85449,"line":2,"station_id":"DRN","is_transit":false,"station_name":"Duren Kalibata","time":0,"distance":0,"transit":false,"i_lat":-6.255332},{"station_id":"CW","distance":1546,"i_lat":-6.242512,"time":3,"transit":false,"station_name":"Cawang","is_transit":false,"i_long":106.856607,"line":2},{"i_long":106.857948,"distance":1230,"line":2,"station_name":"Tebet","is_transit":false,"transit":false,"i_lat":-6.226659,"time":2,"station_id":"TEB"},{"station_name":"Manggarai","transit":false,"station_id":"MRI","i_lat":-6.209883,"time":4,"i_long":106.84912,"is_transit":false,"line":2,"distance":2610},{"station_id":"CKI","transit":false,"distance":1590,"time":4,"is_transit":false,"i_lat":-6.198556,"i_long":106.840169,"line":2,"station_name":"Cikini"},{"line":2,"distance":1750,"time":3,"transit":false,"station_id":"GDD","is_transit":false,"i_lat":-6.186295,"i_long":106.832183,"station_name":"Gondangdia"},{"station_id":"JUA","distance":2015,"transit":false,"time":4,"i_lat":-6.166716,"is_transit":false,"i_long":106.828284,"station_name":"Juanda","line":2},{"line":2,"transit":false,"time":2,"distance":1149,"is_transit":false,"station_id":"SW","i_long":106.827103,"station_name":"Sawah Besar","i_lat":-6.160725},{"line":2,"station_id":"MGB","time":2,"is_transit":false,"transit":false,"distance":906,"station_name":"Manggabesar","i_lat":-6.149769,"i_long":106.82482},{"station_id":"JAY","i_lat":-6.141205,"line":2,"transit":false,"distance":1080,"i_long":106.820901,"time":2,"station_name":"Jayakarta","is_transit":false},{"i_long":106.812439,"time":4,"line":2,"is_transit":true,"transit":true,"station_id":"JAKK","i_lat":-6.137569,"distance":1264,"station_name":"Jakarta Kota"},{"time":3,"is_transit":true,"station_id":"KPB","distance":1364,"transit":true,"i_long":106.826365,"line":4,"i_lat":-6.132549,"station_name":"Kampung Bandan"},{"time":9,"i_lat":-6.144674,"i_long":106.79867,"line":1,"transit":false,"station_name":"Angke","distance":4102,"is_transit":false,"station_id":"AK"},{"station_id":"DU","i_long":106.800832,"station_name":"Duri","i_lat":-6.155215,"line":1,"is_transit":true,"distance":1230,"time":4,"transit":true},{"i_lat":-6.162021,"station_id":"GGL","is_transit":false,"i_long":106.788277,"line":5,"distance":1700,"time":3,"station_name":"Grogol","transit":false},{"i_long":106.771379,"station_name":"Pesing","station_id":"PSG","distance":2036,"line":5,"transit":false,"time":2,"i_lat":-6.161433,"is_transit":false},{"i_lat":-6.1587309999999995,"station_name":"Taman Kota","station_id":"TKO","distance":1614,"transit":false,"i_long":106.756522,"line":5,"is_transit":false,"time":2},{"transit":false,"station_id":"BOI","i_long":106.737035,"station_name":"Bojongindah","i_lat":-6.159876,"line":5,"is_transit":false,"distance":2334,"time":2}],[{"station_name":"Duren Kalibata","i_lat":-6.255332,"time":0,"transit":false,"i_long":106.85449,"distance":0,"station_id":"DRN","is_transit":false,"line":2},{"i_long":106.856607,"line":2,"time":3,"i_lat":-6.242512,"station_name":"Cawang","transit":false,"is_transit":false,"station_id":"CW","distance":1546},{"line":2,"transit":false,"distance":1230,"time":2,"i_long":106.857948,"is_transit":false,"station_name":"Tebet","station_id":"TEB","i_lat":-6.226659},{"station_id":"MRI","distance":2610,"i_long":106.84912,"transit":true,"time":4,"station_name":"Manggarai","i_lat":-6.209883,"line":2,"is_transit":true},{"station_name":"Matraman","line":1,"transit":false,"is_transit":false,"distance":1275,"i_lat":-6.212485,"station_id":"MTR","i_long":106.858896,"time":2},{"station_id":"JNG","is_transit":true,"distance":1377,"i_lat":-6.215091,"i_long":106.86807400000001,"line":1,"station_name":"Jatinegara","time":8,"transit":true},{"i_lat":-6.209188,"station_id":"POK","i_long":106.861737,"transit":false,"is_transit":false,"line":11,"distance":1236,"time":2,"station_name":"Pondok Jati"},{"i_long":106.855437,"distance":1829,"station_name":"Kramat","is_transit":false,"i_lat":-6.193792,"station_id":"KMT","time":2,"line":11,"transit":false},{"transit":false,"station_id":"GST","distance":973,"i_lat":-6.185975,"time":1,"i_long":106.850107,"line":11,"station_name":"Gang Sentiong","is_transit":false},{"time":8,"station_name":"Pasar Senen","is_transit":false,"i_lat":-6.174784,"line":11,"transit":false,"distance":1567,"station_id":"PSE","i_long":106.84368},{"station_id":"KMO","distance":1436,"i_lat":-6.161728,"station_name":"Kemayoran","is_transit":false,"time":4,"line":11,"i_long":106.839204,"transit":false},{"i_long":106.836569,"line":11,"station_id":"RJW","time":5,"distance":1901,"i_lat":-6.14505,"transit":false,"station_name":"Rajawali","is_transit":false},{"station_name":"Kampung Bandan","station_id":"KPB","distance":1444,"i_lat":-6.132549,"line":4,"transit":true,"i_long":106.826365,"is_transit":true,"time":3},{"transit":false,"i_lat":-6.144674,"station_name":"Angke","line":1,"time":9,"is_transit":false,"i_long":106.79867,"distance":4102,"station_id":"AK"},{"distance":1230,"i_lat":-6.155215,"line":1,"station_name":"Duri","station_id":"DU","i_long":106.800832,"transit":true,"time":4,"is_transit":true},{"station_name":"Grogol","station_id":"GGL","distance":1700,"is_transit":false,"i_lat":-6.162021,"time":3,"transit":false,"i_long":106.788277,"line":5},{"station_name":"Pesing","line":5,"station_id":"PSG","transit":false,"is_transit":false,"time":2,"distance":2036,"i_lat":-6.161433,"i_long":106.771379},{"line":5,"distance":1614,"transit":false,"i_long":106.756522,"is_transit":false,"time":2,"station_id":"TKO","station_name":"Taman Kota","i_lat":-6.1587309999999995},{"transit":false,"i_lat":-6.159876,"i_long":106.737035,"line":5,"time":2,"station_name":"Bojongindah","distance":2334,"station_id":"BOI","is_transit":false}]]}