{"data":[[{"i_lat":-6.255332,"i_long":106.85449,"transit":false,"line":2,"is_transit":false,"distance":0,"station_id":"DRN","station_name":"Duren Kalibata","time":0},{"time":3,"i_long":106.856607,"station_name":"Cawang","transit":false,"i_lat":-6.242512,"line":2,"is_transit":false,"station_id":"CW","distance":1546},{"i_lat":-6.226659,"distance":1230,"transit":false,"is_transit":false,"i_long":106.857948,"line":2,"time":2,"station_name":"Tebet","station_id":"TEB"},{"line":2,"time":4,"is_transit":true,"distance":2610,"station_id":"MRI","station_name":"Manggarai","i_lat":-6.209883,"i_long":106.84912,"transit":true},{"station_name":"Matraman","i_long":106.858896,"distance":1275,"time":2,"is_transit":false,"transit":false,"i_lat":-6.212485,"station_id":"MTR","line":1},{"distance":1377,"is_transit":true,"line":1,"i_lat":-6.215091,"station_name":"Jatinegara","station_id":"JNG","transit":true,"time":8,"i_long":106.86807400000001},{"i_long":106.861737,"station_name":"Pondok Jati","station_id":"POK","i_lat":-6.209188,"line":11,"transit":false,"distance":1236,"time":2,"is_transit":false},{"distance":1829,"line":11,"station_id":"KMT","station_name":"Kramat","is_transit":false,"transit":false,"i_long":106.855437,"time":2,"i_lat":-6.193792},{"transit":false,"distance":973,"i_long":106.850107,"is_transit":false,"time":1,"i_lat":-6.185975,"line":11,"station_id":"GST","station_name":"Gang Sentiong"},{"station_id":"PSE","is_transit":false,"i_lat":-6.174784,"transit":false,"station_name":"Pasar Senen","line":11,"i_long":106.84368,"distance":1567,"time":8}],[{"is_transit":false,"i_lat":-6.255332,"i_long":106.85449,"station_name":"Duren Kalibata","distance":0,"transit":false,"time":0,"station_id":"DRN","line":2},{"is_transit":false,"transit":false,"station_name":"Cawang","i_lat":-6.242512,"distance":1546,"station_id":"CW","i_long":106.856607,"line":2,"time":3},{"i_lat":-6.226659,"transit":false,"i_long":106.857948,"station_id":"TEB","distance":1230,"line":2,"station_name":"Tebet","time":2,"is_transit":false},{"time":4,"station_id":"MRI","station_name":"Manggarai","is_transit":true,"transit":true,"i_long":106.84912,"distance":2610,"i_lat":-6.209883,"line":2},{"station_name":"Sudirman","i_long":106.822649,"line":1,"time":4,"i_lat":-6.202263,"is_transit":false,"distance":3186,"transit":false,"station_id":"SUD"},{"distance":280,"station_id":"SUDB","line":1,"transit":false,"time":1,"station_name":"Sudirman Baru","is_transit":false,"i_long":106.819881,"i_lat":-6.201433},{"line":1,"time":1,"is_transit":false,"i_long":106.816351,"distance":471,"station_id":"KAT","station_name":"Karet","transit":false,"i_lat":-6.20132},{"time":5,"line":1,"station_id":"THB","transit":false,"station_name":"Tanah Abang","is_transit":false,"i_lat":-6.185545,"distance":2029,"i_long":106.811091},{"line":1,"station_id":"DU","station_name":"Duri","distance":3632,"time":8,"i_lat":-6.155215,"transit":false,"i_long":106.800832,"is_transit":false},{"station_id":"AK","station_name":"Angke","transit":false,"i_lat":-6.144674,"distance":1230,"i_long":106.79867,"time":4,"is_transit":false,"line":1},{"i_lat":-6.132549,"i_long":106.826365,"line":4,"station_id":"KPB","time":9,"distance":4102,"station_name":"Kampung Bandan","is_transit":true,"transit":true},{"station_name":"Rajawali","transit":false,"is_transit":false,"i_long":106.836569,"i_lat":-6.14505,"line":11,"time":3,"station_id":"RJW","distance":1444},{"transit":false,"i_lat":-6.161728,"time":5,"station_name":"Kemayoran","station_id":"KMO","is_transit":false,"i_long":106.839204,"line":11,"distance":1901},{"is_transit":false,"i_lat":-6.174784,"line":11,"distance":1436,"station_name":"Pasar Senen","transit":false,"i_long":106.84368,"station_id":"PSE","time":4}],[{"distance":0,"is_transit":false,"i_lat":-6.255332,"i_long":106.85449,"time":0,"transit":false,"line":2,"station_name":"Duren Kalibata","station_id":"DRN"},{"station_id":"CW","distance":1546,"i_lat":-6.242512,"is_transit":false,"line":2,"transit":false,"time":3,"i_long":106.856607,"station_name":"Cawang"},{"i_lat":-6.226659,"time":2,"line":2,"transit":false,"distance":1230,"i_long":106.857948,"is_transit":false,"station_id":"TEB","station_name":"Tebet"},{"i_lat":-6.209883,"distance":2610,"transit":false,"line":2,"time":4,"station_id":"MRI","station_name":"Manggarai","is_transit":false,"i_long":106.84912},{"time":4,"transit":false,"station_id":"CKI","is_transit":false,"station_name":"Cikini","i_long":106.840169,"line":2,"i_lat":-6.198556,"distance":1590},{"line":2,"i_long":106.832183,"station_name":"Gondangdia","transit":false,"i_lat":-6.186295,"is_transit":false,"time":3,"distance":1750,"station_id":"GDD"},{"is_transit":false,"i_long":106.828284,"distance":2015,"station_name":"Juanda","time":4,"station_id":"JUA","i_lat":-6.166716,"line":2,"transit":false},{"is_transit":false,"distance":1149,"time":2,"station_name":"Sawah Besar","station_id":"SW","i_long":106.827103,"transit":false,"line":2,"i_lat":-6.160725},{"i_long":106.82482,"is_transit":false,"transit":false,"station_name":"Manggabesar","line":2,"distance":906,"i_lat":-6.149769,"station_id":"MGB","time":2},{"station_name":"Jayakarta","i_lat":-6.141205,"distance":1080,"is_transit":false,"i_long":106.820901,"time":2,"transit":false,"line":2,"station_id":"JAY"},{"is_transit":true,"station_name":"Jakarta Kota","line":2,"i_lat":-6.137569,"station_id":"JAKK","distance":1264,"transit":true,"i_long":106.812439,"time":4},{"i_long":106.826365,"transit":true,"time":3,"distance":1364,"i_lat":-6.132549,"line":4,"station_id":"KPB","station_name":"Kampung Bandan","is_transit":true},{"line":11,"distance":1444,"station_id":"RJW","i_long":106.836569,"station_name":"Rajawali","time":3,"is_transit":false,"transit":false,"i_lat":-6.14505},{"is_transit":false,"i_lat":-6.161728,"i_long":106.839204,"line":11,"time":5,"distance":1901,"transit":false,"station_id":"KMO","station_name":"Kemayoran"},{"time":4,"station_id":"PSE","i_lat":-6.174784,"station_name":"Pasar Senen","distance":1436,"is_transit":false,"transit":false,"i_long":106.84368,"line":11}]]}