{"data":[[{"i_lat":-6.255332,"station_id":"DRN","i_long":106.85449,"line":0,"distance":0,"is_transit":false,"time":0,"station_name":"Duren Kalibata","transit":false},{"i_long":106.856607,"distance":1546,"line":0,"time":3,"transit":false,"is_transit":false,"station_name":"Cawang","i_lat":-6.242512,"station_id":"CW"},{"i_lat":-6.226659,"station_name":"Tebet","time":2,"distance":1230,"is_transit":false,"transit":false,"i_long":106.857948,"line":2,"station_id":"TEB"},{"station_id":"MRI","time":4,"station_name":"Manggarai","transit":true,"i_lat":-6.209883,"line":0,"is_transit":true,"distance":2610,"i_long":106.84912},{"transit":false,"is_transit":false,"line":1,"distance":3186,"i_lat":-6.202263,"station_id":"SUD","station_name":"Sudirman","i_long":106.822649,"time":4},{"time":1,"line":1,"is_transit":false,"transit":false,"distance":280,"i_long":106.819881,"station_name":"Sudirman Baru","station_id":"SUDB","i_lat":-6.201433},{"station_id":"KAT","is_transit":false,"time":1,"distance":471,"transit":false,"i_lat":-6.20132,"station_name":"Karet","i_long":106.816351,"line":1},{"is_transit":true,"station_name":"Tanah Abang","line":1,"distance":2029,"station_id":"THB","transit":true,"time":5,"i_lat":-6.185545,"i_long":106.811091},{"is_transit":false,"line":6,"station_name":"Palmerah","time":6,"i_lat":-6.207404,"distance":3191,"i_long":106.79689,"station_id":"PLM","transit":false},{"transit":false,"i_lat":-6.237242,"station_name":"Kebayoran","line":6,"is_transit":false,"time":7,"distance":3737,"i_long":106.780334,"station_id":"KBY"},{"i_lat":-6.276362,"time":8,"station_id":"PDJ","distance":6218,"transit":false,"is_transit":false,"i_long":106.74273,"station_name":"Pondokranji","line":6},{"line":6,"time":3,"transit":false,"i_lat":-6.288927,"station_name":"Jurangmangu","is_transit":false,"i_long":106.728916,"station_id":"JMU","distance":2179},{"line":6,"time":4,"station_id":"SDM","transit":false,"i_lat":-6.296963,"i_long":106.712277,"station_name":"Sudimara","is_transit":false,"distance":1994},{"station_id":"RU","distance":4566,"station_name":"Rawa Buntu","line":6,"is_transit":false,"i_long":106.675475,"i_lat":-6.314823,"time":6,"transit":false},{"station_name":"Serpong","time":4,"transit":false,"i_long":106.66566,"i_lat":-6.319871,"is_transit":false,"distance":2413,"line":6,"station_id":"SRP"},{"transit":false,"time":4,"i_lat":-6.32484,"station_id":"CSK","i_long":106.640411,"station_name":"Cisauk","line":0,"distance":1784,"is_transit":false},{"time":4,"line":0,"station_id":"CC","i_long":106.617853,"transit":false,"distance":2519,"station_name":"Cicayur","i_lat":-6.329547,"is_transit":false},{"i_long":106.568863,"station_name":"Parung Panjang","transit":false,"station_id":"PRP","distance":5968,"line":6,"i_lat":-6.3441410000000005,"is_transit":false,"time":8},{"station_name":"Cilejit","i_lat":-6.354349,"line":0,"station_id":"CJT","time":9,"transit":false,"distance":7025,"is_transit":false,"i_long":106.508482},{"transit":false,"station_id":"DAR","distance":2675,"is_transit":false,"i_lat":-6.338021,"i_long":106.491338,"time":6,"line":0,"station_name":"Daru"}],[{"is_transit":false,"station_name":"Duren Kalibata","i_lat":-6.255332,"distance":0,"line":0,"time":0,"transit":false,"station_id":"DRN","i_long":106.85449},{"i_long":106.856607,"transit":false,"station_name":"Cawang","line":0,"distance":1546,"i_lat":-6.242512,"station_id":"CW","is_transit":false,"time":3},{"time":2,"station_id":"TEB","transit":false,"line":2,"is_transit":false,"distance":1230,"i_lat":-6.226659,"i_long":106.857948,"station_name":"Tebet"},{"station_name":"Manggarai","i_long":106.84912,"i_lat":-6.209883,"line":0,"transit":true,"station_id":"MRI","distance":2610,"is_transit":true,"time":4},{"distance":1590,"is_transit":false,"station_id":"CKI","station_name":"Cikini","transit":false,"i_lat":-6.198556,"time":4,"i_long":106.840169,"line":0},{"is_transit":false,"station_name":"Gondangdia","transit":false,"i_lat":-6.186295,"time":3,"i_long":106.832183,"line":2,"distance":1750,"station_id":"GDD"},{"is_transit":false,"transit":false,"i_lat":-6.166716,"i_long":106.828284,"time":4,"line":2,"station_name":"Juanda","distance":2015,"station_id":"JUA"},{"i_long":106.827103,"time":2,"station_name":"Sawah Besar","station_id":"SW","transit":false,"distance":1149,"i_lat":-6.160725,"is_transit":false,"line":2},{"station_id":"MGB","line":2,"i_long":106.82482,"transit":false,"station_name":"Manggabesar","is_transit":false,"i_lat":-6.149769,"time":2,"distance":906},{"distance":1080,"line":7,"i_lat":-6.141205,"transit":false,"station_name":"Jayakarta","station_id":"JAY","i_long":106.820901,"is_transit":false,"time":2},{"i_long":106.812439,"transit":true,"line":0,"time":4,"i_lat":-6.137569,"station_id":"JAKK","distance":1264,"station_name":"Jakarta Kota","is_transit":true},{"i_lat":-6.132549,"transit":false,"time":3,"station_name":"Kampung Bandan","i_long":106.826365,"distance":1364,"is_transit":true,"line":0,"station_id":"KPB"},{"is_transit":false,"time":9,"transit":false,"line":0,"i_lat":-6.144674,"station_id":"AK","i_long":106.79867,"distance":4102,"station_name":"Angke"},{"station_name":"Duri","i_long":106.800832,"i_lat":-6.155215,"is_transit":true,"time":4,"transit":true,"station_id":"DU","distance":1230,"line":1},{"i_long":106.811091,"line":1,"is_transit":true,"station_id":"THB","distance":3632,"time":8,"station_name":"Tanah Abang","transit":true,"i_lat":-6.185545},{"station_name":"Palmerah","i_lat":-6.207404,"distance":3191,"station_id":"PLM","time":6,"line":6,"transit":false,"is_transit":false,"i_long":106.79689},{"transit":false,"time":7,"station_id":"KBY","i_lat":-6.237242,"is_transit":false,"i_long":106.780334,"station_name":"Kebayoran","line":6,"distance":3737},{"time":8,"i_lat":-6.276362,"line":6,"distance":6218,"station_name":"Pondokranji","transit":false,"station_id":"PDJ","i_long":106.74273,"is_transit":false},{"station_id":"JMU","is_transit":false,"station_name":"Jurangmangu","transit":false,"distance":2179,"time":3,"i_long":106.728916,"line":6,"i_lat":-6.288927},{"i_lat":-6.296963,"line":6,"i_long":106.712277,"station_id":"SDM","time":4,"station_name":"Sudimara","distance":1994,"transit":false,"is_transit":false},{"station_name":"Rawa Buntu","transit":false,"line":6,"i_long":106.675475,"i_lat":-6.314823,"distance":4566,"station_id":"RU","is_transit":false,"time":6},{"station_name":"Serpong","i_long":106.66566,"station_id":"SRP","is_transit":false,"time":4,"i_lat":-6.319871,"line":6,"distance":2413,"transit":false},{"i_long":106.640411,"distance":1784,"station_name":"Cisauk","transit":false,"i_lat":-6.32484,"time":4,"line":0,"is_transit":false,"station_id":"CSK"},{"line":0,"station_id":"CC","i_long":106.617853,"distance":2519,"is_transit":false,"transit":false,"i_lat":-6.329547,"time":4,"station_name":"Cicayur"},{"line":6,"transit":false,"i_long":106.568863,"station_id":"PRP","i_lat":-6.3441410000000005,"distance":5968,"is_transit":false,"time":8,"station_name":"Parung Panjang"},{"station_id":"CJT","station_name":"Cilejit","is_transit":false,"transit":false,"line":0,"i_lat":-6.354349,"i_long":106.508482,"time":9,"distance":7025},{"i_long":106.491338,"station_id":"DAR","i_lat":-6.338021,"distance":2675,"is_transit":false,"transit":false,"time":6,"line":0,"station_name":"Daru"}],[{"i_lat":-6.255332,"station_name":"Duren Kalibata","is_transit":false,"i_long":106.85449,"distance":0,"station_id":"DRN","time":0,"transit":false,"line":0},{"station_id":"CW","line":0,"i_long":106.856607,"transit":false,"time":3,"distance":1546,"station_name":"Cawang","i_lat":-6.242512,"is_transit":false},{"station_name":"Tebet","station_id":"TEB","transit":false,"i_lat":-6.226659,"is_transit":false,"line":2,"time":2,"distance":1230,"i_long":106.857948},{"distance":2610,"line":0,"transit":true,"i_lat":-6.209883,"time":4,"i_long":106.84912,"is_transit":true,"station_id":"MRI","station_name":"Manggarai"},{"transit":false,"time":2,"line":1,"station_name":"Matraman","station_id":"MTR","i_long":106.858896,"i_lat":-6.212485,"distance":1275,"is_transit":false},{"station_id":"JNG","is_transit":true,"line":0,"station_name":"Jatinegara","time":8,"i_lat":-6.215091,"i_long":106.86807400000001,"distance":1377,"transit":true},{"i_long":106.861737,"station_name":"Pondok Jati","is_transit":false,"line":11,"distance":1236,"station_id":"POK","transit":false,"time":2,"i_lat":-6.209188},{"distance":1829,"transit":false,"station_name":"Kramat","station_id":"KMT","is_transit":false,"i_long":106.855437,"time":2,"line":11,"i_lat":-6.193792},{"is_transit":false,"time":1,"transit":false,"line":11,"distance":973,"i_lat":-6.185975,"station_id":"GST","station_name":"Gang Sentiong","i_long":106.850107},{"is_transit":false,"i_long":106.84368,"i_lat":-6.174784,"time":8,"distance":1567,"transit":false,"line":11,"station_name":"Pasar Senen","station_id":"PSE"},{"station_id":"KMO","time":4,"distance":1436,"line":11,"i_long":106.839204,"is_transit":false,"station_name":"Kemayoran","i_lat":-6.161728,"transit":false},{"distance":1901,"time":5,"station_name":"Rajawali","i_lat":-6.14505,"station_id":"RJW","transit":false,"line":11,"is_transit":false,"i_long":106.836569},{"station_id":"KPB","is_transit":true,"transit":true,"line":0,"i_lat":-6.132549,"distance":1444,"station_name":"Kampung Bandan","time":3,"i_long":106.826365},{"is_transit":false,"distance":4102,"time":9,"i_lat":-6.144674,"station_id":"AK","transit":false,"line":0,"i_long":106.79867,"station_name":"Angke"},{"station_name":"Duri","is_transit":true,"station_id":"DU","distance":1230,"i_long":106.800832,"time":4,"i_lat":-6.155215,"line":1,"transit":true},{"transit":true,"line":1,"is_transit":true,"distance":3632,"time":8,"station_name":"Tanah Abang","i_long":106.811091,"station_id":"THB","i_lat":-6.185545},{"i_lat":-6.207404,"transit":false,"distance":3191,"station_name":"Palmerah","i_long":106.79689,"line":6,"time":6,"is_transit":false,"station_id":"PLM"},{"is_transit":false,"station_id":"KBY","i_lat":-6.237242,"line":6,"time":7,"station_name":"Kebayoran","transit":false,"distance":3737,"i_long":106.780334},{"time":8,"distance":6218,"i_long":106.74273,"i_lat":-6.276362,"is_transit":false,"line":6,"station_id":"PDJ","station_name":"Pondokranji","transit":false},{"distance":2179,"station_name":"Jurangmangu","i_lat":-6.288927,"is_transit":false,"time":3,"transit":false,"i_long":106.728916,"line":6,"station_id":"JMU"},{"station_id":"SDM","line":6,"time":4,"distance":1994,"station_name":"Sudimara","transit":false,"i_lat":-6.296963,"is_transit":false,"i_long":106.712277},{"is_transit":false,"i_long":106.675475,"i_lat":-6.314823,"transit":false,"station_name":"Rawa Buntu","line":6,"station_id":"RU","time":6,"distance":4566},{"i_lat":-6.319871,"station_id":"SRP","is_transit":false,"station_name":"Serpong","line":6,"transit":false,"distance":2413,"i_long":106.66566,"time":4},{"station_id":"CSK","transit":false,"time":4,"distance":1784,"i_long":106.640411,"is_transit":false,"i_lat":-6.32484,"station_name":"Cisauk","line":0},{"time":4,"i_long":106.617853,"i_lat":-6.329547,"station_name":"Cicayur","transit":false,"line":0,"station_id":"CC","distance":2519,"is_transit":false},{"time":8,"station_id":"PRP","distance":5968,"station_name":"Parung Panjang","i_lat":-6.3441410000000005,"i_long":106.568863,"is_transit":false,"transit":false,"line":6},{"is_transit":false,"station_name":"Cilejit","transit":false,"line":0,"i_long":106.508482,"time":9,"i_lat":-6.354349,"station_id":"CJT","distance":7025},{"is_transit":false,"station_name":"Daru","transit":false,"i_lat":-6.338021,"i_long":106.491338,"line":0,"station_id":"DAR","time":6,"distance":2675}]]}