{"data":[[{"is_transit":false,"i_long":106.85449,"line":2,"distance":0,"station_name":"Duren Kalibata","i_lat":-6.255332,"transit":false,"time":0,"station_id":"DRN"},{"line":2,"station_name":"Pasar Minggu Baru","time":2,"distance":824,"i_lat":-6.263214,"transit":false,"is_transit":false,"station_id":"PSMB","i_long":106.851577},{"is_transit":false,"station_id":"PSM","time":2,"line":2,"i_lat":-6.2842400000000005,"transit":false,"i_long":106.843999,"station_name":"Pasar Minggu","distance":2380},{"is_transit":false,"station_id":"TNT","transit":false,"distance":2820,"i_lat":-6.3080680000000005,"time":4,"station_name":"Tanjung Barat","i_long":106.838896,"line":2},{"transit":false,"i_long":106.832616,"time":3,"distance":2671,"station_id":"LNA","station_name":"Lenteng Agung","i_lat":-6.330363,"line":2,"is_transit":false},{"is_transit":false,"transit":false,"i_lat":-6.339291,"distance":1029,"line":2,"station_id":"UP","station_name":"Univ. Pancasila","time":2,"i_long":106.834175},{"is_transit":false,"distance":2264,"transit":false,"line":2,"i_lat":-6.360749,"i_long":106.831474,"station_name":"Univ. Indonesia","time":3,"station_id":"UI"},{"line":2,"station_id":"POC","station_name":"Pondok Cina","distance":1109,"transit":false,"is_transit":false,"time":2,"i_long":106.831114,"i_lat":-6.369073},{"i_lat":-6.391065,"distance":2727,"station_name":"Depokbaru","is_transit":false,"transit":false,"line":2,"time":4,"i_long":106.819451,"station_id":"DPB"},{"station_name":"Depok","time":3,"is_transit":false,"line":2,"i_long":106.816926,"i_lat":-6.405256,"distance":1584,"station_id":"DP","transit":false},{"distance":5084,"station_id":"CTA","station_name":"Citayam","time":6,"line":2,"is_transit":true,"transit":true,"i_long":106.800298,"i_lat":-6.448811},{"station_name":"Pondok Rajeg","transit":false,"line":21,"i_lat":-6.460735,"i_long":106.824374,"station_id":"PDRG","time":0,"distance":0,"is_transit":false}]]}