{"data":[[{"transit":false,"distance":0,"station_name":"Duren Kalibata","i_long":106.85449,"line":0,"time":0,"i_lat":-6.255332,"is_transit":false,"station_id":"DRN"},{"station_id":"CW","distance":1546,"station_name":"Cawang","time":3,"transit":false,"i_long":106.856607,"i_lat":-6.242512,"is_transit":false,"line":0},{"distance":1230,"i_lat":-6.226659,"station_name":"Tebet","time":2,"line":2,"is_transit":false,"station_id":"TEB","transit":false,"i_long":106.857948},{"transit":true,"station_name":"Manggarai","time":4,"is_transit":true,"line":0,"i_long":106.84912,"station_id":"MRI","i_lat":-6.209883,"distance":2610},{"station_name":"Sudirman","i_lat":-6.202263,"distance":3186,"transit":false,"i_long":106.822649,"line":1,"is_transit":false,"station_id":"SUD","time":4},{"line":1,"distance":280,"i_long":106.819881,"is_transit":false,"station_name":"Sudirman Baru","station_id":"SUDB","transit":false,"time":1,"i_lat":-6.201433},{"i_long":106.816351,"distance":471,"time":1,"i_lat":-6.20132,"station_id":"KAT","is_transit":false,"station_name":"Karet","transit":false,"line":1},{"distance":2029,"line":1,"transit":false,"i_lat":-6.185545,"is_transit":true,"time":5,"station_name":"Tanah Abang","station_id":"THB","i_long":106.811091},{"station_name":"Duri","i_lat":-6.155215,"distance":3632,"i_long":106.800832,"is_transit":true,"time":8,"transit":true,"line":1,"station_id":"DU"},{"station_name":"Grogol","is_transit":false,"time":3,"transit":false,"i_lat":-6.162021,"line":5,"distance":1700,"i_long":106.788277,"station_id":"GGL"},{"station_name":"Pesing","time":2,"is_transit":false,"station_id":"PSG","distance":2036,"i_long":106.771379,"transit":false,"line":5,"i_lat":-6.161433},{"line":5,"i_long":106.756522,"transit":false,"time":2,"distance":1614,"i_lat":-6.1587309999999995,"is_transit":false,"station_id":"TKO","station_name":"Taman Kota"},{"line":0,"is_transit":false,"i_lat":-6.159876,"time":2,"station_name":"Bojongindah","station_id":"BOI","transit":false,"i_long":106.737035,"distance":2334},{"time":4,"is_transit":false,"line":5,"distance":1152,"station_id":"RW","station_name":"Rawa Buaya","i_lat":-6.162758,"transit":false,"i_long":106.723064},{"station_id":"KDS","station_name":"Kalideres","line":5,"distance":2504,"i_lat":-6.166068,"i_long":106.701612,"time":3,"is_transit":false,"transit":false}],[{"i_lat":-6.255332,"time":0,"station_id":"DRN","i_long":106.85449,"is_transit":false,"distance":0,"station_name":"Duren Kalibata","transit":false,"line":0},{"i_long":106.856607,"i_lat":-6.242512,"is_transit":false,"time":3,"station_id":"CW","distance":1546,"station_name":"Cawang","transit":false,"line":0},{"is_transit":false,"station_name":"Tebet","station_id":"TEB","transit":false,"time":2,"distance":1230,"line":2,"i_long":106.857948,"i_lat":-6.226659},{"time":4,"distance":2610,"i_long":106.84912,"line":0,"transit":true,"station_id":"MRI","station_name":"Manggarai","i_lat":-6.209883,"is_transit":true},{"time":4,"i_long":106.840169,"line":0,"station_id":"CKI","is_transit":false,"distance":1590,"station_name":"Cikini","i_lat":-6.198556,"transit":false},{"is_transit":false,"station_id":"GDD","time":3,"i_long":106.832183,"station_name":"Gondangdia","line":2,"distance":1750,"transit":false,"i_lat":-6.186295},{"station_id":"JUA","distance":2015,"transit":false,"i_long":106.828284,"line":2,"time":4,"station_name":"Juanda","is_transit":false,"i_lat":-6.166716},{"transit":false,"i_long":106.827103,"is_transit":false,"station_id":"SW","time":2,"distance":1149,"station_name":"Sawah Besar","line":2,"i_lat":-6.160725},{"time":2,"transit":false,"station_name":"Manggabesar","station_id":"MGB","is_transit":false,"distance":906,"i_lat":-6.149769,"i_long":106.82482,"line":2},{"time":2,"transit":false,"i_long":106.820901,"station_name":"Jayakarta","station_id":"JAY","distance":1080,"line":7,"is_transit":false,"i_lat":-6.141205},{"is_transit":true,"time":4,"distance":1264,"transit":true,"i_lat":-6.137569,"line":0,"station_name":"Jakarta Kota","station_id":"JAKK","i_long":106.812439},{"time":3,"transit":false,"station_id":"KPB","is_transit":true,"i_long":106.826365,"line":0,"i_lat":-6.132549,"station_name":"Kampung Bandan","distance":1364},{"i_long":106.79867,"line":0,"station_name":"Angke","is_transit":false,"distance":4102,"time":9,"i_lat":-6.144674,"station_id":"AK","transit":false},{"distance":1230,"transit":true,"station_name":"Duri","i_long":106.800832,"station_id":"DU","is_transit":true,"time":4,"line":1,"i_lat":-6.155215},{"i_lat":-6.162021,"station_id":"GGL","is_transit":false,"distance":1700,"time":3,"transit":false,"station_name":"Grogol","i_long":106.788277,"line":5},{"station_id":"PSG","time":2,"station_name":"Pesing","i_long":106.771379,"transit":false,"line":5,"i_lat":-6.161433,"distance":2036,"is_transit":false},{"time":2,"distance":1614,"is_transit":false,"transit":false,"i_lat":-6.1587309999999995,"station_name":"Taman Kota","i_long":106.756522,"line":5,"station_id":"TKO"},{"i_lat":-6.159876,"transit":false,"line":0,"station_id":"BOI","time":2,"distance":2334,"station_name":"Bojongindah","i_long":106.737035,"is_transit":false},{"i_lat":-6.162758,"transit":false,"line":5,"station_name":"Rawa Buaya","i_long":106.723064,"station_id":"RW","is_transit":false,"time":4,"distance":1152},{"transit":false,"is_transit":false,"distance":2504,"time":3,"i_long":106.701612,"station_name":"Kalideres","station_id":"KDS","i_lat":-6.166068,"line":5}],[{"i_long":106.85449,"i_lat":-6.255332,"distance":0,"line":0,"time":0,"is_transit":false,"transit":false,"station_id":"DRN","station_name":"Duren Kalibata"},{"i_lat":-6.242512,"i_long":106.856607,"line":0,"transit":false,"station_id":"CW","station_name":"Cawang","time":3,"distance":1546,"is_transit":false},{"line":2,"i_long":106.857948,"station_id":"TEB","i_lat":-6.226659,"is_transit":false,"transit":false,"distance":1230,"time":2,"station_name":"Tebet"},{"distance":2610,"i_lat":-6.209883,"i_long":106.84912,"station_id":"MRI","is_transit":true,"transit":true,"station_name":"Manggarai","line":0,"time":4},{"station_id":"MTR","time":2,"station_name":"Matraman","i_long":106.858896,"distance":1275,"transit":false,"is_transit":false,"i_lat":-6.212485,"line":1},{"is_transit":true,"line":0,"time":8,"distance":1377,"i_lat":-6.215091,"station_name":"Jatinegara","transit":true,"i_long":106.86807400000001,"station_id":"JNG"},{"station_id":"POK","transit":false,"time":2,"distance":1236,"station_name":"Pondok Jati","i_lat":-6.209188,"is_transit":false,"i_long":106.861737,"line":11},{"transit":false,"station_name":"Kramat","is_transit":false,"distance":1829,"station_id":"KMT","time":2,"line":11,"i_lat":-6.193792,"i_long":106.855437},{"i_long":106.850107,"line":11,"distance":973,"time":1,"transit":false,"station_id":"GST","i_lat":-6.185975,"is_transit":false,"station_name":"Gang Sentiong"},{"transit":false,"line":11,"station_id":"PSE","time":8,"is_transit":false,"distance":1567,"i_long":106.84368,"station_name":"Pasar Senen","i_lat":-6.174784},{"transit":false,"is_transit":false,"time":4,"i_lat":-6.161728,"i_long":106.839204,"distance":1436,"station_name":"Kemayoran","line":11,"station_id":"KMO"},{"is_transit":false,"line":11,"distance":1901,"i_long":106.836569,"time":5,"station_id":"RJW","station_name":"Rajawali","transit":false,"i_lat":-6.14505},{"station_name":"Kampung Bandan","time":3,"station_id":"KPB","line":0,"i_long":106.826365,"distance":1444,"i_lat":-6.132549,"is_transit":true,"transit":true},{"i_long":106.79867,"station_name":"Angke","line":0,"transit":false,"time":9,"station_id":"AK","is_transit":false,"i_lat":-6.144674,"distance":4102},{"transit":true,"i_lat":-6.155215,"is_transit":true,"station_name":"Duri","station_id":"DU","distance":1230,"line":1,"i_long":106.800832,"time":4},{"distance":1700,"time":3,"transit":false,"i_lat":-6.162021,"is_transit":false,"station_id":"GGL","i_long":106.788277,"line":5,"station_name":"Grogol"},{"transit":false,"i_long":106.771379,"time":2,"line":5,"is_transit":false,"station_id":"PSG","distance":2036,"i_lat":-6.161433,"station_name":"Pesing"},{"station_id":"TKO","distance":1614,"station_name":"Taman Kota","i_long":106.756522,"line":5,"is_transit":false,"time":2,"transit":false,"i_lat":-6.1587309999999995},{"time":2,"i_long":106.737035,"station_id":"BOI","line":0,"station_name":"Bojongindah","transit":false,"i_lat":-6.159876,"is_transit":false,"distance":2334},{"station_name":"Rawa Buaya","transit":false,"distance":1152,"is_transit":false,"line":5,"i_long":106.723064,"i_lat":-6.162758,"station_id":"RW","time":4},{"station_id":"KDS","is_transit":false,"i_lat":-6.166068,"line":5,"transit":false,"distance":2504,"time":3,"station_name":"Kalideres","i_long":106.701612}]]}