{"data":[[{"line":2,"station_id":"DRN","i_lat":-6.255332,"time":0,"distance":0,"transit":false,"station_name":"Duren Kalibata","is_transit":false,"i_long":106.85449},{"station_name":"Cawang","is_transit":false,"i_lat":-6.242512,"transit":false,"station_id":"CW","line":2,"distance":1546,"i_long":106.856607,"time":3},{"transit":false,"station_id":"TEB","station_name":"Tebet","distance":1230,"i_long":106.857948,"is_transit":false,"time":2,"line":2,"i_lat":-6.226659},{"station_id":"MRI","time":4,"transit":true,"distance":2610,"line":2,"station_name":"Manggarai","i_lat":-6.209883,"is_transit":true,"i_long":106.84912},{"line":1,"time":2,"station_id":"MTR","station_name":"Matraman","is_transit":false,"transit":false,"i_lat":-6.212485,"distance":1275,"i_long":106.858896},{"i_lat":-6.215091,"line":1,"time":8,"station_id":"JNG","transit":true,"station_name":"Jatinegara","distance":1377,"i_long":106.86807400000001,"is_transit":true},{"transit":false,"time":2,"distance":1236,"i_long":106.861737,"station_id":"POK","i_lat":-6.209188,"is_transit":false,"station_name":"Pondok Jati","line":11},{"time":2,"transit":false,"is_transit":false,"distance":1829,"i_long":106.855437,"station_name":"Kramat","line":11,"i_lat":-6.193792,"station_id":"KMT"},{"distance":973,"i_lat":-6.185975,"transit":false,"time":1,"station_id":"GST","line":11,"station_name":"Gang Sentiong","is_transit":false,"i_long":106.850107},{"station_name":"Pasar Senen","station_id":"PSE","i_long":106.84368,"distance":1567,"line":11,"transit":false,"is_transit":false,"i_lat":-6.174784,"time":8}],[{"i_long":106.85449,"station_id":"DRN","i_lat":-6.255332,"station_name":"Duren Kalibata","transit":false,"distance":0,"is_transit":false,"line":2,"time":0},{"distance":1546,"station_name":"Cawang","line":2,"i_long":106.856607,"station_id":"CW","i_lat":-6.242512,"transit":false,"is_transit":false,"time":3},{"transit":false,"station_name":"Tebet","i_lat":-6.226659,"distance":1230,"time":2,"i_long":106.857948,"station_id":"TEB","line":2,"is_transit":false},{"station_name":"Manggarai","station_id":"MRI","time":4,"i_lat":-6.209883,"distance":2610,"i_long":106.84912,"line":2,"is_transit":true,"transit":true},{"station_name":"Sudirman","i_long":106.822649,"line":1,"station_id":"SUD","transit":false,"distance":3186,"time":4,"is_transit":false,"i_lat":-6.202263},{"time":1,"i_long":106.819881,"transit":false,"station_name":"Sudirman Baru","station_id":"SUDB","is_transit":false,"i_lat":-6.201433,"line":1,"distance":280},{"transit":false,"i_long":106.816351,"station_id":"KAT","is_transit":false,"line":1,"station_name":"Karet","distance":471,"time":1,"i_lat":-6.20132},{"station_id":"THB","station_name":"Tanah Abang","is_transit":false,"transit":false,"time":5,"i_long":106.811091,"i_lat":-6.185545,"line":1,"distance":2029},{"line":1,"transit":false,"station_id":"DU","distance":3632,"i_lat":-6.155215,"i_long":106.800832,"station_name":"Duri","time":8,"is_transit":false},{"is_transit":false,"station_name":"Angke","transit":false,"station_id":"AK","time":4,"i_long":106.79867,"line":1,"i_lat":-6.144674,"distance":1230},{"i_long":106.826365,"line":4,"time":9,"distance":4102,"i_lat":-6.132549,"station_name":"Kampung Bandan","transit":true,"is_transit":true,"station_id":"KPB"},{"station_name":"Rajawali","time":3,"station_id":"RJW","i_lat":-6.14505,"i_long":106.836569,"line":11,"is_transit":false,"distance":1444,"transit":false},{"i_long":106.839204,"transit":false,"is_transit":false,"station_id":"KMO","i_lat":-6.161728,"line":11,"station_name":"Kemayoran","time":5,"distance":1901},{"i_lat":-6.174784,"transit":false,"i_long":106.84368,"station_name":"Pasar Senen","station_id":"PSE","is_transit":false,"line":11,"distance":1436,"time":4}],[{"station_id":"DRN","i_long":106.85449,"time":0,"line":2,"station_name":"Duren Kalibata","i_lat":-6.255332,"transit":false,"distance":0,"is_transit":false},{"time":3,"is_transit":false,"station_name":"Cawang","i_lat":-6.242512,"transit":false,"station_id":"CW","distance":1546,"i_long":106.856607,"line":2},{"is_transit":false,"line":2,"distance":1230,"time":2,"i_long":106.857948,"station_id":"TEB","i_lat":-6.226659,"transit":false,"station_name":"Tebet"},{"i_lat":-6.209883,"station_id":"MRI","distance":2610,"time":4,"is_transit":false,"transit":false,"line":2,"i_long":106.84912,"station_name":"Manggarai"},{"time":4,"i_lat":-6.198556,"i_long":106.840169,"line":2,"transit":false,"station_name":"Cikini","station_id":"CKI","distance":1590,"is_transit":false},{"line":2,"distance":1750,"i_lat":-6.186295,"transit":false,"station_name":"Gondangdia","i_long":106.832183,"time":3,"station_id":"GDD","is_transit":false},{"time":4,"transit":false,"distance":2015,"i_lat":-6.166716,"is_transit":false,"line":2,"station_name":"Juanda","station_id":"JUA","i_long":106.828284},{"station_id":"SW","distance":1149,"time":2,"line":2,"i_lat":-6.160725,"transit":false,"is_transit":false,"station_name":"Sawah Besar","i_long":106.827103},{"line":2,"is_transit":false,"i_long":106.82482,"transit":false,"station_id":"MGB","station_name":"Manggabesar","time":2,"distance":906,"i_lat":-6.149769},{"transit":false,"is_transit":false,"line":2,"station_name":"Jayakarta","distance":1080,"i_lat":-6.141205,"time":2,"station_id":"JAY","i_long":106.820901},{"i_lat":-6.137569,"is_transit":true,"time":4,"distance":1264,"transit":true,"station_name":"Jakarta Kota","station_id":"JAKK","i_long":106.812439,"line":2},{"i_long":106.826365,"is_transit":true,"line":4,"distance":1364,"station_name":"Kampung Bandan","station_id":"KPB","time":3,"transit":true,"i_lat":-6.132549},{"line":11,"is_transit":false,"station_id":"RJW","transit":false,"time":3,"i_lat":-6.14505,"i_long":106.836569,"distance":1444,"station_name":"Rajawali"},{"i_lat":-6.161728,"is_transit":false,"transit":false,"station_id":"KMO","time":5,"distance":1901,"station_name":"Kemayoran","i_long":106.839204,"line":11},{"i_long":106.84368,"station_name":"Pasar Senen","station_id":"PSE","distance":1436,"i_lat":-6.174784,"transit":false,"line":11,"is_transit":false,"time":4}]]}