{"data":[[{"time":0,"line":2,"station_id":"DRN","distance":0,"i_long":106.85449,"i_lat":-6.255332,"station_name":"Duren Kalibata","is_transit":false,"transit":false},{"time":3,"station_name":"Cawang","station_id":"CW","distance":1546,"i_lat":-6.242512,"transit":false,"is_transit":false,"line":2,"i_long":106.856607},{"time":2,"station_id":"TEB","station_name":"Tebet","distance":1230,"i_lat":-6.226659,"transit":false,"is_transit":false,"i_long":106.857948,"line":2},{"transit":true,"i_long":106.84912,"distance":2610,"station_name":"Manggarai","station_id":"MRI","time":4,"line":2,"is_transit":true,"i_lat":-6.209883},{"line":1,"station_id":"MTR","distance":1275,"transit":false,"time":2,"station_name":"Matraman","is_transit":false,"i_lat":-6.212485,"i_long":106.858896},{"distance":1377,"transit":false,"line":1,"i_long":106.86807400000001,"station_name":"Jatinegara","i_lat":-6.215091,"station_id":"JNG","is_transit":false,"time":8},{"is_transit":false,"time":3,"distance":3395,"station_id":"KLD","i_lat":-6.2135,"i_long":106.899548,"station_name":"Klender","line":1,"transit":false},{"station_id":"BUA","distance":3100,"station_name":"Buaran","is_transit":false,"transit":false,"i_lat":-6.215568,"line":1,"time":2,"i_long":106.922662},{"station_id":"KLDB","transit":false,"station_name":"Klenderbaru","i_lat":-6.217455,"i_long":106.939679,"distance":1305,"time":1,"is_transit":false,"line":1},{"is_transit":false,"i_long":106.951283,"station_name":"Cakung","transit":false,"station_id":"CUK","distance":1385,"line":1,"i_lat":-6.219053,"time":8}],[{"i_lat":-6.255332,"is_transit":false,"i_long":106.85449,"station_id":"DRN","transit":false,"distance":0,"station_name":"Duren Kalibata","line":2,"time":0},{"station_name":"Cawang","station_id":"CW","transit":false,"is_transit":false,"i_long":106.856607,"time":3,"distance":1546,"i_lat":-6.242512,"line":2},{"station_id":"TEB","transit":false,"distance":1230,"is_transit":false,"time":2,"i_lat":-6.226659,"station_name":"Tebet","i_long":106.857948,"line":2},{"transit":true,"station_name":"Manggarai","time":4,"station_id":"MRI","i_lat":-6.209883,"i_long":106.84912,"distance":2610,"line":2,"is_transit":true},{"line":1,"distance":3186,"is_transit":false,"time":4,"station_id":"SUD","i_lat":-6.202263,"station_name":"Sudirman","transit":false,"i_long":106.822649},{"transit":false,"distance":280,"line":1,"i_lat":-6.201433,"station_name":"Sudirman Baru","i_long":106.819881,"station_id":"SUDB","time":1,"is_transit":false},{"line":1,"transit":false,"time":1,"distance":471,"station_id":"KAT","station_name":"Karet","i_lat":-6.20132,"i_long":106.816351,"is_transit":false},{"transit":false,"station_id":"THB","distance":2029,"i_lat":-6.185545,"i_long":106.811091,"time":5,"station_name":"Tanah Abang","is_transit":false,"line":1},{"line":1,"distance":3632,"station_name":"Duri","is_transit":false,"i_lat":-6.155215,"transit":false,"time":8,"station_id":"DU","i_long":106.800832},{"line":1,"station_id":"AK","distance":1230,"transit":false,"station_name":"Angke","time":4,"is_transit":false,"i_long":106.79867,"i_lat":-6.144674},{"station_name":"Kampung Bandan","line":4,"transit":true,"time":9,"is_transit":true,"i_long":106.826365,"i_lat":-6.132549,"distance":4102,"station_id":"KPB"},{"time":3,"i_lat":-6.14505,"station_name":"Rajawali","station_id":"RJW","line":11,"distance":1444,"i_long":106.836569,"transit":false,"is_transit":false},{"i_lat":-6.161728,"station_id":"KMO","is_transit":false,"time":5,"station_name":"Kemayoran","distance":1901,"i_long":106.839204,"transit":false,"line":11},{"i_lat":-6.174784,"distance":1436,"transit":false,"i_long":106.84368,"station_id":"PSE","time":4,"line":11,"station_name":"Pasar Senen","is_transit":false},{"transit":false,"is_transit":false,"station_name":"Gang Sentiong","station_id":"GST","i_lat":-6.185975,"i_long":106.850107,"time":8,"line":11,"distance":1567},{"i_lat":-6.193792,"i_long":106.855437,"line":11,"transit":false,"is_transit":false,"time":1,"station_name":"Kramat","distance":973,"station_id":"KMT"},{"time":2,"i_long":106.861737,"transit":false,"station_name":"Pondok Jati","i_lat":-6.209188,"station_id":"POK","distance":1829,"line":11,"is_transit":false},{"station_name":"Jatinegara","station_id":"JNG","time":9,"distance":1236,"i_long":106.86807400000001,"transit":true,"line":1,"i_lat":-6.215091,"is_transit":true},{"i_long":106.899548,"line":1,"station_name":"Klender","i_lat":-6.2135,"is_transit":false,"transit":false,"station_id":"KLD","time":3,"distance":3395},{"line":1,"station_id":"BUA","time":2,"station_name":"Buaran","transit":false,"is_transit":false,"distance":3100,"i_lat":-6.215568,"i_long":106.922662},{"line":1,"time":1,"station_id":"KLDB","transit":false,"is_transit":false,"distance":1305,"i_lat":-6.217455,"station_name":"Klenderbaru","i_long":106.939679},{"i_lat":-6.219053,"station_name":"Cakung","time":8,"line":1,"is_transit":false,"station_id":"CUK","transit":false,"i_long":106.951283,"distance":1385}],[{"i_long":106.85449,"station_name":"Duren Kalibata","transit":false,"station_id":"DRN","is_transit":false,"distance":0,"time":0,"i_lat":-6.255332,"line":2},{"i_long":106.856607,"transit":false,"station_name":"Cawang","is_transit":false,"time":3,"distance":1546,"i_lat":-6.242512,"line":2,"station_id":"CW"},{"line":2,"station_name":"Tebet","distance":1230,"i_long":106.857948,"transit":false,"station_id":"TEB","is_transit":false,"time":2,"i_lat":-6.226659},{"is_transit":false,"station_id":"MRI","time":4,"station_name":"Manggarai","i_long":106.84912,"distance":2610,"line":2,"transit":false,"i_lat":-6.209883},{"i_lat":-6.198556,"line":2,"time":4,"station_id":"CKI","distance":1590,"transit":false,"i_long":106.840169,"station_name":"Cikini","is_transit":false},{"is_transit":false,"time":3,"station_name":"Gondangdia","line":2,"i_lat":-6.186295,"transit":false,"station_id":"GDD","i_long":106.832183,"distance":1750},{"i_long":106.828284,"transit":false,"is_transit":false,"distance":2015,"time":4,"i_lat":-6.166716,"line":2,"station_name":"Juanda","station_id":"JUA"},{"is_transit":false,"i_long":106.827103,"station_id":"SW","line":2,"i_lat":-6.160725,"time":2,"transit":false,"distance":1149,"station_name":"Sawah Besar"},{"i_long":106.82482,"transit":false,"is_transit":false,"station_name":"Manggabesar","time":2,"line":2,"i_lat":-6.149769,"station_id":"MGB","distance":906},{"line":2,"transit":false,"time":2,"distance":1080,"station_name":"Jayakarta","i_long":106.820901,"is_transit":false,"station_id":"JAY","i_lat":-6.141205},{"time":4,"station_name":"Jakarta Kota","is_transit":true,"distance":1264,"i_lat":-6.137569,"transit":true,"i_long":106.812439,"line":2,"station_id":"JAKK"},{"i_lat":-6.132549,"time":3,"i_long":106.826365,"station_name":"Kampung Bandan","line":4,"distance":1364,"station_id":"KPB","transit":true,"is_transit":true},{"time":3,"station_name":"Rajawali","i_lat":-6.14505,"transit":false,"is_transit":false,"line":11,"station_id":"RJW","i_long":106.836569,"distance":1444},{"station_id":"KMO","line":11,"transit":false,"distance":1901,"is_transit":false,"i_long":106.839204,"station_name":"Kemayoran","time":5,"i_lat":-6.161728},{"station_name":"Pasar Senen","time":4,"i_lat":-6.174784,"transit":false,"distance":1436,"is_transit":false,"station_id":"PSE","i_long":106.84368,"line":11},{"time":8,"distance":1567,"is_transit":false,"station_name":"Gang Sentiong","i_long":106.850107,"i_lat":-6.185975,"line":11,"station_id":"GST","transit":false},{"i_long":106.855437,"line":11,"station_name":"Kramat","distance":973,"transit":false,"is_transit":false,"time":1,"i_lat":-6.193792,"station_id":"KMT"},{"is_transit":false,"station_id":"POK","time":2,"i_lat":-6.209188,"line":11,"distance":1829,"station_name":"Pondok Jati","transit":false,"i_long":106.861737},{"station_id":"JNG","time":9,"transit":true,"distance":1236,"i_long":106.86807400000001,"station_name":"Jatinegara","line":1,"i_lat":-6.215091,"is_transit":true},{"distance":3395,"i_lat":-6.2135,"station_id":"KLD","time":3,"transit":false,"i_long":106.899548,"line":1,"station_name":"Klender","is_transit":false},{"is_transit":false,"station_name":"Buaran","station_id":"BUA","i_long":106.922662,"transit":false,"line":1,"distance":3100,"time":2,"i_lat":-6.215568},{"distance":1305,"i_lat":-6.217455,"line":1,"transit":false,"station_name":"Klenderbaru","station_id":"KLDB","is_transit":false,"time":1,"i_long":106.939679},{"station_name":"Cakung","is_transit":false,"transit":false,"station_id":"CUK","distance":1385,"i_lat":-6.219053,"i_long":106.951283,"line":1,"time":8}]]}