{"data":[[{"station_id":"DRN","station_name":"Duren Kalibata","transit":false,"distance":0,"is_transit":false,"time":0,"i_lat":-6.255332,"i_long":106.85449,"line":2},{"station_id":"CW","line":2,"station_name":"Cawang","distance":1546,"i_lat":-6.242512,"is_transit":false,"time":3,"i_long":106.856607,"transit":false},{"transit":false,"distance":1230,"i_lat":-6.226659,"i_long":106.857948,"time":2,"is_transit":false,"station_name":"Tebet","station_id":"TEB","line":2},{"i_lat":-6.209883,"station_name":"Manggarai","transit":true,"line":2,"is_transit":true,"station_id":"MRI","time":4,"distance":2610,"i_long":106.84912},{"station_name":"Sudirman","i_lat":-6.202263,"transit":false,"time":4,"is_transit":false,"distance":3186,"i_long":106.822649,"line":1,"station_id":"SUD"},{"is_transit":false,"station_name":"Sudirman Baru","i_long":106.819881,"distance":280,"transit":false,"line":1,"station_id":"SUDB","time":1,"i_lat":-6.201433},{"time":1,"transit":false,"station_id":"KAT","i_lat":-6.20132,"i_long":106.816351,"station_name":"Karet","distance":471,"line":1,"is_transit":false},{"station_id":"THB","line":1,"distance":2029,"i_lat":-6.185545,"transit":true,"station_name":"Tanah Abang","is_transit":true,"time":5,"i_long":106.811091},{"i_lat":-6.207404,"is_transit":false,"i_long":106.79689,"transit":false,"station_name":"Palmerah","station_id":"PLM","distance":3191,"time":6,"line":6},{"is_transit":false,"time":7,"station_id":"KBY","transit":false,"station_name":"Kebayoran","i_lat":-6.237242,"distance":3737,"line":6,"i_long":106.780334},{"distance":6218,"transit":false,"station_id":"PDJ","is_transit":false,"i_lat":-6.276362,"line":6,"station_name":"Pondokranji","time":8,"i_long":106.74273},{"i_long":106.728916,"is_transit":false,"transit":false,"line":6,"time":3,"station_name":"Jurangmangu","station_id":"JMU","distance":2179,"i_lat":-6.288927},{"i_lat":-6.296963,"i_long":106.712277,"line":6,"distance":1994,"station_id":"SDM","time":4,"is_transit":false,"transit":false,"station_name":"Sudimara"},{"i_lat":-6.314823,"station_id":"RU","transit":false,"distance":4566,"i_long":106.675475,"is_transit":false,"time":6,"line":6,"station_name":"Rawa Buntu"},{"time":4,"i_long":106.66566,"distance":2413,"line":6,"is_transit":false,"i_lat":-6.319871,"transit":false,"station_name":"Serpong","station_id":"SRP"},{"station_id":"CSK","transit":false,"station_name":"Cisauk","line":3,"time":4,"i_lat":-6.32484,"distance":1784,"i_long":106.640411,"is_transit":false}],[{"station_name":"Duren Kalibata","i_long":106.85449,"distance":0,"station_id":"DRN","time":0,"line":2,"is_transit":false,"i_lat":-6.255332,"transit":false},{"i_long":106.856607,"time":3,"line":2,"station_name":"Cawang","station_id":"CW","is_transit":false,"transit":false,"i_lat":-6.242512,"distance":1546},{"line":2,"transit":false,"i_lat":-6.226659,"time":2,"station_name":"Tebet","station_id":"TEB","distance":1230,"is_transit":false,"i_long":106.857948},{"time":4,"distance":2610,"transit":false,"i_lat":-6.209883,"line":2,"is_transit":false,"i_long":106.84912,"station_name":"Manggarai","station_id":"MRI"},{"transit":false,"distance":1590,"station_name":"Cikini","time":4,"i_lat":-6.198556,"is_transit":false,"station_id":"CKI","line":2,"i_long":106.840169},{"transit":false,"station_name":"Gondangdia","distance":1750,"i_lat":-6.186295,"time":3,"is_transit":false,"line":2,"i_long":106.832183,"station_id":"GDD"},{"station_name":"Juanda","transit":false,"i_long":106.828284,"is_transit":false,"station_id":"JUA","time":4,"distance":2015,"line":2,"i_lat":-6.166716},{"station_id":"SW","i_long":106.827103,"line":2,"transit":false,"time":2,"station_name":"Sawah Besar","i_lat":-6.160725,"distance":1149,"is_transit":false},{"is_transit":false,"i_lat":-6.149769,"i_long":106.82482,"station_name":"Manggabesar","time":2,"line":2,"station_id":"MGB","transit":false,"distance":906},{"station_name":"Jayakarta","time":2,"is_transit":false,"distance":1080,"i_lat":-6.141205,"line":2,"station_id":"JAY","i_long":106.820901,"transit":false},{"transit":true,"station_id":"JAKK","distance":1264,"i_long":106.812439,"time":4,"station_name":"Jakarta Kota","i_lat":-6.137569,"is_transit":true,"line":2},{"i_lat":-6.132549,"transit":true,"line":4,"is_transit":true,"distance":1364,"station_name":"Kampung Bandan","station_id":"KPB","i_long":106.826365,"time":3},{"line":1,"station_name":"Angke","station_id":"AK","distance":4102,"time":9,"i_long":106.79867,"is_transit":false,"i_lat":-6.144674,"transit":false},{"transit":false,"i_lat":-6.155215,"station_name":"Duri","station_id":"DU","is_transit":false,"time":4,"distance":1230,"i_long":106.800832,"line":1},{"is_transit":true,"time":8,"distance":3632,"i_long":106.811091,"transit":true,"station_id":"THB","station_name":"Tanah Abang","i_lat":-6.185545,"line":1},{"transit":false,"is_transit":false,"distance":3191,"i_lat":-6.207404,"time":6,"station_name":"Palmerah","station_id":"PLM","line":6,"i_long":106.79689},{"station_name":"Kebayoran","station_id":"KBY","line":6,"i_long":106.780334,"i_lat":-6.237242,"time":7,"transit":false,"distance":3737,"is_transit":false},{"i_long":106.74273,"is_transit":false,"station_id":"PDJ","transit":false,"distance":6218,"i_lat":-6.276362,"line":6,"time":8,"station_name":"Pondokranji"},{"station_id":"JMU","station_name":"Jurangmangu","is_transit":false,"distance":2179,"i_lat":-6.288927,"i_long":106.728916,"transit":false,"line":6,"time":3},{"time":4,"station_id":"SDM","station_name":"Sudimara","is_transit":false,"transit":false,"i_long":106.712277,"i_lat":-6.296963,"distance":1994,"line":6},{"i_lat":-6.314823,"distance":4566,"i_long":106.675475,"is_transit":false,"station_id":"RU","time":6,"transit":false,"line":6,"station_name":"Rawa Buntu"},{"station_name":"Serpong","i_long":106.66566,"transit":false,"station_id":"SRP","line":6,"i_lat":-6.319871,"time":4,"distance":2413,"is_transit":false},{"is_transit":false,"distance":1784,"station_name":"Cisauk","transit":false,"i_long":106.640411,"line":3,"time":4,"station_id":"CSK","i_lat":-6.32484}],[{"line":2,"station_id":"DRN","time":0,"is_transit":false,"transit":false,"station_name":"Duren Kalibata","distance":0,"i_lat":-6.255332,"i_long":106.85449},{"i_lat":-6.242512,"i_long":106.856607,"time":3,"station_id":"CW","distance":1546,"station_name":"Cawang","line":2,"is_transit":false,"transit":false},{"distance":1230,"time":2,"station_id":"TEB","i_long":106.857948,"i_lat":-6.226659,"line":2,"transit":false,"station_name":"Tebet","is_transit":false},{"distance":2610,"is_transit":true,"i_lat":-6.209883,"station_name":"Manggarai","time":4,"line":2,"transit":true,"station_id":"MRI","i_long":106.84912},{"transit":false,"is_transit":false,"i_lat":-6.212485,"distance":1275,"i_long":106.858896,"line":1,"station_name":"Matraman","station_id":"MTR","time":2},{"transit":true,"distance":1377,"i_lat":-6.215091,"station_name":"Jatinegara","time":8,"i_long":106.86807400000001,"is_transit":true,"station_id":"JNG","line":1},{"time":2,"i_long":106.861737,"station_name":"Pondok Jati","station_id":"POK","is_transit":false,"transit":false,"distance":1236,"i_lat":-6.209188,"line":11},{"i_long":106.855437,"distance":1829,"station_name":"Kramat","time":2,"transit":false,"i_lat":-6.193792,"station_id":"KMT","line":11,"is_transit":false},{"i_lat":-6.185975,"station_id":"GST","time":1,"is_transit":false,"i_long":106.850107,"transit":false,"distance":973,"line":11,"station_name":"Gang Sentiong"},{"distance":1567,"station_id":"PSE","i_lat":-6.174784,"transit":false,"is_transit":false,"i_long":106.84368,"station_name":"Pasar Senen","line":11,"time":8},{"station_name":"Kemayoran","transit":false,"station_id":"KMO","time":4,"distance":1436,"is_transit":false,"i_lat":-6.161728,"i_long":106.839204,"line":11},{"time":5,"i_long":106.836569,"distance":1901,"station_name":"Rajawali","line":11,"is_transit":false,"station_id":"RJW","transit":false,"i_lat":-6.14505},{"line":4,"is_transit":true,"station_name":"Kampung Bandan","time":3,"transit":true,"i_lat":-6.132549,"station_id":"KPB","distance":1444,"i_long":106.826365},{"distance":4102,"is_transit":false,"time":9,"line":1,"station_name":"Angke","i_lat":-6.144674,"i_long":106.79867,"station_id":"AK","transit":false},{"i_long":106.800832,"transit":false,"station_id":"DU","line":1,"is_transit":false,"time":4,"distance":1230,"i_lat":-6.155215,"station_name":"Duri"},{"time":8,"station_id":"THB","transit":true,"station_name":"Tanah Abang","is_transit":true,"i_lat":-6.185545,"i_long":106.811091,"distance":3632,"line":1},{"i_long":106.79689,"station_id":"PLM","transit":false,"time":6,"station_name":"Palmerah","is_transit":false,"line":6,"i_lat":-6.207404,"distance":3191},{"transit":false,"line":6,"i_long":106.780334,"distance":3737,"station_id":"KBY","is_transit":false,"time":7,"i_lat":-6.237242,"station_name":"Kebayoran"},{"i_long":106.74273,"distance":6218,"line":6,"time":8,"transit":false,"station_id":"PDJ","is_transit":false,"station_name":"Pondokranji","i_lat":-6.276362},{"station_id":"JMU","transit":false,"i_long":106.728916,"i_lat":-6.288927,"station_name":"Jurangmangu","is_transit":false,"time":3,"distance":2179,"line":6},{"i_long":106.712277,"is_transit":false,"line":6,"station_name":"Sudimara","transit":false,"distance":1994,"i_lat":-6.296963,"time":4,"station_id":"SDM"},{"station_id":"RU","time":6,"station_name":"Rawa Buntu","is_transit":false,"i_lat":-6.314823,"transit":false,"distance":4566,"line":6,"i_long":106.675475},{"distance":2413,"station_id":"SRP","time":4,"is_transit":false,"line":6,"i_long":106.66566,"transit":false,"i_lat":-6.319871,"station_name":"Serpong"},{"is_transit":false,"i_lat":-6.32484,"distance":1784,"i_long":106.640411,"station_name":"Cisauk","station_id":"CSK","line":3,"transit":false,"time":4}]]}