{"data":[[{"station_name":"Duren Kalibata","transit":false,"distance":0,"time":0,"i_lat":-6.255332,"line":0,"station_id":"DRN","is_transit":false,"i_long":106.85449},{"station_name":"Cawang","line":0,"time":3,"i_long":106.856607,"is_transit":false,"i_lat":-6.242512,"station_id":"CW","distance":1546,"transit":false},{"line":2,"i_lat":-6.226659,"station_id":"TEB","is_transit":false,"distance":1230,"time":2,"station_name":"Tebet","i_long":106.857948,"transit":false},{"station_name":"Manggarai","transit":true,"i_long":106.84912,"i_lat":-6.209883,"distance":2610,"is_transit":true,"station_id":"MRI","time":4,"line":0},{"is_transit":false,"line":1,"i_long":106.858896,"time":2,"station_id":"MTR","station_name":"Matraman","i_lat":-6.212485,"distance":1275,"transit":false},{"time":8,"station_name":"Jatinegara","i_long":106.86807400000001,"distance":1377,"line":0,"i_lat":-6.215091,"transit":true,"station_id":"JNG","is_transit":true},{"is_transit":false,"time":2,"distance":1236,"station_name":"Pondok Jati","station_id":"POK","line":11,"i_lat":-6.209188,"transit":false,"i_long":106.861737},{"time":2,"station_name":"Kramat","station_id":"KMT","is_transit":false,"line":11,"distance":1829,"i_long":106.855437,"i_lat":-6.193792,"transit":false},{"line":11,"distance":973,"i_long":106.850107,"station_id":"GST","i_lat":-6.185975,"station_name":"Gang Sentiong","is_transit":false,"time":1,"transit":false}],[{"station_name":"Duren Kalibata","transit":false,"time":0,"i_lat":-6.255332,"i_long":106.85449,"is_transit":false,"line":0,"station_id":"DRN","distance":0},{"line":0,"distance":1546,"i_long":106.856607,"time":3,"station_id":"CW","station_name":"Cawang","is_transit":false,"transit":false,"i_lat":-6.242512},{"i_long":106.857948,"distance":1230,"i_lat":-6.226659,"station_id":"TEB","is_transit":false,"station_name":"Tebet","line":2,"time":2,"transit":false},{"line":0,"station_id":"MRI","station_name":"Manggarai","transit":true,"i_lat":-6.209883,"i_long":106.84912,"is_transit":true,"time":4,"distance":2610},{"station_name":"Sudirman","time":4,"distance":3186,"transit":false,"is_transit":false,"i_long":106.822649,"line":1,"station_id":"SUD","i_lat":-6.202263},{"distance":280,"i_long":106.819881,"time":1,"is_transit":false,"i_lat":-6.201433,"station_name":"Sudirman Baru","station_id":"SUDB","transit":false,"line":1},{"line":1,"is_transit":false,"distance":471,"i_long":106.816351,"station_id":"KAT","transit":false,"time":1,"station_name":"Karet","i_lat":-6.20132},{"is_transit":true,"line":1,"station_id":"THB","distance":2029,"station_name":"Tanah Abang","i_long":106.811091,"time":5,"i_lat":-6.185545,"transit":false},{"distance":3632,"station_name":"Duri","time":8,"i_lat":-6.155215,"station_id":"DU","i_long":106.800832,"line":1,"transit":true,"is_transit":true},{"transit":false,"time":4,"station_name":"Angke","i_lat":-6.144674,"i_long":106.79867,"distance":1230,"station_id":"AK","is_transit":false,"line":0},{"i_lat":-6.132549,"station_id":"KPB","time":9,"distance":4102,"station_name":"Kampung Bandan","transit":true,"is_transit":true,"i_long":106.826365,"line":0},{"station_id":"RJW","distance":1444,"transit":false,"i_long":106.836569,"time":3,"i_lat":-6.14505,"line":11,"is_transit":false,"station_name":"Rajawali"},{"distance":1901,"transit":false,"station_id":"KMO","is_transit":false,"time":5,"i_lat":-6.161728,"station_name":"Kemayoran","i_long":106.839204,"line":11},{"line":11,"transit":false,"station_name":"Pasar Senen","i_long":106.84368,"time":4,"distance":1436,"is_transit":false,"station_id":"PSE","i_lat":-6.174784},{"is_transit":false,"transit":false,"i_long":106.850107,"i_lat":-6.185975,"line":11,"distance":1567,"time":8,"station_name":"Gang Sentiong","station_id":"GST"}],[{"i_long":106.85449,"time":0,"i_lat":-6.255332,"station_id":"DRN","distance":0,"is_transit":false,"transit":false,"line":0,"station_name":"Duren Kalibata"},{"line":0,"is_transit":false,"station_id":"CW","i_long":106.856607,"time":3,"transit":false,"i_lat":-6.242512,"distance":1546,"station_name":"Cawang"},{"i_lat":-6.226659,"is_transit":false,"distance":1230,"time":2,"i_long":106.857948,"transit":false,"station_id":"TEB","station_name":"Tebet","line":2},{"i_long":106.84912,"time":4,"line":0,"is_transit":true,"station_name":"Manggarai","distance":2610,"transit":true,"i_lat":-6.209883,"station_id":"MRI"},{"time":4,"line":0,"transit":false,"distance":1590,"station_name":"Cikini","i_long":106.840169,"station_id":"CKI","is_transit":false,"i_lat":-6.198556},{"distance":1750,"station_name":"Gondangdia","time":3,"transit":false,"i_long":106.832183,"station_id":"GDD","is_transit":false,"i_lat":-6.186295,"line":2},{"i_lat":-6.166716,"i_long":106.828284,"distance":2015,"line":2,"is_transit":false,"station_name":"Juanda","time":4,"transit":false,"station_id":"JUA"},{"i_lat":-6.160725,"station_name":"Sawah Besar","line":2,"transit":false,"station_id":"SW","is_transit":false,"time":2,"distance":1149,"i_long":106.827103},{"i_lat":-6.149769,"transit":false,"is_transit":false,"time":2,"distance":906,"line":2,"station_id":"MGB","i_long":106.82482,"station_name":"Manggabesar"},{"i_lat":-6.141205,"distance":1080,"transit":false,"time":2,"station_name":"Jayakarta","line":7,"i_long":106.820901,"is_transit":false,"station_id":"JAY"},{"is_transit":true,"line":0,"i_long":106.812439,"time":4,"station_id":"JAKK","i_lat":-6.137569,"distance":1264,"station_name":"Jakarta Kota","transit":true},{"distance":1364,"transit":true,"i_lat":-6.132549,"i_long":106.826365,"line":0,"station_id":"KPB","is_transit":true,"time":3,"station_name":"Kampung Bandan"},{"time":3,"i_lat":-6.14505,"i_long":106.836569,"distance":1444,"line":11,"station_name":"Rajawali","station_id":"RJW","is_transit":false,"transit":false},{"distance":1901,"line":11,"transit":false,"i_long":106.839204,"station_id":"KMO","time":5,"i_lat":-6.161728,"is_transit":false,"station_name":"Kemayoran"},{"station_name":"Pasar Senen","transit":false,"i_long":106.84368,"line":11,"distance":1436,"is_transit":false,"time":4,"i_lat":-6.174784,"station_id":"PSE"},{"transit":false,"distance":1567,"time":8,"line":11,"station_id":"GST","is_transit":false,"station_name":"Gang Sentiong","i_lat":-6.185975,"i_long":106.850107}]]}