{"data":[[{"line":2,"transit":false,"time":0,"distance":0,"station_id":"DRN","station_name":"Duren Kalibata","i_long":106.85449,"is_transit":false,"i_lat":-6.255332},{"line":2,"distance":1546,"time":3,"station_name":"Cawang","i_lat":-6.242512,"station_id":"CW","is_transit":false,"i_long":106.856607,"transit":false},{"i_lat":-6.226659,"time":2,"transit":false,"station_name":"Tebet","is_transit":false,"distance":1230,"station_id":"TEB","i_long":106.857948,"line":2},{"line":2,"station_id":"MRI","transit":true,"time":4,"i_long":106.84912,"distance":2610,"station_name":"Manggarai","i_lat":-6.209883,"is_transit":true},{"is_transit":false,"transit":false,"station_name":"Sudirman","time":4,"line":1,"distance":3186,"i_lat":-6.202263,"station_id":"SUD","i_long":106.822649},{"distance":280,"line":1,"time":1,"i_long":106.819881,"is_transit":false,"station_id":"SUDB","station_name":"Sudirman Baru","i_lat":-6.201433,"transit":false},{"is_transit":false,"i_long":106.816351,"i_lat":-6.20132,"transit":false,"time":1,"station_id":"KAT","station_name":"Karet","distance":471,"line":1},{"station_name":"Tanah Abang","station_id":"THB","is_transit":false,"i_long":106.811091,"distance":2029,"time":5,"i_lat":-6.185545,"line":1,"transit":false},{"station_id":"DU","i_lat":-6.155215,"is_transit":true,"line":1,"time":8,"station_name":"Duri","distance":3632,"transit":true,"i_long":106.800832},{"i_lat":-6.162021,"station_id":"GGL","i_long":106.788277,"station_name":"Grogol","line":5,"time":3,"is_transit":false,"transit":false,"distance":1700},{"station_name":"Pesing","transit":false,"distance":2036,"i_lat":-6.161433,"i_long":106.771379,"is_transit":false,"line":5,"station_id":"PSG","time":2},{"is_transit":false,"station_name":"Taman Kota","i_long":106.756522,"time":2,"distance":1614,"station_id":"TKO","transit":false,"i_lat":-6.1587309999999995,"line":5},{"i_long":106.737035,"transit":false,"station_name":"Bojongindah","time":2,"is_transit":false,"station_id":"BOI","i_lat":-6.159876,"distance":2334,"line":5},{"distance":1152,"line":5,"time":4,"i_long":106.723064,"transit":false,"station_id":"RW","i_lat":-6.162758,"is_transit":false,"station_name":"Rawa Buaya"},{"distance":2504,"station_id":"KDS","time":3,"transit":false,"is_transit":false,"station_name":"Kalideres","i_lat":-6.166068,"i_long":106.701612,"line":5},{"time":3,"station_id":"PI","station_name":"Poris","transit":false,"i_lat":-6.169933,"is_transit":false,"i_long":106.679458,"distance":2548,"line":5},{"station_id":"BPR","line":5,"distance":1834,"time":3,"station_name":"Batuceper","is_transit":false,"transit":false,"i_lat":-6.171811,"i_long":106.665036}],[{"line":2,"station_id":"DRN","distance":0,"i_lat":-6.255332,"i_long":106.85449,"station_name":"Duren Kalibata","time":0,"transit":false,"is_transit":false},{"is_transit":false,"time":3,"i_lat":-6.242512,"distance":1546,"i_long":106.856607,"transit":false,"line":2,"station_name":"Cawang","station_id":"CW"},{"time":2,"transit":false,"i_long":106.857948,"station_id":"TEB","line":2,"station_name":"Tebet","distance":1230,"i_lat":-6.226659,"is_transit":false},{"line":2,"i_lat":-6.209883,"i_long":106.84912,"time":4,"station_id":"MRI","transit":false,"station_name":"Manggarai","distance":2610,"is_transit":false},{"i_long":106.840169,"transit":false,"time":4,"station_name":"Cikini","i_lat":-6.198556,"station_id":"CKI","line":2,"distance":1590,"is_transit":false},{"line":2,"station_name":"Gondangdia","distance":1750,"i_long":106.832183,"transit":false,"station_id":"GDD","i_lat":-6.186295,"is_transit":false,"time":3},{"distance":2015,"station_name":"Juanda","i_long":106.828284,"time":4,"station_id":"JUA","is_transit":false,"line":2,"i_lat":-6.166716,"transit":false},{"station_name":"Sawah Besar","line":2,"transit":false,"i_long":106.827103,"i_lat":-6.160725,"station_id":"SW","distance":1149,"time":2,"is_transit":false},{"transit":false,"station_id":"MGB","i_long":106.82482,"distance":906,"station_name":"Manggabesar","i_lat":-6.149769,"time":2,"is_transit":false,"line":2},{"line":2,"transit":false,"i_lat":-6.141205,"i_long":106.820901,"time":2,"distance":1080,"is_transit":false,"station_id":"JAY","station_name":"Jayakarta"},{"line":2,"station_id":"JAKK","transit":true,"is_transit":true,"time":4,"station_name":"Jakarta Kota","distance":1264,"i_lat":-6.137569,"i_long":106.812439},{"i_long":106.826365,"station_id":"KPB","transit":true,"i_lat":-6.132549,"line":4,"time":3,"station_name":"Kampung Bandan","distance":1364,"is_transit":true},{"time":9,"transit":false,"station_name":"Angke","distance":4102,"i_lat":-6.144674,"station_id":"AK","is_transit":false,"i_long":106.79867,"line":1},{"is_transit":true,"station_name":"Duri","distance":1230,"transit":true,"station_id":"DU","time":4,"i_lat":-6.155215,"i_long":106.800832,"line":1},{"time":3,"i_lat":-6.162021,"i_long":106.788277,"is_transit":false,"transit":false,"station_name":"Grogol","distance":1700,"station_id":"GGL","line":5},{"i_long":106.771379,"distance":2036,"time":2,"station_name":"Pesing","i_lat":-6.161433,"line":5,"is_transit":false,"station_id":"PSG","transit":false},{"time":2,"line":5,"is_transit":false,"station_id":"TKO","transit":false,"station_name":"Taman Kota","i_lat":-6.1587309999999995,"distance":1614,"i_long":106.756522},{"i_lat":-6.159876,"distance":2334,"station_name":"Bojongindah","is_transit":false,"time":2,"transit":false,"i_long":106.737035,"station_id":"BOI","line":5},{"station_id":"RW","station_name":"Rawa Buaya","time":4,"transit":false,"line":5,"distance":1152,"is_transit":false,"i_long":106.723064,"i_lat":-6.162758},{"station_id":"KDS","i_lat":-6.166068,"transit":false,"is_transit":false,"station_name":"Kalideres","i_long":106.701612,"distance":2504,"line":5,"time":3},{"transit":false,"is_transit":false,"i_long":106.679458,"station_id":"PI","station_name":"Poris","i_lat":-6.169933,"distance":2548,"time":3,"line":5},{"line":5,"station_name":"Batuceper","is_transit":false,"time":3,"i_lat":-6.171811,"i_long":106.665036,"transit":false,"station_id":"BPR","distance":1834}],[{"transit":false,"time":0,"i_long":106.85449,"i_lat":-6.255332,"distance":0,"station_id":"DRN","is_transit":false,"station_name":"Duren Kalibata","line":2},{"transit":false,"i_lat":-6.242512,"station_id":"CW","time":3,"i_long":106.856607,"distance":1546,"line":2,"is_transit":false,"station_name":"Cawang"},{"is_transit":false,"time":2,"i_lat":-6.226659,"line":2,"i_long":106.857948,"distance":1230,"station_id":"TEB","transit":false,"station_name":"Tebet"},{"i_long":106.84912,"transit":true,"time":4,"station_id":"MRI","station_name":"Manggarai","i_lat":-6.209883,"line":2,"distance":2610,"is_transit":true},{"line":1,"i_lat":-6.212485,"station_id":"MTR","time":2,"transit":false,"i_long":106.858896,"is_transit":false,"distance":1275,"station_name":"Matraman"},{"distance":1377,"is_transit":true,"i_lat":-6.215091,"line":1,"time":8,"transit":true,"i_long":106.86807400000001,"station_name":"Jatinegara","station_id":"JNG"},{"distance":1236,"line":11,"transit":false,"i_long":106.861737,"station_name":"Pondok Jati","station_id":"POK","is_transit":false,"i_lat":-6.209188,"time":2},{"transit":false,"i_lat":-6.193792,"is_transit":false,"i_long":106.855437,"line":11,"time":2,"distance":1829,"station_name":"Kramat","station_id":"KMT"},{"line":11,"transit":false,"is_transit":false,"time":1,"i_lat":-6.185975,"station_id":"GST","i_long":106.850107,"station_name":"Gang Sentiong","distance":973},{"station_id":"PSE","time":8,"i_lat":-6.174784,"station_name":"Pasar Senen","is_transit":false,"distance":1567,"i_long":106.84368,"line":11,"transit":false},{"distance":1436,"i_lat":-6.161728,"station_id":"KMO","station_name":"Kemayoran","transit":false,"is_transit":false,"i_long":106.839204,"time":4,"line":11},{"station_name":"Rajawali","i_lat":-6.14505,"distance":1901,"station_id":"RJW","transit":false,"time":5,"i_long":106.836569,"line":11,"is_transit":false},{"station_id":"KPB","transit":true,"is_transit":true,"time":3,"i_lat":-6.132549,"distance":1444,"station_name":"Kampung Bandan","i_long":106.826365,"line":4},{"i_long":106.79867,"transit":false,"time":9,"i_lat":-6.144674,"station_id":"AK","station_name":"Angke","is_transit":false,"line":1,"distance":4102},{"distance":1230,"i_lat":-6.155215,"transit":true,"is_transit":true,"station_id":"DU","line":1,"i_long":106.800832,"time":4,"station_name":"Duri"},{"i_long":106.788277,"is_transit":false,"station_id":"GGL","i_lat":-6.162021,"distance":1700,"line":5,"station_name":"Grogol","time":3,"transit":false},{"station_name":"Pesing","transit":false,"i_lat":-6.161433,"i_long":106.771379,"line":5,"time":2,"station_id":"PSG","is_transit":false,"distance":2036},{"transit":false,"i_long":106.756522,"station_name":"Taman Kota","i_lat":-6.1587309999999995,"is_transit":false,"distance":1614,"station_id":"TKO","line":5,"time":2},{"station_name":"Bojongindah","line":5,"transit":false,"distance":2334,"station_id":"BOI","time":2,"i_lat":-6.159876,"is_transit":false,"i_long":106.737035},{"station_name":"Rawa Buaya","line":5,"is_transit":false,"station_id":"RW","transit":false,"time":4,"i_long":106.723064,"i_lat":-6.162758,"distance":1152},{"i_lat":-6.166068,"station_name":"Kalideres","time":3,"i_long":106.701612,"transit":false,"line":5,"station_id":"KDS","distance":2504,"is_transit":false},{"i_lat":-6.169933,"line":5,"i_long":106.679458,"distance":2548,"station_name":"Poris","transit":false,"station_id":"PI","is_transit":false,"time":3},{"is_transit":false,"station_name":"Batuceper","i_lat":-6.171811,"distance":1834,"station_id":"BPR","i_long":106.665036,"transit":false,"line":5,"time":3}]]}