{"data":[[{"time":0,"station_name":"Duren Kalibata","transit":false,"i_lat":-6.255332,"line":2,"is_transit":false,"distance":0,"i_long":106.85449,"station_id":"DRN"},{"station_id":"CW","transit":false,"line":2,"distance":1546,"station_name":"Cawang","time":3,"is_transit":false,"i_lat":-6.242512,"i_long":106.856607},{"is_transit":false,"transit":false,"station_id":"TEB","i_lat":-6.226659,"line":2,"distance":1230,"i_long":106.857948,"time":2,"station_name":"Tebet"},{"transit":true,"i_long":106.84912,"is_transit":true,"station_id":"MRI","station_name":"Manggarai","distance":2610,"time":4,"i_lat":-6.209883,"line":2},{"station_id":"MTR","station_name":"Matraman","transit":false,"distance":1275,"line":1,"time":2,"is_transit":false,"i_long":106.858896,"i_lat":-6.212485}],[{"station_name":"Duren Kalibata","i_long":106.85449,"i_lat":-6.255332,"distance":0,"station_id":"DRN","line":2,"transit":false,"is_transit":false,"time":0},{"i_long":106.856607,"station_id":"CW","station_name":"Cawang","is_transit":false,"transit":false,"distance":1546,"line":2,"i_lat":-6.242512,"time":3},{"i_lat":-6.226659,"station_name":"Tebet","is_transit":false,"transit":false,"distance":1230,"i_long":106.857948,"station_id":"TEB","line":2,"time":2},{"transit":true,"i_long":106.84912,"station_id":"MRI","line":2,"station_name":"Manggarai","is_transit":true,"i_lat":-6.209883,"time":4,"distance":2610},{"i_long":106.822649,"line":1,"distance":3186,"transit":false,"time":4,"station_id":"SUD","station_name":"Sudirman","i_lat":-6.202263,"is_transit":false},{"line":1,"station_id":"SUDB","time":1,"is_transit":false,"distance":280,"i_lat":-6.201433,"station_name":"Sudirman Baru","i_long":106.819881,"transit":false},{"transit":false,"is_transit":false,"station_name":"Karet","station_id":"KAT","line":1,"time":1,"i_lat":-6.20132,"i_long":106.816351,"distance":471},{"i_lat":-6.185545,"is_transit":false,"line":1,"i_long":106.811091,"distance":2029,"time":5,"station_id":"THB","transit":false,"station_name":"Tanah Abang"},{"station_id":"DU","i_lat":-6.155215,"distance":3632,"i_long":106.800832,"is_transit":false,"line":1,"time":8,"station_name":"Duri","transit":false},{"distance":1230,"station_id":"AK","time":4,"transit":false,"station_name":"Angke","i_lat":-6.144674,"i_long":106.79867,"line":1,"is_transit":false},{"distance":4102,"station_name":"Kampung Bandan","is_transit":true,"i_lat":-6.132549,"time":9,"line":4,"station_id":"KPB","i_long":106.826365,"transit":true},{"station_name":"Rajawali","distance":1444,"station_id":"RJW","time":3,"i_long":106.836569,"i_lat":-6.14505,"transit":false,"is_transit":false,"line":11},{"is_transit":false,"station_id":"KMO","i_lat":-6.161728,"distance":1901,"station_name":"Kemayoran","time":5,"transit":false,"i_long":106.839204,"line":11},{"station_id":"PSE","transit":false,"station_name":"Pasar Senen","is_transit":false,"i_lat":-6.174784,"time":4,"i_long":106.84368,"line":11,"distance":1436},{"is_transit":false,"line":11,"time":8,"station_name":"Gang Sentiong","transit":false,"i_lat":-6.185975,"distance":1567,"station_id":"GST","i_long":106.850107},{"i_lat":-6.193792,"is_transit":false,"station_id":"KMT","i_long":106.855437,"time":1,"transit":false,"station_name":"Kramat","line":11,"distance":973},{"i_long":106.861737,"distance":1829,"station_id":"POK","time":2,"station_name":"Pondok Jati","is_transit":false,"i_lat":-6.209188,"transit":false,"line":11},{"station_id":"JNG","time":9,"distance":1236,"is_transit":true,"station_name":"Jatinegara","line":1,"i_lat":-6.215091,"transit":true,"i_long":106.86807400000001},{"transit":false,"station_id":"MTR","station_name":"Matraman","i_long":106.858896,"is_transit":false,"time":2,"i_lat":-6.212485,"line":1,"distance":1377}],[{"station_id":"DRN","line":2,"is_transit":false,"i_lat":-6.255332,"time":0,"i_long":106.85449,"station_name":"Duren Kalibata","distance":0,"transit":false},{"line":2,"is_transit":false,"time":3,"i_long":106.856607,"station_id":"CW","distance":1546,"transit":false,"station_name":"Cawang","i_lat":-6.242512},{"station_id":"TEB","transit":false,"time":2,"i_lat":-6.226659,"distance":1230,"station_name":"Tebet","is_transit":false,"line":2,"i_long":106.857948},{"line":2,"distance":2610,"is_transit":false,"station_id":"MRI","station_name":"Manggarai","i_long":106.84912,"time":4,"transit":false,"i_lat":-6.209883},{"station_id":"CKI","is_transit":false,"distance":1590,"time":4,"transit":false,"i_long":106.840169,"station_name":"Cikini","line":2,"i_lat":-6.198556},{"distance":1750,"i_long":106.832183,"transit":false,"station_name":"Gondangdia","time":3,"is_transit":false,"i_lat":-6.186295,"station_id":"GDD","line":2},{"time":4,"i_lat":-6.166716,"station_id":"JUA","station_name":"Juanda","transit":false,"line":2,"is_transit":false,"i_long":106.828284,"distance":2015},{"transit":false,"time":2,"station_id":"SW","station_name":"Sawah Besar","line":2,"i_lat":-6.160725,"distance":1149,"i_long":106.827103,"is_transit":false},{"station_id":"MGB","transit":false,"line":2,"station_name":"Manggabesar","time":2,"distance":906,"is_transit":false,"i_lat":-6.149769,"i_long":106.82482},{"is_transit":false,"station_id":"JAY","distance":1080,"transit":false,"time":2,"i_lat":-6.141205,"station_name":"Jayakarta","i_long":106.820901,"line":2},{"station_name":"Jakarta Kota","i_lat":-6.137569,"is_transit":true,"transit":true,"station_id":"JAKK","line":2,"distance":1264,"time":4,"i_long":106.812439},{"i_lat":-6.132549,"transit":true,"station_id":"KPB","i_long":106.826365,"station_name":"Kampung Bandan","time":3,"distance":1364,"line":4,"is_transit":true},{"station_name":"Rajawali","i_long":106.836569,"transit":false,"is_transit":false,"distance":1444,"station_id":"RJW","i_lat":-6.14505,"time":3,"line":11},{"is_transit":false,"station_name":"Kemayoran","transit":false,"i_long":106.839204,"line":11,"time":5,"distance":1901,"i_lat":-6.161728,"station_id":"KMO"},{"distance":1436,"transit":false,"i_lat":-6.174784,"i_long":106.84368,"line":11,"station_id":"PSE","time":4,"is_transit":false,"station_name":"Pasar Senen"},{"station_id":"GST","station_name":"Gang Sentiong","is_transit":false,"transit":false,"i_long":106.850107,"time":8,"distance":1567,"i_lat":-6.185975,"line":11},{"line":11,"i_lat":-6.193792,"i_long":106.855437,"station_id":"KMT","distance":973,"is_transit":false,"transit":false,"time":1,"station_name":"Kramat"},{"i_long":106.861737,"transit":false,"time":2,"is_transit":false,"i_lat":-6.209188,"station_id":"POK","distance":1829,"line":11,"station_name":"Pondok Jati"},{"line":1,"is_transit":true,"distance":1236,"time":9,"station_id":"JNG","transit":true,"station_name":"Jatinegara","i_lat":-6.215091,"i_long":106.86807400000001},{"time":2,"i_lat":-6.212485,"i_long":106.858896,"distance":1377,"line":1,"station_name":"Matraman","station_id":"MTR","transit":false,"is_transit":false}]]}