{"data":[[{"i_lat":-6.255332,"is_transit":false,"line":2,"station_id":"DRN","station_name":"Duren Kalibata","time":0,"i_long":106.85449,"transit":false,"distance":0},{"i_lat":-6.242512,"transit":false,"station_name":"Cawang","station_id":"CW","is_transit":false,"i_long":106.856607,"distance":1546,"line":2,"time":3},{"i_lat":-6.226659,"station_name":"Tebet","transit":false,"station_id":"TEB","time":2,"line":2,"is_transit":false,"distance":1230,"i_long":106.857948},{"distance":2610,"i_lat":-6.209883,"line":2,"i_long":106.84912,"station_id":"MRI","time":4,"station_name":"Manggarai","is_transit":true,"transit":true},{"is_transit":false,"transit":false,"station_name":"Sudirman","station_id":"SUD","distance":3186,"i_lat":-6.202263,"i_long":106.822649,"time":4,"line":1},{"line":1,"i_long":106.819881,"i_lat":-6.201433,"station_id":"SUDB","distance":280,"transit":false,"is_transit":false,"station_name":"Sudirman Baru","time":1},{"time":1,"i_lat":-6.20132,"line":1,"distance":471,"i_long":106.816351,"station_id":"KAT","transit":false,"station_name":"Karet","is_transit":false},{"transit":true,"i_lat":-6.185545,"line":1,"station_id":"THB","station_name":"Tanah Abang","time":5,"i_long":106.811091,"distance":2029,"is_transit":true},{"distance":3191,"i_long":106.79689,"line":6,"transit":false,"station_name":"Palmerah","station_id":"PLM","i_lat":-6.207404,"is_transit":false,"time":6},{"is_transit":false,"time":7,"station_id":"KBY","line":6,"station_name":"Kebayoran","distance":3737,"i_long":106.780334,"transit":false,"i_lat":-6.237242},{"station_name":"Pondokranji","is_transit":false,"station_id":"PDJ","distance":6218,"i_lat":-6.276362,"i_long":106.74273,"line":6,"time":8,"transit":false},{"station_name":"Jurangmangu","distance":2179,"station_id":"JMU","line":6,"i_lat":-6.288927,"i_long":106.728916,"transit":false,"is_transit":false,"time":3},{"distance":1994,"station_name":"Sudimara","station_id":"SDM","transit":false,"line":6,"is_transit":false,"time":4,"i_lat":-6.296963,"i_long":106.712277},{"station_name":"Rawa Buntu","station_id":"RU","is_transit":false,"i_long":106.675475,"time":6,"i_lat":-6.314823,"line":6,"distance":4566,"transit":false},{"i_lat":-6.319871,"station_name":"Serpong","transit":false,"is_transit":false,"time":4,"i_long":106.66566,"station_id":"SRP","distance":2413,"line":6},{"station_name":"Cisauk","is_transit":false,"time":4,"i_long":106.640411,"station_id":"CSK","transit":false,"line":3,"distance":1784,"i_lat":-6.32484},{"distance":2519,"time":4,"transit":false,"i_lat":-6.329547,"line":3,"station_id":"CC","station_name":"Cicayur","i_long":106.617853,"is_transit":false},{"is_transit":false,"line":6,"time":8,"distance":5968,"station_name":"Parung Panjang","i_long":106.568863,"i_lat":-6.3441410000000005,"station_id":"PRP","transit":false}],[{"station_name":"Duren Kalibata","transit":false,"i_lat":-6.255332,"line":2,"time":0,"station_id":"DRN","i_long":106.85449,"distance":0,"is_transit":false},{"line":2,"i_lat":-6.242512,"i_long":106.856607,"station_id":"CW","is_transit":false,"distance":1546,"transit":false,"station_name":"Cawang","time":3},{"distance":1230,"i_lat":-6.226659,"is_transit":false,"time":2,"station_name":"Tebet","station_id":"TEB","line":2,"transit":false,"i_long":106.857948},{"i_long":106.84912,"station_id":"MRI","time":4,"transit":false,"i_lat":-6.209883,"is_transit":false,"distance":2610,"line":2,"station_name":"Manggarai"},{"station_name":"Cikini","distance":1590,"i_lat":-6.198556,"transit":false,"station_id":"CKI","line":2,"is_transit":false,"time":4,"i_long":106.840169},{"station_id":"GDD","time":3,"distance":1750,"transit":false,"is_transit":false,"i_lat":-6.186295,"i_long":106.832183,"line":2,"station_name":"Gondangdia"},{"line":2,"station_name":"Juanda","station_id":"JUA","i_lat":-6.166716,"time":4,"i_long":106.828284,"transit":false,"is_transit":false,"distance":2015},{"i_long":106.827103,"time":2,"line":2,"transit":false,"distance":1149,"i_lat":-6.160725,"is_transit":false,"station_id":"SW","station_name":"Sawah Besar"},{"line":2,"distance":906,"station_id":"MGB","station_name":"Manggabesar","i_long":106.82482,"transit":false,"time":2,"i_lat":-6.149769,"is_transit":false},{"i_lat":-6.141205,"line":2,"station_name":"Jayakarta","station_id":"JAY","is_transit":false,"i_long":106.820901,"time":2,"transit":false,"distance":1080},{"i_long":106.812439,"i_lat":-6.137569,"transit":true,"line":2,"station_name":"Jakarta Kota","time":4,"station_id":"JAKK","is_transit":true,"distance":1264},{"is_transit":true,"i_long":106.826365,"transit":true,"station_name":"Kampung Bandan","station_id":"KPB","i_lat":-6.132549,"line":4,"time":3,"distance":1364},{"line":1,"time":9,"is_transit":false,"station_name":"Angke","transit":false,"i_long":106.79867,"station_id":"AK","distance":4102,"i_lat":-6.144674},{"station_id":"DU","distance":1230,"i_lat":-6.155215,"i_long":106.800832,"time":4,"transit":false,"line":1,"station_name":"Duri","is_transit":false},{"time":8,"station_name":"Tanah Abang","distance":3632,"is_transit":true,"station_id":"THB","line":1,"i_lat":-6.185545,"i_long":106.811091,"transit":true},{"station_id":"PLM","i_lat":-6.207404,"line":6,"is_transit":false,"time":6,"distance":3191,"station_name":"Palmerah","i_long":106.79689,"transit":false},{"i_lat":-6.237242,"transit":false,"station_id":"KBY","is_transit":false,"station_name":"Kebayoran","i_long":106.780334,"time":7,"distance":3737,"line":6},{"is_transit":false,"line":6,"transit":false,"station_name":"Pondokranji","i_long":106.74273,"time":8,"distance":6218,"station_id":"PDJ","i_lat":-6.276362},{"i_lat":-6.288927,"i_long":106.728916,"line":6,"time":3,"station_id":"JMU","station_name":"Jurangmangu","is_transit":false,"transit":false,"distance":2179},{"time":4,"station_name":"Sudimara","station_id":"SDM","distance":1994,"is_transit":false,"i_long":106.712277,"i_lat":-6.296963,"transit":false,"line":6},{"is_transit":false,"time":6,"transit":false,"distance":4566,"i_long":106.675475,"station_name":"Rawa Buntu","station_id":"RU","i_lat":-6.314823,"line":6},{"is_transit":false,"i_long":106.66566,"transit":false,"station_id":"SRP","time":4,"distance":2413,"i_lat":-6.319871,"station_name":"Serpong","line":6},{"station_name":"Cisauk","is_transit":false,"distance":1784,"i_long":106.640411,"transit":false,"time":4,"i_lat":-6.32484,"line":3,"station_id":"CSK"},{"time":4,"station_name":"Cicayur","transit":false,"station_id":"CC","i_lat":-6.329547,"line":3,"distance":2519,"i_long":106.617853,"is_transit":false},{"is_transit":false,"transit":false,"station_id":"PRP","time":8,"line":6,"i_long":106.568863,"station_name":"Parung Panjang","distance":5968,"i_lat":-6.3441410000000005}],[{"time":0,"i_lat":-6.255332,"is_transit":false,"transit":false,"station_name":"Duren Kalibata","station_id":"DRN","distance":0,"i_long":106.85449,"line":2},{"station_id":"CW","transit":false,"line":2,"is_transit":false,"i_long":106.856607,"i_lat":-6.242512,"station_name":"Cawang","distance":1546,"time":3},{"line":2,"time":2,"is_transit":false,"i_long":106.857948,"i_lat":-6.226659,"station_id":"TEB","station_name":"Tebet","transit":false,"distance":1230},{"i_lat":-6.209883,"i_long":106.84912,"distance":2610,"station_name":"Manggarai","line":2,"transit":true,"is_transit":true,"station_id":"MRI","time":4},{"transit":false,"station_name":"Matraman","line":1,"distance":1275,"station_id":"MTR","is_transit":false,"time":2,"i_long":106.858896,"i_lat":-6.212485},{"transit":true,"station_id":"JNG","i_lat":-6.215091,"distance":1377,"i_long":106.86807400000001,"is_transit":true,"time":8,"line":1,"station_name":"Jatinegara"},{"line":11,"is_transit":false,"station_id":"POK","time":2,"i_lat":-6.209188,"i_long":106.861737,"station_name":"Pondok Jati","distance":1236,"transit":false},{"transit":false,"distance":1829,"i_lat":-6.193792,"station_name":"Kramat","line":11,"i_long":106.855437,"time":2,"is_transit":false,"station_id":"KMT"},{"station_name":"Gang Sentiong","transit":false,"is_transit":false,"i_lat":-6.185975,"i_long":106.850107,"time":1,"distance":973,"line":11,"station_id":"GST"},{"i_long":106.84368,"line":11,"station_id":"PSE","distance":1567,"transit":false,"is_transit":false,"time":8,"station_name":"Pasar Senen","i_lat":-6.174784},{"station_name":"Kemayoran","station_id":"KMO","i_long":106.839204,"line":11,"transit":false,"distance":1436,"is_transit":false,"i_lat":-6.161728,"time":4},{"distance":1901,"is_transit":false,"i_lat":-6.14505,"transit":false,"time":5,"station_name":"Rajawali","station_id":"RJW","i_long":106.836569,"line":11},{"line":4,"time":3,"i_long":106.826365,"i_lat":-6.132549,"station_name":"Kampung Bandan","transit":true,"station_id":"KPB","is_transit":true,"distance":1444},{"station_name":"Angke","i_long":106.79867,"time":9,"line":1,"transit":false,"distance":4102,"is_transit":false,"station_id":"AK","i_lat":-6.144674},{"is_transit":false,"time":4,"i_lat":-6.155215,"line":1,"i_long":106.800832,"distance":1230,"station_name":"Duri","transit":false,"station_id":"DU"},{"line":1,"i_lat":-6.185545,"station_id":"THB","distance":3632,"station_name":"Tanah Abang","is_transit":true,"time":8,"transit":true,"i_long":106.811091},{"station_id":"PLM","station_name":"Palmerah","transit":false,"time":6,"line":6,"i_long":106.79689,"i_lat":-6.207404,"distance":3191,"is_transit":false},{"distance":3737,"i_long":106.780334,"transit":false,"line":6,"station_id":"KBY","station_name":"Kebayoran","i_lat":-6.237242,"is_transit":false,"time":7},{"station_name":"Pondokranji","line":6,"distance":6218,"is_transit":false,"i_lat":-6.276362,"station_id":"PDJ","time":8,"transit":false,"i_long":106.74273},{"transit":false,"station_name":"Jurangmangu","i_lat":-6.288927,"is_transit":false,"station_id":"JMU","i_long":106.728916,"time":3,"distance":2179,"line":6},{"line":6,"transit":false,"time":4,"station_id":"SDM","distance":1994,"i_lat":-6.296963,"is_transit":false,"i_long":106.712277,"station_name":"Sudimara"},{"time":6,"station_id":"RU","station_name":"Rawa Buntu","distance":4566,"is_transit":false,"i_long":106.675475,"line":6,"transit":false,"i_lat":-6.314823},{"line":6,"i_long":106.66566,"station_id":"SRP","station_name":"Serpong","is_transit":false,"distance":2413,"transit":false,"time":4,"i_lat":-6.319871},{"is_transit":false,"i_long":106.640411,"station_id":"CSK","time":4,"i_lat":-6.32484,"transit":false,"distance":1784,"line":3,"station_name":"Cisauk"},{"i_lat":-6.329547,"station_id":"CC","is_transit":false,"distance":2519,"transit":false,"i_long":106.617853,"station_name":"Cicayur","line":3,"time":4},{"line":6,"transit":false,"i_long":106.568863,"station_id":"PRP","is_transit":false,"station_name":"Parung Panjang","i_lat":-6.3441410000000005,"time":8,"distance":5968}]]}