{"data":[[{"time":0,"distance":0,"i_lat":-6.255332,"line":2,"is_transit":false,"transit":false,"i_long":106.85449,"station_name":"Duren Kalibata","station_id":"DRN"},{"station_name":"Cawang","time":3,"is_transit":false,"i_lat":-6.242512,"line":2,"distance":1546,"station_id":"CW","transit":false,"i_long":106.856607},{"i_long":106.857948,"time":2,"transit":false,"station_name":"Tebet","distance":1230,"line":2,"station_id":"TEB","is_transit":false,"i_lat":-6.226659},{"station_name":"Manggarai","distance":2610,"is_transit":true,"i_long":106.84912,"line":2,"time":4,"i_lat":-6.209883,"station_id":"MRI","transit":true},{"i_long":106.822649,"distance":3186,"transit":false,"station_name":"Sudirman","i_lat":-6.202263,"line":1,"is_transit":false,"station_id":"SUD","time":4},{"station_id":"SUDB","time":1,"line":1,"transit":false,"is_transit":false,"station_name":"Sudirman Baru","distance":280,"i_lat":-6.201433,"i_long":106.819881},{"distance":471,"station_id":"KAT","line":1,"transit":false,"i_long":106.816351,"station_name":"Karet","time":1,"i_lat":-6.20132,"is_transit":false},{"line":1,"station_name":"Tanah Abang","distance":2029,"i_lat":-6.185545,"transit":false,"time":5,"station_id":"THB","is_transit":false,"i_long":106.811091},{"station_id":"DU","station_name":"Duri","distance":3632,"i_long":106.800832,"line":1,"transit":true,"time":8,"is_transit":true,"i_lat":-6.155215},{"i_long":106.788277,"line":5,"is_transit":false,"transit":false,"distance":1700,"i_lat":-6.162021,"station_name":"Grogol","station_id":"GGL","time":3},{"line":5,"i_long":106.771379,"station_name":"Pesing","i_lat":-6.161433,"time":2,"distance":2036,"transit":false,"station_id":"PSG","is_transit":false},{"i_long":106.756522,"time":2,"distance":1614,"is_transit":false,"transit":false,"i_lat":-6.1587309999999995,"station_name":"Taman Kota","line":5,"station_id":"TKO"},{"i_long":106.737035,"time":2,"station_name":"Bojongindah","distance":2334,"transit":false,"line":5,"i_lat":-6.159876,"station_id":"BOI","is_transit":false},{"transit":false,"station_id":"RW","station_name":"Rawa Buaya","i_long":106.723064,"line":5,"time":4,"is_transit":false,"i_lat":-6.162758,"distance":1152}],[{"is_transit":false,"station_id":"DRN","station_name":"Duren Kalibata","distance":0,"time":0,"i_lat":-6.255332,"line":2,"i_long":106.85449,"transit":false},{"line":2,"distance":1546,"i_lat":-6.242512,"station_name":"Cawang","transit":false,"is_transit":false,"time":3,"i_long":106.856607,"station_id":"CW"},{"i_lat":-6.226659,"i_long":106.857948,"is_transit":false,"transit":false,"time":2,"station_id":"TEB","line":2,"distance":1230,"station_name":"Tebet"},{"transit":false,"i_lat":-6.209883,"station_id":"MRI","distance":2610,"time":4,"i_long":106.84912,"line":2,"station_name":"Manggarai","is_transit":false},{"transit":false,"station_name":"Cikini","is_transit":false,"i_long":106.840169,"distance":1590,"line":2,"station_id":"CKI","time":4,"i_lat":-6.198556},{"i_lat":-6.186295,"i_long":106.832183,"transit":false,"station_name":"Gondangdia","distance":1750,"line":2,"station_id":"GDD","is_transit":false,"time":3},{"station_name":"Juanda","i_lat":-6.166716,"distance":2015,"is_transit":false,"time":4,"transit":false,"line":2,"station_id":"JUA","i_long":106.828284},{"station_name":"Sawah Besar","station_id":"SW","time":2,"line":2,"is_transit":false,"transit":false,"distance":1149,"i_lat":-6.160725,"i_long":106.827103},{"is_transit":false,"time":2,"i_long":106.82482,"station_name":"Manggabesar","station_id":"MGB","distance":906,"i_lat":-6.149769,"line":2,"transit":false},{"station_id":"JAY","i_lat":-6.141205,"line":2,"transit":false,"time":2,"i_long":106.820901,"station_name":"Jayakarta","is_transit":false,"distance":1080},{"station_name":"Jakarta Kota","line":2,"i_long":106.812439,"station_id":"JAKK","transit":true,"is_transit":true,"time":4,"distance":1264,"i_lat":-6.137569},{"distance":1364,"i_lat":-6.132549,"station_id":"KPB","i_long":106.826365,"transit":true,"line":4,"station_name":"Kampung Bandan","is_transit":true,"time":3},{"station_name":"Angke","is_transit":false,"i_long":106.79867,"i_lat":-6.144674,"transit":false,"time":9,"distance":4102,"line":1,"station_id":"AK"},{"time":4,"i_long":106.800832,"distance":1230,"station_name":"Duri","i_lat":-6.155215,"station_id":"DU","transit":true,"is_transit":true,"line":1},{"is_transit":false,"i_long":106.788277,"transit":false,"station_id":"GGL","time":3,"distance":1700,"i_lat":-6.162021,"station_name":"Grogol","line":5},{"station_name":"Pesing","is_transit":false,"distance":2036,"i_long":106.771379,"transit":false,"time":2,"i_lat":-6.161433,"line":5,"station_id":"PSG"},{"time":2,"station_name":"Taman Kota","transit":false,"station_id":"TKO","i_lat":-6.1587309999999995,"line":5,"distance":1614,"i_long":106.756522,"is_transit":false},{"is_transit":false,"transit":false,"station_id":"BOI","time":2,"line":5,"i_long":106.737035,"station_name":"Bojongindah","distance":2334,"i_lat":-6.159876},{"time":4,"i_lat":-6.162758,"is_transit":false,"transit":false,"station_name":"Rawa Buaya","station_id":"RW","distance":1152,"i_long":106.723064,"line":5}],[{"station_id":"DRN","transit":false,"line":2,"is_transit":false,"i_long":106.85449,"i_lat":-6.255332,"station_name":"Duren Kalibata","distance":0,"time":0},{"line":2,"time":3,"is_transit":false,"i_long":106.856607,"i_lat":-6.242512,"station_id":"CW","station_name":"Cawang","transit":false,"distance":1546},{"i_lat":-6.226659,"i_long":106.857948,"distance":1230,"station_name":"Tebet","line":2,"transit":false,"is_transit":false,"station_id":"TEB","time":2},{"transit":true,"station_name":"Manggarai","line":2,"distance":2610,"station_id":"MRI","is_transit":true,"time":4,"i_long":106.84912,"i_lat":-6.209883},{"transit":false,"station_id":"MTR","i_lat":-6.212485,"distance":1275,"i_long":106.858896,"is_transit":false,"time":2,"line":1,"station_name":"Matraman"},{"line":1,"is_transit":true,"station_id":"JNG","time":8,"i_lat":-6.215091,"i_long":106.86807400000001,"station_name":"Jatinegara","distance":1377,"transit":true},{"transit":false,"distance":1236,"i_lat":-6.209188,"station_name":"Pondok Jati","line":11,"i_long":106.861737,"time":2,"is_transit":false,"station_id":"POK"},{"station_name":"Kramat","transit":false,"is_transit":false,"i_lat":-6.193792,"i_long":106.855437,"time":2,"distance":1829,"line":11,"station_id":"KMT"},{"i_long":106.850107,"line":11,"station_id":"GST","distance":973,"transit":false,"is_transit":false,"time":1,"station_name":"Gang Sentiong","i_lat":-6.185975},{"station_name":"Pasar Senen","station_id":"PSE","i_long":106.84368,"line":11,"transit":false,"distance":1567,"is_transit":false,"i_lat":-6.174784,"time":8},{"distance":1436,"is_transit":false,"i_lat":-6.161728,"transit":false,"time":4,"station_name":"Kemayoran","station_id":"KMO","i_long":106.839204,"line":11},{"line":11,"time":5,"i_long":106.836569,"i_lat":-6.14505,"station_name":"Rajawali","transit":false,"station_id":"RJW","is_transit":false,"distance":1901},{"station_name":"Kampung Bandan","i_long":106.826365,"time":3,"line":4,"transit":true,"distance":1444,"is_transit":true,"station_id":"KPB","i_lat":-6.132549},{"is_transit":false,"time":9,"i_lat":-6.144674,"line":1,"i_long":106.79867,"distance":4102,"station_name":"Angke","transit":false,"station_id":"AK"},{"line":1,"i_lat":-6.155215,"station_id":"DU","distance":1230,"station_name":"Duri","is_transit":true,"time":4,"transit":true,"i_long":106.800832},{"station_id":"GGL","station_name":"Grogol","transit":false,"time":3,"line":5,"i_long":106.788277,"i_lat":-6.162021,"distance":1700,"is_transit":false},{"distance":2036,"i_long":106.771379,"transit":false,"line":5,"station_id":"PSG","station_name":"Pesing","i_lat":-6.161433,"is_transit":false,"time":2},{"distance":1614,"is_transit":false,"time":2,"i_long":106.756522,"i_lat":-6.1587309999999995,"transit":false,"station_id":"TKO","station_name":"Taman Kota","line":5},{"line":5,"is_transit":false,"time":2,"i_lat":-6.159876,"station_name":"Bojongindah","i_long":106.737035,"distance":2334,"transit":false,"station_id":"BOI"},{"i_lat":-6.162758,"is_transit":false,"station_name":"Rawa Buaya","line":5,"transit":false,"time":4,"i_long":106.723064,"distance":1152,"station_id":"RW"}]]}