{"data":[[{"is_transit":false,"distance":0,"line":0,"station_name":"Duren Kalibata","transit":false,"i_lat":-6.255332,"time":0,"i_long":106.85449,"station_id":"DRN"},{"station_id":"CW","distance":1546,"i_lat":-6.242512,"is_transit":false,"transit":false,"station_name":"Cawang","line":0,"time":3,"i_long":106.856607},{"i_lat":-6.226659,"is_transit":false,"line":2,"i_long":106.857948,"time":2,"station_name":"Tebet","transit":false,"distance":1230,"station_id":"TEB"},{"transit":true,"i_lat":-6.209883,"time":4,"distance":2610,"station_name":"Manggarai","line":0,"i_long":106.84912,"is_transit":true,"station_id":"MRI"},{"distance":3186,"station_id":"SUD","is_transit":false,"i_long":106.822649,"i_lat":-6.202263,"time":4,"line":1,"station_name":"Sudirman","transit":false},{"station_id":"SUDB","time":1,"i_lat":-6.201433,"transit":false,"i_long":106.819881,"distance":280,"is_transit":false,"station_name":"Sudirman Baru","line":1},{"time":1,"i_long":106.816351,"transit":false,"station_name":"Karet","line":1,"station_id":"KAT","is_transit":false,"i_lat":-6.20132,"distance":471},{"i_lat":-6.185545,"i_long":106.811091,"is_transit":true,"time":5,"line":1,"transit":true,"station_name":"Tanah Abang","distance":2029,"station_id":"THB"},{"line":6,"is_transit":false,"time":6,"station_name":"Palmerah","i_long":106.79689,"distance":3191,"station_id":"PLM","transit":false,"i_lat":-6.207404},{"station_id":"KBY","transit":false,"is_transit":false,"time":7,"distance":3737,"i_lat":-6.237242,"i_long":106.780334,"line":6,"station_name":"Kebayoran"},{"transit":false,"is_transit":false,"distance":6218,"station_name":"Pondokranji","i_long":106.74273,"line":6,"i_lat":-6.276362,"time":8,"station_id":"PDJ"},{"line":6,"i_lat":-6.288927,"station_id":"JMU","station_name":"Jurangmangu","transit":false,"time":3,"distance":2179,"i_long":106.728916,"is_transit":false},{"station_id":"SDM","i_lat":-6.296963,"is_transit":false,"line":6,"transit":false,"station_name":"Sudimara","distance":1994,"time":4,"i_long":106.712277},{"i_lat":-6.314823,"line":6,"distance":4566,"transit":false,"station_id":"RU","i_long":106.675475,"is_transit":false,"time":6,"station_name":"Rawa Buntu"},{"is_transit":false,"station_id":"SRP","distance":2413,"i_long":106.66566,"i_lat":-6.319871,"time":4,"station_name":"Serpong","transit":false,"line":6},{"line":0,"i_long":106.640411,"distance":1784,"transit":false,"time":4,"i_lat":-6.32484,"station_id":"CSK","is_transit":false,"station_name":"Cisauk"},{"station_name":"Cicayur","is_transit":false,"station_id":"CC","time":4,"i_lat":-6.329547,"i_long":106.617853,"transit":false,"line":0,"distance":2519},{"transit":false,"i_lat":-6.3441410000000005,"is_transit":false,"station_id":"PRP","station_name":"Parung Panjang","i_long":106.568863,"distance":5968,"line":6,"time":8},{"line":0,"i_long":106.508482,"distance":7025,"station_name":"Cilejit","transit":false,"is_transit":false,"time":9,"station_id":"CJT","i_lat":-6.354349},{"i_lat":-6.338021,"station_id":"DAR","transit":false,"distance":2675,"station_name":"Daru","time":6,"i_long":106.491338,"is_transit":false,"line":0},{"is_transit":false,"line":6,"station_name":"Tenjo","transit":false,"time":5,"distance":3902,"station_id":"TEJ","i_long":106.460812,"i_lat":-6.327251},{"transit":false,"distance":2974,"i_lat":-6.328533,"i_long":106.425991,"line":6,"station_id":"TGS","station_name":"Tigaraksa","time":5,"is_transit":false},{"station_name":"Cikoya","distance":2651,"i_lat":-6.33561,"line":0,"transit":false,"is_transit":false,"station_id":"CKY","i_long":106.411216,"time":3},{"distance":1853,"transit":false,"line":6,"is_transit":false,"i_lat":-6.332307,"station_name":"Maja","i_long":106.394373,"station_id":"MJ","time":4},{"distance":7293,"i_long":106.332092,"is_transit":false,"time":10,"line":0,"station_name":"Citeras","i_lat":-6.334892,"transit":false,"station_id":"CTR"}],[{"i_long":106.85449,"distance":0,"time":0,"transit":false,"i_lat":-6.255332,"is_transit":false,"station_name":"Duren Kalibata","station_id":"DRN","line":0},{"i_long":106.856607,"line":0,"station_id":"CW","i_lat":-6.242512,"time":3,"transit":false,"distance":1546,"station_name":"Cawang","is_transit":false},{"station_name":"Tebet","is_transit":false,"line":2,"i_long":106.857948,"distance":1230,"station_id":"TEB","time":2,"transit":false,"i_lat":-6.226659},{"is_transit":true,"time":4,"station_id":"MRI","i_long":106.84912,"distance":2610,"i_lat":-6.209883,"line":0,"station_name":"Manggarai","transit":true},{"is_transit":false,"line":0,"distance":1590,"station_name":"Cikini","transit":false,"i_long":106.840169,"time":4,"station_id":"CKI","i_lat":-6.198556},{"is_transit":false,"time":3,"i_long":106.832183,"i_lat":-6.186295,"station_name":"Gondangdia","transit":false,"station_id":"GDD","distance":1750,"line":2},{"line":2,"time":4,"is_transit":false,"station_name":"Juanda","i_lat":-6.166716,"station_id":"JUA","i_long":106.828284,"distance":2015,"transit":false},{"distance":1149,"i_long":106.827103,"station_name":"Sawah Besar","line":2,"time":2,"station_id":"SW","is_transit":false,"i_lat":-6.160725,"transit":false},{"station_id":"MGB","distance":906,"transit":false,"i_long":106.82482,"station_name":"Manggabesar","i_lat":-6.149769,"line":2,"is_transit":false,"time":2},{"station_id":"JAY","station_name":"Jayakarta","transit":false,"i_long":106.820901,"line":7,"time":2,"is_transit":false,"distance":1080,"i_lat":-6.141205},{"station_name":"Jakarta Kota","i_lat":-6.137569,"i_long":106.812439,"distance":1264,"line":0,"transit":true,"station_id":"JAKK","is_transit":true,"time":4},{"station_id":"KPB","i_long":106.826365,"station_name":"Kampung Bandan","is_transit":true,"transit":false,"i_lat":-6.132549,"line":0,"time":3,"distance":1364},{"i_long":106.79867,"station_name":"Angke","i_lat":-6.144674,"line":0,"station_id":"AK","time":9,"distance":4102,"is_transit":false,"transit":false},{"station_name":"Duri","line":1,"station_id":"DU","is_transit":true,"distance":1230,"i_long":106.800832,"i_lat":-6.155215,"transit":true,"time":4},{"i_lat":-6.185545,"i_long":106.811091,"transit":true,"station_id":"THB","distance":3632,"is_transit":true,"station_name":"Tanah Abang","line":1,"time":8},{"station_id":"PLM","i_long":106.79689,"station_name":"Palmerah","distance":3191,"i_lat":-6.207404,"line":6,"is_transit":false,"transit":false,"time":6},{"i_long":106.780334,"distance":3737,"i_lat":-6.237242,"transit":false,"station_id":"KBY","line":6,"station_name":"Kebayoran","is_transit":false,"time":7},{"station_name":"Pondokranji","distance":6218,"station_id":"PDJ","transit":false,"i_lat":-6.276362,"i_long":106.74273,"is_transit":false,"time":8,"line":6},{"line":6,"time":3,"distance":2179,"station_id":"JMU","is_transit":false,"station_name":"Jurangmangu","transit":false,"i_long":106.728916,"i_lat":-6.288927},{"station_name":"Sudimara","transit":false,"line":6,"i_lat":-6.296963,"i_long":106.712277,"station_id":"SDM","is_transit":false,"distance":1994,"time":4},{"is_transit":false,"station_name":"Rawa Buntu","line":6,"distance":4566,"i_long":106.675475,"transit":false,"i_lat":-6.314823,"station_id":"RU","time":6},{"station_name":"Serpong","i_lat":-6.319871,"station_id":"SRP","i_long":106.66566,"transit":false,"is_transit":false,"time":4,"line":6,"distance":2413},{"distance":1784,"i_lat":-6.32484,"is_transit":false,"transit":false,"line":0,"station_id":"CSK","i_long":106.640411,"station_name":"Cisauk","time":4},{"is_transit":false,"time":4,"transit":false,"i_long":106.617853,"distance":2519,"i_lat":-6.329547,"station_id":"CC","station_name":"Cicayur","line":0},{"time":8,"i_lat":-6.3441410000000005,"station_name":"Parung Panjang","distance":5968,"station_id":"PRP","is_transit":false,"line":6,"i_long":106.568863,"transit":false},{"is_transit":false,"i_lat":-6.354349,"line":0,"time":9,"i_long":106.508482,"station_id":"CJT","distance":7025,"station_name":"Cilejit","transit":false},{"time":6,"transit":false,"is_transit":false,"station_name":"Daru","i_long":106.491338,"distance":2675,"station_id":"DAR","i_lat":-6.338021,"line":0},{"i_lat":-6.327251,"time":5,"i_long":106.460812,"transit":false,"line":6,"station_name":"Tenjo","station_id":"TEJ","is_transit":false,"distance":3902},{"station_id":"TGS","transit":false,"station_name":"Tigaraksa","is_transit":false,"distance":2974,"i_long":106.425991,"line":6,"i_lat":-6.328533,"time":5},{"station_id":"CKY","i_lat":-6.33561,"is_transit":false,"distance":2651,"line":0,"time":3,"station_name":"Cikoya","i_long":106.411216,"transit":false},{"i_long":106.394373,"line":6,"is_transit":false,"i_lat":-6.332307,"time":4,"distance":1853,"transit":false,"station_name":"Maja","station_id":"MJ"},{"station_id":"CTR","distance":7293,"is_transit":false,"transit":false,"line":0,"station_name":"Citeras","i_lat":-6.334892,"time":10,"i_long":106.332092}],[{"is_transit":false,"transit":false,"time":0,"i_long":106.85449,"line":0,"station_name":"Duren Kalibata","distance":0,"i_lat":-6.255332,"station_id":"DRN"},{"transit":false,"line":0,"i_lat":-6.242512,"i_long":106.856607,"distance":1546,"is_transit":false,"station_name":"Cawang","station_id":"CW","time":3},{"station_id":"TEB","is_transit":false,"time":2,"station_name":"Tebet","transit":false,"line":2,"distance":1230,"i_lat":-6.226659,"i_long":106.857948},{"line":0,"i_long":106.84912,"station_id":"MRI","time":4,"transit":true,"i_lat":-6.209883,"is_transit":true,"station_name":"Manggarai","distance":2610},{"transit":false,"station_name":"Matraman","time":2,"distance":1275,"i_lat":-6.212485,"station_id":"MTR","i_long":106.858896,"line":1,"is_transit":false},{"station_id":"JNG","line":0,"time":8,"distance":1377,"station_name":"Jatinegara","i_long":106.86807400000001,"transit":true,"is_transit":true,"i_lat":-6.215091},{"time":2,"i_lat":-6.209188,"distance":1236,"station_id":"POK","is_transit":false,"station_name":"Pondok Jati","i_long":106.861737,"line":11,"transit":false},{"transit":false,"time":2,"distance":1829,"station_name":"Kramat","i_lat":-6.193792,"is_transit":false,"i_long":106.855437,"line":11,"station_id":"KMT"},{"transit":false,"station_id":"GST","station_name":"Gang Sentiong","line":11,"is_transit":false,"time":1,"distance":973,"i_long":106.850107,"i_lat":-6.185975},{"is_transit":false,"distance":1567,"i_long":106.84368,"station_name":"Pasar Senen","station_id":"PSE","transit":false,"line":11,"time":8,"i_lat":-6.174784},{"line":11,"i_long":106.839204,"distance":1436,"station_name":"Kemayoran","transit":false,"i_lat":-6.161728,"is_transit":false,"station_id":"KMO","time":4},{"station_name":"Rajawali","i_long":106.836569,"station_id":"RJW","line":11,"i_lat":-6.14505,"transit":false,"is_transit":false,"time":5,"distance":1901},{"i_lat":-6.132549,"station_id":"KPB","distance":1444,"transit":true,"line":0,"station_name":"Kampung Bandan","is_transit":true,"i_long":106.826365,"time":3},{"station_id":"AK","is_transit":false,"line":0,"distance":4102,"station_name":"Angke","transit":false,"time":9,"i_long":106.79867,"i_lat":-6.144674},{"line":1,"station_name":"Duri","i_long":106.800832,"is_transit":true,"distance":1230,"transit":true,"station_id":"DU","i_lat":-6.155215,"time":4},{"station_name":"Tanah Abang","time":8,"line":1,"is_transit":true,"station_id":"THB","i_long":106.811091,"distance":3632,"transit":true,"i_lat":-6.185545},{"i_lat":-6.207404,"time":6,"transit":false,"is_transit":false,"line":6,"station_id":"PLM","station_name":"Palmerah","i_long":106.79689,"distance":3191},{"transit":false,"is_transit":false,"distance":3737,"station_name":"Kebayoran","station_id":"KBY","i_long":106.780334,"time":7,"i_lat":-6.237242,"line":6},{"i_lat":-6.276362,"time":8,"is_transit":false,"station_name":"Pondokranji","station_id":"PDJ","line":6,"i_long":106.74273,"distance":6218,"transit":false},{"is_transit":false,"time":3,"station_name":"Jurangmangu","distance":2179,"transit":false,"i_lat":-6.288927,"i_long":106.728916,"line":6,"station_id":"JMU"},{"line":6,"transit":false,"station_id":"SDM","time":4,"is_transit":false,"station_name":"Sudimara","i_lat":-6.296963,"distance":1994,"i_long":106.712277},{"station_id":"RU","is_transit":false,"transit":false,"distance":4566,"i_long":106.675475,"line":6,"time":6,"station_name":"Rawa Buntu","i_lat":-6.314823},{"is_transit":false,"line":6,"transit":false,"distance":2413,"i_lat":-6.319871,"i_long":106.66566,"time":4,"station_id":"SRP","station_name":"Serpong"},{"i_long":106.640411,"line":0,"transit":false,"is_transit":false,"time":4,"station_name":"Cisauk","i_lat":-6.32484,"station_id":"CSK","distance":1784},{"line":0,"station_id":"CC","station_name":"Cicayur","i_lat":-6.329547,"is_transit":false,"time":4,"distance":2519,"transit":false,"i_long":106.617853},{"transit":false,"distance":5968,"i_long":106.568863,"is_transit":false,"station_name":"Parung Panjang","i_lat":-6.3441410000000005,"time":8,"station_id":"PRP","line":6},{"line":0,"station_name":"Cilejit","time":9,"is_transit":false,"station_id":"CJT","i_lat":-6.354349,"distance":7025,"transit":false,"i_long":106.508482},{"i_lat":-6.338021,"transit":false,"station_id":"DAR","i_long":106.491338,"is_transit":false,"station_name":"Daru","line":0,"time":6,"distance":2675},{"time":5,"is_transit":false,"i_long":106.460812,"station_name":"Tenjo","line":6,"distance":3902,"transit":false,"i_lat":-6.327251,"station_id":"TEJ"},{"i_long":106.425991,"station_name":"Tigaraksa","line":6,"transit":false,"is_transit":false,"i_lat":-6.328533,"time":5,"distance":2974,"station_id":"TGS"},{"line":0,"i_long":106.411216,"distance":2651,"is_transit":false,"time":3,"station_name":"Cikoya","transit":false,"i_lat":-6.33561,"station_id":"CKY"},{"i_lat":-6.332307,"line":6,"is_transit":false,"station_name":"Maja","i_long":106.394373,"time":4,"transit":false,"distance":1853,"station_id":"MJ"},{"distance":7293,"time":10,"is_transit":false,"i_long":106.332092,"station_name":"Citeras","station_id":"CTR","transit":false,"line":0,"i_lat":-6.334892}]]}