{"data":[[{"is_transit":false,"transit":false,"station_id":"DRN","line":2,"i_lat":-6.255332,"station_name":"Duren Kalibata","i_long":106.85449,"distance":0,"time":0},{"i_long":106.856607,"distance":1546,"line":2,"transit":false,"time":3,"station_id":"CW","i_lat":-6.242512,"station_name":"Cawang","is_transit":false},{"transit":false,"is_transit":false,"i_lat":-6.226659,"time":2,"station_id":"TEB","station_name":"Tebet","distance":1230,"i_long":106.857948,"line":2},{"line":2,"station_name":"Manggarai","transit":true,"i_lat":-6.209883,"station_id":"MRI","is_transit":true,"i_long":106.84912,"distance":2610,"time":4},{"transit":false,"distance":3186,"station_id":"SUD","is_transit":false,"station_name":"Sudirman","i_lat":-6.202263,"line":1,"time":4,"i_long":106.822649},{"is_transit":false,"time":1,"station_id":"SUDB","distance":280,"line":1,"i_long":106.819881,"i_lat":-6.201433,"station_name":"Sudirman Baru","transit":false},{"distance":471,"station_name":"Karet","station_id":"KAT","i_lat":-6.20132,"i_long":106.816351,"time":1,"is_transit":false,"line":1,"transit":false},{"time":5,"i_long":106.811091,"station_id":"THB","line":1,"is_transit":true,"i_lat":-6.185545,"station_name":"Tanah Abang","transit":true,"distance":2029},{"transit":false,"i_lat":-6.207404,"is_transit":false,"station_name":"Palmerah","i_long":106.79689,"time":6,"distance":3191,"station_id":"PLM","line":6},{"i_long":106.780334,"time":7,"station_name":"Kebayoran","distance":3737,"line":6,"station_id":"KBY","transit":false,"is_transit":false,"i_lat":-6.237242},{"station_name":"Pondokranji","line":6,"time":8,"transit":false,"station_id":"PDJ","is_transit":false,"distance":6218,"i_lat":-6.276362,"i_long":106.74273},{"i_long":106.728916,"distance":2179,"station_name":"Jurangmangu","i_lat":-6.288927,"station_id":"JMU","is_transit":false,"line":6,"time":3,"transit":false},{"distance":1994,"transit":false,"is_transit":false,"time":4,"i_lat":-6.296963,"i_long":106.712277,"line":6,"station_name":"Sudimara","station_id":"SDM"},{"transit":false,"distance":4566,"time":6,"i_lat":-6.314823,"line":6,"station_id":"RU","station_name":"Rawa Buntu","is_transit":false,"i_long":106.675475},{"is_transit":false,"i_lat":-6.319871,"distance":2413,"transit":false,"station_id":"SRP","i_long":106.66566,"line":6,"station_name":"Serpong","time":4},{"i_long":106.640411,"station_id":"CSK","line":3,"is_transit":false,"transit":false,"i_lat":-6.32484,"station_name":"Cisauk","distance":1784,"time":4},{"station_id":"CC","transit":false,"i_long":106.617853,"i_lat":-6.329547,"station_name":"Cicayur","line":3,"is_transit":false,"time":4,"distance":2519},{"i_long":106.568863,"time":8,"line":6,"station_name":"Parung Panjang","distance":5968,"station_id":"PRP","transit":false,"i_lat":-6.3441410000000005,"is_transit":false},{"i_long":106.508482,"distance":7025,"is_transit":false,"time":9,"i_lat":-6.354349,"station_name":"Cilejit","transit":false,"line":3,"station_id":"CJT"},{"i_lat":-6.338021,"i_long":106.491338,"is_transit":false,"distance":2675,"station_id":"DAR","transit":false,"station_name":"Daru","time":6,"line":0},{"station_name":"Tenjo","is_transit":false,"i_long":106.460812,"station_id":"TEJ","line":6,"i_lat":-6.327251,"transit":false,"distance":3902,"time":5},{"transit":false,"i_lat":-6.328533,"i_long":106.425991,"is_transit":false,"station_name":"Tigaraksa","station_id":"TGS","line":6,"time":5,"distance":2974}],[{"station_name":"Duren Kalibata","is_transit":false,"line":2,"distance":0,"time":0,"i_long":106.85449,"station_id":"DRN","i_lat":-6.255332,"transit":false},{"is_transit":false,"time":3,"i_lat":-6.242512,"transit":false,"line":2,"station_name":"Cawang","station_id":"CW","i_long":106.856607,"distance":1546},{"station_id":"TEB","transit":false,"distance":1230,"station_name":"Tebet","i_lat":-6.226659,"i_long":106.857948,"line":2,"is_transit":false,"time":2},{"station_id":"MRI","time":4,"i_long":106.84912,"distance":2610,"transit":false,"is_transit":false,"station_name":"Manggarai","line":2,"i_lat":-6.209883},{"distance":1590,"station_id":"CKI","i_long":106.840169,"line":2,"time":4,"station_name":"Cikini","transit":false,"i_lat":-6.198556,"is_transit":false},{"i_long":106.832183,"line":2,"is_transit":false,"time":3,"transit":false,"distance":1750,"station_name":"Gondangdia","station_id":"GDD","i_lat":-6.186295},{"transit":false,"station_name":"Juanda","station_id":"JUA","is_transit":false,"time":4,"line":2,"i_long":106.828284,"distance":2015,"i_lat":-6.166716},{"i_lat":-6.160725,"distance":1149,"station_id":"SW","station_name":"Sawah Besar","transit":false,"i_long":106.827103,"line":2,"is_transit":false,"time":2},{"is_transit":false,"time":2,"i_long":106.82482,"line":2,"distance":906,"station_name":"Manggabesar","transit":false,"i_lat":-6.149769,"station_id":"MGB"},{"time":2,"i_lat":-6.141205,"transit":false,"i_long":106.820901,"distance":1080,"is_transit":false,"station_id":"JAY","line":2,"station_name":"Jayakarta"},{"time":4,"i_long":106.812439,"transit":true,"i_lat":-6.137569,"station_name":"Jakarta Kota","distance":1264,"line":2,"is_transit":true,"station_id":"JAKK"},{"distance":1364,"station_name":"Kampung Bandan","station_id":"KPB","time":3,"line":4,"i_lat":-6.132549,"transit":true,"is_transit":true,"i_long":106.826365},{"station_name":"Angke","station_id":"AK","is_transit":false,"time":9,"i_long":106.79867,"line":1,"i_lat":-6.144674,"distance":4102,"transit":false},{"transit":false,"time":4,"station_name":"Duri","i_long":106.800832,"i_lat":-6.155215,"line":1,"distance":1230,"is_transit":false,"station_id":"DU"},{"station_id":"THB","time":8,"distance":3632,"station_name":"Tanah Abang","i_lat":-6.185545,"transit":true,"i_long":106.811091,"is_transit":true,"line":1},{"i_long":106.79689,"i_lat":-6.207404,"transit":false,"station_name":"Palmerah","distance":3191,"time":6,"station_id":"PLM","is_transit":false,"line":6},{"i_lat":-6.237242,"station_id":"KBY","i_long":106.780334,"line":6,"transit":false,"is_transit":false,"distance":3737,"time":7,"station_name":"Kebayoran"},{"station_name":"Pondokranji","time":8,"station_id":"PDJ","transit":false,"is_transit":false,"i_long":106.74273,"line":6,"i_lat":-6.276362,"distance":6218},{"station_name":"Jurangmangu","station_id":"JMU","line":6,"time":3,"is_transit":false,"distance":2179,"i_long":106.728916,"i_lat":-6.288927,"transit":false},{"transit":false,"distance":1994,"i_long":106.712277,"i_lat":-6.296963,"station_name":"Sudimara","is_transit":false,"station_id":"SDM","line":6,"time":4},{"station_name":"Rawa Buntu","transit":false,"distance":4566,"time":6,"i_long":106.675475,"is_transit":false,"i_lat":-6.314823,"station_id":"RU","line":6},{"i_lat":-6.319871,"distance":2413,"i_long":106.66566,"is_transit":false,"time":4,"line":6,"station_id":"SRP","station_name":"Serpong","transit":false},{"is_transit":false,"i_lat":-6.32484,"transit":false,"time":4,"station_id":"CSK","station_name":"Cisauk","distance":1784,"i_long":106.640411,"line":3},{"is_transit":false,"time":4,"station_id":"CC","i_lat":-6.329547,"station_name":"Cicayur","distance":2519,"i_long":106.617853,"line":3,"transit":false},{"is_transit":false,"station_id":"PRP","i_lat":-6.3441410000000005,"transit":false,"station_name":"Parung Panjang","time":8,"i_long":106.568863,"line":6,"distance":5968},{"station_name":"Cilejit","station_id":"CJT","is_transit":false,"transit":false,"line":3,"time":9,"i_long":106.508482,"i_lat":-6.354349,"distance":7025},{"line":0,"station_id":"DAR","is_transit":false,"distance":2675,"station_name":"Daru","time":6,"i_long":106.491338,"transit":false,"i_lat":-6.338021},{"station_name":"Tenjo","i_long":106.460812,"distance":3902,"i_lat":-6.327251,"transit":false,"is_transit":false,"time":5,"line":6,"station_id":"TEJ"},{"distance":2974,"station_name":"Tigaraksa","transit":false,"is_transit":false,"time":5,"i_long":106.425991,"line":6,"i_lat":-6.328533,"station_id":"TGS"}],[{"is_transit":false,"transit":false,"line":2,"station_id":"DRN","distance":0,"station_name":"Duren Kalibata","i_lat":-6.255332,"time":0,"i_long":106.85449},{"station_id":"CW","time":3,"is_transit":false,"station_name":"Cawang","distance":1546,"transit":false,"i_long":106.856607,"line":2,"i_lat":-6.242512},{"i_long":106.857948,"station_id":"TEB","line":2,"distance":1230,"i_lat":-6.226659,"station_name":"Tebet","time":2,"is_transit":false,"transit":false},{"line":2,"i_lat":-6.209883,"transit":true,"i_long":106.84912,"time":4,"station_name":"Manggarai","distance":2610,"station_id":"MRI","is_transit":true},{"i_long":106.858896,"distance":1275,"station_id":"MTR","i_lat":-6.212485,"time":2,"transit":false,"station_name":"Matraman","is_transit":false,"line":1},{"i_long":106.86807400000001,"distance":1377,"transit":true,"station_name":"Jatinegara","time":8,"i_lat":-6.215091,"is_transit":true,"station_id":"JNG","line":1},{"i_long":106.861737,"transit":false,"is_transit":false,"station_name":"Pondok Jati","distance":1236,"station_id":"POK","time":2,"i_lat":-6.209188,"line":11},{"i_lat":-6.193792,"i_long":106.855437,"line":11,"is_transit":false,"distance":1829,"time":2,"station_name":"Kramat","transit":false,"station_id":"KMT"},{"transit":false,"station_name":"Gang Sentiong","distance":973,"time":1,"station_id":"GST","is_transit":false,"i_lat":-6.185975,"i_long":106.850107,"line":11},{"transit":false,"i_lat":-6.174784,"time":8,"station_name":"Pasar Senen","distance":1567,"station_id":"PSE","i_long":106.84368,"line":11,"is_transit":false},{"station_id":"KMO","is_transit":false,"i_lat":-6.161728,"i_long":106.839204,"time":4,"line":11,"station_name":"Kemayoran","transit":false,"distance":1436},{"transit":false,"i_lat":-6.14505,"distance":1901,"time":5,"i_long":106.836569,"is_transit":false,"line":11,"station_id":"RJW","station_name":"Rajawali"},{"i_lat":-6.132549,"time":3,"station_id":"KPB","transit":true,"distance":1444,"i_long":106.826365,"line":4,"station_name":"Kampung Bandan","is_transit":true},{"distance":4102,"station_name":"Angke","i_long":106.79867,"station_id":"AK","is_transit":false,"time":9,"line":1,"transit":false,"i_lat":-6.144674},{"station_name":"Duri","station_id":"DU","is_transit":false,"time":4,"i_long":106.800832,"transit":false,"i_lat":-6.155215,"line":1,"distance":1230},{"time":8,"i_lat":-6.185545,"i_long":106.811091,"distance":3632,"station_name":"Tanah Abang","station_id":"THB","transit":true,"line":1,"is_transit":true},{"is_transit":false,"line":6,"station_name":"Palmerah","i_lat":-6.207404,"transit":false,"time":6,"station_id":"PLM","i_long":106.79689,"distance":3191},{"line":6,"i_long":106.780334,"transit":false,"distance":3737,"station_name":"Kebayoran","station_id":"KBY","is_transit":false,"time":7,"i_lat":-6.237242},{"line":6,"i_long":106.74273,"station_name":"Pondokranji","station_id":"PDJ","is_transit":false,"time":8,"distance":6218,"i_lat":-6.276362,"transit":false},{"i_long":106.728916,"is_transit":false,"line":6,"distance":2179,"transit":false,"station_name":"Jurangmangu","time":3,"i_lat":-6.288927,"station_id":"JMU"},{"station_name":"Sudimara","transit":false,"distance":1994,"i_long":106.712277,"time":4,"i_lat":-6.296963,"station_id":"SDM","is_transit":false,"line":6},{"station_name":"Rawa Buntu","is_transit":false,"i_lat":-6.314823,"i_long":106.675475,"time":6,"transit":false,"line":6,"station_id":"RU","distance":4566},{"distance":2413,"is_transit":false,"i_lat":-6.319871,"time":4,"line":6,"i_long":106.66566,"station_id":"SRP","transit":false,"station_name":"Serpong"},{"station_name":"Cisauk","i_lat":-6.32484,"transit":false,"i_long":106.640411,"station_id":"CSK","distance":1784,"time":4,"line":3,"is_transit":false},{"station_name":"Cicayur","station_id":"CC","transit":false,"i_long":106.617853,"distance":2519,"i_lat":-6.329547,"is_transit":false,"time":4,"line":3},{"line":6,"is_transit":false,"station_name":"Parung Panjang","station_id":"PRP","i_long":106.568863,"distance":5968,"transit":false,"time":8,"i_lat":-6.3441410000000005},{"i_lat":-6.354349,"time":9,"station_name":"Cilejit","distance":7025,"is_transit":false,"i_long":106.508482,"transit":false,"line":3,"station_id":"CJT"},{"distance":2675,"station_name":"Daru","line":0,"time":6,"i_lat":-6.338021,"station_id":"DAR","transit":false,"is_transit":false,"i_long":106.491338},{"is_transit":false,"distance":3902,"transit":false,"i_long":106.460812,"station_id":"TEJ","time":5,"station_name":"Tenjo","i_lat":-6.327251,"line":6},{"i_lat":-6.328533,"time":5,"line":6,"station_name":"Tigaraksa","station_id":"TGS","distance":2974,"transit":false,"is_transit":false,"i_long":106.425991}]]}