{"data":[[{"i_long":106.85449,"station_id":"DRN","time":0,"distance":0,"is_transit":false,"station_name":"Duren Kalibata","line":2,"i_lat":-6.255332,"transit":false},{"transit":false,"station_name":"Cawang","station_id":"CW","i_lat":-6.242512,"distance":1546,"is_transit":false,"time":3,"i_long":106.856607,"line":2},{"i_long":106.857948,"time":2,"i_lat":-6.226659,"is_transit":false,"station_name":"Tebet","distance":1230,"line":2,"transit":false,"station_id":"TEB"},{"transit":true,"distance":2610,"i_lat":-6.209883,"time":4,"station_id":"MRI","is_transit":true,"i_long":106.84912,"station_name":"Manggarai","line":2},{"transit":false,"line":1,"i_long":106.858896,"time":2,"station_name":"Matraman","station_id":"MTR","i_lat":-6.212485,"distance":1275,"is_transit":false},{"station_id":"JNG","station_name":"Jatinegara","i_lat":-6.215091,"line":1,"distance":1377,"is_transit":true,"transit":true,"i_long":106.86807400000001,"time":8},{"distance":1236,"station_name":"Pondok Jati","i_lat":-6.209188,"i_long":106.861737,"station_id":"POK","line":11,"is_transit":false,"time":2,"transit":false},{"i_long":106.855437,"is_transit":false,"distance":1829,"time":2,"station_id":"KMT","station_name":"Kramat","transit":false,"i_lat":-6.193792,"line":11},{"station_name":"Gang Sentiong","i_lat":-6.185975,"distance":973,"i_long":106.850107,"time":1,"line":11,"station_id":"GST","transit":false,"is_transit":false}],[{"i_lat":-6.255332,"i_long":106.85449,"distance":0,"time":0,"station_id":"DRN","station_name":"Duren Kalibata","is_transit":false,"line":2,"transit":false},{"transit":false,"time":3,"is_transit":false,"i_lat":-6.242512,"line":2,"station_id":"CW","station_name":"Cawang","i_long":106.856607,"distance":1546},{"time":2,"station_name":"Tebet","is_transit":false,"transit":false,"line":2,"distance":1230,"i_long":106.857948,"i_lat":-6.226659,"station_id":"TEB"},{"transit":true,"station_name":"Manggarai","line":2,"time":4,"station_id":"MRI","distance":2610,"is_transit":true,"i_lat":-6.209883,"i_long":106.84912},{"time":4,"station_id":"SUD","transit":false,"i_lat":-6.202263,"is_transit":false,"i_long":106.822649,"distance":3186,"line":1,"station_name":"Sudirman"},{"station_name":"Sudirman Baru","i_lat":-6.201433,"distance":280,"transit":false,"i_long":106.819881,"line":1,"station_id":"SUDB","is_transit":false,"time":1},{"i_long":106.816351,"distance":471,"is_transit":false,"transit":false,"time":1,"i_lat":-6.20132,"station_name":"Karet","line":1,"station_id":"KAT"},{"station_id":"THB","i_lat":-6.185545,"is_transit":false,"transit":false,"i_long":106.811091,"line":1,"distance":2029,"station_name":"Tanah Abang","time":5},{"i_long":106.800832,"i_lat":-6.155215,"distance":3632,"station_id":"DU","station_name":"Duri","is_transit":false,"transit":false,"line":1,"time":8},{"transit":false,"is_transit":false,"i_long":106.79867,"distance":1230,"station_id":"AK","line":1,"time":4,"station_name":"Angke","i_lat":-6.144674},{"is_transit":true,"station_name":"Kampung Bandan","distance":4102,"time":9,"transit":true,"station_id":"KPB","i_long":106.826365,"line":4,"i_lat":-6.132549},{"transit":false,"i_long":106.836569,"distance":1444,"i_lat":-6.14505,"time":3,"is_transit":false,"station_name":"Rajawali","station_id":"RJW","line":11},{"i_long":106.839204,"transit":false,"line":11,"station_id":"KMO","distance":1901,"i_lat":-6.161728,"is_transit":false,"time":5,"station_name":"Kemayoran"},{"time":4,"distance":1436,"station_name":"Pasar Senen","i_lat":-6.174784,"station_id":"PSE","is_transit":false,"i_long":106.84368,"line":11,"transit":false},{"time":8,"is_transit":false,"distance":1567,"transit":false,"i_long":106.850107,"i_lat":-6.185975,"station_id":"GST","line":11,"station_name":"Gang Sentiong"}],[{"station_name":"Duren Kalibata","station_id":"DRN","time":0,"transit":false,"distance":0,"i_long":106.85449,"is_transit":false,"line":2,"i_lat":-6.255332},{"i_lat":-6.242512,"time":3,"transit":false,"station_name":"Cawang","is_transit":false,"distance":1546,"i_long":106.856607,"station_id":"CW","line":2},{"i_lat":-6.226659,"i_long":106.857948,"station_id":"TEB","station_name":"Tebet","time":2,"transit":false,"is_transit":false,"line":2,"distance":1230},{"is_transit":false,"transit":false,"station_id":"MRI","i_long":106.84912,"time":4,"line":2,"i_lat":-6.209883,"distance":2610,"station_name":"Manggarai"},{"transit":false,"station_id":"CKI","i_long":106.840169,"i_lat":-6.198556,"is_transit":false,"distance":1590,"line":2,"station_name":"Cikini","time":4},{"time":3,"line":2,"station_name":"Gondangdia","transit":false,"is_transit":false,"i_long":106.832183,"distance":1750,"station_id":"GDD","i_lat":-6.186295},{"transit":false,"station_name":"Juanda","time":4,"distance":2015,"i_lat":-6.166716,"station_id":"JUA","i_long":106.828284,"line":2,"is_transit":false},{"time":2,"is_transit":false,"transit":false,"i_long":106.827103,"station_name":"Sawah Besar","i_lat":-6.160725,"distance":1149,"line":2,"station_id":"SW"},{"station_name":"Manggabesar","i_long":106.82482,"transit":false,"station_id":"MGB","i_lat":-6.149769,"distance":906,"line":2,"is_transit":false,"time":2},{"time":2,"distance":1080,"station_name":"Jayakarta","station_id":"JAY","is_transit":false,"transit":false,"line":2,"i_long":106.820901,"i_lat":-6.141205},{"distance":1264,"station_id":"JAKK","i_long":106.812439,"station_name":"Jakarta Kota","time":4,"is_transit":true,"transit":true,"i_lat":-6.137569,"line":2},{"station_name":"Kampung Bandan","i_lat":-6.132549,"distance":1364,"i_long":106.826365,"time":3,"is_transit":true,"transit":true,"line":4,"station_id":"KPB"},{"station_id":"RJW","is_transit":false,"time":3,"i_long":106.836569,"distance":1444,"i_lat":-6.14505,"line":11,"station_name":"Rajawali","transit":false},{"station_name":"Kemayoran","transit":false,"is_transit":false,"i_lat":-6.161728,"station_id":"KMO","line":11,"time":5,"i_long":106.839204,"distance":1901},{"transit":false,"line":11,"station_name":"Pasar Senen","station_id":"PSE","time":4,"distance":1436,"is_transit":false,"i_lat":-6.174784,"i_long":106.84368},{"i_lat":-6.185975,"i_long":106.850107,"line":11,"station_id":"GST","transit":false,"station_name":"Gang Sentiong","distance":1567,"time":8,"is_transit":false}]]}