{"data":[[{"i_long":106.85449,"line":0,"transit":false,"i_lat":-6.255332,"station_name":"Duren Kalibata","distance":0,"station_id":"DRN","is_transit":false,"time":0},{"line":2,"i_lat":-6.263214,"station_id":"PSMB","time":2,"station_name":"Pasar Minggu Baru","is_transit":false,"i_long":106.851577,"distance":824,"transit":false},{"distance":2380,"transit":false,"time":2,"station_id":"PSM","i_lat":-6.2842400000000005,"is_transit":false,"line":2,"i_long":106.843999,"station_name":"Pasar Minggu"},{"station_name":"Tanjung Barat","time":4,"transit":false,"i_long":106.838896,"i_lat":-6.3080680000000005,"station_id":"TNT","distance":2820,"line":2,"is_transit":false},{"time":3,"transit":false,"i_long":106.832616,"station_name":"Lenteng Agung","line":2,"i_lat":-6.330363,"distance":2671,"station_id":"LNA","is_transit":false},{"line":2,"i_long":106.834175,"i_lat":-6.339291,"transit":false,"station_name":"Univ. Pancasila","station_id":"UP","distance":1029,"time":2,"is_transit":false},{"transit":false,"distance":2264,"is_transit":false,"time":3,"i_lat":-6.360749,"station_id":"UI","i_long":106.831474,"line":2,"station_name":"Univ. Indonesia"},{"distance":1109,"i_lat":-6.369073,"line":2,"is_transit":false,"transit":false,"station_name":"Pondok Cina","station_id":"POC","time":2,"i_long":106.831114},{"i_lat":-6.391065,"distance":2727,"i_long":106.819451,"time":4,"station_name":"Depokbaru","transit":false,"station_id":"DPB","line":0,"is_transit":false},{"station_id":"DP","distance":1584,"transit":false,"time":3,"i_lat":-6.405256,"station_name":"Depok","line":0,"is_transit":false,"i_long":106.816926},{"station_id":"CTA","distance":5084,"station_name":"Citayam","transit":false,"is_transit":true,"i_lat":-6.448811,"i_long":106.800298,"time":6,"line":1},{"time":5,"line":0,"distance":5197,"transit":false,"i_lat":-6.493243,"i_long":106.792719,"station_name":"Bojonggede","is_transit":false,"station_id":"BJD"},{"distance":4331,"station_id":"CLT","i_long":106.800016,"line":0,"i_lat":-6.530544,"is_transit":false,"station_name":"Cilebut","transit":false,"time":5}]]}