{"data":[[{"i_lat":-6.255332,"station_id":"DRN","time":0,"i_long":106.85449,"is_transit":false,"distance":0,"station_name":"Duren Kalibata","transit":false,"line":0},{"distance":1546,"time":3,"station_id":"CW","is_transit":false,"transit":false,"i_lat":-6.242512,"line":0,"i_long":106.856607,"station_name":"Cawang"},{"i_lat":-6.226659,"station_name":"Tebet","i_long":106.857948,"transit":false,"distance":1230,"station_id":"TEB","is_transit":false,"time":2,"line":2},{"i_lat":-6.209883,"distance":2610,"i_long":106.84912,"time":4,"transit":true,"station_id":"MRI","is_transit":true,"station_name":"Manggarai","line":0},{"i_long":106.822649,"distance":3186,"transit":false,"station_name":"Sudirman","time":4,"is_transit":false,"i_lat":-6.202263,"line":1,"station_id":"SUD"},{"transit":false,"line":1,"distance":280,"is_transit":false,"station_name":"Sudirman Baru","i_long":106.819881,"i_lat":-6.201433,"time":1,"station_id":"SUDB"},{"station_id":"KAT","time":1,"i_long":106.816351,"distance":471,"transit":false,"i_lat":-6.20132,"line":1,"station_name":"Karet","is_transit":false},{"station_name":"Tanah Abang","line":1,"time":5,"is_transit":true,"station_id":"THB","distance":2029,"transit":false,"i_lat":-6.185545,"i_long":106.811091},{"time":8,"station_name":"Duri","distance":3632,"transit":true,"i_long":106.800832,"line":1,"is_transit":true,"i_lat":-6.155215,"station_id":"DU"},{"transit":false,"i_long":106.788277,"station_name":"Grogol","is_transit":false,"station_id":"GGL","i_lat":-6.162021,"line":5,"time":3,"distance":1700},{"line":5,"is_transit":false,"station_name":"Pesing","i_long":106.771379,"time":2,"transit":false,"distance":2036,"i_lat":-6.161433,"station_id":"PSG"},{"distance":1614,"is_transit":false,"station_name":"Taman Kota","transit":false,"i_long":106.756522,"station_id":"TKO","line":5,"time":2,"i_lat":-6.1587309999999995},{"i_lat":-6.159876,"is_transit":false,"i_long":106.737035,"line":0,"distance":2334,"station_name":"Bojongindah","time":2,"station_id":"BOI","transit":false},{"station_id":"RW","station_name":"Rawa Buaya","time":4,"is_transit":false,"line":5,"distance":1152,"i_long":106.723064,"transit":false,"i_lat":-6.162758},{"is_transit":false,"distance":2504,"station_id":"KDS","station_name":"Kalideres","line":5,"time":3,"i_long":106.701612,"transit":false,"i_lat":-6.166068},{"station_name":"Poris","transit":false,"distance":2548,"time":3,"is_transit":false,"i_lat":-6.169933,"station_id":"PI","line":5,"i_long":106.679458},{"i_long":106.665036,"is_transit":false,"time":3,"station_id":"BPR","transit":false,"distance":1834,"i_lat":-6.171811,"station_name":"Batuceper","line":0}],[{"time":0,"i_lat":-6.255332,"station_name":"Duren Kalibata","i_long":106.85449,"is_transit":false,"station_id":"DRN","distance":0,"line":0,"transit":false},{"time":3,"i_long":106.856607,"line":0,"is_transit":false,"distance":1546,"transit":false,"station_name":"Cawang","station_id":"CW","i_lat":-6.242512},{"is_transit":false,"station_name":"Tebet","distance":1230,"line":2,"i_long":106.857948,"time":2,"transit":false,"i_lat":-6.226659,"station_id":"TEB"},{"is_transit":true,"line":0,"transit":true,"station_name":"Manggarai","i_lat":-6.209883,"time":4,"distance":2610,"i_long":106.84912,"station_id":"MRI"},{"transit":false,"line":0,"time":4,"is_transit":false,"i_lat":-6.198556,"station_id":"CKI","i_long":106.840169,"station_name":"Cikini","distance":1590},{"distance":1750,"station_name":"Gondangdia","i_long":106.832183,"station_id":"GDD","is_transit":false,"transit":false,"line":2,"i_lat":-6.186295,"time":3},{"i_long":106.828284,"transit":false,"i_lat":-6.166716,"station_name":"Juanda","line":2,"station_id":"JUA","time":4,"distance":2015,"is_transit":false},{"station_name":"Sawah Besar","time":2,"i_long":106.827103,"transit":false,"line":2,"distance":1149,"is_transit":false,"i_lat":-6.160725,"station_id":"SW"},{"station_name":"Manggabesar","is_transit":false,"line":2,"station_id":"MGB","i_long":106.82482,"time":2,"distance":906,"transit":false,"i_lat":-6.149769},{"station_id":"JAY","time":2,"line":7,"transit":false,"station_name":"Jayakarta","distance":1080,"i_lat":-6.141205,"i_long":106.820901,"is_transit":false},{"i_long":106.812439,"is_transit":true,"transit":true,"i_lat":-6.137569,"station_name":"Jakarta Kota","distance":1264,"station_id":"JAKK","time":4,"line":0},{"line":0,"time":3,"station_name":"Kampung Bandan","is_transit":true,"i_long":106.826365,"station_id":"KPB","distance":1364,"transit":false,"i_lat":-6.132549},{"i_long":106.79867,"distance":4102,"is_transit":false,"station_id":"AK","line":0,"transit":false,"station_name":"Angke","i_lat":-6.144674,"time":9},{"station_id":"DU","station_name":"Duri","is_transit":true,"transit":true,"i_long":106.800832,"i_lat":-6.155215,"distance":1230,"time":4,"line":1},{"time":3,"distance":1700,"station_name":"Grogol","station_id":"GGL","transit":false,"line":5,"is_transit":false,"i_long":106.788277,"i_lat":-6.162021},{"distance":2036,"time":2,"transit":false,"i_lat":-6.161433,"i_long":106.771379,"line":5,"station_id":"PSG","is_transit":false,"station_name":"Pesing"},{"station_name":"Taman Kota","transit":false,"time":2,"i_lat":-6.1587309999999995,"is_transit":false,"line":5,"distance":1614,"station_id":"TKO","i_long":106.756522},{"transit":false,"i_lat":-6.159876,"time":2,"i_long":106.737035,"line":0,"distance":2334,"station_id":"BOI","is_transit":false,"station_name":"Bojongindah"},{"station_name":"Rawa Buaya","transit":false,"time":4,"distance":1152,"i_long":106.723064,"line":5,"is_transit":false,"i_lat":-6.162758,"station_id":"RW"},{"is_transit":false,"distance":2504,"i_long":106.701612,"station_id":"KDS","time":3,"i_lat":-6.166068,"transit":false,"line":5,"station_name":"Kalideres"},{"station_name":"Poris","time":3,"transit":false,"is_transit":false,"i_long":106.679458,"station_id":"PI","i_lat":-6.169933,"distance":2548,"line":5},{"station_name":"Batuceper","station_id":"BPR","transit":false,"line":0,"is_transit":false,"time":3,"i_lat":-6.171811,"i_long":106.665036,"distance":1834}],[{"time":0,"station_id":"DRN","is_transit":false,"distance":0,"station_name":"Duren Kalibata","i_lat":-6.255332,"i_long":106.85449,"line":0,"transit":false},{"time":3,"is_transit":false,"transit":false,"station_id":"CW","distance":1546,"i_lat":-6.242512,"i_long":106.856607,"line":0,"station_name":"Cawang"},{"i_long":106.857948,"is_transit":false,"transit":false,"distance":1230,"line":2,"time":2,"i_lat":-6.226659,"station_name":"Tebet","station_id":"TEB"},{"time":4,"i_long":106.84912,"station_id":"MRI","distance":2610,"i_lat":-6.209883,"line":0,"transit":true,"is_transit":true,"station_name":"Manggarai"},{"i_long":106.858896,"line":1,"transit":false,"station_id":"MTR","is_transit":false,"distance":1275,"station_name":"Matraman","i_lat":-6.212485,"time":2},{"station_name":"Jatinegara","is_transit":true,"i_long":106.86807400000001,"i_lat":-6.215091,"station_id":"JNG","transit":true,"time":8,"distance":1377,"line":0},{"is_transit":false,"line":11,"i_lat":-6.209188,"i_long":106.861737,"time":2,"station_name":"Pondok Jati","station_id":"POK","distance":1236,"transit":false},{"station_name":"Kramat","i_long":106.855437,"line":11,"distance":1829,"time":2,"transit":false,"i_lat":-6.193792,"station_id":"KMT","is_transit":false},{"i_lat":-6.185975,"is_transit":false,"time":1,"distance":973,"i_long":106.850107,"station_name":"Gang Sentiong","line":11,"transit":false,"station_id":"GST"},{"station_id":"PSE","is_transit":false,"station_name":"Pasar Senen","time":8,"distance":1567,"transit":false,"i_lat":-6.174784,"i_long":106.84368,"line":11},{"station_name":"Kemayoran","station_id":"KMO","is_transit":false,"transit":false,"line":11,"time":4,"i_long":106.839204,"distance":1436,"i_lat":-6.161728},{"is_transit":false,"line":11,"i_long":106.836569,"transit":false,"station_name":"Rajawali","time":5,"i_lat":-6.14505,"station_id":"RJW","distance":1901},{"line":0,"station_name":"Kampung Bandan","station_id":"KPB","transit":true,"time":3,"i_long":106.826365,"is_transit":true,"i_lat":-6.132549,"distance":1444},{"time":9,"i_long":106.79867,"distance":4102,"station_id":"AK","is_transit":false,"station_name":"Angke","i_lat":-6.144674,"transit":false,"line":0},{"transit":true,"distance":1230,"i_long":106.800832,"line":1,"time":4,"i_lat":-6.155215,"station_name":"Duri","is_transit":true,"station_id":"DU"},{"is_transit":false,"i_lat":-6.162021,"time":3,"line":5,"i_long":106.788277,"distance":1700,"station_id":"GGL","transit":false,"station_name":"Grogol"},{"station_name":"Pesing","time":2,"line":5,"is_transit":false,"transit":false,"i_long":106.771379,"distance":2036,"i_lat":-6.161433,"station_id":"PSG"},{"distance":1614,"is_transit":false,"i_lat":-6.1587309999999995,"station_id":"TKO","station_name":"Taman Kota","time":2,"transit":false,"i_long":106.756522,"line":5},{"i_long":106.737035,"time":2,"line":0,"station_name":"Bojongindah","i_lat":-6.159876,"distance":2334,"transit":false,"is_transit":false,"station_id":"BOI"},{"distance":1152,"transit":false,"is_transit":false,"time":4,"station_id":"RW","i_lat":-6.162758,"line":5,"i_long":106.723064,"station_name":"Rawa Buaya"},{"station_id":"KDS","station_name":"Kalideres","i_long":106.701612,"i_lat":-6.166068,"time":3,"line":5,"transit":false,"distance":2504,"is_transit":false},{"time":3,"transit":false,"station_name":"Poris","distance":2548,"is_transit":false,"i_lat":-6.169933,"i_long":106.679458,"line":5,"station_id":"PI"},{"i_long":106.665036,"time":3,"is_transit":false,"transit":false,"line":0,"station_id":"BPR","i_lat":-6.171811,"distance":1834,"station_name":"Batuceper"}]]}