{"data":[[{"time":0,"distance":0,"i_long":106.85449,"line":0,"station_id":"DRN","station_name":"Duren Kalibata","i_lat":-6.255332,"transit":false,"is_transit":false},{"time":3,"i_long":106.856607,"transit":false,"line":0,"station_name":"Cawang","is_transit":false,"i_lat":-6.242512,"distance":1546,"station_id":"CW"},{"distance":1230,"transit":false,"station_id":"TEB","is_transit":false,"station_name":"Tebet","line":2,"time":2,"i_lat":-6.226659,"i_long":106.857948},{"station_id":"MRI","is_transit":true,"i_long":106.84912,"time":4,"distance":2610,"station_name":"Manggarai","transit":true,"line":0,"i_lat":-6.209883},{"i_long":106.822649,"distance":3186,"i_lat":-6.202263,"station_id":"SUD","station_name":"Sudirman","line":1,"time":4,"transit":false,"is_transit":false},{"time":1,"station_id":"SUDB","distance":280,"station_name":"Sudirman Baru","line":1,"i_lat":-6.201433,"i_long":106.819881,"transit":false,"is_transit":false},{"i_lat":-6.20132,"station_id":"KAT","station_name":"Karet","is_transit":false,"line":1,"transit":false,"distance":471,"i_long":106.816351,"time":1},{"station_name":"Tanah Abang","station_id":"THB","transit":true,"i_lat":-6.185545,"i_long":106.811091,"time":5,"distance":2029,"line":1,"is_transit":true},{"transit":false,"time":6,"line":6,"station_id":"PLM","is_transit":false,"i_lat":-6.207404,"i_long":106.79689,"distance":3191,"station_name":"Palmerah"},{"i_long":106.780334,"transit":false,"i_lat":-6.237242,"station_id":"KBY","time":7,"station_name":"Kebayoran","is_transit":false,"distance":3737,"line":6}],[{"i_long":106.85449,"line":0,"distance":0,"station_name":"Duren Kalibata","transit":false,"is_transit":false,"i_lat":-6.255332,"station_id":"DRN","time":0},{"transit":false,"time":3,"station_id":"CW","distance":1546,"is_transit":false,"station_name":"Cawang","i_long":106.856607,"line":0,"i_lat":-6.242512},{"station_id":"TEB","time":2,"station_name":"Tebet","is_transit":false,"i_lat":-6.226659,"transit":false,"i_long":106.857948,"line":2,"distance":1230},{"station_name":"Manggarai","i_long":106.84912,"line":0,"is_transit":true,"i_lat":-6.209883,"time":4,"station_id":"MRI","distance":2610,"transit":true},{"time":4,"station_id":"CKI","station_name":"Cikini","line":0,"is_transit":false,"i_long":106.840169,"i_lat":-6.198556,"distance":1590,"transit":false},{"transit":false,"i_lat":-6.186295,"is_transit":false,"station_name":"Gondangdia","station_id":"GDD","distance":1750,"i_long":106.832183,"time":3,"line":2},{"i_long":106.828284,"line":2,"is_transit":false,"time":4,"i_lat":-6.166716,"station_name":"Juanda","station_id":"JUA","transit":false,"distance":2015},{"distance":1149,"i_lat":-6.160725,"station_id":"SW","time":2,"i_long":106.827103,"transit":false,"line":2,"is_transit":false,"station_name":"Sawah Besar"},{"line":2,"i_lat":-6.149769,"is_transit":false,"station_name":"Manggabesar","station_id":"MGB","i_long":106.82482,"distance":906,"time":2,"transit":false},{"station_name":"Jayakarta","station_id":"JAY","time":2,"i_lat":-6.141205,"transit":false,"distance":1080,"line":7,"is_transit":false,"i_long":106.820901},{"station_id":"JAKK","line":0,"time":4,"distance":1264,"transit":true,"i_long":106.812439,"station_name":"Jakarta Kota","i_lat":-6.137569,"is_transit":true},{"is_transit":true,"line":0,"i_lat":-6.132549,"station_id":"KPB","transit":false,"distance":1364,"i_long":106.826365,"time":3,"station_name":"Kampung Bandan"},{"distance":4102,"i_lat":-6.144674,"i_long":106.79867,"time":9,"station_id":"AK","transit":false,"line":0,"is_transit":false,"station_name":"Angke"},{"distance":1230,"line":1,"is_transit":true,"time":4,"i_lat":-6.155215,"station_name":"Duri","i_long":106.800832,"station_id":"DU","transit":true},{"i_lat":-6.185545,"line":1,"i_long":106.811091,"station_id":"THB","transit":true,"station_name":"Tanah Abang","time":8,"is_transit":true,"distance":3632},{"station_id":"PLM","time":6,"distance":3191,"transit":false,"is_transit":false,"station_name":"Palmerah","line":6,"i_long":106.79689,"i_lat":-6.207404},{"transit":false,"is_transit":false,"i_long":106.780334,"i_lat":-6.237242,"station_name":"Kebayoran","station_id":"KBY","line":6,"time":7,"distance":3737}],[{"i_lat":-6.255332,"distance":0,"transit":false,"time":0,"station_name":"Duren Kalibata","line":0,"i_long":106.85449,"is_transit":false,"station_id":"DRN"},{"is_transit":false,"line":0,"i_long":106.856607,"time":3,"station_id":"CW","i_lat":-6.242512,"distance":1546,"station_name":"Cawang","transit":false},{"distance":1230,"transit":false,"i_lat":-6.226659,"i_long":106.857948,"line":2,"station_id":"TEB","is_transit":false,"time":2,"station_name":"Tebet"},{"time":4,"i_lat":-6.209883,"i_long":106.84912,"distance":2610,"line":0,"station_name":"Manggarai","station_id":"MRI","is_transit":true,"transit":true},{"distance":1275,"line":1,"transit":false,"i_long":106.858896,"station_id":"MTR","time":2,"i_lat":-6.212485,"is_transit":false,"station_name":"Matraman"},{"station_name":"Jatinegara","transit":true,"i_long":106.86807400000001,"line":0,"distance":1377,"is_transit":true,"time":8,"i_lat":-6.215091,"station_id":"JNG"},{"transit":false,"distance":1236,"time":2,"line":11,"station_id":"POK","is_transit":false,"station_name":"Pondok Jati","i_lat":-6.209188,"i_long":106.861737},{"station_id":"KMT","transit":false,"i_lat":-6.193792,"i_long":106.855437,"is_transit":false,"time":2,"line":11,"distance":1829,"station_name":"Kramat"},{"distance":973,"i_lat":-6.185975,"i_long":106.850107,"station_id":"GST","station_name":"Gang Sentiong","transit":false,"line":11,"is_transit":false,"time":1},{"is_transit":false,"station_name":"Pasar Senen","station_id":"PSE","i_lat":-6.174784,"distance":1567,"i_long":106.84368,"transit":false,"line":11,"time":8},{"time":4,"station_name":"Kemayoran","station_id":"KMO","i_lat":-6.161728,"i_long":106.839204,"distance":1436,"transit":false,"line":11,"is_transit":false},{"i_long":106.836569,"transit":false,"station_name":"Rajawali","i_lat":-6.14505,"is_transit":false,"time":5,"distance":1901,"station_id":"RJW","line":11},{"time":3,"is_transit":true,"station_id":"KPB","i_long":106.826365,"i_lat":-6.132549,"distance":1444,"station_name":"Kampung Bandan","transit":true,"line":0},{"i_lat":-6.144674,"is_transit":false,"station_id":"AK","time":9,"station_name":"Angke","i_long":106.79867,"line":0,"distance":4102,"transit":false},{"is_transit":true,"i_lat":-6.155215,"distance":1230,"station_name":"Duri","line":1,"time":4,"transit":true,"i_long":106.800832,"station_id":"DU"},{"line":1,"transit":true,"distance":3632,"i_long":106.811091,"is_transit":true,"station_id":"THB","i_lat":-6.185545,"station_name":"Tanah Abang","time":8},{"i_lat":-6.207404,"distance":3191,"transit":false,"i_long":106.79689,"time":6,"station_id":"PLM","station_name":"Palmerah","line":6,"is_transit":false},{"station_id":"KBY","i_long":106.780334,"distance":3737,"line":6,"transit":false,"i_lat":-6.237242,"time":7,"station_name":"Kebayoran","is_transit":false}]]}