{"data":[[{"distance":0,"i_lat":-6.255332,"time":0,"station_id":"DRN","line":2,"station_name":"Duren Kalibata","i_long":106.85449,"is_transit":false,"transit":false},{"i_lat":-6.242512,"line":2,"station_id":"CW","transit":false,"distance":1546,"time":3,"i_long":106.856607,"station_name":"Cawang","is_transit":false},{"i_lat":-6.226659,"time":2,"is_transit":false,"i_long":106.857948,"line":2,"station_id":"TEB","distance":1230,"station_name":"Tebet","transit":false},{"distance":2610,"transit":true,"is_transit":true,"line":2,"i_long":106.84912,"time":4,"i_lat":-6.209883,"station_id":"MRI","station_name":"Manggarai"},{"i_lat":-6.202263,"station_id":"SUD","line":1,"station_name":"Sudirman","transit":false,"time":4,"i_long":106.822649,"distance":3186,"is_transit":false},{"i_long":106.819881,"distance":280,"station_name":"Sudirman Baru","transit":false,"i_lat":-6.201433,"line":1,"is_transit":false,"time":1,"station_id":"SUDB"},{"is_transit":false,"i_long":106.816351,"station_id":"KAT","i_lat":-6.20132,"time":1,"station_name":"Karet","transit":false,"distance":471,"line":1},{"station_name":"Tanah Abang","line":1,"station_id":"THB","distance":2029,"is_transit":false,"i_lat":-6.185545,"i_long":106.811091,"time":5,"transit":false},{"transit":true,"distance":3632,"is_transit":true,"time":8,"station_id":"DU","line":1,"station_name":"Duri","i_long":106.800832,"i_lat":-6.155215},{"line":5,"distance":1700,"station_id":"GGL","i_lat":-6.162021,"time":3,"i_long":106.788277,"transit":false,"station_name":"Grogol","is_transit":false},{"i_long":106.771379,"line":5,"station_id":"PSG","i_lat":-6.161433,"station_name":"Pesing","transit":false,"time":2,"distance":2036,"is_transit":false},{"station_name":"Taman Kota","distance":1614,"station_id":"TKO","line":5,"time":2,"transit":false,"is_transit":false,"i_lat":-6.1587309999999995,"i_long":106.756522},{"distance":2334,"i_lat":-6.159876,"i_long":106.737035,"station_name":"Bojongindah","is_transit":false,"transit":false,"station_id":"BOI","line":5,"time":2},{"line":5,"i_long":106.723064,"distance":1152,"station_name":"Rawa Buaya","station_id":"RW","is_transit":false,"time":4,"i_lat":-6.162758,"transit":false}],[{"time":0,"i_long":106.85449,"line":2,"transit":false,"station_name":"Duren Kalibata","distance":0,"station_id":"DRN","is_transit":false,"i_lat":-6.255332},{"i_long":106.856607,"i_lat":-6.242512,"is_transit":false,"time":3,"station_id":"CW","station_name":"Cawang","transit":false,"line":2,"distance":1546},{"station_id":"TEB","i_long":106.857948,"is_transit":false,"transit":false,"time":2,"station_name":"Tebet","line":2,"distance":1230,"i_lat":-6.226659},{"station_name":"Manggarai","transit":false,"i_lat":-6.209883,"i_long":106.84912,"line":2,"station_id":"MRI","is_transit":false,"time":4,"distance":2610},{"station_name":"Cikini","station_id":"CKI","transit":false,"line":2,"i_long":106.840169,"distance":1590,"i_lat":-6.198556,"is_transit":false,"time":4},{"time":3,"is_transit":false,"transit":false,"station_name":"Gondangdia","i_lat":-6.186295,"station_id":"GDD","i_long":106.832183,"line":2,"distance":1750},{"time":4,"distance":2015,"i_lat":-6.166716,"i_long":106.828284,"station_name":"Juanda","line":2,"station_id":"JUA","is_transit":false,"transit":false},{"distance":1149,"station_id":"SW","station_name":"Sawah Besar","is_transit":false,"time":2,"transit":false,"i_lat":-6.160725,"i_long":106.827103,"line":2},{"station_name":"Manggabesar","distance":906,"i_long":106.82482,"is_transit":false,"transit":false,"i_lat":-6.149769,"station_id":"MGB","line":2,"time":2},{"i_lat":-6.141205,"distance":1080,"transit":false,"i_long":106.820901,"is_transit":false,"time":2,"station_id":"JAY","station_name":"Jayakarta","line":2},{"station_id":"JAKK","line":2,"time":4,"i_lat":-6.137569,"is_transit":true,"transit":true,"i_long":106.812439,"distance":1264,"station_name":"Jakarta Kota"},{"time":3,"i_long":106.826365,"line":4,"distance":1364,"station_id":"KPB","is_transit":true,"station_name":"Kampung Bandan","transit":true,"i_lat":-6.132549},{"station_id":"AK","i_lat":-6.144674,"line":1,"station_name":"Angke","transit":false,"i_long":106.79867,"is_transit":false,"time":9,"distance":4102},{"distance":1230,"is_transit":true,"transit":true,"i_lat":-6.155215,"i_long":106.800832,"line":1,"time":4,"station_id":"DU","station_name":"Duri"},{"station_id":"GGL","line":5,"i_long":106.788277,"transit":false,"i_lat":-6.162021,"station_name":"Grogol","is_transit":false,"time":3,"distance":1700},{"distance":2036,"station_id":"PSG","is_transit":false,"transit":false,"line":5,"time":2,"i_lat":-6.161433,"i_long":106.771379,"station_name":"Pesing"},{"line":5,"is_transit":false,"transit":false,"distance":1614,"i_lat":-6.1587309999999995,"time":2,"station_name":"Taman Kota","station_id":"TKO","i_long":106.756522},{"transit":false,"station_name":"Bojongindah","station_id":"BOI","is_transit":false,"i_lat":-6.159876,"time":2,"distance":2334,"i_long":106.737035,"line":5},{"line":5,"i_long":106.723064,"time":4,"distance":1152,"station_name":"Rawa Buaya","station_id":"RW","transit":false,"i_lat":-6.162758,"is_transit":false}],[{"is_transit":false,"time":0,"line":2,"i_lat":-6.255332,"station_name":"Duren Kalibata","station_id":"DRN","distance":0,"i_long":106.85449,"transit":false},{"is_transit":false,"i_lat":-6.242512,"transit":false,"time":3,"line":2,"station_id":"CW","station_name":"Cawang","i_long":106.856607,"distance":1546},{"i_long":106.857948,"is_transit":false,"i_lat":-6.226659,"time":2,"distance":1230,"station_name":"Tebet","line":2,"station_id":"TEB","transit":false},{"distance":2610,"line":2,"is_transit":true,"time":4,"station_name":"Manggarai","i_lat":-6.209883,"i_long":106.84912,"station_id":"MRI","transit":true},{"station_name":"Matraman","i_lat":-6.212485,"distance":1275,"time":2,"station_id":"MTR","i_long":106.858896,"line":1,"is_transit":false,"transit":false},{"is_transit":true,"time":8,"distance":1377,"station_id":"JNG","i_lat":-6.215091,"line":1,"transit":true,"station_name":"Jatinegara","i_long":106.86807400000001},{"station_id":"POK","station_name":"Pondok Jati","distance":1236,"i_long":106.861737,"line":11,"is_transit":false,"time":2,"i_lat":-6.209188,"transit":false},{"station_name":"Kramat","i_lat":-6.193792,"is_transit":false,"time":2,"station_id":"KMT","line":11,"i_long":106.855437,"distance":1829,"transit":false},{"station_id":"GST","distance":973,"i_lat":-6.185975,"is_transit":false,"station_name":"Gang Sentiong","transit":false,"i_long":106.850107,"time":1,"line":11},{"i_lat":-6.174784,"i_long":106.84368,"distance":1567,"station_name":"Pasar Senen","is_transit":false,"time":8,"station_id":"PSE","line":11,"transit":false},{"station_name":"Kemayoran","time":4,"station_id":"KMO","is_transit":false,"transit":false,"i_lat":-6.161728,"distance":1436,"line":11,"i_long":106.839204},{"line":11,"station_name":"Rajawali","station_id":"RJW","distance":1901,"i_lat":-6.14505,"i_long":106.836569,"is_transit":false,"transit":false,"time":5},{"is_transit":true,"line":4,"station_id":"KPB","i_lat":-6.132549,"transit":true,"distance":1444,"i_long":106.826365,"time":3,"station_name":"Kampung Bandan"},{"line":1,"distance":4102,"station_id":"AK","i_lat":-6.144674,"station_name":"Angke","time":9,"transit":false,"is_transit":false,"i_long":106.79867},{"i_lat":-6.155215,"i_long":106.800832,"station_id":"DU","distance":1230,"time":4,"station_name":"Duri","is_transit":true,"transit":true,"line":1},{"is_transit":false,"i_lat":-6.162021,"line":5,"distance":1700,"station_name":"Grogol","transit":false,"station_id":"GGL","i_long":106.788277,"time":3},{"is_transit":false,"station_id":"PSG","time":2,"station_name":"Pesing","transit":false,"i_lat":-6.161433,"i_long":106.771379,"distance":2036,"line":5},{"line":5,"transit":false,"station_name":"Taman Kota","i_long":106.756522,"distance":1614,"is_transit":false,"time":2,"station_id":"TKO","i_lat":-6.1587309999999995},{"line":5,"is_transit":false,"time":2,"i_long":106.737035,"station_name":"Bojongindah","i_lat":-6.159876,"distance":2334,"station_id":"BOI","transit":false},{"time":4,"i_long":106.723064,"transit":false,"distance":1152,"is_transit":false,"line":5,"station_name":"Rawa Buaya","i_lat":-6.162758,"station_id":"RW"}]]}