{"data":[[{"station_id":"DRN","distance":0,"transit":false,"i_long":106.85449,"station_name":"Duren Kalibata","i_lat":-6.255332,"line":0,"is_transit":false,"time":0},{"station_id":"CW","station_name":"Cawang","transit":false,"i_long":106.856607,"line":0,"time":3,"is_transit":false,"distance":1546,"i_lat":-6.242512},{"station_name":"Tebet","i_lat":-6.226659,"i_long":106.857948,"distance":1230,"line":2,"transit":false,"station_id":"TEB","is_transit":false,"time":2},{"station_id":"MRI","i_long":106.84912,"station_name":"Manggarai","is_transit":true,"transit":true,"i_lat":-6.209883,"line":0,"time":4,"distance":2610},{"i_long":106.822649,"station_name":"Sudirman","i_lat":-6.202263,"line":1,"station_id":"SUD","time":4,"distance":3186,"is_transit":false,"transit":false}],[{"station_name":"Duren Kalibata","line":0,"station_id":"DRN","is_transit":false,"distance":0,"i_long":106.85449,"i_lat":-6.255332,"transit":false,"time":0},{"i_lat":-6.242512,"i_long":106.856607,"transit":false,"station_id":"CW","distance":1546,"is_transit":false,"station_name":"Cawang","line":0,"time":3},{"station_id":"TEB","i_long":106.857948,"station_name":"Tebet","distance":1230,"i_lat":-6.226659,"line":2,"is_transit":false,"transit":false,"time":2},{"i_long":106.84912,"distance":2610,"i_lat":-6.209883,"transit":true,"station_id":"MRI","line":0,"station_name":"Manggarai","is_transit":true,"time":4},{"line":0,"distance":1590,"transit":false,"i_lat":-6.198556,"i_long":106.840169,"is_transit":false,"time":4,"station_id":"CKI","station_name":"Cikini"},{"station_id":"GDD","is_transit":false,"transit":false,"station_name":"Gondangdia","time":3,"i_long":106.832183,"distance":1750,"i_lat":-6.186295,"line":2},{"line":2,"time":4,"station_id":"JUA","i_long":106.828284,"station_name":"Juanda","i_lat":-6.166716,"distance":2015,"is_transit":false,"transit":false},{"distance":1149,"station_name":"Sawah Besar","i_long":106.827103,"line":2,"is_transit":false,"station_id":"SW","i_lat":-6.160725,"time":2,"transit":false},{"distance":906,"transit":false,"i_lat":-6.149769,"is_transit":false,"line":2,"i_long":106.82482,"time":2,"station_id":"MGB","station_name":"Manggabesar"},{"i_lat":-6.141205,"line":7,"station_id":"JAY","distance":1080,"time":2,"is_transit":false,"transit":false,"station_name":"Jayakarta","i_long":106.820901},{"transit":true,"time":4,"i_long":106.812439,"is_transit":true,"line":0,"station_name":"Jakarta Kota","distance":1264,"i_lat":-6.137569,"station_id":"JAKK"},{"distance":1364,"i_lat":-6.132549,"line":0,"i_long":106.826365,"is_transit":true,"station_name":"Kampung Bandan","transit":false,"time":3,"station_id":"KPB"},{"line":0,"i_lat":-6.144674,"distance":4102,"transit":false,"station_name":"Angke","i_long":106.79867,"station_id":"AK","is_transit":false,"time":9},{"distance":1230,"line":1,"time":4,"i_lat":-6.155215,"station_id":"DU","is_transit":true,"i_long":106.800832,"station_name":"Duri","transit":true},{"is_transit":true,"line":1,"i_long":106.811091,"distance":3632,"station_name":"Tanah Abang","transit":false,"station_id":"THB","time":8,"i_lat":-6.185545},{"transit":false,"station_name":"Karet","station_id":"KAT","time":5,"i_lat":-6.20132,"i_long":106.816351,"distance":2029,"line":1,"is_transit":false},{"transit":false,"is_transit":false,"station_id":"SUDB","distance":471,"station_name":"Sudirman Baru","i_lat":-6.201433,"line":1,"i_long":106.819881,"time":1},{"i_long":106.822649,"line":1,"is_transit":false,"i_lat":-6.202263,"time":1,"distance":280,"transit":false,"station_name":"Sudirman","station_id":"SUD"}],[{"station_id":"DRN","distance":0,"is_transit":false,"transit":false,"line":0,"station_name":"Duren Kalibata","i_lat":-6.255332,"time":0,"i_long":106.85449},{"is_transit":false,"transit":false,"time":3,"i_long":106.856607,"line":0,"station_name":"Cawang","distance":1546,"i_lat":-6.242512,"station_id":"CW"},{"transit":false,"line":2,"i_lat":-6.226659,"i_long":106.857948,"distance":1230,"is_transit":false,"station_name":"Tebet","station_id":"TEB","time":2},{"station_id":"MRI","is_transit":true,"time":4,"station_name":"Manggarai","transit":true,"line":0,"distance":2610,"i_lat":-6.209883,"i_long":106.84912},{"line":1,"i_long":106.858896,"station_id":"MTR","time":2,"transit":false,"i_lat":-6.212485,"is_transit":false,"station_name":"Matraman","distance":1275},{"transit":true,"station_name":"Jatinegara","time":8,"distance":1377,"i_lat":-6.215091,"station_id":"JNG","i_long":106.86807400000001,"line":0,"is_transit":true},{"station_id":"POK","line":11,"time":2,"distance":1236,"station_name":"Pondok Jati","i_long":106.861737,"transit":false,"is_transit":false,"i_lat":-6.209188},{"time":2,"i_lat":-6.193792,"distance":1829,"station_id":"KMT","is_transit":false,"station_name":"Kramat","i_long":106.855437,"line":11,"transit":false},{"transit":false,"time":1,"distance":973,"station_name":"Gang Sentiong","i_lat":-6.185975,"is_transit":false,"i_long":106.850107,"line":11,"station_id":"GST"},{"transit":false,"station_id":"PSE","station_name":"Pasar Senen","line":11,"is_transit":false,"time":8,"distance":1567,"i_long":106.84368,"i_lat":-6.174784},{"is_transit":false,"distance":1436,"i_long":106.839204,"station_name":"Kemayoran","station_id":"KMO","transit":false,"line":11,"time":4,"i_lat":-6.161728},{"line":11,"i_long":106.836569,"distance":1901,"station_name":"Rajawali","transit":false,"i_lat":-6.14505,"is_transit":false,"station_id":"RJW","time":5},{"station_name":"Kampung Bandan","i_long":106.826365,"station_id":"KPB","line":0,"i_lat":-6.132549,"transit":true,"is_transit":true,"time":3,"distance":1444},{"i_lat":-6.144674,"station_id":"AK","distance":4102,"transit":false,"line":0,"station_name":"Angke","is_transit":false,"i_long":106.79867,"time":9},{"station_id":"DU","is_transit":true,"line":1,"distance":1230,"station_name":"Duri","transit":true,"time":4,"i_long":106.800832,"i_lat":-6.155215},{"line":1,"station_name":"Tanah Abang","i_long":106.811091,"is_transit":true,"distance":3632,"transit":false,"station_id":"THB","i_lat":-6.185545,"time":8},{"station_name":"Karet","time":5,"line":1,"is_transit":false,"station_id":"KAT","i_long":106.816351,"distance":2029,"transit":false,"i_lat":-6.20132},{"is_transit":false,"station_name":"Sudirman Baru","i_long":106.819881,"station_id":"SUDB","time":1,"line":1,"transit":false,"distance":471,"i_lat":-6.201433},{"transit":false,"is_transit":false,"distance":280,"station_name":"Sudirman","station_id":"SUD","i_long":106.822649,"time":1,"i_lat":-6.202263,"line":1}]]}