{"data":[[{"transit":false,"is_transit":false,"line":0,"station_name":"Duren Kalibata","i_lat":-6.255332,"i_long":106.85449,"distance":0,"station_id":"DRN","time":0},{"i_lat":-6.242512,"distance":1546,"station_id":"CW","transit":false,"time":3,"i_long":106.856607,"line":0,"station_name":"Cawang","is_transit":false},{"is_transit":false,"station_name":"Tebet","line":2,"i_long":106.857948,"time":2,"station_id":"TEB","i_lat":-6.226659,"transit":false,"distance":1230},{"station_id":"MRI","distance":2610,"transit":true,"i_lat":-6.209883,"line":0,"station_name":"Manggarai","is_transit":true,"time":4,"i_long":106.84912},{"station_id":"SUD","i_long":106.822649,"is_transit":false,"distance":3186,"time":4,"station_name":"Sudirman","line":1,"transit":false,"i_lat":-6.202263},{"transit":false,"i_long":106.819881,"station_name":"Sudirman Baru","distance":280,"is_transit":false,"i_lat":-6.201433,"time":1,"line":1,"station_id":"SUDB"},{"distance":471,"station_name":"Karet","i_lat":-6.20132,"time":1,"line":1,"station_id":"KAT","i_long":106.816351,"is_transit":false,"transit":false},{"transit":true,"time":5,"distance":2029,"is_transit":true,"station_name":"Tanah Abang","line":1,"station_id":"THB","i_lat":-6.185545,"i_long":106.811091},{"station_id":"PLM","line":6,"i_lat":-6.207404,"station_name":"Palmerah","transit":false,"is_transit":false,"distance":3191,"i_long":106.79689,"time":6},{"is_transit":false,"i_long":106.780334,"time":7,"distance":3737,"line":6,"station_id":"KBY","i_lat":-6.237242,"transit":false,"station_name":"Kebayoran"},{"time":8,"distance":6218,"is_transit":false,"station_name":"Pondokranji","i_long":106.74273,"i_lat":-6.276362,"transit":false,"station_id":"PDJ","line":6},{"transit":false,"time":3,"station_id":"JMU","i_long":106.728916,"line":6,"i_lat":-6.288927,"is_transit":false,"distance":2179,"station_name":"Jurangmangu"},{"transit":false,"is_transit":false,"time":4,"line":6,"distance":1994,"i_lat":-6.296963,"i_long":106.712277,"station_id":"SDM","station_name":"Sudimara"},{"distance":4566,"is_transit":false,"i_lat":-6.314823,"station_name":"Rawa Buntu","station_id":"RU","transit":false,"line":6,"i_long":106.675475,"time":6},{"station_id":"SRP","transit":false,"distance":2413,"station_name":"Serpong","time":4,"line":6,"i_lat":-6.319871,"i_long":106.66566,"is_transit":false},{"time":4,"station_name":"Cisauk","is_transit":false,"line":0,"station_id":"CSK","distance":1784,"transit":false,"i_lat":-6.32484,"i_long":106.640411},{"station_name":"Cicayur","i_long":106.617853,"time":4,"line":0,"i_lat":-6.329547,"is_transit":false,"distance":2519,"station_id":"CC","transit":false},{"is_transit":false,"distance":5968,"i_lat":-6.3441410000000005,"transit":false,"station_id":"PRP","station_name":"Parung Panjang","i_long":106.568863,"time":8,"line":6},{"transit":false,"time":9,"i_long":106.508482,"line":0,"station_name":"Cilejit","i_lat":-6.354349,"station_id":"CJT","distance":7025,"is_transit":false},{"i_long":106.491338,"transit":false,"is_transit":false,"distance":2675,"time":6,"station_name":"Daru","i_lat":-6.338021,"line":0,"station_id":"DAR"},{"distance":3902,"is_transit":false,"transit":false,"time":5,"i_lat":-6.327251,"station_name":"Tenjo","i_long":106.460812,"station_id":"TEJ","line":6},{"transit":false,"is_transit":false,"time":5,"i_long":106.425991,"i_lat":-6.328533,"line":6,"distance":2974,"station_id":"TGS","station_name":"Tigaraksa"}],[{"transit":false,"i_long":106.85449,"i_lat":-6.255332,"is_transit":false,"station_name":"Duren Kalibata","distance":0,"station_id":"DRN","time":0,"line":0},{"transit":false,"distance":1546,"i_lat":-6.242512,"i_long":106.856607,"is_transit":false,"line":0,"time":3,"station_name":"Cawang","station_id":"CW"},{"distance":1230,"transit":false,"station_id":"TEB","line":2,"is_transit":false,"station_name":"Tebet","i_long":106.857948,"i_lat":-6.226659,"time":2},{"i_long":106.84912,"i_lat":-6.209883,"distance":2610,"station_id":"MRI","station_name":"Manggarai","transit":true,"is_transit":true,"line":0,"time":4},{"i_long":106.840169,"transit":false,"distance":1590,"i_lat":-6.198556,"station_name":"Cikini","station_id":"CKI","time":4,"line":0,"is_transit":false},{"is_transit":false,"i_long":106.832183,"transit":false,"station_name":"Gondangdia","distance":1750,"i_lat":-6.186295,"station_id":"GDD","time":3,"line":2},{"distance":2015,"station_id":"JUA","i_long":106.828284,"i_lat":-6.166716,"station_name":"Juanda","line":2,"transit":false,"is_transit":false,"time":4},{"i_long":106.827103,"i_lat":-6.160725,"line":2,"time":2,"transit":false,"is_transit":false,"distance":1149,"station_id":"SW","station_name":"Sawah Besar"},{"line":2,"is_transit":false,"station_name":"Manggabesar","distance":906,"station_id":"MGB","i_lat":-6.149769,"transit":false,"time":2,"i_long":106.82482},{"station_name":"Jayakarta","i_long":106.820901,"i_lat":-6.141205,"distance":1080,"station_id":"JAY","transit":false,"is_transit":false,"line":7,"time":2},{"line":0,"station_name":"Jakarta Kota","time":4,"transit":true,"is_transit":true,"distance":1264,"i_lat":-6.137569,"station_id":"JAKK","i_long":106.812439},{"is_transit":true,"time":3,"transit":false,"station_name":"Kampung Bandan","i_long":106.826365,"i_lat":-6.132549,"station_id":"KPB","distance":1364,"line":0},{"is_transit":false,"distance":4102,"time":9,"station_name":"Angke","i_lat":-6.144674,"line":0,"transit":false,"station_id":"AK","i_long":106.79867},{"is_transit":true,"station_id":"DU","transit":true,"line":1,"time":4,"i_long":106.800832,"station_name":"Duri","i_lat":-6.155215,"distance":1230},{"time":8,"line":1,"i_long":106.811091,"station_name":"Tanah Abang","distance":3632,"is_transit":true,"i_lat":-6.185545,"station_id":"THB","transit":true},{"line":6,"station_name":"Palmerah","is_transit":false,"station_id":"PLM","transit":false,"time":6,"i_lat":-6.207404,"distance":3191,"i_long":106.79689},{"i_long":106.780334,"transit":false,"line":6,"i_lat":-6.237242,"distance":3737,"station_name":"Kebayoran","station_id":"KBY","is_transit":false,"time":7},{"time":8,"station_id":"PDJ","i_lat":-6.276362,"station_name":"Pondokranji","transit":false,"i_long":106.74273,"distance":6218,"line":6,"is_transit":false},{"station_name":"Jurangmangu","i_long":106.728916,"i_lat":-6.288927,"distance":2179,"station_id":"JMU","transit":false,"is_transit":false,"time":3,"line":6},{"station_id":"SDM","line":6,"i_long":106.712277,"i_lat":-6.296963,"is_transit":false,"distance":1994,"time":4,"transit":false,"station_name":"Sudimara"},{"station_id":"RU","line":6,"is_transit":false,"i_lat":-6.314823,"transit":false,"time":6,"station_name":"Rawa Buntu","distance":4566,"i_long":106.675475},{"distance":2413,"is_transit":false,"i_long":106.66566,"time":4,"transit":false,"station_id":"SRP","i_lat":-6.319871,"line":6,"station_name":"Serpong"},{"i_lat":-6.32484,"time":4,"is_transit":false,"station_id":"CSK","distance":1784,"station_name":"Cisauk","transit":false,"line":0,"i_long":106.640411},{"line":0,"distance":2519,"is_transit":false,"transit":false,"time":4,"i_lat":-6.329547,"i_long":106.617853,"station_id":"CC","station_name":"Cicayur"},{"transit":false,"time":8,"is_transit":false,"station_name":"Parung Panjang","i_long":106.568863,"station_id":"PRP","line":6,"distance":5968,"i_lat":-6.3441410000000005},{"station_id":"CJT","station_name":"Cilejit","transit":false,"line":0,"i_lat":-6.354349,"is_transit":false,"time":9,"i_long":106.508482,"distance":7025},{"i_lat":-6.338021,"transit":false,"is_transit":false,"time":6,"station_id":"DAR","distance":2675,"i_long":106.491338,"line":0,"station_name":"Daru"},{"transit":false,"station_id":"TEJ","i_long":106.460812,"time":5,"line":6,"distance":3902,"station_name":"Tenjo","i_lat":-6.327251,"is_transit":false},{"distance":2974,"i_long":106.425991,"time":5,"i_lat":-6.328533,"transit":false,"is_transit":false,"station_id":"TGS","station_name":"Tigaraksa","line":6}],[{"i_long":106.85449,"transit":false,"station_name":"Duren Kalibata","is_transit":false,"i_lat":-6.255332,"distance":0,"time":0,"station_id":"DRN","line":0},{"i_long":106.856607,"line":0,"distance":1546,"station_name":"Cawang","transit":false,"is_transit":false,"time":3,"i_lat":-6.242512,"station_id":"CW"},{"distance":1230,"station_id":"TEB","is_transit":false,"time":2,"i_long":106.857948,"station_name":"Tebet","transit":false,"i_lat":-6.226659,"line":2},{"station_id":"MRI","transit":true,"time":4,"is_transit":true,"i_long":106.84912,"station_name":"Manggarai","i_lat":-6.209883,"distance":2610,"line":0},{"transit":false,"distance":1275,"station_id":"MTR","is_transit":false,"i_lat":-6.212485,"i_long":106.858896,"time":2,"line":1,"station_name":"Matraman"},{"station_name":"Jatinegara","transit":true,"distance":1377,"is_transit":true,"station_id":"JNG","line":0,"i_long":106.86807400000001,"i_lat":-6.215091,"time":8},{"transit":false,"station_id":"POK","distance":1236,"station_name":"Pondok Jati","is_transit":false,"i_lat":-6.209188,"i_long":106.861737,"line":11,"time":2},{"distance":1829,"transit":false,"i_lat":-6.193792,"i_long":106.855437,"line":11,"is_transit":false,"station_name":"Kramat","station_id":"KMT","time":2},{"transit":false,"station_id":"GST","station_name":"Gang Sentiong","distance":973,"is_transit":false,"i_lat":-6.185975,"i_long":106.850107,"line":11,"time":1},{"distance":1567,"line":11,"station_id":"PSE","i_lat":-6.174784,"station_name":"Pasar Senen","i_long":106.84368,"transit":false,"is_transit":false,"time":8},{"transit":false,"line":11,"i_long":106.839204,"station_id":"KMO","time":4,"i_lat":-6.161728,"station_name":"Kemayoran","distance":1436,"is_transit":false},{"time":5,"i_lat":-6.14505,"i_long":106.836569,"distance":1901,"station_id":"RJW","transit":false,"is_transit":false,"line":11,"station_name":"Rajawali"},{"distance":1444,"i_lat":-6.132549,"i_long":106.826365,"line":0,"transit":true,"is_transit":true,"station_name":"Kampung Bandan","station_id":"KPB","time":3},{"station_name":"Angke","i_long":106.79867,"station_id":"AK","time":9,"line":0,"distance":4102,"transit":false,"is_transit":false,"i_lat":-6.144674},{"station_name":"Duri","transit":true,"i_lat":-6.155215,"line":1,"distance":1230,"i_long":106.800832,"time":4,"station_id":"DU","is_transit":true},{"time":8,"transit":true,"i_lat":-6.185545,"distance":3632,"station_id":"THB","station_name":"Tanah Abang","is_transit":true,"i_long":106.811091,"line":1},{"transit":false,"line":6,"station_name":"Palmerah","i_lat":-6.207404,"i_long":106.79689,"distance":3191,"station_id":"PLM","time":6,"is_transit":false},{"distance":3737,"transit":false,"is_transit":false,"i_long":106.780334,"time":7,"station_id":"KBY","station_name":"Kebayoran","i_lat":-6.237242,"line":6},{"transit":false,"distance":6218,"station_id":"PDJ","i_lat":-6.276362,"line":6,"station_name":"Pondokranji","i_long":106.74273,"time":8,"is_transit":false},{"time":3,"i_long":106.728916,"line":6,"station_id":"JMU","i_lat":-6.288927,"is_transit":false,"distance":2179,"transit":false,"station_name":"Jurangmangu"},{"i_long":106.712277,"is_transit":false,"distance":1994,"transit":false,"station_name":"Sudimara","time":4,"i_lat":-6.296963,"line":6,"station_id":"SDM"},{"transit":false,"i_long":106.675475,"distance":4566,"time":6,"station_name":"Rawa Buntu","line":6,"station_id":"RU","is_transit":false,"i_lat":-6.314823},{"transit":false,"distance":2413,"i_long":106.66566,"station_name":"Serpong","station_id":"SRP","line":6,"is_transit":false,"time":4,"i_lat":-6.319871},{"station_name":"Cisauk","distance":1784,"i_long":106.640411,"time":4,"i_lat":-6.32484,"station_id":"CSK","line":0,"transit":false,"is_transit":false},{"i_lat":-6.329547,"is_transit":false,"i_long":106.617853,"station_name":"Cicayur","station_id":"CC","distance":2519,"transit":false,"time":4,"line":0},{"i_lat":-6.3441410000000005,"station_id":"PRP","is_transit":false,"i_long":106.568863,"line":6,"station_name":"Parung Panjang","time":8,"transit":false,"distance":5968},{"distance":7025,"transit":false,"station_id":"CJT","is_transit":false,"time":9,"i_lat":-6.354349,"i_long":106.508482,"station_name":"Cilejit","line":0},{"i_long":106.491338,"station_name":"Daru","is_transit":false,"i_lat":-6.338021,"transit":false,"time":6,"line":0,"station_id":"DAR","distance":2675},{"i_lat":-6.327251,"line":6,"distance":3902,"is_transit":false,"transit":false,"i_long":106.460812,"station_id":"TEJ","time":5,"station_name":"Tenjo"},{"transit":false,"time":5,"station_id":"TGS","i_long":106.425991,"line":6,"is_transit":false,"i_lat":-6.328533,"distance":2974,"station_name":"Tigaraksa"}]]}