{"data":[[{"station_id":"DRN","i_lat":-6.255332,"station_name":"Duren Kalibata","transit":false,"time":0,"is_transit":false,"i_long":106.85449,"distance":0,"line":2},{"transit":false,"time":3,"i_long":106.856607,"line":2,"is_transit":false,"i_lat":-6.242512,"distance":1546,"station_name":"Cawang","station_id":"CW"},{"line":2,"transit":false,"i_long":106.857948,"station_name":"Tebet","time":2,"is_transit":false,"distance":1230,"station_id":"TEB","i_lat":-6.226659},{"station_name":"Manggarai","station_id":"MRI","line":2,"distance":2610,"time":4,"transit":true,"i_lat":-6.209883,"i_long":106.84912,"is_transit":true},{"distance":1275,"station_name":"Matraman","time":2,"transit":false,"is_transit":false,"i_lat":-6.212485,"i_long":106.858896,"line":1,"station_id":"MTR"},{"i_long":106.86807400000001,"i_lat":-6.215091,"is_transit":true,"distance":1377,"transit":true,"station_name":"Jatinegara","station_id":"JNG","time":8,"line":1},{"i_lat":-6.209188,"i_long":106.861737,"is_transit":false,"line":11,"distance":1236,"station_name":"Pondok Jati","transit":false,"time":2,"station_id":"POK"},{"station_name":"Kramat","line":11,"i_lat":-6.193792,"i_long":106.855437,"transit":false,"is_transit":false,"station_id":"KMT","distance":1829,"time":2},{"line":11,"time":1,"distance":973,"station_id":"GST","station_name":"Gang Sentiong","transit":false,"i_lat":-6.185975,"i_long":106.850107,"is_transit":false}],[{"line":2,"time":0,"is_transit":false,"station_name":"Duren Kalibata","i_lat":-6.255332,"station_id":"DRN","distance":0,"i_long":106.85449,"transit":false},{"i_lat":-6.242512,"time":3,"is_transit":false,"line":2,"distance":1546,"transit":false,"station_name":"Cawang","station_id":"CW","i_long":106.856607},{"distance":1230,"time":2,"station_id":"TEB","station_name":"Tebet","line":2,"i_lat":-6.226659,"is_transit":false,"i_long":106.857948,"transit":false},{"station_id":"MRI","station_name":"Manggarai","line":2,"distance":2610,"i_lat":-6.209883,"is_transit":true,"transit":true,"i_long":106.84912,"time":4},{"distance":3186,"transit":false,"is_transit":false,"time":4,"station_name":"Sudirman","i_long":106.822649,"line":1,"station_id":"SUD","i_lat":-6.202263},{"is_transit":false,"i_long":106.819881,"i_lat":-6.201433,"station_name":"Sudirman Baru","line":1,"time":1,"transit":false,"distance":280,"station_id":"SUDB"},{"i_lat":-6.20132,"station_name":"Karet","distance":471,"transit":false,"station_id":"KAT","i_long":106.816351,"time":1,"is_transit":false,"line":1},{"station_name":"Tanah Abang","station_id":"THB","is_transit":false,"i_lat":-6.185545,"transit":false,"line":1,"i_long":106.811091,"distance":2029,"time":5},{"time":8,"is_transit":false,"i_lat":-6.155215,"line":1,"i_long":106.800832,"station_name":"Duri","station_id":"DU","transit":false,"distance":3632},{"line":1,"is_transit":false,"transit":false,"time":4,"distance":1230,"i_lat":-6.144674,"station_id":"AK","i_long":106.79867,"station_name":"Angke"},{"time":9,"distance":4102,"station_id":"KPB","i_long":106.826365,"transit":true,"line":4,"is_transit":true,"station_name":"Kampung Bandan","i_lat":-6.132549},{"station_id":"RJW","station_name":"Rajawali","is_transit":false,"i_lat":-6.14505,"distance":1444,"transit":false,"i_long":106.836569,"line":11,"time":3},{"transit":false,"station_name":"Kemayoran","line":11,"distance":1901,"is_transit":false,"station_id":"KMO","i_long":106.839204,"time":5,"i_lat":-6.161728},{"transit":false,"distance":1436,"station_name":"Pasar Senen","line":11,"i_long":106.84368,"is_transit":false,"time":4,"i_lat":-6.174784,"station_id":"PSE"},{"station_name":"Gang Sentiong","i_lat":-6.185975,"transit":false,"distance":1567,"time":8,"station_id":"GST","is_transit":false,"i_long":106.850107,"line":11}],[{"line":2,"transit":false,"distance":0,"time":0,"is_transit":false,"station_id":"DRN","station_name":"Duren Kalibata","i_lat":-6.255332,"i_long":106.85449},{"distance":1546,"is_transit":false,"station_name":"Cawang","station_id":"CW","i_long":106.856607,"transit":false,"time":3,"i_lat":-6.242512,"line":2},{"transit":false,"is_transit":false,"line":2,"time":2,"station_id":"TEB","i_lat":-6.226659,"station_name":"Tebet","distance":1230,"i_long":106.857948},{"time":4,"i_lat":-6.209883,"is_transit":false,"station_id":"MRI","line":2,"transit":false,"i_long":106.84912,"distance":2610,"station_name":"Manggarai"},{"station_id":"CKI","distance":1590,"is_transit":false,"station_name":"Cikini","transit":false,"i_lat":-6.198556,"line":2,"time":4,"i_long":106.840169},{"station_name":"Gondangdia","time":3,"is_transit":false,"i_lat":-6.186295,"station_id":"GDD","transit":false,"i_long":106.832183,"distance":1750,"line":2},{"i_lat":-6.166716,"time":4,"i_long":106.828284,"station_name":"Juanda","is_transit":false,"transit":false,"distance":2015,"station_id":"JUA","line":2},{"distance":1149,"station_id":"SW","i_lat":-6.160725,"is_transit":false,"line":2,"transit":false,"time":2,"station_name":"Sawah Besar","i_long":106.827103},{"is_transit":false,"line":2,"station_id":"MGB","i_lat":-6.149769,"time":2,"station_name":"Manggabesar","distance":906,"transit":false,"i_long":106.82482},{"station_name":"Jayakarta","distance":1080,"i_long":106.820901,"time":2,"station_id":"JAY","transit":false,"is_transit":false,"i_lat":-6.141205,"line":2},{"i_long":106.812439,"i_lat":-6.137569,"station_name":"Jakarta Kota","line":2,"transit":true,"distance":1264,"is_transit":true,"station_id":"JAKK","time":4},{"time":3,"i_lat":-6.132549,"i_long":106.826365,"transit":true,"line":4,"station_name":"Kampung Bandan","station_id":"KPB","distance":1364,"is_transit":true},{"station_name":"Rajawali","distance":1444,"i_long":106.836569,"transit":false,"time":3,"station_id":"RJW","i_lat":-6.14505,"is_transit":false,"line":11},{"station_name":"Kemayoran","time":5,"distance":1901,"transit":false,"is_transit":false,"station_id":"KMO","line":11,"i_lat":-6.161728,"i_long":106.839204},{"time":4,"distance":1436,"i_lat":-6.174784,"i_long":106.84368,"line":11,"transit":false,"is_transit":false,"station_id":"PSE","station_name":"Pasar Senen"},{"is_transit":false,"i_lat":-6.185975,"i_long":106.850107,"distance":1567,"transit":false,"station_id":"GST","line":11,"station_name":"Gang Sentiong","time":8}]]}