{"data":[[{"transit":false,"distance":0,"is_transit":false,"station_id":"DRN","i_long":106.85449,"time":0,"station_name":"Duren Kalibata","line":2,"i_lat":-6.255332},{"distance":1546,"i_lat":-6.242512,"station_id":"CW","line":2,"time":3,"station_name":"Cawang","i_long":106.856607,"transit":false,"is_transit":false},{"is_transit":false,"time":2,"transit":false,"station_id":"TEB","i_lat":-6.226659,"i_long":106.857948,"station_name":"Tebet","distance":1230,"line":2},{"station_id":"MRI","distance":2610,"station_name":"Manggarai","transit":true,"i_lat":-6.209883,"is_transit":true,"i_long":106.84912,"line":2,"time":4},{"transit":false,"time":4,"is_transit":false,"i_long":106.822649,"line":1,"station_id":"SUD","station_name":"Sudirman","distance":3186,"i_lat":-6.202263},{"is_transit":false,"time":1,"transit":false,"distance":280,"i_long":106.819881,"line":1,"station_id":"SUDB","i_lat":-6.201433,"station_name":"Sudirman Baru"},{"transit":false,"is_transit":false,"time":1,"station_name":"Karet","station_id":"KAT","i_lat":-6.20132,"line":1,"distance":471,"i_long":106.816351},{"i_long":106.811091,"line":1,"time":5,"i_lat":-6.185545,"station_id":"THB","distance":2029,"station_name":"Tanah Abang","transit":true,"is_transit":true},{"transit":false,"station_name":"Palmerah","is_transit":false,"distance":3191,"i_long":106.79689,"time":6,"station_id":"PLM","line":6,"i_lat":-6.207404},{"station_name":"Kebayoran","is_transit":false,"time":7,"i_long":106.780334,"distance":3737,"transit":false,"i_lat":-6.237242,"station_id":"KBY","line":6},{"time":8,"distance":6218,"station_id":"PDJ","i_lat":-6.276362,"station_name":"Pondokranji","i_long":106.74273,"transit":false,"is_transit":false,"line":6},{"is_transit":false,"i_long":106.728916,"distance":2179,"station_name":"Jurangmangu","time":3,"station_id":"JMU","transit":false,"i_lat":-6.288927,"line":6},{"is_transit":false,"station_name":"Sudimara","time":4,"transit":false,"station_id":"SDM","i_lat":-6.296963,"i_long":106.712277,"line":6,"distance":1994},{"distance":4566,"station_name":"Rawa Buntu","i_lat":-6.314823,"is_transit":false,"i_long":106.675475,"line":6,"station_id":"RU","time":6,"transit":false},{"station_name":"Serpong","distance":2413,"i_lat":-6.319871,"transit":false,"time":4,"is_transit":false,"line":6,"station_id":"SRP","i_long":106.66566},{"distance":1784,"i_long":106.640411,"station_name":"Cisauk","is_transit":false,"transit":false,"time":4,"station_id":"CSK","line":3,"i_lat":-6.32484},{"station_name":"Cicayur","distance":2519,"i_lat":-6.329547,"line":3,"is_transit":false,"i_long":106.617853,"time":4,"transit":false,"station_id":"CC"},{"line":6,"i_long":106.568863,"station_id":"PRP","transit":false,"station_name":"Parung Panjang","i_lat":-6.3441410000000005,"time":8,"distance":5968,"is_transit":false},{"time":9,"distance":7025,"i_lat":-6.354349,"transit":false,"is_transit":false,"i_long":106.508482,"line":3,"station_id":"CJT","station_name":"Cilejit"},{"is_transit":false,"time":6,"distance":2675,"i_long":106.491338,"station_id":"DAR","line":0,"i_lat":-6.338021,"station_name":"Daru","transit":false},{"transit":false,"is_transit":false,"station_id":"TEJ","i_long":106.460812,"station_name":"Tenjo","time":5,"distance":3902,"i_lat":-6.327251,"line":6},{"transit":false,"distance":2974,"i_lat":-6.328533,"is_transit":false,"time":5,"station_id":"TGS","station_name":"Tigaraksa","line":6,"i_long":106.425991},{"station_name":"Cikoya","time":3,"i_lat":-6.33561,"station_id":"CKY","distance":2651,"i_long":106.411216,"is_transit":false,"line":3,"transit":false},{"station_id":"MJ","is_transit":false,"time":4,"distance":1853,"transit":false,"station_name":"Maja","i_long":106.394373,"line":6,"i_lat":-6.332307},{"is_transit":false,"station_name":"Citeras","i_long":106.332092,"line":3,"distance":7293,"time":10,"i_lat":-6.334892,"station_id":"CTR","transit":false}],[{"line":2,"i_lat":-6.255332,"station_name":"Duren Kalibata","distance":0,"time":0,"transit":false,"is_transit":false,"station_id":"DRN","i_long":106.85449},{"transit":false,"i_long":106.856607,"station_id":"CW","line":2,"is_transit":false,"station_name":"Cawang","distance":1546,"time":3,"i_lat":-6.242512},{"transit":false,"line":2,"station_id":"TEB","is_transit":false,"i_long":106.857948,"i_lat":-6.226659,"distance":1230,"time":2,"station_name":"Tebet"},{"station_id":"MRI","station_name":"Manggarai","transit":false,"is_transit":false,"time":4,"line":2,"i_lat":-6.209883,"i_long":106.84912,"distance":2610},{"is_transit":false,"distance":1590,"i_lat":-6.198556,"time":4,"station_name":"Cikini","i_long":106.840169,"transit":false,"line":2,"station_id":"CKI"},{"distance":1750,"i_long":106.832183,"time":3,"line":2,"is_transit":false,"transit":false,"station_name":"Gondangdia","i_lat":-6.186295,"station_id":"GDD"},{"is_transit":false,"time":4,"station_name":"Juanda","station_id":"JUA","line":2,"i_lat":-6.166716,"distance":2015,"transit":false,"i_long":106.828284},{"transit":false,"station_name":"Sawah Besar","line":2,"is_transit":false,"distance":1149,"i_long":106.827103,"time":2,"station_id":"SW","i_lat":-6.160725},{"is_transit":false,"line":2,"distance":906,"transit":false,"time":2,"i_long":106.82482,"station_name":"Manggabesar","station_id":"MGB","i_lat":-6.149769},{"station_id":"JAY","distance":1080,"i_lat":-6.141205,"time":2,"i_long":106.820901,"transit":false,"station_name":"Jayakarta","is_transit":false,"line":2},{"i_lat":-6.137569,"station_name":"Jakarta Kota","is_transit":true,"time":4,"i_long":106.812439,"line":2,"station_id":"JAKK","distance":1264,"transit":true},{"station_name":"Kampung Bandan","distance":1364,"i_long":106.826365,"line":4,"time":3,"transit":true,"is_transit":true,"i_lat":-6.132549,"station_id":"KPB"},{"transit":false,"line":1,"i_lat":-6.144674,"time":9,"station_id":"AK","is_transit":false,"i_long":106.79867,"distance":4102,"station_name":"Angke"},{"station_id":"DU","station_name":"Duri","i_lat":-6.155215,"distance":1230,"is_transit":false,"time":4,"i_long":106.800832,"transit":false,"line":1},{"station_id":"THB","is_transit":true,"distance":3632,"i_long":106.811091,"time":8,"transit":true,"station_name":"Tanah Abang","i_lat":-6.185545,"line":1},{"station_name":"Palmerah","time":6,"i_lat":-6.207404,"i_long":106.79689,"line":6,"distance":3191,"station_id":"PLM","is_transit":false,"transit":false},{"station_id":"KBY","distance":3737,"is_transit":false,"i_lat":-6.237242,"time":7,"transit":false,"i_long":106.780334,"station_name":"Kebayoran","line":6},{"transit":false,"time":8,"distance":6218,"i_long":106.74273,"station_id":"PDJ","i_lat":-6.276362,"is_transit":false,"station_name":"Pondokranji","line":6},{"time":3,"transit":false,"is_transit":false,"distance":2179,"i_long":106.728916,"station_name":"Jurangmangu","line":6,"i_lat":-6.288927,"station_id":"JMU"},{"distance":1994,"i_lat":-6.296963,"transit":false,"time":4,"station_id":"SDM","line":6,"station_name":"Sudimara","is_transit":false,"i_long":106.712277},{"station_name":"Rawa Buntu","station_id":"RU","i_long":106.675475,"distance":4566,"line":6,"transit":false,"is_transit":false,"i_lat":-6.314823,"time":6},{"i_long":106.66566,"station_id":"SRP","i_lat":-6.319871,"station_name":"Serpong","transit":false,"distance":2413,"is_transit":false,"line":6,"time":4},{"distance":1784,"station_name":"Cisauk","line":3,"i_long":106.640411,"station_id":"CSK","i_lat":-6.32484,"transit":false,"is_transit":false,"time":4},{"transit":false,"station_name":"Cicayur","i_lat":-6.329547,"distance":2519,"time":4,"i_long":106.617853,"station_id":"CC","line":3,"is_transit":false},{"station_name":"Parung Panjang","station_id":"PRP","time":8,"i_lat":-6.3441410000000005,"distance":5968,"i_long":106.568863,"line":6,"is_transit":false,"transit":false},{"station_name":"Cilejit","i_long":106.508482,"line":3,"station_id":"CJT","transit":false,"distance":7025,"time":9,"is_transit":false,"i_lat":-6.354349},{"time":6,"i_long":106.491338,"transit":false,"station_name":"Daru","station_id":"DAR","is_transit":false,"i_lat":-6.338021,"line":0,"distance":2675},{"transit":false,"i_long":106.460812,"station_id":"TEJ","is_transit":false,"line":6,"station_name":"Tenjo","distance":3902,"time":5,"i_lat":-6.327251},{"station_id":"TGS","station_name":"Tigaraksa","is_transit":false,"transit":false,"time":5,"i_long":106.425991,"i_lat":-6.328533,"line":6,"distance":2974},{"line":3,"transit":false,"station_id":"CKY","distance":2651,"i_lat":-6.33561,"i_long":106.411216,"station_name":"Cikoya","time":3,"is_transit":false},{"is_transit":false,"station_name":"Maja","transit":false,"station_id":"MJ","time":4,"i_long":106.394373,"line":6,"i_lat":-6.332307,"distance":1853},{"i_long":106.332092,"line":3,"time":10,"distance":7293,"i_lat":-6.334892,"station_name":"Citeras","transit":false,"is_transit":false,"station_id":"CTR"}],[{"station_name":"Duren Kalibata","time":0,"station_id":"DRN","i_lat":-6.255332,"i_long":106.85449,"line":2,"is_transit":false,"distance":0,"transit":false},{"i_long":106.856607,"transit":false,"is_transit":false,"station_id":"CW","i_lat":-6.242512,"line":2,"station_name":"Cawang","time":3,"distance":1546},{"i_lat":-6.226659,"transit":false,"i_long":106.857948,"station_name":"Tebet","station_id":"TEB","is_transit":false,"line":2,"distance":1230,"time":2},{"station_id":"MRI","i_long":106.84912,"time":4,"line":2,"station_name":"Manggarai","i_lat":-6.209883,"transit":true,"distance":2610,"is_transit":true},{"time":2,"is_transit":false,"station_name":"Matraman","i_lat":-6.212485,"transit":false,"station_id":"MTR","distance":1275,"i_long":106.858896,"line":1},{"is_transit":true,"line":1,"distance":1377,"time":8,"i_long":106.86807400000001,"station_id":"JNG","i_lat":-6.215091,"transit":true,"station_name":"Jatinegara"},{"i_lat":-6.209188,"station_id":"POK","distance":1236,"time":2,"is_transit":false,"transit":false,"line":11,"i_long":106.861737,"station_name":"Pondok Jati"},{"time":2,"i_lat":-6.193792,"i_long":106.855437,"line":11,"transit":false,"station_name":"Kramat","station_id":"KMT","distance":1829,"is_transit":false},{"line":11,"distance":973,"i_lat":-6.185975,"transit":false,"station_name":"Gang Sentiong","i_long":106.850107,"time":1,"station_id":"GST","is_transit":false},{"time":8,"transit":false,"distance":1567,"i_lat":-6.174784,"is_transit":false,"line":11,"station_name":"Pasar Senen","station_id":"PSE","i_long":106.84368},{"station_id":"KMO","distance":1436,"time":4,"line":11,"i_lat":-6.161728,"transit":false,"is_transit":false,"station_name":"Kemayoran","i_long":106.839204},{"line":11,"is_transit":false,"i_long":106.836569,"transit":false,"station_id":"RJW","station_name":"Rajawali","time":5,"distance":1901,"i_lat":-6.14505},{"transit":true,"is_transit":true,"line":4,"station_name":"Kampung Bandan","distance":1444,"i_lat":-6.132549,"time":3,"station_id":"KPB","i_long":106.826365},{"i_lat":-6.144674,"is_transit":false,"time":9,"distance":4102,"transit":false,"station_name":"Angke","station_id":"AK","i_long":106.79867,"line":1},{"i_long":106.800832,"is_transit":false,"line":1,"distance":1230,"station_name":"Duri","station_id":"DU","time":4,"transit":false,"i_lat":-6.155215},{"line":1,"is_transit":true,"station_id":"THB","transit":true,"time":8,"i_lat":-6.185545,"i_long":106.811091,"distance":3632,"station_name":"Tanah Abang"},{"i_lat":-6.207404,"is_transit":false,"transit":false,"station_id":"PLM","time":6,"distance":3191,"station_name":"Palmerah","i_long":106.79689,"line":6},{"is_transit":false,"i_long":106.780334,"transit":false,"station_id":"KBY","time":7,"distance":3737,"i_lat":-6.237242,"station_name":"Kebayoran","line":6},{"station_name":"Pondokranji","is_transit":false,"distance":6218,"i_long":106.74273,"transit":false,"time":8,"i_lat":-6.276362,"line":6,"station_id":"PDJ"},{"time":3,"station_name":"Jurangmangu","transit":false,"station_id":"JMU","i_lat":-6.288927,"line":6,"distance":2179,"i_long":106.728916,"is_transit":false},{"is_transit":false,"transit":false,"station_id":"SDM","time":4,"line":6,"i_long":106.712277,"station_name":"Sudimara","distance":1994,"i_lat":-6.296963},{"time":6,"i_lat":-6.314823,"is_transit":false,"transit":false,"station_name":"Rawa Buntu","station_id":"RU","distance":4566,"i_long":106.675475,"line":6},{"station_id":"SRP","transit":false,"line":6,"is_transit":false,"i_long":106.66566,"i_lat":-6.319871,"station_name":"Serpong","distance":2413,"time":4},{"line":3,"time":4,"is_transit":false,"i_long":106.640411,"i_lat":-6.32484,"station_id":"CSK","station_name":"Cisauk","transit":false,"distance":1784},{"i_lat":-6.329547,"i_long":106.617853,"distance":2519,"station_name":"Cicayur","line":3,"transit":false,"is_transit":false,"station_id":"CC","time":4},{"transit":false,"station_name":"Parung Panjang","line":6,"distance":5968,"station_id":"PRP","is_transit":false,"time":8,"i_long":106.568863,"i_lat":-6.3441410000000005},{"transit":false,"station_id":"CJT","i_lat":-6.354349,"distance":7025,"i_long":106.508482,"is_transit":false,"time":9,"line":3,"station_name":"Cilejit"},{"line":0,"is_transit":false,"station_id":"DAR","time":6,"i_lat":-6.338021,"i_long":106.491338,"station_name":"Daru","distance":2675,"transit":false},{"transit":false,"distance":3902,"i_lat":-6.327251,"station_name":"Tenjo","line":6,"i_long":106.460812,"time":5,"is_transit":false,"station_id":"TEJ"},{"station_name":"Tigaraksa","transit":false,"is_transit":false,"i_lat":-6.328533,"i_long":106.425991,"time":5,"distance":2974,"line":6,"station_id":"TGS"},{"i_long":106.411216,"line":3,"station_id":"CKY","distance":2651,"transit":false,"is_transit":false,"time":3,"station_name":"Cikoya","i_lat":-6.33561},{"station_name":"Maja","station_id":"MJ","i_long":106.394373,"line":6,"transit":false,"distance":1853,"is_transit":false,"i_lat":-6.332307,"time":4},{"distance":7293,"is_transit":false,"i_lat":-6.334892,"transit":false,"time":10,"station_name":"Citeras","station_id":"CTR","i_long":106.332092,"line":3}]]}