{"data":[[{"time":0,"station_id":"DRN","transit":false,"station_name":"Duren Kalibata","i_lat":-6.255332,"i_long":106.85449,"distance":0,"line":2,"is_transit":false},{"station_name":"Cawang","transit":false,"i_long":106.856607,"i_lat":-6.242512,"line":2,"distance":1546,"station_id":"CW","is_transit":false,"time":3},{"i_lat":-6.226659,"is_transit":false,"i_long":106.857948,"line":2,"distance":1230,"time":2,"station_id":"TEB","transit":false,"station_name":"Tebet"},{"i_lat":-6.209883,"station_name":"Manggarai","line":2,"is_transit":true,"time":4,"transit":true,"distance":2610,"station_id":"MRI","i_long":106.84912},{"i_lat":-6.202263,"station_name":"Sudirman","distance":3186,"station_id":"SUD","is_transit":false,"i_long":106.822649,"transit":false,"time":4,"line":1},{"station_name":"Sudirman Baru","line":1,"i_lat":-6.201433,"station_id":"SUDB","is_transit":false,"distance":280,"time":1,"transit":false,"i_long":106.819881},{"is_transit":false,"time":1,"distance":471,"i_lat":-6.20132,"i_long":106.816351,"station_name":"Karet","station_id":"KAT","line":1,"transit":false},{"transit":true,"station_name":"Tanah Abang","distance":2029,"line":1,"station_id":"THB","i_long":106.811091,"time":5,"is_transit":true,"i_lat":-6.185545},{"transit":false,"line":6,"distance":3191,"station_id":"PLM","is_transit":false,"i_lat":-6.207404,"station_name":"Palmerah","time":6,"i_long":106.79689},{"i_lat":-6.237242,"is_transit":false,"i_long":106.780334,"station_id":"KBY","time":7,"station_name":"Kebayoran","transit":false,"line":6,"distance":3737},{"is_transit":false,"distance":6218,"i_long":106.74273,"line":6,"station_id":"PDJ","time":8,"station_name":"Pondokranji","i_lat":-6.276362,"transit":false},{"distance":2179,"time":3,"station_id":"JMU","transit":false,"station_name":"Jurangmangu","i_long":106.728916,"i_lat":-6.288927,"is_transit":false,"line":6},{"station_id":"SDM","time":4,"line":6,"i_lat":-6.296963,"station_name":"Sudimara","transit":false,"i_long":106.712277,"is_transit":false,"distance":1994},{"transit":false,"time":6,"distance":4566,"i_lat":-6.314823,"line":6,"is_transit":false,"station_id":"RU","station_name":"Rawa Buntu","i_long":106.675475},{"distance":2413,"transit":false,"time":4,"line":6,"station_name":"Serpong","i_long":106.66566,"is_transit":false,"station_id":"SRP","i_lat":-6.319871},{"i_lat":-6.32484,"station_name":"Cisauk","distance":1784,"is_transit":false,"time":4,"station_id":"CSK","transit":false,"i_long":106.640411,"line":3},{"i_long":106.617853,"station_name":"Cicayur","distance":2519,"transit":false,"line":3,"time":4,"station_id":"CC","i_lat":-6.329547,"is_transit":false},{"i_long":106.568863,"distance":5968,"time":8,"station_name":"Parung Panjang","is_transit":false,"transit":false,"line":6,"station_id":"PRP","i_lat":-6.3441410000000005}],[{"line":2,"time":0,"i_long":106.85449,"i_lat":-6.255332,"station_id":"DRN","station_name":"Duren Kalibata","is_transit":false,"distance":0,"transit":false},{"time":3,"is_transit":false,"distance":1546,"i_lat":-6.242512,"i_long":106.856607,"station_id":"CW","station_name":"Cawang","transit":false,"line":2},{"line":2,"i_lat":-6.226659,"time":2,"i_long":106.857948,"transit":false,"station_name":"Tebet","is_transit":false,"distance":1230,"station_id":"TEB"},{"station_id":"MRI","i_lat":-6.209883,"line":2,"time":4,"distance":2610,"is_transit":false,"transit":false,"i_long":106.84912,"station_name":"Manggarai"},{"line":2,"time":4,"i_lat":-6.198556,"distance":1590,"transit":false,"i_long":106.840169,"station_id":"CKI","station_name":"Cikini","is_transit":false},{"i_lat":-6.186295,"line":2,"distance":1750,"station_id":"GDD","time":3,"station_name":"Gondangdia","i_long":106.832183,"is_transit":false,"transit":false},{"transit":false,"i_lat":-6.166716,"i_long":106.828284,"distance":2015,"station_name":"Juanda","line":2,"is_transit":false,"time":4,"station_id":"JUA"},{"time":2,"i_long":106.827103,"line":2,"distance":1149,"station_name":"Sawah Besar","station_id":"SW","is_transit":false,"transit":false,"i_lat":-6.160725},{"station_name":"Manggabesar","i_long":106.82482,"line":2,"station_id":"MGB","transit":false,"is_transit":false,"distance":906,"time":2,"i_lat":-6.149769},{"station_name":"Jayakarta","line":2,"is_transit":false,"i_long":106.820901,"i_lat":-6.141205,"transit":false,"station_id":"JAY","distance":1080,"time":2},{"distance":1264,"time":4,"station_id":"JAKK","line":2,"i_long":106.812439,"is_transit":true,"transit":true,"i_lat":-6.137569,"station_name":"Jakarta Kota"},{"station_name":"Kampung Bandan","is_transit":true,"i_lat":-6.132549,"line":4,"distance":1364,"time":3,"station_id":"KPB","transit":true,"i_long":106.826365},{"distance":4102,"line":1,"station_id":"AK","time":9,"station_name":"Angke","i_long":106.79867,"i_lat":-6.144674,"is_transit":false,"transit":false},{"station_name":"Duri","is_transit":false,"line":1,"distance":1230,"station_id":"DU","transit":false,"i_lat":-6.155215,"i_long":106.800832,"time":4},{"i_lat":-6.185545,"transit":true,"station_id":"THB","is_transit":true,"distance":3632,"time":8,"line":1,"i_long":106.811091,"station_name":"Tanah Abang"},{"distance":3191,"time":6,"line":6,"transit":false,"station_id":"PLM","i_lat":-6.207404,"station_name":"Palmerah","i_long":106.79689,"is_transit":false},{"is_transit":false,"distance":3737,"line":6,"time":7,"station_id":"KBY","i_long":106.780334,"transit":false,"i_lat":-6.237242,"station_name":"Kebayoran"},{"distance":6218,"station_name":"Pondokranji","time":8,"i_lat":-6.276362,"line":6,"i_long":106.74273,"station_id":"PDJ","transit":false,"is_transit":false},{"station_id":"JMU","i_long":106.728916,"is_transit":false,"station_name":"Jurangmangu","i_lat":-6.288927,"line":6,"transit":false,"time":3,"distance":2179},{"is_transit":false,"transit":false,"i_lat":-6.296963,"i_long":106.712277,"line":6,"station_id":"SDM","distance":1994,"time":4,"station_name":"Sudimara"},{"time":6,"station_name":"Rawa Buntu","line":6,"is_transit":false,"transit":false,"i_lat":-6.314823,"distance":4566,"i_long":106.675475,"station_id":"RU"},{"is_transit":false,"transit":false,"line":6,"i_lat":-6.319871,"i_long":106.66566,"distance":2413,"time":4,"station_id":"SRP","station_name":"Serpong"},{"station_name":"Cisauk","time":4,"transit":false,"i_long":106.640411,"is_transit":false,"distance":1784,"station_id":"CSK","i_lat":-6.32484,"line":3},{"station_name":"Cicayur","time":4,"station_id":"CC","line":3,"is_transit":false,"transit":false,"i_long":106.617853,"i_lat":-6.329547,"distance":2519},{"line":6,"transit":false,"i_lat":-6.3441410000000005,"station_id":"PRP","i_long":106.568863,"distance":5968,"station_name":"Parung Panjang","is_transit":false,"time":8}],[{"station_name":"Duren Kalibata","line":2,"station_id":"DRN","i_lat":-6.255332,"time":0,"is_transit":false,"transit":false,"distance":0,"i_long":106.85449},{"i_lat":-6.242512,"line":2,"time":3,"i_long":106.856607,"transit":false,"station_id":"CW","station_name":"Cawang","is_transit":false,"distance":1546},{"i_lat":-6.226659,"line":2,"is_transit":false,"distance":1230,"time":2,"station_name":"Tebet","station_id":"TEB","transit":false,"i_long":106.857948},{"station_id":"MRI","is_transit":true,"distance":2610,"time":4,"line":2,"transit":true,"i_lat":-6.209883,"i_long":106.84912,"station_name":"Manggarai"},{"station_name":"Matraman","is_transit":false,"distance":1275,"i_long":106.858896,"time":2,"i_lat":-6.212485,"transit":false,"station_id":"MTR","line":1},{"station_id":"JNG","is_transit":true,"time":8,"i_lat":-6.215091,"station_name":"Jatinegara","line":1,"distance":1377,"i_long":106.86807400000001,"transit":true},{"is_transit":false,"time":2,"station_id":"POK","line":11,"i_long":106.861737,"i_lat":-6.209188,"station_name":"Pondok Jati","distance":1236,"transit":false},{"distance":1829,"i_lat":-6.193792,"station_name":"Kramat","i_long":106.855437,"line":11,"transit":false,"station_id":"KMT","time":2,"is_transit":false},{"station_id":"GST","is_transit":false,"distance":973,"transit":false,"i_lat":-6.185975,"time":1,"line":11,"station_name":"Gang Sentiong","i_long":106.850107},{"station_name":"Pasar Senen","station_id":"PSE","i_long":106.84368,"is_transit":false,"distance":1567,"line":11,"i_lat":-6.174784,"transit":false,"time":8},{"is_transit":false,"i_long":106.839204,"i_lat":-6.161728,"time":4,"station_id":"KMO","line":11,"station_name":"Kemayoran","distance":1436,"transit":false},{"i_lat":-6.14505,"line":11,"is_transit":false,"transit":false,"distance":1901,"time":5,"station_id":"RJW","station_name":"Rajawali","i_long":106.836569},{"distance":1444,"i_long":106.826365,"transit":true,"station_id":"KPB","line":4,"station_name":"Kampung Bandan","is_transit":true,"i_lat":-6.132549,"time":3},{"i_long":106.79867,"transit":false,"is_transit":false,"line":1,"i_lat":-6.144674,"station_id":"AK","time":9,"distance":4102,"station_name":"Angke"},{"line":1,"station_id":"DU","time":4,"distance":1230,"station_name":"Duri","i_lat":-6.155215,"i_long":106.800832,"is_transit":false,"transit":false},{"line":1,"distance":3632,"station_id":"THB","i_long":106.811091,"is_transit":true,"station_name":"Tanah Abang","transit":true,"i_lat":-6.185545,"time":8},{"transit":false,"time":6,"i_lat":-6.207404,"distance":3191,"is_transit":false,"line":6,"station_name":"Palmerah","i_long":106.79689,"station_id":"PLM"},{"transit":false,"distance":3737,"station_id":"KBY","i_lat":-6.237242,"i_long":106.780334,"line":6,"time":7,"station_name":"Kebayoran","is_transit":false},{"station_name":"Pondokranji","distance":6218,"station_id":"PDJ","i_lat":-6.276362,"line":6,"i_long":106.74273,"time":8,"transit":false,"is_transit":false},{"is_transit":false,"transit":false,"station_name":"Jurangmangu","line":6,"i_lat":-6.288927,"time":3,"i_long":106.728916,"distance":2179,"station_id":"JMU"},{"distance":1994,"time":4,"station_name":"Sudimara","station_id":"SDM","line":6,"is_transit":false,"transit":false,"i_lat":-6.296963,"i_long":106.712277},{"i_lat":-6.314823,"distance":4566,"i_long":106.675475,"line":6,"station_id":"RU","time":6,"transit":false,"is_transit":false,"station_name":"Rawa Buntu"},{"i_lat":-6.319871,"station_name":"Serpong","time":4,"i_long":106.66566,"transit":false,"station_id":"SRP","is_transit":false,"line":6,"distance":2413},{"distance":1784,"time":4,"station_name":"Cisauk","station_id":"CSK","is_transit":false,"i_long":106.640411,"line":3,"transit":false,"i_lat":-6.32484},{"i_lat":-6.329547,"line":3,"station_id":"CC","i_long":106.617853,"time":4,"transit":false,"station_name":"Cicayur","is_transit":false,"distance":2519},{"i_long":106.568863,"station_id":"PRP","line":6,"time":8,"distance":5968,"station_name":"Parung Panjang","i_lat":-6.3441410000000005,"transit":false,"is_transit":false}]]}