{"data":[[{"is_transit":false,"distance":0,"station_id":"DU","time":0,"station_name":"Duri","transit":false,"i_lat":-6.155215,"line":1,"i_long":106.800832},{"i_long":106.79867,"station_name":"Angke","time":4,"line":1,"i_lat":-6.144674,"transit":false,"distance":1230,"station_id":"AK","is_transit":false}],[{"time":0,"i_long":106.800832,"station_name":"Duri","is_transit":false,"i_lat":-6.155215,"line":1,"transit":false,"distance":0,"station_id":"DU"},{"station_name":"Tanah Abang","station_id":"THB","is_transit":false,"time":8,"distance":3632,"i_lat":-6.185545,"i_long":106.811091,"transit":false,"line":1},{"station_id":"KAT","station_name":"Karet","time":5,"line":1,"i_long":106.816351,"i_lat":-6.20132,"is_transit":false,"distance":2029,"transit":false},{"i_long":106.819881,"distance":471,"i_lat":-6.201433,"time":1,"station_id":"SUDB","transit":false,"station_name":"Sudirman Baru","line":1,"is_transit":false},{"transit":false,"is_transit":false,"i_long":106.822649,"station_id":"SUD","time":1,"station_name":"Sudirman","line":1,"distance":280,"i_lat":-6.202263},{"time":4,"is_transit":true,"distance":3186,"station_name":"Manggarai","transit":true,"i_lat":-6.209883,"i_long":106.84912,"station_id":"MRI","line":2},{"time":4,"i_lat":-6.198556,"i_long":106.840169,"transit":false,"is_transit":false,"station_name":"Cikini","station_id":"CKI","distance":1590,"line":2},{"transit":false,"distance":1750,"i_lat":-6.186295,"station_id":"GDD","time":3,"station_name":"Gondangdia","is_transit":false,"i_long":106.832183,"line":2},{"time":4,"i_long":106.828284,"is_transit":false,"station_name":"Juanda","i_lat":-6.166716,"distance":2015,"transit":false,"line":2,"station_id":"JUA"},{"i_long":106.827103,"i_lat":-6.160725,"is_transit":false,"station_id":"SW","time":2,"station_name":"Sawah Besar","line":2,"transit":false,"distance":1149},{"i_lat":-6.149769,"line":2,"station_id":"MGB","i_long":106.82482,"distance":906,"station_name":"Manggabesar","is_transit":false,"transit":false,"time":2},{"time":2,"i_lat":-6.141205,"is_transit":false,"transit":false,"station_name":"Jayakarta","i_long":106.820901,"line":2,"station_id":"JAY","distance":1080},{"line":2,"distance":1264,"i_long":106.812439,"i_lat":-6.137569,"time":4,"transit":true,"station_name":"Jakarta Kota","station_id":"JAKK","is_transit":true},{"i_long":106.826365,"is_transit":true,"line":4,"station_name":"Kampung Bandan","station_id":"KPB","distance":1364,"time":3,"transit":true,"i_lat":-6.132549},{"is_transit":false,"i_lat":-6.144674,"i_long":106.79867,"distance":4102,"station_name":"Angke","transit":false,"station_id":"AK","time":9,"line":1}],[{"is_transit":false,"station_name":"Duri","i_long":106.800832,"distance":0,"i_lat":-6.155215,"transit":false,"time":0,"line":1,"station_id":"DU"},{"station_id":"THB","i_lat":-6.185545,"transit":false,"i_long":106.811091,"distance":3632,"is_transit":false,"station_name":"Tanah Abang","line":1,"time":8},{"i_lat":-6.20132,"i_long":106.816351,"line":1,"distance":2029,"station_name":"Karet","is_transit":false,"station_id":"KAT","time":5,"transit":false},{"i_lat":-6.201433,"distance":471,"line":1,"station_id":"SUDB","station_name":"Sudirman Baru","i_long":106.819881,"transit":false,"time":1,"is_transit":false},{"is_transit":false,"station_name":"Sudirman","transit":false,"distance":280,"i_lat":-6.202263,"station_id":"SUD","line":1,"time":1,"i_long":106.822649},{"is_transit":false,"i_lat":-6.209883,"time":4,"transit":false,"station_name":"Manggarai","line":2,"i_long":106.84912,"station_id":"MRI","distance":3186},{"i_lat":-6.212485,"transit":false,"line":1,"station_name":"Matraman","station_id":"MTR","i_long":106.858896,"time":2,"distance":1275,"is_transit":false},{"i_lat":-6.215091,"line":1,"i_long":106.86807400000001,"time":8,"station_id":"JNG","transit":true,"is_transit":true,"station_name":"Jatinegara","distance":1377},{"station_name":"Pondok Jati","distance":1236,"transit":false,"is_transit":false,"i_long":106.861737,"i_lat":-6.209188,"station_id":"POK","time":2,"line":11},{"i_long":106.855437,"station_id":"KMT","transit":false,"station_name":"Kramat","is_transit":false,"i_lat":-6.193792,"time":2,"distance":1829,"line":11},{"time":1,"distance":973,"transit":false,"i_long":106.850107,"is_transit":false,"line":11,"i_lat":-6.185975,"station_id":"GST","station_name":"Gang Sentiong"},{"line":11,"station_id":"PSE","station_name":"Pasar Senen","transit":false,"is_transit":false,"time":8,"distance":1567,"i_long":106.84368,"i_lat":-6.174784},{"i_long":106.839204,"transit":false,"i_lat":-6.161728,"time":4,"distance":1436,"line":11,"station_name":"Kemayoran","station_id":"KMO","is_transit":false},{"time":5,"transit":false,"distance":1901,"station_id":"RJW","is_transit":false,"i_long":106.836569,"i_lat":-6.14505,"line":11,"station_name":"Rajawali"},{"transit":true,"time":3,"station_name":"Kampung Bandan","distance":1444,"i_long":106.826365,"line":4,"i_lat":-6.132549,"station_id":"KPB","is_transit":true},{"is_transit":false,"transit":false,"station_id":"AK","i_lat":-6.144674,"time":9,"i_long":106.79867,"station_name":"Angke","distance":4102,"line":1}]]}