{"data":[[{"line":1,"distance":0,"transit":false,"time":0,"is_transit":false,"station_id":"DU","station_name":"Duri","i_long":106.800832,"i_lat":-6.155215},{"line":1,"time":4,"station_name":"Angke","i_long":106.79867,"is_transit":false,"station_id":"AK","transit":false,"i_lat":-6.144674,"distance":1230}],[{"distance":0,"station_id":"DU","station_name":"Duri","transit":false,"is_transit":false,"i_long":106.800832,"line":1,"time":0,"i_lat":-6.155215},{"is_transit":false,"time":8,"i_lat":-6.185545,"i_long":106.811091,"station_id":"THB","distance":3632,"line":1,"station_name":"Tanah Abang","transit":false},{"station_name":"Karet","i_lat":-6.20132,"time":5,"transit":false,"i_long":106.816351,"is_transit":false,"line":1,"station_id":"KAT","distance":2029},{"time":1,"i_lat":-6.201433,"transit":false,"i_long":106.819881,"is_transit":false,"station_name":"Sudirman Baru","distance":471,"station_id":"SUDB","line":1},{"i_long":106.822649,"distance":280,"is_transit":false,"line":1,"station_id":"SUD","station_name":"Sudirman","transit":false,"time":1,"i_lat":-6.202263},{"time":4,"line":2,"station_id":"MRI","distance":3186,"i_long":106.84912,"i_lat":-6.209883,"station_name":"Manggarai","is_transit":true,"transit":true},{"is_transit":false,"distance":1590,"time":4,"i_long":106.840169,"transit":false,"line":2,"station_id":"CKI","station_name":"Cikini","i_lat":-6.198556},{"station_name":"Gondangdia","i_lat":-6.186295,"station_id":"GDD","distance":1750,"i_long":106.832183,"line":2,"is_transit":false,"time":3,"transit":false},{"transit":false,"i_lat":-6.166716,"line":2,"is_transit":false,"station_id":"JUA","distance":2015,"time":4,"station_name":"Juanda","i_long":106.828284},{"distance":1149,"is_transit":false,"time":2,"i_lat":-6.160725,"station_name":"Sawah Besar","line":2,"station_id":"SW","transit":false,"i_long":106.827103},{"station_id":"MGB","station_name":"Manggabesar","distance":906,"is_transit":false,"transit":false,"time":2,"i_long":106.82482,"line":2,"i_lat":-6.149769},{"time":2,"line":2,"i_lat":-6.141205,"transit":false,"station_name":"Jayakarta","distance":1080,"station_id":"JAY","is_transit":false,"i_long":106.820901},{"line":2,"time":4,"station_id":"JAKK","distance":1264,"transit":true,"station_name":"Jakarta Kota","is_transit":true,"i_lat":-6.137569,"i_long":106.812439},{"is_transit":true,"time":3,"transit":true,"distance":1364,"i_long":106.826365,"station_name":"Kampung Bandan","line":4,"station_id":"KPB","i_lat":-6.132549},{"station_id":"AK","is_transit":false,"time":9,"i_long":106.79867,"line":1,"station_name":"Angke","transit":false,"distance":4102,"i_lat":-6.144674}],[{"transit":false,"is_transit":false,"station_name":"Duri","time":0,"i_lat":-6.155215,"i_long":106.800832,"distance":0,"line":1,"station_id":"DU"},{"is_transit":false,"distance":3632,"station_name":"Tanah Abang","line":1,"time":8,"transit":false,"i_lat":-6.185545,"i_long":106.811091,"station_id":"THB"},{"is_transit":false,"station_id":"KAT","i_long":106.816351,"station_name":"Karet","time":5,"distance":2029,"i_lat":-6.20132,"line":1,"transit":false},{"line":1,"distance":471,"time":1,"station_name":"Sudirman Baru","station_id":"SUDB","i_long":106.819881,"is_transit":false,"transit":false,"i_lat":-6.201433},{"time":1,"distance":280,"i_lat":-6.202263,"line":1,"is_transit":false,"station_id":"SUD","transit":false,"station_name":"Sudirman","i_long":106.822649},{"i_long":106.84912,"transit":false,"is_transit":false,"line":2,"station_id":"MRI","i_lat":-6.209883,"station_name":"Manggarai","time":4,"distance":3186},{"transit":false,"time":2,"station_name":"Matraman","is_transit":false,"i_long":106.858896,"distance":1275,"i_lat":-6.212485,"station_id":"MTR","line":1},{"station_name":"Jatinegara","line":1,"i_lat":-6.215091,"time":8,"is_transit":true,"transit":true,"distance":1377,"i_long":106.86807400000001,"station_id":"JNG"},{"station_id":"POK","i_lat":-6.209188,"station_name":"Pondok Jati","i_long":106.861737,"distance":1236,"is_transit":false,"line":11,"time":2,"transit":false},{"transit":false,"station_id":"KMT","distance":1829,"is_transit":false,"i_long":106.855437,"station_name":"Kramat","time":2,"line":11,"i_lat":-6.193792},{"station_id":"GST","is_transit":false,"i_long":106.850107,"station_name":"Gang Sentiong","line":11,"distance":973,"transit":false,"time":1,"i_lat":-6.185975},{"station_id":"PSE","is_transit":false,"transit":false,"i_long":106.84368,"line":11,"distance":1567,"time":8,"i_lat":-6.174784,"station_name":"Pasar Senen"},{"time":4,"station_name":"Kemayoran","station_id":"KMO","is_transit":false,"i_lat":-6.161728,"transit":false,"i_long":106.839204,"distance":1436,"line":11},{"is_transit":false,"transit":false,"i_lat":-6.14505,"time":5,"station_name":"Rajawali","i_long":106.836569,"station_id":"RJW","distance":1901,"line":11},{"station_name":"Kampung Bandan","transit":true,"distance":1444,"line":4,"is_transit":true,"time":3,"i_lat":-6.132549,"i_long":106.826365,"station_id":"KPB"},{"distance":4102,"i_lat":-6.144674,"transit":false,"station_id":"AK","time":9,"line":1,"station_name":"Angke","i_long":106.79867,"is_transit":false}]]}