{"data":[[{"line":1,"i_long":106.800832,"time":0,"distance":0,"station_name":"Duri","station_id":"DU","transit":false,"i_lat":-6.155215,"is_transit":false},{"time":4,"is_transit":false,"line":1,"i_lat":-6.144674,"station_id":"AK","station_name":"Angke","distance":1230,"i_long":106.79867,"transit":false}],[{"is_transit":false,"i_lat":-6.155215,"transit":false,"time":0,"line":1,"station_id":"DU","station_name":"Duri","i_long":106.800832,"distance":0},{"i_long":106.811091,"is_transit":false,"i_lat":-6.185545,"time":8,"distance":3632,"station_name":"Tanah Abang","line":1,"station_id":"THB","transit":false},{"distance":2029,"line":1,"time":5,"is_transit":false,"station_name":"Karet","i_lat":-6.20132,"i_long":106.816351,"station_id":"KAT","transit":false},{"station_name":"Sudirman Baru","i_lat":-6.201433,"distance":471,"time":1,"station_id":"SUDB","i_long":106.819881,"line":1,"is_transit":false,"transit":false},{"distance":280,"time":1,"is_transit":false,"station_id":"SUD","i_lat":-6.202263,"line":1,"transit":false,"station_name":"Sudirman","i_long":106.822649},{"station_id":"MRI","distance":3186,"station_name":"Manggarai","i_long":106.84912,"line":2,"is_transit":true,"time":4,"i_lat":-6.209883,"transit":true},{"station_name":"Cikini","i_lat":-6.198556,"is_transit":false,"time":4,"station_id":"CKI","line":2,"i_long":106.840169,"distance":1590,"transit":false},{"distance":1750,"station_id":"GDD","i_lat":-6.186295,"is_transit":false,"station_name":"Gondangdia","transit":false,"i_long":106.832183,"time":3,"line":2},{"i_lat":-6.166716,"i_long":106.828284,"distance":2015,"station_name":"Juanda","is_transit":false,"time":4,"station_id":"JUA","line":2,"transit":false},{"station_name":"Sawah Besar","time":2,"station_id":"SW","is_transit":false,"transit":false,"i_lat":-6.160725,"distance":1149,"line":2,"i_long":106.827103},{"line":2,"station_name":"Manggabesar","station_id":"MGB","distance":906,"i_lat":-6.149769,"i_long":106.82482,"is_transit":false,"transit":false,"time":2},{"is_transit":false,"line":2,"station_id":"JAY","i_lat":-6.141205,"transit":false,"distance":1080,"i_long":106.820901,"time":2,"station_name":"Jayakarta"},{"line":2,"distance":1264,"station_id":"JAKK","i_lat":-6.137569,"time":4,"station_name":"Jakarta Kota","transit":true,"is_transit":true,"i_long":106.812439},{"i_lat":-6.132549,"i_long":106.826365,"distance":1364,"station_id":"KPB","time":3,"station_name":"Kampung Bandan","is_transit":true,"transit":true,"line":4},{"is_transit":false,"i_lat":-6.144674,"line":1,"distance":4102,"station_name":"Angke","transit":false,"station_id":"AK","i_long":106.79867,"time":9}],[{"is_transit":false,"station_id":"DU","time":0,"station_name":"Duri","transit":false,"i_lat":-6.155215,"i_long":106.800832,"distance":0,"line":1},{"line":1,"time":8,"station_id":"THB","is_transit":false,"i_long":106.811091,"distance":3632,"station_name":"Tanah Abang","i_lat":-6.185545,"transit":false},{"time":5,"station_name":"Karet","transit":false,"station_id":"KAT","i_lat":-6.20132,"distance":2029,"i_long":106.816351,"line":1,"is_transit":false},{"i_long":106.819881,"time":1,"i_lat":-6.201433,"line":1,"station_id":"SUDB","is_transit":false,"station_name":"Sudirman Baru","distance":471,"transit":false},{"distance":280,"station_name":"Sudirman","is_transit":false,"i_lat":-6.202263,"line":1,"station_id":"SUD","time":1,"transit":false,"i_long":106.822649},{"transit":false,"station_id":"MRI","is_transit":false,"time":4,"distance":3186,"i_lat":-6.209883,"line":2,"i_long":106.84912,"station_name":"Manggarai"},{"time":2,"line":1,"station_name":"Matraman","distance":1275,"station_id":"MTR","i_long":106.858896,"is_transit":false,"transit":false,"i_lat":-6.212485},{"transit":true,"line":1,"station_id":"JNG","i_lat":-6.215091,"is_transit":true,"i_long":106.86807400000001,"distance":1377,"station_name":"Jatinegara","time":8},{"line":11,"station_name":"Pondok Jati","time":2,"is_transit":false,"i_lat":-6.209188,"i_long":106.861737,"distance":1236,"transit":false,"station_id":"POK"},{"station_name":"Kramat","i_lat":-6.193792,"line":11,"i_long":106.855437,"station_id":"KMT","distance":1829,"is_transit":false,"transit":false,"time":2},{"i_long":106.850107,"station_id":"GST","is_transit":false,"time":1,"i_lat":-6.185975,"station_name":"Gang Sentiong","distance":973,"transit":false,"line":11},{"station_id":"PSE","station_name":"Pasar Senen","is_transit":false,"i_long":106.84368,"line":11,"distance":1567,"i_lat":-6.174784,"transit":false,"time":8},{"i_lat":-6.161728,"i_long":106.839204,"time":4,"station_name":"Kemayoran","station_id":"KMO","line":11,"distance":1436,"is_transit":false,"transit":false},{"distance":1901,"transit":false,"time":5,"station_id":"RJW","i_lat":-6.14505,"is_transit":false,"i_long":106.836569,"station_name":"Rajawali","line":11},{"line":4,"i_long":106.826365,"station_id":"KPB","transit":true,"i_lat":-6.132549,"time":3,"station_name":"Kampung Bandan","distance":1444,"is_transit":true},{"distance":4102,"i_lat":-6.144674,"station_id":"AK","station_name":"Angke","i_long":106.79867,"time":9,"transit":false,"line":1,"is_transit":false}]]}