{"data":[[{"i_long":106.800832,"line":1,"transit":false,"i_lat":-6.155215,"station_name":"Duri","distance":0,"station_id":"DU","is_transit":false,"time":0},{"distance":3632,"transit":false,"station_id":"THB","time":8,"i_long":106.811091,"is_transit":false,"i_lat":-6.185545,"line":1,"station_name":"Tanah Abang"},{"station_name":"Karet","distance":2029,"station_id":"KAT","time":5,"i_lat":-6.20132,"i_long":106.816351,"transit":false,"line":1,"is_transit":false},{"time":1,"is_transit":false,"line":1,"i_lat":-6.201433,"i_long":106.819881,"station_name":"Sudirman Baru","transit":false,"station_id":"SUDB","distance":471},{"transit":false,"i_lat":-6.202263,"i_long":106.822649,"is_transit":false,"station_id":"SUD","station_name":"Sudirman","time":1,"line":1,"distance":280},{"i_long":106.84912,"i_lat":-6.209883,"distance":3186,"station_name":"Manggarai","is_transit":true,"line":2,"time":4,"transit":true,"station_id":"MRI"},{"station_name":"Tebet","distance":2610,"is_transit":false,"station_id":"TEB","time":4,"line":2,"i_lat":-6.226659,"i_long":106.857948,"transit":false},{"station_id":"CW","is_transit":false,"line":2,"time":2,"station_name":"Cawang","i_lat":-6.242512,"i_long":106.856607,"distance":1230,"transit":false}],[{"station_id":"DU","is_transit":false,"i_long":106.800832,"time":0,"station_name":"Duri","i_lat":-6.155215,"line":1,"transit":false,"distance":0},{"station_id":"AK","station_name":"Angke","time":4,"i_long":106.79867,"transit":false,"is_transit":false,"i_lat":-6.144674,"distance":1230,"line":1},{"station_id":"KPB","distance":4102,"station_name":"Kampung Bandan","time":9,"transit":true,"i_lat":-6.132549,"is_transit":true,"i_long":106.826365,"line":4},{"time":3,"is_transit":true,"distance":1364,"station_id":"JAKK","station_name":"Jakarta Kota","transit":true,"i_lat":-6.137569,"i_long":106.812439,"line":2},{"station_name":"Jayakarta","time":4,"station_id":"JAY","transit":false,"is_transit":false,"i_long":106.820901,"line":2,"i_lat":-6.141205,"distance":1264},{"station_id":"MGB","station_name":"Manggabesar","line":2,"time":2,"is_transit":false,"distance":1080,"i_long":106.82482,"i_lat":-6.149769,"transit":false},{"transit":false,"distance":906,"i_long":106.827103,"i_lat":-6.160725,"station_name":"Sawah Besar","is_transit":false,"station_id":"SW","line":2,"time":2},{"station_name":"Juanda","transit":false,"distance":1149,"time":2,"i_long":106.828284,"is_transit":false,"i_lat":-6.166716,"station_id":"JUA","line":2},{"i_lat":-6.186295,"distance":2015,"i_long":106.832183,"is_transit":false,"time":4,"line":2,"station_id":"GDD","station_name":"Gondangdia","transit":false},{"is_transit":false,"i_lat":-6.198556,"time":3,"transit":false,"station_id":"CKI","station_name":"Cikini","distance":1750,"i_long":106.840169,"line":2},{"is_transit":false,"time":4,"station_id":"MRI","i_lat":-6.209883,"station_name":"Manggarai","distance":1590,"i_long":106.84912,"line":2,"transit":false},{"is_transit":false,"station_id":"TEB","i_lat":-6.226659,"time":4,"station_name":"Tebet","transit":false,"i_long":106.857948,"line":2,"distance":2610},{"station_name":"Cawang","station_id":"CW","is_transit":false,"transit":false,"line":2,"time":2,"i_long":106.856607,"i_lat":-6.242512,"distance":1230}],[{"line":1,"station_id":"DU","is_transit":false,"distance":0,"station_name":"Duri","time":0,"i_long":106.800832,"transit":false,"i_lat":-6.155215},{"station_name":"Angke","i_long":106.79867,"distance":1230,"i_lat":-6.144674,"transit":false,"is_transit":false,"time":4,"line":1,"station_id":"AK"},{"distance":4102,"station_name":"Kampung Bandan","transit":true,"is_transit":true,"time":9,"i_long":106.826365,"line":4,"i_lat":-6.132549,"station_id":"KPB"},{"is_transit":false,"transit":false,"line":11,"station_id":"RJW","station_name":"Rajawali","distance":1444,"i_lat":-6.14505,"time":3,"i_long":106.836569},{"station_id":"KMO","time":5,"is_transit":false,"station_name":"Kemayoran","distance":1901,"transit":false,"i_long":106.839204,"line":11,"i_lat":-6.161728},{"i_long":106.84368,"station_id":"PSE","line":11,"distance":1436,"i_lat":-6.174784,"station_name":"Pasar Senen","time":4,"is_transit":false,"transit":false},{"line":11,"i_lat":-6.185975,"transit":false,"i_long":106.850107,"time":8,"station_name":"Gang Sentiong","distance":1567,"station_id":"GST","is_transit":false},{"i_long":106.855437,"distance":973,"station_id":"KMT","i_lat":-6.193792,"time":1,"transit":false,"station_name":"Kramat","is_transit":false,"line":11},{"i_long":106.861737,"distance":1829,"transit":false,"station_name":"Pondok Jati","time":2,"i_lat":-6.209188,"is_transit":false,"station_id":"POK","line":11},{"i_long":106.86807400000001,"transit":true,"is_transit":true,"station_name":"Jatinegara","distance":1236,"station_id":"JNG","time":9,"i_lat":-6.215091,"line":1},{"i_lat":-6.212485,"i_long":106.858896,"line":1,"is_transit":false,"time":2,"distance":1377,"station_name":"Matraman","transit":false,"station_id":"MTR"},{"transit":true,"station_name":"Manggarai","distance":1275,"time":2,"station_id":"MRI","is_transit":true,"i_lat":-6.209883,"i_long":106.84912,"line":2},{"transit":false,"i_lat":-6.226659,"time":4,"station_name":"Tebet","distance":2610,"station_id":"TEB","i_long":106.857948,"line":2,"is_transit":false},{"station_id":"CW","is_transit":false,"i_lat":-6.242512,"i_long":106.856607,"time":2,"line":2,"station_name":"Cawang","transit":false,"distance":1230}]]}