{"data":[[{"station_name":"Duri","station_id":"DU","transit":false,"time":0,"distance":0,"is_transit":false,"i_lat":-6.155215,"i_long":106.800832,"line":1},{"is_transit":false,"transit":false,"line":1,"time":8,"station_id":"THB","i_long":106.811091,"station_name":"Tanah Abang","i_lat":-6.185545,"distance":3632},{"i_long":106.816351,"line":1,"time":5,"i_lat":-6.20132,"station_name":"Karet","is_transit":false,"distance":2029,"transit":false,"station_id":"KAT"},{"line":1,"is_transit":false,"distance":471,"station_id":"SUDB","station_name":"Sudirman Baru","i_lat":-6.201433,"transit":false,"time":1,"i_long":106.819881},{"i_long":106.822649,"station_name":"Sudirman","distance":280,"time":1,"station_id":"SUD","is_transit":false,"i_lat":-6.202263,"line":1,"transit":false},{"station_id":"MRI","line":2,"is_transit":true,"i_long":106.84912,"time":4,"distance":3186,"station_name":"Manggarai","transit":true,"i_lat":-6.209883},{"time":4,"transit":false,"station_name":"Tebet","i_long":106.857948,"station_id":"TEB","distance":2610,"is_transit":false,"i_lat":-6.226659,"line":2},{"distance":1230,"i_lat":-6.242512,"transit":false,"station_id":"CW","station_name":"Cawang","is_transit":false,"line":2,"i_long":106.856607,"time":2}],[{"i_lat":-6.155215,"line":1,"time":0,"is_transit":false,"station_name":"Duri","i_long":106.800832,"station_id":"DU","transit":false,"distance":0},{"i_long":106.79867,"station_name":"Angke","line":1,"transit":false,"time":4,"distance":1230,"is_transit":false,"i_lat":-6.144674,"station_id":"AK"},{"transit":true,"station_id":"KPB","is_transit":true,"i_lat":-6.132549,"station_name":"Kampung Bandan","i_long":106.826365,"distance":4102,"line":4,"time":9},{"line":2,"station_name":"Jakarta Kota","i_lat":-6.137569,"transit":true,"station_id":"JAKK","time":3,"is_transit":true,"distance":1364,"i_long":106.812439},{"station_id":"JAY","distance":1264,"i_lat":-6.141205,"i_long":106.820901,"is_transit":false,"line":2,"time":4,"transit":false,"station_name":"Jayakarta"},{"time":2,"station_id":"MGB","distance":1080,"station_name":"Manggabesar","is_transit":false,"transit":false,"i_lat":-6.149769,"line":2,"i_long":106.82482},{"is_transit":false,"station_id":"SW","distance":906,"transit":false,"i_long":106.827103,"i_lat":-6.160725,"station_name":"Sawah Besar","line":2,"time":2},{"transit":false,"time":2,"station_id":"JUA","distance":1149,"is_transit":false,"i_long":106.828284,"i_lat":-6.166716,"line":2,"station_name":"Juanda"},{"line":2,"time":4,"distance":2015,"station_name":"Gondangdia","i_lat":-6.186295,"is_transit":false,"station_id":"GDD","transit":false,"i_long":106.832183},{"station_id":"CKI","transit":false,"station_name":"Cikini","time":3,"is_transit":false,"i_lat":-6.198556,"distance":1750,"i_long":106.840169,"line":2},{"time":4,"line":2,"is_transit":false,"station_name":"Manggarai","transit":false,"i_long":106.84912,"station_id":"MRI","i_lat":-6.209883,"distance":1590},{"distance":2610,"line":2,"transit":false,"i_long":106.857948,"station_name":"Tebet","i_lat":-6.226659,"station_id":"TEB","is_transit":false,"time":4},{"distance":1230,"is_transit":false,"station_name":"Cawang","transit":false,"i_long":106.856607,"time":2,"station_id":"CW","line":2,"i_lat":-6.242512}],[{"is_transit":false,"station_id":"DU","station_name":"Duri","i_lat":-6.155215,"i_long":106.800832,"time":0,"distance":0,"line":1,"transit":false},{"time":4,"i_lat":-6.144674,"i_long":106.79867,"distance":1230,"line":1,"is_transit":false,"station_id":"AK","transit":false,"station_name":"Angke"},{"i_lat":-6.132549,"station_name":"Kampung Bandan","is_transit":true,"time":9,"transit":true,"line":4,"station_id":"KPB","i_long":106.826365,"distance":4102},{"time":3,"distance":1444,"station_id":"RJW","transit":false,"i_lat":-6.14505,"station_name":"Rajawali","is_transit":false,"i_long":106.836569,"line":11},{"i_lat":-6.161728,"line":11,"is_transit":false,"i_long":106.839204,"time":5,"distance":1901,"station_name":"Kemayoran","transit":false,"station_id":"KMO"},{"transit":false,"i_lat":-6.174784,"distance":1436,"is_transit":false,"line":11,"i_long":106.84368,"station_id":"PSE","time":4,"station_name":"Pasar Senen"},{"time":8,"is_transit":false,"i_lat":-6.185975,"distance":1567,"transit":false,"station_name":"Gang Sentiong","station_id":"GST","i_long":106.850107,"line":11},{"time":1,"transit":false,"i_lat":-6.193792,"i_long":106.855437,"station_id":"KMT","is_transit":false,"distance":973,"line":11,"station_name":"Kramat"},{"line":11,"i_lat":-6.209188,"transit":false,"distance":1829,"station_name":"Pondok Jati","time":2,"station_id":"POK","is_transit":false,"i_long":106.861737},{"line":1,"is_transit":true,"i_long":106.86807400000001,"distance":1236,"station_id":"JNG","transit":true,"station_name":"Jatinegara","i_lat":-6.215091,"time":9},{"station_id":"MTR","distance":1377,"transit":false,"station_name":"Matraman","is_transit":false,"i_long":106.858896,"time":2,"line":1,"i_lat":-6.212485},{"is_transit":true,"transit":true,"station_name":"Manggarai","i_lat":-6.209883,"distance":1275,"station_id":"MRI","i_long":106.84912,"line":2,"time":2},{"distance":2610,"is_transit":false,"station_name":"Tebet","i_long":106.857948,"transit":false,"line":2,"station_id":"TEB","i_lat":-6.226659,"time":4},{"transit":false,"i_long":106.856607,"time":2,"line":2,"is_transit":false,"i_lat":-6.242512,"station_id":"CW","station_name":"Cawang","distance":1230}]]}