{"data":[[{"i_lat":-6.155215,"distance":0,"is_transit":false,"i_long":106.800832,"line":1,"station_name":"Duri","transit":false,"time":0,"station_id":"DU"},{"station_id":"THB","is_transit":true,"line":1,"i_long":106.811091,"distance":3632,"transit":true,"time":8,"station_name":"Tanah Abang","i_lat":-6.185545},{"station_id":"PLM","transit":false,"i_lat":-6.207404,"i_long":106.79689,"station_name":"Palmerah","line":6,"distance":3191,"is_transit":false,"time":6},{"i_lat":-6.237242,"i_long":106.780334,"station_name":"Kebayoran","station_id":"KBY","transit":false,"time":7,"is_transit":false,"distance":3737,"line":6},{"is_transit":false,"distance":6218,"station_id":"PDJ","transit":false,"line":6,"station_name":"Pondokranji","i_lat":-6.276362,"i_long":106.74273,"time":8},{"transit":false,"is_transit":false,"station_id":"JMU","station_name":"Jurangmangu","time":3,"line":6,"i_long":106.728916,"distance":2179,"i_lat":-6.288927},{"station_name":"Sudimara","transit":false,"i_long":106.712277,"distance":1994,"line":6,"time":4,"station_id":"SDM","i_lat":-6.296963,"is_transit":false},{"time":6,"station_id":"RU","i_lat":-6.314823,"distance":4566,"line":6,"station_name":"Rawa Buntu","is_transit":false,"transit":false,"i_long":106.675475},{"station_name":"Serpong","line":6,"is_transit":false,"i_lat":-6.319871,"i_long":106.66566,"distance":2413,"time":4,"transit":false,"station_id":"SRP"},{"transit":false,"station_id":"CSK","i_long":106.640411,"is_transit":false,"distance":1784,"i_lat":-6.32484,"line":3,"station_name":"Cisauk","time":4},{"station_name":"Cicayur","is_transit":false,"i_long":106.617853,"time":4,"distance":2519,"transit":false,"line":3,"i_lat":-6.329547,"station_id":"CC"},{"time":8,"i_long":106.568863,"line":6,"station_id":"PRP","transit":false,"distance":5968,"i_lat":-6.3441410000000005,"is_transit":false,"station_name":"Parung Panjang"},{"time":9,"i_lat":-6.354349,"is_transit":false,"station_name":"Cilejit","i_long":106.508482,"transit":false,"line":3,"distance":7025,"station_id":"CJT"},{"transit":false,"station_id":"DAR","line":0,"i_lat":-6.338021,"distance":2675,"i_long":106.491338,"time":6,"is_transit":false,"station_name":"Daru"},{"station_name":"Tenjo","station_id":"TEJ","time":5,"is_transit":false,"i_long":106.460812,"distance":3902,"transit":false,"i_lat":-6.327251,"line":6},{"distance":2974,"station_id":"TGS","time":5,"i_lat":-6.328533,"line":6,"is_transit":false,"transit":false,"station_name":"Tigaraksa","i_long":106.425991},{"distance":2651,"line":3,"is_transit":false,"i_lat":-6.33561,"station_name":"Cikoya","station_id":"CKY","transit":false,"i_long":106.411216,"time":3}],[{"is_transit":false,"time":0,"distance":0,"i_lat":-6.155215,"line":1,"i_long":106.800832,"station_name":"Duri","station_id":"DU","transit":false},{"is_transit":false,"distance":1230,"i_lat":-6.144674,"station_name":"Angke","i_long":106.79867,"line":1,"time":4,"transit":false,"station_id":"AK"},{"station_name":"Kampung Bandan","transit":true,"i_long":106.826365,"distance":4102,"is_transit":true,"i_lat":-6.132549,"line":4,"station_id":"KPB","time":9},{"line":2,"station_id":"JAKK","distance":1364,"i_long":106.812439,"is_transit":true,"station_name":"Jakarta Kota","time":3,"i_lat":-6.137569,"transit":true},{"station_name":"Jayakarta","station_id":"JAY","time":4,"transit":false,"i_lat":-6.141205,"i_long":106.820901,"line":2,"distance":1264,"is_transit":false},{"i_lat":-6.149769,"transit":false,"line":2,"i_long":106.82482,"time":2,"distance":1080,"station_id":"MGB","is_transit":false,"station_name":"Manggabesar"},{"i_lat":-6.160725,"station_id":"SW","station_name":"Sawah Besar","is_transit":false,"time":2,"distance":906,"i_long":106.827103,"line":2,"transit":false},{"line":2,"station_id":"JUA","i_lat":-6.166716,"time":2,"distance":1149,"i_long":106.828284,"is_transit":false,"station_name":"Juanda","transit":false},{"i_long":106.832183,"station_name":"Gondangdia","is_transit":false,"i_lat":-6.186295,"time":4,"line":2,"transit":false,"distance":2015,"station_id":"GDD"},{"transit":false,"i_lat":-6.198556,"i_long":106.840169,"distance":1750,"is_transit":false,"line":2,"station_id":"CKI","station_name":"Cikini","time":3},{"station_name":"Manggarai","time":4,"is_transit":true,"i_lat":-6.209883,"station_id":"MRI","distance":1590,"line":2,"transit":true,"i_long":106.84912},{"transit":false,"time":4,"i_lat":-6.202263,"is_transit":false,"station_name":"Sudirman","distance":3186,"i_long":106.822649,"line":1,"station_id":"SUD"},{"is_transit":false,"i_lat":-6.201433,"station_name":"Sudirman Baru","line":1,"transit":false,"time":1,"station_id":"SUDB","i_long":106.819881,"distance":280},{"i_long":106.816351,"time":1,"station_name":"Karet","station_id":"KAT","distance":471,"transit":false,"i_lat":-6.20132,"line":1,"is_transit":false},{"i_long":106.811091,"distance":2029,"i_lat":-6.185545,"is_transit":true,"station_id":"THB","time":5,"line":1,"station_name":"Tanah Abang","transit":true},{"line":6,"is_transit":false,"transit":false,"station_name":"Palmerah","i_long":106.79689,"station_id":"PLM","i_lat":-6.207404,"time":6,"distance":3191},{"is_transit":false,"distance":3737,"station_name":"Kebayoran","transit":false,"i_lat":-6.237242,"station_id":"KBY","time":7,"i_long":106.780334,"line":6},{"distance":6218,"transit":false,"i_long":106.74273,"i_lat":-6.276362,"station_name":"Pondokranji","is_transit":false,"station_id":"PDJ","time":8,"line":6},{"distance":2179,"station_name":"Jurangmangu","transit":false,"i_long":106.728916,"time":3,"i_lat":-6.288927,"line":6,"station_id":"JMU","is_transit":false},{"i_lat":-6.296963,"line":6,"station_id":"SDM","i_long":106.712277,"is_transit":false,"time":4,"transit":false,"station_name":"Sudimara","distance":1994},{"distance":4566,"i_lat":-6.314823,"station_name":"Rawa Buntu","time":6,"line":6,"transit":false,"station_id":"RU","is_transit":false,"i_long":106.675475},{"is_transit":false,"line":6,"distance":2413,"i_lat":-6.319871,"transit":false,"station_id":"SRP","time":4,"i_long":106.66566,"station_name":"Serpong"},{"transit":false,"i_lat":-6.32484,"is_transit":false,"station_id":"CSK","station_name":"Cisauk","time":4,"distance":1784,"i_long":106.640411,"line":3},{"line":3,"time":4,"distance":2519,"i_long":106.617853,"station_id":"CC","is_transit":false,"station_name":"Cicayur","transit":false,"i_lat":-6.329547},{"is_transit":false,"distance":5968,"station_id":"PRP","station_name":"Parung Panjang","i_lat":-6.3441410000000005,"i_long":106.568863,"line":6,"transit":false,"time":8},{"station_id":"CJT","station_name":"Cilejit","distance":7025,"is_transit":false,"time":9,"transit":false,"i_lat":-6.354349,"i_long":106.508482,"line":3},{"station_id":"DAR","line":0,"time":6,"is_transit":false,"transit":false,"distance":2675,"i_lat":-6.338021,"i_long":106.491338,"station_name":"Daru"},{"time":5,"distance":3902,"i_long":106.460812,"station_name":"Tenjo","station_id":"TEJ","line":6,"i_lat":-6.327251,"transit":false,"is_transit":false},{"transit":false,"time":5,"i_lat":-6.328533,"i_long":106.425991,"distance":2974,"is_transit":false,"station_name":"Tigaraksa","station_id":"TGS","line":6},{"distance":2651,"line":3,"transit":false,"i_lat":-6.33561,"is_transit":false,"station_name":"Cikoya","station_id":"CKY","time":3,"i_long":106.411216}],[{"distance":0,"i_long":106.800832,"transit":false,"i_lat":-6.155215,"station_name":"Duri","line":1,"is_transit":false,"time":0,"station_id":"DU"},{"transit":false,"station_id":"AK","i_lat":-6.144674,"distance":1230,"station_name":"Angke","line":1,"i_long":106.79867,"is_transit":false,"time":4},{"station_name":"Kampung Bandan","station_id":"KPB","i_long":106.826365,"distance":4102,"is_transit":true,"transit":true,"i_lat":-6.132549,"time":9,"line":4},{"line":11,"time":3,"station_id":"RJW","station_name":"Rajawali","i_lat":-6.14505,"i_long":106.836569,"is_transit":false,"transit":false,"distance":1444},{"i_lat":-6.161728,"time":5,"line":11,"station_id":"KMO","station_name":"Kemayoran","i_long":106.839204,"is_transit":false,"distance":1901,"transit":false},{"station_id":"PSE","i_long":106.84368,"station_name":"Pasar Senen","transit":false,"i_lat":-6.174784,"time":4,"distance":1436,"is_transit":false,"line":11},{"time":8,"transit":false,"line":11,"i_lat":-6.185975,"distance":1567,"i_long":106.850107,"station_id":"GST","station_name":"Gang Sentiong","is_transit":false},{"i_lat":-6.193792,"station_name":"Kramat","i_long":106.855437,"is_transit":false,"station_id":"KMT","distance":973,"line":11,"time":1,"transit":false},{"distance":1829,"station_id":"POK","i_long":106.861737,"station_name":"Pondok Jati","line":11,"transit":false,"time":2,"i_lat":-6.209188,"is_transit":false},{"distance":1236,"station_id":"JNG","i_long":106.86807400000001,"station_name":"Jatinegara","time":9,"transit":true,"is_transit":true,"i_lat":-6.215091,"line":1},{"i_lat":-6.212485,"i_long":106.858896,"is_transit":false,"time":2,"station_id":"MTR","transit":false,"distance":1377,"station_name":"Matraman","line":1},{"is_transit":false,"i_long":106.84912,"transit":false,"station_name":"Manggarai","station_id":"MRI","distance":1275,"time":2,"i_lat":-6.209883,"line":2},{"time":4,"transit":false,"station_id":"SUD","is_transit":false,"distance":3186,"line":1,"station_name":"Sudirman","i_lat":-6.202263,"i_long":106.822649},{"station_id":"SUDB","transit":false,"i_long":106.819881,"line":1,"distance":280,"time":1,"i_lat":-6.201433,"is_transit":false,"station_name":"Sudirman Baru"},{"distance":471,"is_transit":false,"line":1,"i_long":106.816351,"i_lat":-6.20132,"station_id":"KAT","time":1,"transit":false,"station_name":"Karet"},{"is_transit":true,"i_lat":-6.185545,"station_id":"THB","station_name":"Tanah Abang","transit":true,"line":1,"time":5,"distance":2029,"i_long":106.811091},{"station_id":"PLM","time":6,"i_lat":-6.207404,"is_transit":false,"i_long":106.79689,"station_name":"Palmerah","line":6,"transit":false,"distance":3191},{"transit":false,"station_name":"Kebayoran","station_id":"KBY","time":7,"is_transit":false,"i_lat":-6.237242,"distance":3737,"i_long":106.780334,"line":6},{"time":8,"i_long":106.74273,"station_name":"Pondokranji","i_lat":-6.276362,"line":6,"station_id":"PDJ","is_transit":false,"distance":6218,"transit":false},{"is_transit":false,"time":3,"station_name":"Jurangmangu","i_lat":-6.288927,"distance":2179,"transit":false,"line":6,"station_id":"JMU","i_long":106.728916},{"i_lat":-6.296963,"i_long":106.712277,"station_name":"Sudimara","line":6,"station_id":"SDM","transit":false,"time":4,"is_transit":false,"distance":1994},{"transit":false,"station_name":"Rawa Buntu","station_id":"RU","i_long":106.675475,"time":6,"distance":4566,"line":6,"is_transit":false,"i_lat":-6.314823},{"time":4,"line":6,"station_id":"SRP","is_transit":false,"i_lat":-6.319871,"transit":false,"i_long":106.66566,"station_name":"Serpong","distance":2413},{"i_long":106.640411,"station_name":"Cisauk","distance":1784,"transit":false,"station_id":"CSK","is_transit":false,"time":4,"i_lat":-6.32484,"line":3},{"time":4,"line":3,"distance":2519,"i_long":106.617853,"i_lat":-6.329547,"station_name":"Cicayur","transit":false,"station_id":"CC","is_transit":false},{"distance":5968,"time":8,"i_lat":-6.3441410000000005,"line":6,"transit":false,"is_transit":false,"station_name":"Parung Panjang","i_long":106.568863,"station_id":"PRP"},{"line":3,"time":9,"distance":7025,"i_long":106.508482,"station_id":"CJT","station_name":"Cilejit","is_transit":false,"transit":false,"i_lat":-6.354349},{"i_lat":-6.338021,"line":0,"station_id":"DAR","time":6,"i_long":106.491338,"station_name":"Daru","is_transit":false,"distance":2675,"transit":false},{"distance":3902,"i_long":106.460812,"line":6,"transit":false,"station_name":"Tenjo","station_id":"TEJ","time":5,"i_lat":-6.327251,"is_transit":false},{"time":5,"station_name":"Tigaraksa","line":6,"i_long":106.425991,"is_transit":false,"distance":2974,"i_lat":-6.328533,"transit":false,"station_id":"TGS"},{"i_lat":-6.33561,"station_name":"Cikoya","time":3,"station_id":"CKY","transit":false,"i_long":106.411216,"line":3,"distance":2651,"is_transit":false}]]}