{"data":[[{"is_transit":false,"line":1,"transit":false,"time":0,"station_name":"Duri","station_id":"DU","i_long":106.800832,"i_lat":-6.155215,"distance":0},{"i_lat":-6.185545,"i_long":106.811091,"line":1,"is_transit":true,"transit":true,"station_id":"THB","time":8,"distance":3632,"station_name":"Tanah Abang"},{"station_name":"Palmerah","time":6,"distance":3191,"i_long":106.79689,"line":6,"station_id":"PLM","i_lat":-6.207404,"transit":false,"is_transit":false},{"distance":3737,"station_id":"KBY","station_name":"Kebayoran","time":7,"transit":false,"line":6,"is_transit":false,"i_long":106.780334,"i_lat":-6.237242},{"distance":6218,"i_lat":-6.276362,"i_long":106.74273,"station_name":"Pondokranji","is_transit":false,"time":8,"station_id":"PDJ","transit":false,"line":6},{"i_lat":-6.288927,"is_transit":false,"line":6,"station_name":"Jurangmangu","time":3,"transit":false,"distance":2179,"station_id":"JMU","i_long":106.728916},{"is_transit":false,"distance":1994,"time":4,"transit":false,"i_long":106.712277,"station_name":"Sudimara","station_id":"SDM","i_lat":-6.296963,"line":6},{"station_name":"Rawa Buntu","i_long":106.675475,"line":6,"i_lat":-6.314823,"time":6,"is_transit":false,"distance":4566,"transit":false,"station_id":"RU"},{"time":4,"station_name":"Serpong","distance":2413,"is_transit":false,"station_id":"SRP","i_lat":-6.319871,"line":6,"transit":false,"i_long":106.66566},{"i_lat":-6.32484,"station_id":"CSK","station_name":"Cisauk","distance":1784,"transit":false,"line":3,"time":4,"is_transit":false,"i_long":106.640411},{"time":4,"transit":false,"is_transit":false,"station_id":"CC","distance":2519,"station_name":"Cicayur","i_lat":-6.329547,"i_long":106.617853,"line":3},{"i_long":106.568863,"is_transit":false,"transit":false,"station_id":"PRP","distance":5968,"line":6,"time":8,"i_lat":-6.3441410000000005,"station_name":"Parung Panjang"},{"distance":7025,"time":9,"i_lat":-6.354349,"i_long":106.508482,"station_id":"CJT","line":3,"transit":false,"is_transit":false,"station_name":"Cilejit"},{"station_id":"DAR","time":6,"i_lat":-6.338021,"distance":2675,"station_name":"Daru","line":0,"is_transit":false,"transit":false,"i_long":106.491338},{"transit":false,"distance":3902,"line":6,"is_transit":false,"time":5,"i_long":106.460812,"station_id":"TEJ","i_lat":-6.327251,"station_name":"Tenjo"},{"i_long":106.425991,"time":5,"transit":false,"station_name":"Tigaraksa","line":6,"is_transit":false,"distance":2974,"i_lat":-6.328533,"station_id":"TGS"},{"time":3,"distance":2651,"i_long":106.411216,"i_lat":-6.33561,"transit":false,"is_transit":false,"station_id":"CKY","station_name":"Cikoya","line":3}],[{"i_long":106.800832,"line":1,"time":0,"transit":false,"i_lat":-6.155215,"station_id":"DU","is_transit":false,"distance":0,"station_name":"Duri"},{"is_transit":false,"station_id":"AK","distance":1230,"station_name":"Angke","i_lat":-6.144674,"line":1,"transit":false,"i_long":106.79867,"time":4},{"time":9,"station_id":"KPB","transit":true,"is_transit":true,"distance":4102,"i_long":106.826365,"line":4,"i_lat":-6.132549,"station_name":"Kampung Bandan"},{"transit":true,"station_id":"JAKK","i_lat":-6.137569,"is_transit":true,"line":2,"i_long":106.812439,"station_name":"Jakarta Kota","time":3,"distance":1364},{"distance":1264,"is_transit":false,"station_name":"Jayakarta","time":4,"i_lat":-6.141205,"line":2,"transit":false,"i_long":106.820901,"station_id":"JAY"},{"station_id":"MGB","station_name":"Manggabesar","transit":false,"line":2,"is_transit":false,"i_long":106.82482,"time":2,"distance":1080,"i_lat":-6.149769},{"station_name":"Sawah Besar","i_lat":-6.160725,"i_long":106.827103,"is_transit":false,"time":2,"transit":false,"distance":906,"line":2,"station_id":"SW"},{"station_id":"JUA","i_lat":-6.166716,"distance":1149,"line":2,"is_transit":false,"time":2,"station_name":"Juanda","transit":false,"i_long":106.828284},{"i_long":106.832183,"is_transit":false,"time":4,"transit":false,"distance":2015,"line":2,"station_name":"Gondangdia","i_lat":-6.186295,"station_id":"GDD"},{"i_lat":-6.198556,"line":2,"is_transit":false,"distance":1750,"transit":false,"i_long":106.840169,"station_name":"Cikini","time":3,"station_id":"CKI"},{"transit":true,"station_name":"Manggarai","time":4,"line":2,"distance":1590,"is_transit":true,"station_id":"MRI","i_long":106.84912,"i_lat":-6.209883},{"line":1,"i_lat":-6.202263,"station_id":"SUD","distance":3186,"transit":false,"i_long":106.822649,"is_transit":false,"station_name":"Sudirman","time":4},{"distance":280,"i_long":106.819881,"station_id":"SUDB","station_name":"Sudirman Baru","line":1,"time":1,"is_transit":false,"transit":false,"i_lat":-6.201433},{"time":1,"transit":false,"is_transit":false,"station_id":"KAT","i_long":106.816351,"station_name":"Karet","line":1,"distance":471,"i_lat":-6.20132},{"station_name":"Tanah Abang","is_transit":true,"i_lat":-6.185545,"time":5,"station_id":"THB","distance":2029,"line":1,"transit":true,"i_long":106.811091},{"line":6,"i_lat":-6.207404,"i_long":106.79689,"time":6,"station_id":"PLM","station_name":"Palmerah","is_transit":false,"distance":3191,"transit":false},{"station_name":"Kebayoran","distance":3737,"time":7,"i_long":106.780334,"is_transit":false,"transit":false,"station_id":"KBY","i_lat":-6.237242,"line":6},{"time":8,"is_transit":false,"station_name":"Pondokranji","transit":false,"station_id":"PDJ","line":6,"i_lat":-6.276362,"i_long":106.74273,"distance":6218},{"time":3,"station_name":"Jurangmangu","line":6,"distance":2179,"i_long":106.728916,"i_lat":-6.288927,"station_id":"JMU","is_transit":false,"transit":false},{"i_lat":-6.296963,"i_long":106.712277,"time":4,"station_id":"SDM","line":6,"transit":false,"station_name":"Sudimara","distance":1994,"is_transit":false},{"time":6,"station_id":"RU","station_name":"Rawa Buntu","line":6,"i_lat":-6.314823,"i_long":106.675475,"transit":false,"is_transit":false,"distance":4566},{"time":4,"distance":2413,"line":6,"is_transit":false,"transit":false,"station_name":"Serpong","i_lat":-6.319871,"i_long":106.66566,"station_id":"SRP"},{"is_transit":false,"i_long":106.640411,"transit":false,"i_lat":-6.32484,"line":3,"station_name":"Cisauk","time":4,"station_id":"CSK","distance":1784},{"distance":2519,"time":4,"station_id":"CC","i_lat":-6.329547,"i_long":106.617853,"line":3,"is_transit":false,"transit":false,"station_name":"Cicayur"},{"distance":5968,"transit":false,"time":8,"station_id":"PRP","is_transit":false,"i_long":106.568863,"station_name":"Parung Panjang","line":6,"i_lat":-6.3441410000000005},{"transit":false,"time":9,"station_id":"CJT","station_name":"Cilejit","i_lat":-6.354349,"line":3,"i_long":106.508482,"distance":7025,"is_transit":false},{"transit":false,"i_long":106.491338,"station_name":"Daru","time":6,"station_id":"DAR","line":0,"is_transit":false,"i_lat":-6.338021,"distance":2675},{"i_long":106.460812,"distance":3902,"i_lat":-6.327251,"line":6,"time":5,"transit":false,"station_name":"Tenjo","is_transit":false,"station_id":"TEJ"},{"station_id":"TGS","transit":false,"line":6,"i_lat":-6.328533,"station_name":"Tigaraksa","distance":2974,"is_transit":false,"time":5,"i_long":106.425991},{"line":3,"is_transit":false,"station_id":"CKY","transit":false,"distance":2651,"time":3,"station_name":"Cikoya","i_lat":-6.33561,"i_long":106.411216}],[{"distance":0,"is_transit":false,"station_id":"DU","time":0,"i_lat":-6.155215,"station_name":"Duri","i_long":106.800832,"transit":false,"line":1},{"station_name":"Angke","is_transit":false,"station_id":"AK","distance":1230,"i_lat":-6.144674,"time":4,"transit":false,"i_long":106.79867,"line":1},{"i_lat":-6.132549,"i_long":106.826365,"line":4,"station_name":"Kampung Bandan","transit":true,"is_transit":true,"station_id":"KPB","time":9,"distance":4102},{"station_id":"RJW","transit":false,"station_name":"Rajawali","distance":1444,"i_long":106.836569,"is_transit":false,"line":11,"i_lat":-6.14505,"time":3},{"transit":false,"station_name":"Kemayoran","is_transit":false,"i_lat":-6.161728,"i_long":106.839204,"station_id":"KMO","distance":1901,"line":11,"time":5},{"time":4,"is_transit":false,"station_id":"PSE","i_lat":-6.174784,"i_long":106.84368,"station_name":"Pasar Senen","transit":false,"line":11,"distance":1436},{"is_transit":false,"transit":false,"station_id":"GST","station_name":"Gang Sentiong","i_long":106.850107,"line":11,"time":8,"i_lat":-6.185975,"distance":1567},{"distance":973,"is_transit":false,"station_name":"Kramat","time":1,"station_id":"KMT","i_lat":-6.193792,"i_long":106.855437,"transit":false,"line":11},{"station_id":"POK","transit":false,"station_name":"Pondok Jati","distance":1829,"is_transit":false,"i_lat":-6.209188,"time":2,"i_long":106.861737,"line":11},{"station_name":"Jatinegara","distance":1236,"i_long":106.86807400000001,"time":9,"station_id":"JNG","i_lat":-6.215091,"transit":true,"is_transit":true,"line":1},{"distance":1377,"station_name":"Matraman","station_id":"MTR","i_long":106.858896,"time":2,"transit":false,"is_transit":false,"i_lat":-6.212485,"line":1},{"distance":1275,"is_transit":false,"station_name":"Manggarai","i_long":106.84912,"transit":false,"i_lat":-6.209883,"line":2,"time":2,"station_id":"MRI"},{"time":4,"distance":3186,"is_transit":false,"line":1,"transit":false,"i_long":106.822649,"station_name":"Sudirman","i_lat":-6.202263,"station_id":"SUD"},{"is_transit":false,"station_id":"SUDB","i_lat":-6.201433,"distance":280,"i_long":106.819881,"time":1,"line":1,"station_name":"Sudirman Baru","transit":false},{"is_transit":false,"i_lat":-6.20132,"distance":471,"line":1,"time":1,"transit":false,"station_id":"KAT","station_name":"Karet","i_long":106.816351},{"line":1,"is_transit":true,"station_name":"Tanah Abang","station_id":"THB","time":5,"transit":true,"distance":2029,"i_lat":-6.185545,"i_long":106.811091},{"station_id":"PLM","transit":false,"time":6,"station_name":"Palmerah","distance":3191,"is_transit":false,"i_lat":-6.207404,"i_long":106.79689,"line":6},{"is_transit":false,"time":7,"transit":false,"distance":3737,"station_name":"Kebayoran","i_long":106.780334,"station_id":"KBY","line":6,"i_lat":-6.237242},{"i_lat":-6.276362,"line":6,"i_long":106.74273,"station_id":"PDJ","time":8,"transit":false,"is_transit":false,"station_name":"Pondokranji","distance":6218},{"line":6,"station_id":"JMU","is_transit":false,"distance":2179,"transit":false,"time":3,"station_name":"Jurangmangu","i_lat":-6.288927,"i_long":106.728916},{"is_transit":false,"transit":false,"station_name":"Sudimara","station_id":"SDM","distance":1994,"i_lat":-6.296963,"i_long":106.712277,"line":6,"time":4},{"is_transit":false,"time":6,"i_long":106.675475,"transit":false,"i_lat":-6.314823,"line":6,"station_id":"RU","station_name":"Rawa Buntu","distance":4566},{"i_long":106.66566,"time":4,"is_transit":false,"i_lat":-6.319871,"distance":2413,"transit":false,"line":6,"station_name":"Serpong","station_id":"SRP"},{"i_lat":-6.32484,"is_transit":false,"station_id":"CSK","distance":1784,"transit":false,"i_long":106.640411,"time":4,"line":3,"station_name":"Cisauk"},{"station_id":"CC","is_transit":false,"i_lat":-6.329547,"i_long":106.617853,"time":4,"distance":2519,"station_name":"Cicayur","transit":false,"line":3},{"line":6,"i_long":106.568863,"time":8,"transit":false,"is_transit":false,"station_name":"Parung Panjang","station_id":"PRP","distance":5968,"i_lat":-6.3441410000000005},{"transit":false,"time":9,"i_lat":-6.354349,"distance":7025,"station_name":"Cilejit","station_id":"CJT","i_long":106.508482,"line":3,"is_transit":false},{"transit":false,"station_id":"DAR","line":0,"is_transit":false,"distance":2675,"station_name":"Daru","time":6,"i_long":106.491338,"i_lat":-6.338021},{"station_name":"Tenjo","time":5,"distance":3902,"i_long":106.460812,"is_transit":false,"transit":false,"line":6,"station_id":"TEJ","i_lat":-6.327251},{"i_long":106.425991,"is_transit":false,"distance":2974,"line":6,"time":5,"transit":false,"i_lat":-6.328533,"station_name":"Tigaraksa","station_id":"TGS"},{"station_name":"Cikoya","distance":2651,"is_transit":false,"i_lat":-6.33561,"transit":false,"time":3,"station_id":"CKY","i_long":106.411216,"line":3}]]}