{"data":[[{"transit":false,"station_id":"DU","i_long":106.800832,"i_lat":-6.155215,"station_name":"Duri","is_transit":true,"time":0,"distance":0,"line":1},{"i_lat":-6.185545,"station_name":"Tanah Abang","time":8,"transit":true,"line":1,"distance":3632,"i_long":106.811091,"station_id":"THB","is_transit":true},{"line":6,"transit":false,"i_lat":-6.207404,"time":6,"station_id":"PLM","i_long":106.79689,"distance":3191,"station_name":"Palmerah","is_transit":false},{"i_long":106.780334,"station_name":"Kebayoran","line":6,"station_id":"KBY","distance":3737,"transit":false,"is_transit":false,"i_lat":-6.237242,"time":7},{"time":8,"station_id":"PDJ","is_transit":false,"i_long":106.74273,"i_lat":-6.276362,"line":6,"distance":6218,"transit":false,"station_name":"Pondokranji"},{"line":6,"distance":2179,"station_id":"JMU","station_name":"Jurangmangu","transit":false,"is_transit":false,"i_lat":-6.288927,"i_long":106.728916,"time":3},{"i_long":106.712277,"station_name":"Sudimara","i_lat":-6.296963,"line":6,"time":4,"station_id":"SDM","transit":false,"is_transit":false,"distance":1994},{"time":6,"i_lat":-6.314823,"distance":4566,"transit":false,"station_name":"Rawa Buntu","i_long":106.675475,"line":6,"is_transit":false,"station_id":"RU"},{"time":4,"i_long":106.66566,"station_id":"SRP","station_name":"Serpong","transit":false,"distance":2413,"i_lat":-6.319871,"line":6,"is_transit":false},{"i_lat":-6.32484,"time":4,"is_transit":false,"i_long":106.640411,"station_name":"Cisauk","distance":1784,"transit":false,"line":0,"station_id":"CSK"},{"transit":false,"station_name":"Cicayur","station_id":"CC","is_transit":false,"time":4,"distance":2519,"i_lat":-6.329547,"i_long":106.617853,"line":0},{"station_name":"Parung Panjang","i_lat":-6.3441410000000005,"time":8,"distance":5968,"station_id":"PRP","transit":false,"is_transit":false,"i_long":106.568863,"line":6},{"station_id":"CJT","time":9,"distance":7025,"station_name":"Cilejit","transit":false,"i_lat":-6.354349,"i_long":106.508482,"line":0,"is_transit":false},{"time":6,"is_transit":false,"transit":false,"i_long":106.491338,"i_lat":-6.338021,"station_id":"DAR","distance":2675,"line":0,"station_name":"Daru"},{"line":6,"station_name":"Tenjo","is_transit":false,"i_lat":-6.327251,"transit":false,"distance":3902,"i_long":106.460812,"time":5,"station_id":"TEJ"},{"station_name":"Tigaraksa","line":6,"is_transit":false,"station_id":"TGS","distance":2974,"transit":false,"i_lat":-6.328533,"time":5,"i_long":106.425991},{"i_lat":-6.33561,"station_id":"CKY","i_long":106.411216,"distance":2651,"station_name":"Cikoya","transit":false,"is_transit":false,"time":3,"line":0}],[{"i_long":106.800832,"transit":false,"is_transit":true,"distance":0,"time":0,"line":1,"i_lat":-6.155215,"station_id":"DU","station_name":"Duri"},{"transit":false,"line":0,"is_transit":false,"station_id":"AK","time":4,"distance":1230,"i_lat":-6.144674,"station_name":"Angke","i_long":106.79867},{"transit":false,"line":0,"station_name":"Kampung Bandan","is_transit":true,"i_long":106.826365,"time":9,"station_id":"KPB","distance":4102,"i_lat":-6.132549},{"transit":true,"line":0,"time":3,"i_long":106.812439,"i_lat":-6.137569,"distance":1364,"is_transit":true,"station_name":"Jakarta Kota","station_id":"JAKK"},{"transit":false,"station_id":"JAY","line":7,"time":4,"is_transit":false,"i_lat":-6.141205,"i_long":106.820901,"distance":1264,"station_name":"Jayakarta"},{"station_id":"MGB","i_lat":-6.149769,"i_long":106.82482,"time":2,"transit":false,"station_name":"Manggabesar","distance":1080,"is_transit":false,"line":2},{"station_name":"Sawah Besar","line":2,"time":2,"distance":906,"i_long":106.827103,"transit":false,"station_id":"SW","i_lat":-6.160725,"is_transit":false},{"time":2,"station_id":"JUA","is_transit":false,"i_lat":-6.166716,"transit":false,"station_name":"Juanda","distance":1149,"i_long":106.828284,"line":2},{"line":2,"is_transit":false,"station_id":"GDD","time":4,"distance":2015,"transit":false,"i_long":106.832183,"i_lat":-6.186295,"station_name":"Gondangdia"},{"is_transit":false,"transit":false,"line":0,"station_id":"CKI","i_lat":-6.198556,"time":3,"i_long":106.840169,"station_name":"Cikini","distance":1750},{"i_long":106.84912,"line":0,"station_name":"Manggarai","transit":true,"station_id":"MRI","distance":1590,"is_transit":true,"time":4,"i_lat":-6.209883},{"i_long":106.822649,"i_lat":-6.202263,"station_name":"Sudirman","time":4,"line":1,"distance":3186,"station_id":"SUD","transit":false,"is_transit":false},{"is_transit":false,"i_long":106.819881,"station_name":"Sudirman Baru","station_id":"SUDB","time":1,"distance":280,"i_lat":-6.201433,"line":1,"transit":false},{"i_long":106.816351,"time":1,"station_id":"KAT","distance":471,"station_name":"Karet","is_transit":false,"i_lat":-6.20132,"transit":false,"line":1},{"i_long":106.811091,"is_transit":true,"transit":true,"time":5,"station_name":"Tanah Abang","line":1,"station_id":"THB","i_lat":-6.185545,"distance":2029},{"time":6,"transit":false,"distance":3191,"is_transit":false,"i_lat":-6.207404,"i_long":106.79689,"station_id":"PLM","line":6,"station_name":"Palmerah"},{"time":7,"distance":3737,"line":6,"i_long":106.780334,"is_transit":false,"i_lat":-6.237242,"station_name":"Kebayoran","transit":false,"station_id":"KBY"},{"station_name":"Pondokranji","distance":6218,"transit":false,"i_long":106.74273,"line":6,"is_transit":false,"i_lat":-6.276362,"station_id":"PDJ","time":8},{"transit":false,"station_name":"Jurangmangu","station_id":"JMU","distance":2179,"is_transit":false,"i_lat":-6.288927,"i_long":106.728916,"time":3,"line":6},{"station_name":"Sudimara","time":4,"is_transit":false,"distance":1994,"line":6,"station_id":"SDM","i_long":106.712277,"i_lat":-6.296963,"transit":false},{"time":6,"is_transit":false,"station_name":"Rawa Buntu","station_id":"RU","i_lat":-6.314823,"i_long":106.675475,"line":6,"distance":4566,"transit":false},{"i_long":106.66566,"time":4,"distance":2413,"i_lat":-6.319871,"is_transit":false,"line":6,"station_name":"Serpong","transit":false,"station_id":"SRP"},{"line":0,"station_id":"CSK","station_name":"Cisauk","time":4,"transit":false,"i_lat":-6.32484,"i_long":106.640411,"distance":1784,"is_transit":false},{"station_name":"Cicayur","distance":2519,"station_id":"CC","time":4,"transit":false,"i_lat":-6.329547,"line":0,"is_transit":false,"i_long":106.617853},{"line":6,"i_long":106.568863,"station_id":"PRP","transit":false,"station_name":"Parung Panjang","distance":5968,"is_transit":false,"time":8,"i_lat":-6.3441410000000005},{"station_id":"CJT","distance":7025,"transit":false,"line":0,"i_lat":-6.354349,"is_transit":false,"i_long":106.508482,"station_name":"Cilejit","time":9},{"station_id":"DAR","distance":2675,"i_lat":-6.338021,"transit":false,"i_long":106.491338,"time":6,"line":0,"station_name":"Daru","is_transit":false},{"i_lat":-6.327251,"transit":false,"line":6,"station_name":"Tenjo","station_id":"TEJ","is_transit":false,"time":5,"i_long":106.460812,"distance":3902},{"station_name":"Tigaraksa","station_id":"TGS","transit":false,"is_transit":false,"i_long":106.425991,"line":6,"i_lat":-6.328533,"distance":2974,"time":5},{"i_lat":-6.33561,"line":0,"station_id":"CKY","i_long":106.411216,"time":3,"is_transit":false,"distance":2651,"transit":false,"station_name":"Cikoya"}],[{"time":0,"station_id":"DU","transit":false,"i_long":106.800832,"line":1,"station_name":"Duri","is_transit":true,"distance":0,"i_lat":-6.155215},{"line":0,"station_name":"Angke","transit":false,"distance":1230,"is_transit":false,"i_long":106.79867,"time":4,"station_id":"AK","i_lat":-6.144674},{"distance":4102,"line":0,"i_lat":-6.132549,"transit":true,"is_transit":true,"station_id":"KPB","time":9,"station_name":"Kampung Bandan","i_long":106.826365},{"i_long":106.836569,"transit":false,"line":11,"station_name":"Rajawali","time":3,"distance":1444,"is_transit":false,"station_id":"RJW","i_lat":-6.14505},{"station_id":"KMO","distance":1901,"i_lat":-6.161728,"line":11,"transit":false,"is_transit":false,"time":5,"i_long":106.839204,"station_name":"Kemayoran"},{"distance":1436,"station_name":"Pasar Senen","i_long":106.84368,"is_transit":false,"line":11,"i_lat":-6.174784,"time":4,"transit":false,"station_id":"PSE"},{"transit":false,"distance":1567,"i_long":106.850107,"is_transit":false,"i_lat":-6.185975,"station_name":"Gang Sentiong","line":11,"station_id":"GST","time":8},{"transit":false,"line":11,"is_transit":false,"i_lat":-6.193792,"i_long":106.855437,"station_id":"KMT","station_name":"Kramat","time":1,"distance":973},{"is_transit":false,"i_lat":-6.209188,"distance":1829,"station_name":"Pondok Jati","transit":false,"time":2,"i_long":106.861737,"station_id":"POK","line":11},{"station_id":"JNG","station_name":"Jatinegara","is_transit":true,"distance":1236,"i_long":106.86807400000001,"line":0,"transit":true,"time":9,"i_lat":-6.215091},{"station_name":"Matraman","distance":1377,"time":2,"i_long":106.858896,"transit":false,"is_transit":false,"line":1,"station_id":"MTR","i_lat":-6.212485},{"distance":1275,"time":2,"station_id":"MRI","station_name":"Manggarai","i_lat":-6.209883,"line":0,"i_long":106.84912,"transit":false,"is_transit":true},{"i_lat":-6.202263,"distance":3186,"transit":false,"i_long":106.822649,"station_id":"SUD","is_transit":false,"line":1,"station_name":"Sudirman","time":4},{"time":1,"station_id":"SUDB","i_lat":-6.201433,"transit":false,"line":1,"station_name":"Sudirman Baru","distance":280,"i_long":106.819881,"is_transit":false},{"is_transit":false,"i_long":106.816351,"time":1,"line":1,"distance":471,"transit":false,"i_lat":-6.20132,"station_id":"KAT","station_name":"Karet"},{"is_transit":true,"transit":true,"station_id":"THB","i_long":106.811091,"time":5,"distance":2029,"station_name":"Tanah Abang","i_lat":-6.185545,"line":1},{"transit":false,"time":6,"i_long":106.79689,"is_transit":false,"i_lat":-6.207404,"line":6,"station_id":"PLM","distance":3191,"station_name":"Palmerah"},{"line":6,"station_id":"KBY","station_name":"Kebayoran","distance":3737,"transit":false,"time":7,"i_long":106.780334,"i_lat":-6.237242,"is_transit":false},{"transit":false,"time":8,"i_lat":-6.276362,"is_transit":false,"line":6,"distance":6218,"station_id":"PDJ","i_long":106.74273,"station_name":"Pondokranji"},{"is_transit":false,"station_id":"JMU","i_long":106.728916,"i_lat":-6.288927,"distance":2179,"transit":false,"line":6,"station_name":"Jurangmangu","time":3},{"transit":false,"is_transit":false,"i_long":106.712277,"i_lat":-6.296963,"time":4,"station_name":"Sudimara","station_id":"SDM","line":6,"distance":1994},{"line":6,"time":6,"station_id":"RU","i_long":106.675475,"distance":4566,"i_lat":-6.314823,"station_name":"Rawa Buntu","is_transit":false,"transit":false},{"distance":2413,"i_lat":-6.319871,"station_id":"SRP","i_long":106.66566,"station_name":"Serpong","transit":false,"is_transit":false,"line":6,"time":4},{"i_long":106.640411,"station_name":"Cisauk","transit":false,"is_transit":false,"line":0,"station_id":"CSK","i_lat":-6.32484,"distance":1784,"time":4},{"distance":2519,"transit":false,"line":0,"time":4,"station_id":"CC","i_lat":-6.329547,"station_name":"Cicayur","is_transit":false,"i_long":106.617853},{"station_id":"PRP","transit":false,"station_name":"Parung Panjang","time":8,"distance":5968,"i_lat":-6.3441410000000005,"line":6,"is_transit":false,"i_long":106.568863},{"distance":7025,"time":9,"line":0,"station_name":"Cilejit","is_transit":false,"i_lat":-6.354349,"station_id":"CJT","transit":false,"i_long":106.508482},{"transit":false,"i_lat":-6.338021,"time":6,"station_id":"DAR","line":0,"is_transit":false,"station_name":"Daru","i_long":106.491338,"distance":2675},{"station_name":"Tenjo","i_lat":-6.327251,"transit":false,"station_id":"TEJ","distance":3902,"i_long":106.460812,"is_transit":false,"time":5,"line":6},{"i_lat":-6.328533,"station_id":"TGS","transit":false,"distance":2974,"station_name":"Tigaraksa","time":5,"i_long":106.425991,"line":6,"is_transit":false},{"transit":false,"is_transit":false,"i_lat":-6.33561,"i_long":106.411216,"line":0,"station_id":"CKY","distance":2651,"time":3,"station_name":"Cikoya"}]]}