{"data":[[{"i_long":106.800832,"time":0,"station_id":"DU","line":1,"station_name":"Duri","is_transit":false,"distance":0,"transit":false,"i_lat":-6.155215},{"i_lat":-6.185545,"transit":false,"station_name":"Tanah Abang","line":1,"i_long":106.811091,"station_id":"THB","distance":3632,"is_transit":false,"time":8},{"i_lat":-6.20132,"station_name":"Karet","is_transit":false,"distance":2029,"i_long":106.816351,"station_id":"KAT","time":5,"transit":false,"line":1},{"station_name":"Sudirman Baru","i_long":106.819881,"station_id":"SUDB","i_lat":-6.201433,"time":1,"line":1,"transit":false,"is_transit":false,"distance":471},{"i_lat":-6.202263,"station_name":"Sudirman","distance":280,"station_id":"SUD","is_transit":false,"line":1,"transit":false,"i_long":106.822649,"time":1},{"is_transit":true,"distance":3186,"station_name":"Manggarai","time":4,"i_lat":-6.209883,"i_long":106.84912,"station_id":"MRI","transit":true,"line":2},{"i_long":106.857948,"is_transit":false,"distance":2610,"transit":false,"station_name":"Tebet","line":2,"time":4,"station_id":"TEB","i_lat":-6.226659},{"line":2,"is_transit":false,"i_lat":-6.242512,"transit":false,"distance":1230,"station_id":"CW","i_long":106.856607,"station_name":"Cawang","time":2}],[{"station_name":"Duri","time":0,"station_id":"DU","distance":0,"i_long":106.800832,"line":1,"transit":false,"is_transit":false,"i_lat":-6.155215},{"is_transit":false,"station_name":"Angke","i_lat":-6.144674,"time":4,"i_long":106.79867,"station_id":"AK","transit":false,"distance":1230,"line":1},{"line":4,"station_id":"KPB","transit":true,"is_transit":true,"distance":4102,"i_lat":-6.132549,"station_name":"Kampung Bandan","time":9,"i_long":106.826365},{"is_transit":true,"i_long":106.812439,"transit":true,"station_name":"Jakarta Kota","time":3,"distance":1364,"station_id":"JAKK","i_lat":-6.137569,"line":2},{"i_lat":-6.141205,"line":2,"station_id":"JAY","is_transit":false,"station_name":"Jayakarta","i_long":106.820901,"time":4,"distance":1264,"transit":false},{"station_id":"MGB","station_name":"Manggabesar","i_long":106.82482,"i_lat":-6.149769,"is_transit":false,"transit":false,"time":2,"distance":1080,"line":2},{"station_id":"SW","i_lat":-6.160725,"is_transit":false,"time":2,"distance":906,"station_name":"Sawah Besar","i_long":106.827103,"transit":false,"line":2},{"i_lat":-6.166716,"line":2,"transit":false,"station_name":"Juanda","station_id":"JUA","distance":1149,"time":2,"is_transit":false,"i_long":106.828284},{"station_name":"Gondangdia","line":2,"i_long":106.832183,"i_lat":-6.186295,"time":4,"distance":2015,"station_id":"GDD","transit":false,"is_transit":false},{"station_name":"Cikini","time":3,"line":2,"transit":false,"i_lat":-6.198556,"distance":1750,"is_transit":false,"station_id":"CKI","i_long":106.840169},{"station_id":"MRI","is_transit":false,"i_lat":-6.209883,"line":2,"distance":1590,"time":4,"i_long":106.84912,"transit":false,"station_name":"Manggarai"},{"i_lat":-6.226659,"transit":false,"i_long":106.857948,"time":4,"distance":2610,"line":2,"station_name":"Tebet","station_id":"TEB","is_transit":false},{"station_id":"CW","distance":1230,"time":2,"i_lat":-6.242512,"i_long":106.856607,"station_name":"Cawang","line":2,"transit":false,"is_transit":false}],[{"is_transit":false,"distance":0,"line":1,"i_lat":-6.155215,"time":0,"station_id":"DU","transit":false,"i_long":106.800832,"station_name":"Duri"},{"station_id":"AK","is_transit":false,"line":1,"i_long":106.79867,"i_lat":-6.144674,"time":4,"transit":false,"station_name":"Angke","distance":1230},{"is_transit":true,"station_id":"KPB","distance":4102,"i_long":106.826365,"station_name":"Kampung Bandan","line":4,"transit":true,"time":9,"i_lat":-6.132549},{"i_long":106.836569,"distance":1444,"time":3,"station_id":"RJW","i_lat":-6.14505,"station_name":"Rajawali","is_transit":false,"line":11,"transit":false},{"station_name":"Kemayoran","line":11,"transit":false,"is_transit":false,"time":5,"station_id":"KMO","i_lat":-6.161728,"i_long":106.839204,"distance":1901},{"station_id":"PSE","is_transit":false,"i_long":106.84368,"station_name":"Pasar Senen","transit":false,"time":4,"distance":1436,"i_lat":-6.174784,"line":11},{"line":11,"time":8,"i_lat":-6.185975,"transit":false,"station_name":"Gang Sentiong","station_id":"GST","is_transit":false,"distance":1567,"i_long":106.850107},{"distance":973,"transit":false,"time":1,"station_name":"Kramat","i_lat":-6.193792,"station_id":"KMT","line":11,"i_long":106.855437,"is_transit":false},{"i_lat":-6.209188,"i_long":106.861737,"station_id":"POK","is_transit":false,"distance":1829,"transit":false,"station_name":"Pondok Jati","line":11,"time":2},{"i_lat":-6.215091,"line":1,"i_long":106.86807400000001,"time":9,"transit":true,"station_id":"JNG","is_transit":true,"station_name":"Jatinegara","distance":1236},{"transit":false,"line":1,"i_lat":-6.212485,"time":2,"is_transit":false,"i_long":106.858896,"distance":1377,"station_id":"MTR","station_name":"Matraman"},{"i_long":106.84912,"distance":1275,"time":2,"transit":true,"station_name":"Manggarai","line":2,"station_id":"MRI","is_transit":true,"i_lat":-6.209883},{"is_transit":false,"distance":2610,"transit":false,"station_name":"Tebet","i_lat":-6.226659,"i_long":106.857948,"line":2,"station_id":"TEB","time":4},{"distance":1230,"station_id":"CW","i_lat":-6.242512,"is_transit":false,"time":2,"i_long":106.856607,"transit":false,"line":2,"station_name":"Cawang"}]]}