{"data":[[{"station_name":"Duri","line":1,"i_long":106.800832,"i_lat":-6.155215,"station_id":"DU","is_transit":true,"time":0,"distance":0,"transit":false},{"station_id":"THB","station_name":"Tanah Abang","distance":3632,"transit":false,"time":8,"is_transit":true,"i_lat":-6.185545,"i_long":106.811091,"line":1},{"i_long":106.816351,"is_transit":false,"i_lat":-6.20132,"line":1,"station_id":"KAT","station_name":"Karet","distance":2029,"transit":false,"time":5},{"station_id":"SUDB","i_lat":-6.201433,"transit":false,"i_long":106.819881,"is_transit":false,"time":1,"line":1,"distance":471,"station_name":"Sudirman Baru"},{"line":1,"distance":280,"station_id":"SUD","transit":false,"time":1,"station_name":"Sudirman","i_lat":-6.202263,"i_long":106.822649,"is_transit":false},{"transit":true,"time":4,"line":0,"is_transit":true,"station_id":"MRI","distance":3186,"i_lat":-6.209883,"i_long":106.84912,"station_name":"Manggarai"},{"is_transit":false,"time":4,"station_id":"TEB","distance":2610,"i_long":106.857948,"station_name":"Tebet","i_lat":-6.226659,"line":2,"transit":false},{"station_id":"CW","station_name":"Cawang","i_long":106.856607,"time":2,"transit":false,"i_lat":-6.242512,"line":0,"distance":1230,"is_transit":false}],[{"station_id":"DU","time":0,"i_lat":-6.155215,"line":1,"distance":0,"transit":false,"i_long":106.800832,"station_name":"Duri","is_transit":true},{"is_transit":false,"distance":1230,"station_name":"Angke","station_id":"AK","time":4,"i_lat":-6.144674,"i_long":106.79867,"line":0,"transit":false},{"time":9,"station_id":"KPB","station_name":"Kampung Bandan","is_transit":true,"line":0,"i_lat":-6.132549,"transit":false,"distance":4102,"i_long":106.826365},{"is_transit":true,"time":3,"station_id":"JAKK","station_name":"Jakarta Kota","distance":1364,"i_long":106.812439,"i_lat":-6.137569,"transit":true,"line":0},{"station_name":"Jayakarta","line":7,"i_lat":-6.141205,"is_transit":false,"transit":false,"distance":1264,"i_long":106.820901,"time":4,"station_id":"JAY"},{"distance":1080,"i_lat":-6.149769,"transit":false,"station_name":"Manggabesar","line":2,"station_id":"MGB","is_transit":false,"time":2,"i_long":106.82482},{"is_transit":false,"station_id":"SW","distance":906,"transit":false,"i_long":106.827103,"station_name":"Sawah Besar","i_lat":-6.160725,"time":2,"line":2},{"distance":1149,"i_lat":-6.166716,"transit":false,"i_long":106.828284,"line":2,"time":2,"station_id":"JUA","station_name":"Juanda","is_transit":false},{"distance":2015,"line":2,"station_id":"GDD","time":4,"i_lat":-6.186295,"i_long":106.832183,"station_name":"Gondangdia","is_transit":false,"transit":false},{"i_lat":-6.198556,"i_long":106.840169,"time":3,"is_transit":false,"station_name":"Cikini","line":0,"station_id":"CKI","transit":false,"distance":1750},{"station_id":"MRI","station_name":"Manggarai","is_transit":true,"distance":1590,"i_long":106.84912,"line":0,"time":4,"transit":true,"i_lat":-6.209883},{"time":4,"transit":false,"i_long":106.857948,"line":2,"i_lat":-6.226659,"is_transit":false,"station_name":"Tebet","station_id":"TEB","distance":2610},{"distance":1230,"is_transit":false,"i_long":106.856607,"time":2,"transit":false,"line":0,"station_name":"Cawang","station_id":"CW","i_lat":-6.242512}],[{"is_transit":true,"station_id":"DU","distance":0,"station_name":"Duri","line":1,"time":0,"transit":false,"i_lat":-6.155215,"i_long":106.800832},{"distance":1230,"station_id":"AK","is_transit":false,"transit":false,"i_lat":-6.144674,"i_long":106.79867,"station_name":"Angke","line":0,"time":4},{"i_lat":-6.132549,"time":9,"distance":4102,"transit":true,"line":0,"is_transit":true,"station_id":"KPB","station_name":"Kampung Bandan","i_long":106.826365},{"transit":false,"is_transit":false,"distance":1444,"i_lat":-6.14505,"i_long":106.836569,"line":11,"station_id":"RJW","station_name":"Rajawali","time":3},{"station_id":"KMO","station_name":"Kemayoran","i_long":106.839204,"transit":false,"i_lat":-6.161728,"time":5,"is_transit":false,"distance":1901,"line":11},{"is_transit":false,"time":4,"line":11,"i_lat":-6.174784,"station_id":"PSE","distance":1436,"transit":false,"station_name":"Pasar Senen","i_long":106.84368},{"station_id":"GST","distance":1567,"time":8,"is_transit":false,"i_long":106.850107,"station_name":"Gang Sentiong","i_lat":-6.185975,"transit":false,"line":11},{"distance":973,"time":1,"station_name":"Kramat","is_transit":false,"transit":false,"i_long":106.855437,"i_lat":-6.193792,"station_id":"KMT","line":11},{"distance":1829,"is_transit":false,"time":2,"i_lat":-6.209188,"transit":false,"line":11,"station_id":"POK","station_name":"Pondok Jati","i_long":106.861737},{"i_lat":-6.215091,"time":9,"line":0,"transit":true,"i_long":106.86807400000001,"is_transit":true,"distance":1236,"station_id":"JNG","station_name":"Jatinegara"},{"i_lat":-6.212485,"distance":1377,"i_long":106.858896,"station_id":"MTR","is_transit":false,"transit":false,"time":2,"line":1,"station_name":"Matraman"},{"station_id":"MRI","time":2,"i_lat":-6.209883,"is_transit":true,"transit":true,"line":0,"i_long":106.84912,"distance":1275,"station_name":"Manggarai"},{"i_long":106.857948,"distance":2610,"i_lat":-6.226659,"station_name":"Tebet","line":2,"transit":false,"is_transit":false,"time":4,"station_id":"TEB"},{"time":2,"is_transit":false,"i_lat":-6.242512,"distance":1230,"station_name":"Cawang","line":0,"transit":false,"station_id":"CW","i_long":106.856607}]]}