{"data":[[{"station_name":"Duri","is_transit":false,"transit":false,"line":1,"time":0,"distance":0,"station_id":"DU","i_lat":-6.155215,"i_long":106.800832},{"line":1,"i_lat":-6.144674,"distance":1230,"i_long":106.79867,"transit":false,"station_id":"AK","station_name":"Angke","is_transit":false,"time":4},{"time":9,"station_id":"KPB","distance":4102,"station_name":"Kampung Bandan","i_lat":-6.132549,"is_transit":true,"transit":true,"i_long":106.826365,"line":4},{"is_transit":true,"i_long":106.812439,"distance":1364,"time":3,"line":2,"transit":true,"station_name":"Jakarta Kota","station_id":"JAKK","i_lat":-6.137569},{"transit":false,"i_lat":-6.141205,"distance":1264,"line":2,"station_id":"JAY","i_long":106.820901,"time":4,"station_name":"Jayakarta","is_transit":false},{"station_name":"Manggabesar","i_long":106.82482,"line":2,"transit":false,"is_transit":false,"i_lat":-6.149769,"time":2,"distance":1080,"station_id":"MGB"},{"i_lat":-6.160725,"is_transit":false,"distance":906,"station_id":"SW","time":2,"transit":false,"i_long":106.827103,"station_name":"Sawah Besar","line":2},{"distance":1149,"i_long":106.828284,"time":2,"transit":false,"station_name":"Juanda","line":2,"station_id":"JUA","i_lat":-6.166716,"is_transit":false}],[{"line":1,"is_transit":false,"i_lat":-6.155215,"transit":false,"station_name":"Duri","i_long":106.800832,"distance":0,"time":0,"station_id":"DU"},{"time":8,"line":1,"i_long":106.811091,"station_name":"Tanah Abang","station_id":"THB","distance":3632,"is_transit":false,"i_lat":-6.185545,"transit":false},{"line":1,"time":5,"i_long":106.816351,"i_lat":-6.20132,"distance":2029,"is_transit":false,"transit":false,"station_id":"KAT","station_name":"Karet"},{"distance":471,"station_id":"SUDB","line":1,"is_transit":false,"time":1,"station_name":"Sudirman Baru","transit":false,"i_lat":-6.201433,"i_long":106.819881},{"i_long":106.822649,"station_id":"SUD","station_name":"Sudirman","line":1,"time":1,"distance":280,"is_transit":false,"transit":false,"i_lat":-6.202263},{"station_name":"Manggarai","is_transit":true,"distance":3186,"transit":true,"i_lat":-6.209883,"time":4,"i_long":106.84912,"line":2,"station_id":"MRI"},{"station_id":"CKI","i_long":106.840169,"time":4,"distance":1590,"station_name":"Cikini","transit":false,"is_transit":false,"i_lat":-6.198556,"line":2},{"line":2,"transit":false,"i_long":106.832183,"time":3,"station_id":"GDD","station_name":"Gondangdia","distance":1750,"is_transit":false,"i_lat":-6.186295},{"time":4,"line":2,"is_transit":false,"station_id":"JUA","distance":2015,"i_lat":-6.166716,"i_long":106.828284,"station_name":"Juanda","transit":false}],[{"station_id":"DU","time":0,"transit":false,"line":1,"i_lat":-6.155215,"station_name":"Duri","is_transit":false,"distance":0,"i_long":106.800832},{"i_lat":-6.144674,"i_long":106.79867,"distance":1230,"station_id":"AK","transit":false,"station_name":"Angke","line":1,"is_transit":false,"time":4},{"station_id":"KPB","station_name":"Kampung Bandan","i_long":106.826365,"is_transit":true,"i_lat":-6.132549,"transit":true,"time":9,"line":4,"distance":4102},{"line":11,"i_long":106.836569,"distance":1444,"is_transit":false,"i_lat":-6.14505,"station_id":"RJW","time":3,"transit":false,"station_name":"Rajawali"},{"station_id":"KMO","station_name":"Kemayoran","line":11,"i_long":106.839204,"distance":1901,"transit":false,"time":5,"is_transit":false,"i_lat":-6.161728},{"i_lat":-6.174784,"station_id":"PSE","distance":1436,"station_name":"Pasar Senen","i_long":106.84368,"line":11,"is_transit":false,"time":4,"transit":false},{"station_id":"GST","i_long":106.850107,"time":8,"station_name":"Gang Sentiong","i_lat":-6.185975,"transit":false,"is_transit":false,"distance":1567,"line":11},{"station_name":"Kramat","i_lat":-6.193792,"line":11,"time":1,"distance":973,"transit":false,"i_long":106.855437,"station_id":"KMT","is_transit":false},{"station_id":"POK","is_transit":false,"i_lat":-6.209188,"i_long":106.861737,"line":11,"distance":1829,"transit":false,"station_name":"Pondok Jati","time":2},{"i_long":106.86807400000001,"station_name":"Jatinegara","station_id":"JNG","is_transit":true,"i_lat":-6.215091,"transit":true,"time":9,"distance":1236,"line":1},{"line":1,"station_name":"Matraman","i_long":106.858896,"is_transit":false,"station_id":"MTR","i_lat":-6.212485,"distance":1377,"transit":false,"time":2},{"station_name":"Manggarai","is_transit":true,"distance":1275,"time":2,"transit":true,"i_long":106.84912,"i_lat":-6.209883,"line":2,"station_id":"MRI"},{"line":2,"i_long":106.840169,"time":4,"transit":false,"station_name":"Cikini","station_id":"CKI","distance":1590,"is_transit":false,"i_lat":-6.198556},{"station_id":"GDD","distance":1750,"time":3,"transit":false,"i_long":106.832183,"is_transit":false,"line":2,"station_name":"Gondangdia","i_lat":-6.186295},{"i_long":106.828284,"time":4,"station_id":"JUA","station_name":"Juanda","line":2,"distance":2015,"is_transit":false,"transit":false,"i_lat":-6.166716}],[{"line":1,"is_transit":false,"distance":0,"time":0,"station_id":"DU","station_name":"Duri","i_long":106.800832,"i_lat":-6.155215,"transit":false},{"distance":3632,"station_name":"Tanah Abang","is_transit":false,"station_id":"THB","i_lat":-6.185545,"transit":false,"time":8,"line":1,"i_long":106.811091},{"is_transit":false,"time":5,"i_long":106.816351,"line":1,"station_name":"Karet","distance":2029,"transit":false,"station_id":"KAT","i_lat":-6.20132},{"transit":false,"station_name":"Sudirman Baru","i_long":106.819881,"distance":471,"line":1,"i_lat":-6.201433,"is_transit":false,"time":1,"station_id":"SUDB"},{"station_name":"Sudirman","time":1,"transit":false,"i_long":106.822649,"distance":280,"i_lat":-6.202263,"is_transit":false,"station_id":"SUD","line":1},{"time":4,"distance":3186,"station_name":"Manggarai","transit":false,"i_lat":-6.209883,"station_id":"MRI","i_long":106.84912,"line":2,"is_transit":false},{"station_name":"Matraman","is_transit":false,"station_id":"MTR","distance":1275,"i_long":106.858896,"line":1,"transit":false,"i_lat":-6.212485,"time":2},{"station_id":"JNG","distance":1377,"is_transit":true,"i_long":106.86807400000001,"i_lat":-6.215091,"transit":true,"time":8,"station_name":"Jatinegara","line":1},{"station_name":"Pondok Jati","i_long":106.861737,"time":2,"station_id":"POK","i_lat":-6.209188,"line":11,"distance":1236,"is_transit":false,"transit":false},{"distance":1829,"line":11,"i_long":106.855437,"transit":false,"i_lat":-6.193792,"station_id":"KMT","is_transit":false,"time":2,"station_name":"Kramat"},{"station_name":"Gang Sentiong","is_transit":false,"transit":false,"distance":973,"i_lat":-6.185975,"time":1,"station_id":"GST","i_long":106.850107,"line":11},{"station_id":"PSE","transit":false,"time":8,"station_name":"Pasar Senen","i_long":106.84368,"i_lat":-6.174784,"distance":1567,"is_transit":false,"line":11},{"station_id":"KMO","is_transit":false,"distance":1436,"transit":false,"line":11,"station_name":"Kemayoran","i_long":106.839204,"i_lat":-6.161728,"time":4},{"distance":1901,"i_lat":-6.14505,"line":11,"transit":false,"station_name":"Rajawali","station_id":"RJW","i_long":106.836569,"time":5,"is_transit":false},{"transit":true,"i_lat":-6.132549,"time":3,"distance":1444,"station_id":"KPB","is_transit":true,"line":4,"station_name":"Kampung Bandan","i_long":106.826365},{"i_lat":-6.137569,"is_transit":true,"distance":1364,"station_name":"Jakarta Kota","line":2,"transit":true,"station_id":"JAKK","i_long":106.812439,"time":3},{"i_long":106.820901,"distance":1264,"i_lat":-6.141205,"time":4,"transit":false,"station_id":"JAY","is_transit":false,"line":2,"station_name":"Jayakarta"},{"time":2,"distance":1080,"transit":false,"station_id":"MGB","is_transit":false,"line":2,"station_name":"Manggabesar","i_lat":-6.149769,"i_long":106.82482},{"station_id":"SW","i_lat":-6.160725,"line":2,"is_transit":false,"time":2,"distance":906,"transit":false,"i_long":106.827103,"station_name":"Sawah Besar"},{"transit":false,"i_long":106.828284,"distance":1149,"i_lat":-6.166716,"is_transit":false,"time":2,"station_name":"Juanda","station_id":"JUA","line":2}]]}