{"data":[[{"station_id":"DU","i_lat":-6.155215,"is_transit":true,"time":0,"transit":false,"distance":0,"station_name":"Duri","line":1,"i_long":106.800832},{"station_id":"AK","line":0,"i_lat":-6.144674,"station_name":"Angke","transit":false,"time":4,"i_long":106.79867,"distance":1230,"is_transit":false},{"time":9,"distance":4102,"station_id":"KPB","i_lat":-6.132549,"station_name":"Kampung Bandan","is_transit":true,"transit":false,"i_long":106.826365,"line":0},{"transit":true,"distance":1364,"i_long":106.812439,"time":3,"line":0,"i_lat":-6.137569,"is_transit":true,"station_name":"Jakarta Kota","station_id":"JAKK"},{"i_long":106.820901,"station_name":"Jayakarta","station_id":"JAY","i_lat":-6.141205,"line":7,"is_transit":false,"transit":false,"distance":1264,"time":4},{"i_long":106.82482,"is_transit":false,"station_id":"MGB","distance":1080,"station_name":"Manggabesar","line":2,"time":2,"transit":false,"i_lat":-6.149769},{"station_name":"Sawah Besar","i_long":106.827103,"station_id":"SW","time":2,"distance":906,"is_transit":false,"transit":false,"line":2,"i_lat":-6.160725},{"station_id":"JUA","i_long":106.828284,"is_transit":false,"i_lat":-6.166716,"time":2,"transit":false,"distance":1149,"station_name":"Juanda","line":2}],[{"transit":false,"line":1,"i_lat":-6.155215,"is_transit":true,"station_id":"DU","time":0,"station_name":"Duri","distance":0,"i_long":106.800832},{"distance":3632,"is_transit":true,"station_name":"Tanah Abang","i_long":106.811091,"station_id":"THB","time":8,"i_lat":-6.185545,"transit":false,"line":1},{"time":5,"transit":false,"i_lat":-6.20132,"distance":2029,"is_transit":false,"station_name":"Karet","i_long":106.816351,"line":1,"station_id":"KAT"},{"station_name":"Sudirman Baru","distance":471,"i_lat":-6.201433,"station_id":"SUDB","i_long":106.819881,"transit":false,"line":1,"is_transit":false,"time":1},{"i_lat":-6.202263,"is_transit":false,"station_id":"SUD","transit":false,"distance":280,"i_long":106.822649,"station_name":"Sudirman","time":1,"line":1},{"i_long":106.84912,"distance":3186,"transit":true,"line":0,"station_id":"MRI","i_lat":-6.209883,"station_name":"Manggarai","time":4,"is_transit":true},{"transit":false,"line":0,"i_long":106.840169,"time":4,"distance":1590,"station_name":"Cikini","i_lat":-6.198556,"station_id":"CKI","is_transit":false},{"transit":false,"i_lat":-6.186295,"distance":1750,"time":3,"station_id":"GDD","i_long":106.832183,"is_transit":false,"line":2,"station_name":"Gondangdia"},{"transit":false,"is_transit":false,"i_lat":-6.166716,"i_long":106.828284,"time":4,"station_id":"JUA","station_name":"Juanda","line":2,"distance":2015}],[{"station_name":"Duri","i_long":106.800832,"time":0,"transit":false,"station_id":"DU","line":1,"is_transit":true,"i_lat":-6.155215,"distance":0},{"station_id":"AK","time":4,"is_transit":false,"transit":false,"line":0,"i_long":106.79867,"station_name":"Angke","distance":1230,"i_lat":-6.144674},{"time":9,"transit":true,"is_transit":true,"i_lat":-6.132549,"i_long":106.826365,"line":0,"distance":4102,"station_id":"KPB","station_name":"Kampung Bandan"},{"station_id":"RJW","time":3,"distance":1444,"is_transit":false,"station_name":"Rajawali","i_lat":-6.14505,"i_long":106.836569,"transit":false,"line":11},{"time":5,"line":11,"transit":false,"station_name":"Kemayoran","is_transit":false,"i_lat":-6.161728,"i_long":106.839204,"distance":1901,"station_id":"KMO"},{"transit":false,"is_transit":false,"i_long":106.84368,"station_id":"PSE","station_name":"Pasar Senen","i_lat":-6.174784,"line":11,"time":4,"distance":1436},{"station_name":"Gang Sentiong","i_lat":-6.185975,"i_long":106.850107,"time":8,"line":11,"distance":1567,"transit":false,"is_transit":false,"station_id":"GST"},{"i_lat":-6.193792,"is_transit":false,"transit":false,"station_id":"KMT","station_name":"Kramat","i_long":106.855437,"distance":973,"time":1,"line":11},{"line":11,"time":2,"transit":false,"is_transit":false,"distance":1829,"station_name":"Pondok Jati","i_long":106.861737,"station_id":"POK","i_lat":-6.209188},{"i_long":106.86807400000001,"station_id":"JNG","distance":1236,"station_name":"Jatinegara","is_transit":true,"line":0,"transit":true,"i_lat":-6.215091,"time":9},{"station_id":"MTR","transit":false,"is_transit":false,"i_long":106.858896,"time":2,"station_name":"Matraman","line":1,"distance":1377,"i_lat":-6.212485},{"station_name":"Manggarai","time":2,"transit":true,"distance":1275,"is_transit":true,"station_id":"MRI","i_long":106.84912,"line":0,"i_lat":-6.209883},{"is_transit":false,"i_lat":-6.198556,"line":0,"time":4,"distance":1590,"station_name":"Cikini","transit":false,"station_id":"CKI","i_long":106.840169},{"distance":1750,"station_name":"Gondangdia","line":2,"is_transit":false,"transit":false,"time":3,"station_id":"GDD","i_lat":-6.186295,"i_long":106.832183},{"time":4,"distance":2015,"station_name":"Juanda","i_lat":-6.166716,"is_transit":false,"i_long":106.828284,"station_id":"JUA","transit":false,"line":2}],[{"distance":0,"transit":false,"time":0,"station_id":"DU","is_transit":true,"i_long":106.800832,"line":1,"station_name":"Duri","i_lat":-6.155215},{"transit":false,"is_transit":true,"i_long":106.811091,"line":1,"distance":3632,"station_name":"Tanah Abang","i_lat":-6.185545,"station_id":"THB","time":8},{"distance":2029,"i_long":106.816351,"line":1,"station_name":"Karet","is_transit":false,"i_lat":-6.20132,"transit":false,"time":5,"station_id":"KAT"},{"distance":471,"i_lat":-6.201433,"time":1,"station_name":"Sudirman Baru","i_long":106.819881,"station_id":"SUDB","is_transit":false,"line":1,"transit":false},{"distance":280,"i_long":106.822649,"is_transit":false,"station_name":"Sudirman","i_lat":-6.202263,"time":1,"transit":false,"line":1,"station_id":"SUD"},{"i_long":106.84912,"station_name":"Manggarai","line":0,"station_id":"MRI","time":4,"distance":3186,"is_transit":true,"transit":false,"i_lat":-6.209883},{"i_long":106.858896,"line":1,"distance":1275,"station_name":"Matraman","i_lat":-6.212485,"transit":false,"time":2,"is_transit":false,"station_id":"MTR"},{"i_long":106.86807400000001,"transit":true,"i_lat":-6.215091,"time":8,"distance":1377,"station_name":"Jatinegara","line":0,"station_id":"JNG","is_transit":true},{"transit":false,"station_id":"POK","station_name":"Pondok Jati","distance":1236,"is_transit":false,"i_lat":-6.209188,"line":11,"time":2,"i_long":106.861737},{"station_name":"Kramat","i_lat":-6.193792,"line":11,"station_id":"KMT","transit":false,"is_transit":false,"i_long":106.855437,"time":2,"distance":1829},{"i_lat":-6.185975,"transit":false,"station_id":"GST","time":1,"distance":973,"i_long":106.850107,"line":11,"station_name":"Gang Sentiong","is_transit":false},{"i_lat":-6.174784,"i_long":106.84368,"line":11,"station_name":"Pasar Senen","distance":1567,"is_transit":false,"time":8,"station_id":"PSE","transit":false},{"i_lat":-6.161728,"station_id":"KMO","station_name":"Kemayoran","is_transit":false,"line":11,"distance":1436,"i_long":106.839204,"time":4,"transit":false},{"station_id":"RJW","line":11,"distance":1901,"time":5,"i_lat":-6.14505,"transit":false,"i_long":106.836569,"is_transit":false,"station_name":"Rajawali"},{"station_id":"KPB","i_long":106.826365,"line":0,"station_name":"Kampung Bandan","i_lat":-6.132549,"time":3,"transit":true,"distance":1444,"is_transit":true},{"station_id":"JAKK","i_lat":-6.137569,"line":0,"time":3,"i_long":106.812439,"is_transit":true,"station_name":"Jakarta Kota","transit":true,"distance":1364},{"i_long":106.820901,"line":7,"distance":1264,"i_lat":-6.141205,"station_id":"JAY","transit":false,"time":4,"is_transit":false,"station_name":"Jayakarta"},{"transit":false,"station_id":"MGB","distance":1080,"station_name":"Manggabesar","time":2,"is_transit":false,"i_lat":-6.149769,"line":2,"i_long":106.82482},{"time":2,"distance":906,"line":2,"i_long":106.827103,"station_id":"SW","is_transit":false,"station_name":"Sawah Besar","i_lat":-6.160725,"transit":false},{"station_id":"JUA","i_lat":-6.166716,"is_transit":false,"line":2,"station_name":"Juanda","distance":1149,"i_long":106.828284,"time":2,"transit":false}]]}