{"data":[[{"time":0,"station_id":"DU","is_transit":false,"transit":false,"i_long":106.800832,"distance":0,"line":1,"station_name":"Duri","i_lat":-6.155215},{"is_transit":false,"distance":1230,"transit":false,"station_id":"AK","station_name":"Angke","time":4,"line":1,"i_long":106.79867,"i_lat":-6.144674},{"transit":true,"i_long":106.826365,"station_name":"Kampung Bandan","time":9,"line":4,"i_lat":-6.132549,"station_id":"KPB","is_transit":true,"distance":4102},{"i_lat":-6.137569,"time":3,"is_transit":true,"transit":true,"i_long":106.812439,"station_id":"JAKK","station_name":"Jakarta Kota","distance":1364,"line":2},{"time":4,"station_name":"Jayakarta","distance":1264,"i_long":106.820901,"line":2,"i_lat":-6.141205,"station_id":"JAY","transit":false,"is_transit":false},{"line":2,"transit":false,"station_name":"Manggabesar","i_lat":-6.149769,"station_id":"MGB","distance":1080,"time":2,"i_long":106.82482,"is_transit":false},{"i_lat":-6.160725,"time":2,"station_id":"SW","line":2,"distance":906,"is_transit":false,"transit":false,"i_long":106.827103,"station_name":"Sawah Besar"},{"distance":1149,"transit":false,"line":2,"station_id":"JUA","i_lat":-6.166716,"is_transit":false,"station_name":"Juanda","time":2,"i_long":106.828284}],[{"time":0,"distance":0,"station_name":"Duri","station_id":"DU","line":1,"i_long":106.800832,"transit":false,"i_lat":-6.155215,"is_transit":false},{"time":8,"station_name":"Tanah Abang","distance":3632,"i_lat":-6.185545,"transit":false,"i_long":106.811091,"is_transit":false,"line":1,"station_id":"THB"},{"line":1,"is_transit":false,"distance":2029,"transit":false,"station_id":"KAT","time":5,"station_name":"Karet","i_lat":-6.20132,"i_long":106.816351},{"i_long":106.819881,"is_transit":false,"station_name":"Sudirman Baru","distance":471,"station_id":"SUDB","time":1,"line":1,"i_lat":-6.201433,"transit":false},{"transit":false,"line":1,"station_id":"SUD","time":1,"is_transit":false,"distance":280,"i_lat":-6.202263,"station_name":"Sudirman","i_long":106.822649},{"i_long":106.84912,"station_id":"MRI","line":2,"transit":true,"distance":3186,"is_transit":true,"station_name":"Manggarai","i_lat":-6.209883,"time":4},{"is_transit":false,"station_name":"Cikini","i_long":106.840169,"line":2,"distance":1590,"time":4,"transit":false,"station_id":"CKI","i_lat":-6.198556},{"distance":1750,"line":2,"time":3,"i_lat":-6.186295,"station_name":"Gondangdia","transit":false,"station_id":"GDD","is_transit":false,"i_long":106.832183},{"line":2,"time":4,"station_name":"Juanda","transit":false,"i_long":106.828284,"distance":2015,"station_id":"JUA","is_transit":false,"i_lat":-6.166716}],[{"i_lat":-6.155215,"station_id":"DU","line":1,"is_transit":false,"distance":0,"transit":false,"i_long":106.800832,"time":0,"station_name":"Duri"},{"station_id":"AK","i_long":106.79867,"station_name":"Angke","transit":false,"is_transit":false,"distance":1230,"time":4,"line":1,"i_lat":-6.144674},{"distance":4102,"is_transit":true,"time":9,"station_id":"KPB","i_lat":-6.132549,"station_name":"Kampung Bandan","i_long":106.826365,"transit":true,"line":4},{"i_lat":-6.14505,"transit":false,"line":11,"station_name":"Rajawali","station_id":"RJW","distance":1444,"time":3,"is_transit":false,"i_long":106.836569},{"line":11,"station_name":"Kemayoran","is_transit":false,"station_id":"KMO","transit":false,"distance":1901,"time":5,"i_long":106.839204,"i_lat":-6.161728},{"line":11,"time":4,"transit":false,"station_id":"PSE","is_transit":false,"i_long":106.84368,"distance":1436,"i_lat":-6.174784,"station_name":"Pasar Senen"},{"distance":1567,"station_name":"Gang Sentiong","line":11,"time":8,"station_id":"GST","i_lat":-6.185975,"i_long":106.850107,"is_transit":false,"transit":false},{"i_long":106.855437,"line":11,"station_id":"KMT","time":1,"is_transit":false,"station_name":"Kramat","distance":973,"transit":false,"i_lat":-6.193792},{"distance":1829,"time":2,"is_transit":false,"line":11,"transit":false,"i_long":106.861737,"station_name":"Pondok Jati","station_id":"POK","i_lat":-6.209188},{"i_lat":-6.215091,"station_name":"Jatinegara","distance":1236,"is_transit":true,"line":1,"time":9,"station_id":"JNG","i_long":106.86807400000001,"transit":true},{"i_lat":-6.212485,"time":2,"station_name":"Matraman","distance":1377,"station_id":"MTR","line":1,"i_long":106.858896,"transit":false,"is_transit":false},{"station_name":"Manggarai","transit":true,"time":2,"is_transit":true,"i_lat":-6.209883,"i_long":106.84912,"line":2,"station_id":"MRI","distance":1275},{"station_name":"Cikini","transit":false,"line":2,"station_id":"CKI","is_transit":false,"i_long":106.840169,"i_lat":-6.198556,"time":4,"distance":1590},{"line":2,"i_long":106.832183,"is_transit":false,"time":3,"station_id":"GDD","i_lat":-6.186295,"station_name":"Gondangdia","distance":1750,"transit":false},{"is_transit":false,"i_long":106.828284,"station_name":"Juanda","i_lat":-6.166716,"station_id":"JUA","distance":2015,"time":4,"transit":false,"line":2}],[{"distance":0,"is_transit":false,"i_lat":-6.155215,"i_long":106.800832,"station_name":"Duri","transit":false,"station_id":"DU","time":0,"line":1},{"transit":false,"is_transit":false,"station_id":"THB","line":1,"time":8,"i_lat":-6.185545,"i_long":106.811091,"station_name":"Tanah Abang","distance":3632},{"transit":false,"station_id":"KAT","i_long":106.816351,"distance":2029,"time":5,"line":1,"is_transit":false,"station_name":"Karet","i_lat":-6.20132},{"time":1,"station_id":"SUDB","distance":471,"station_name":"Sudirman Baru","i_lat":-6.201433,"line":1,"i_long":106.819881,"transit":false,"is_transit":false},{"time":1,"i_long":106.822649,"station_name":"Sudirman","line":1,"i_lat":-6.202263,"is_transit":false,"distance":280,"transit":false,"station_id":"SUD"},{"is_transit":false,"time":4,"line":2,"i_lat":-6.209883,"distance":3186,"transit":false,"station_id":"MRI","station_name":"Manggarai","i_long":106.84912},{"station_name":"Matraman","transit":false,"i_lat":-6.212485,"i_long":106.858896,"line":1,"time":2,"distance":1275,"station_id":"MTR","is_transit":false},{"distance":1377,"time":8,"station_id":"JNG","i_lat":-6.215091,"i_long":106.86807400000001,"line":1,"is_transit":true,"transit":true,"station_name":"Jatinegara"},{"line":11,"time":2,"station_name":"Pondok Jati","is_transit":false,"distance":1236,"transit":false,"station_id":"POK","i_lat":-6.209188,"i_long":106.861737},{"i_lat":-6.193792,"station_id":"KMT","station_name":"Kramat","time":2,"distance":1829,"transit":false,"i_long":106.855437,"is_transit":false,"line":11},{"distance":973,"transit":false,"station_id":"GST","station_name":"Gang Sentiong","i_lat":-6.185975,"line":11,"time":1,"is_transit":false,"i_long":106.850107},{"station_name":"Pasar Senen","line":11,"i_long":106.84368,"distance":1567,"transit":false,"is_transit":false,"i_lat":-6.174784,"time":8,"station_id":"PSE"},{"is_transit":false,"station_name":"Kemayoran","time":4,"i_long":106.839204,"station_id":"KMO","transit":false,"distance":1436,"i_lat":-6.161728,"line":11},{"i_lat":-6.14505,"time":5,"station_id":"RJW","transit":false,"i_long":106.836569,"station_name":"Rajawali","distance":1901,"is_transit":false,"line":11},{"is_transit":true,"distance":1444,"transit":true,"i_long":106.826365,"i_lat":-6.132549,"time":3,"station_name":"Kampung Bandan","station_id":"KPB","line":4},{"distance":1364,"is_transit":true,"station_id":"JAKK","transit":true,"i_long":106.812439,"line":2,"station_name":"Jakarta Kota","time":3,"i_lat":-6.137569},{"is_transit":false,"i_long":106.820901,"distance":1264,"station_name":"Jayakarta","time":4,"transit":false,"station_id":"JAY","i_lat":-6.141205,"line":2},{"station_name":"Manggabesar","transit":false,"station_id":"MGB","i_lat":-6.149769,"line":2,"time":2,"is_transit":false,"i_long":106.82482,"distance":1080},{"station_id":"SW","i_lat":-6.160725,"is_transit":false,"time":2,"i_long":106.827103,"station_name":"Sawah Besar","distance":906,"line":2,"transit":false},{"line":2,"time":2,"transit":false,"is_transit":false,"station_id":"JUA","i_lat":-6.166716,"i_long":106.828284,"distance":1149,"station_name":"Juanda"}]]}