{"data":[[{"distance":0,"line":1,"time":0,"i_long":106.800832,"station_id":"DU","transit":false,"station_name":"Duri","is_transit":true,"i_lat":-6.155215},{"distance":1700,"i_long":106.788277,"is_transit":false,"line":5,"time":3,"station_id":"GGL","station_name":"Grogol","transit":false,"i_lat":-6.162021},{"distance":2036,"transit":false,"is_transit":false,"i_lat":-6.161433,"i_long":106.771379,"station_id":"PSG","time":2,"station_name":"Pesing","line":5},{"station_name":"Taman Kota","i_lat":-6.1587309999999995,"station_id":"TKO","time":2,"line":5,"transit":false,"distance":1614,"is_transit":false,"i_long":106.756522},{"i_lat":-6.159876,"station_id":"BOI","is_transit":false,"distance":2334,"station_name":"Bojongindah","time":2,"i_long":106.737035,"line":0,"transit":false},{"time":4,"line":5,"is_transit":false,"transit":false,"station_id":"RW","i_lat":-6.162758,"distance":1152,"i_long":106.723064,"station_name":"Rawa Buaya"},{"is_transit":false,"station_name":"Kalideres","station_id":"KDS","line":5,"distance":2504,"time":3,"transit":false,"i_lat":-6.166068,"i_long":106.701612}]]}