{"data":[[{"i_lat":-6.155215,"is_transit":false,"transit":false,"distance":0,"station_name":"Duri","i_long":106.800832,"time":0,"line":1,"station_id":"DU"},{"line":1,"transit":false,"time":4,"station_id":"AK","station_name":"Angke","distance":1230,"i_lat":-6.144674,"is_transit":false,"i_long":106.79867},{"station_id":"KPB","is_transit":false,"transit":false,"i_lat":-6.132549,"i_long":106.826365,"time":9,"line":4,"distance":4102,"station_name":"Kampung Bandan"}],[{"time":0,"i_lat":-6.155215,"distance":0,"is_transit":false,"i_long":106.800832,"line":1,"station_name":"Duri","transit":false,"station_id":"DU"},{"transit":false,"i_lat":-6.185545,"time":8,"distance":3632,"line":1,"i_long":106.811091,"station_id":"THB","station_name":"Tanah Abang","is_transit":false},{"station_id":"KAT","is_transit":false,"i_long":106.816351,"distance":2029,"i_lat":-6.20132,"transit":false,"time":5,"station_name":"Karet","line":1},{"line":1,"distance":471,"transit":false,"time":1,"is_transit":false,"station_name":"Sudirman Baru","i_lat":-6.201433,"station_id":"SUDB","i_long":106.819881},{"time":1,"is_transit":false,"distance":280,"i_lat":-6.202263,"transit":false,"i_long":106.822649,"station_name":"Sudirman","station_id":"SUD","line":1},{"line":2,"station_id":"MRI","is_transit":true,"i_lat":-6.209883,"station_name":"Manggarai","time":4,"distance":3186,"i_long":106.84912,"transit":true},{"i_long":106.840169,"is_transit":false,"time":4,"line":2,"station_name":"Cikini","distance":1590,"i_lat":-6.198556,"transit":false,"station_id":"CKI"},{"station_id":"GDD","transit":false,"i_long":106.832183,"is_transit":false,"line":2,"time":3,"station_name":"Gondangdia","distance":1750,"i_lat":-6.186295},{"time":4,"i_long":106.828284,"station_name":"Juanda","transit":false,"station_id":"JUA","distance":2015,"is_transit":false,"i_lat":-6.166716,"line":2},{"distance":1149,"station_name":"Sawah Besar","line":2,"i_lat":-6.160725,"i_long":106.827103,"is_transit":false,"time":2,"station_id":"SW","transit":false},{"i_lat":-6.149769,"time":2,"distance":906,"station_id":"MGB","i_long":106.82482,"line":2,"is_transit":false,"station_name":"Manggabesar","transit":false},{"time":2,"transit":false,"distance":1080,"i_lat":-6.141205,"station_name":"Jayakarta","line":2,"station_id":"JAY","i_long":106.820901,"is_transit":false},{"transit":true,"station_name":"Jakarta Kota","line":2,"is_transit":true,"time":4,"distance":1264,"i_lat":-6.137569,"i_long":106.812439,"station_id":"JAKK"},{"station_name":"Kampung Bandan","distance":1364,"transit":false,"station_id":"KPB","time":3,"i_long":106.826365,"i_lat":-6.132549,"is_transit":false,"line":4}],[{"i_lat":-6.155215,"i_long":106.800832,"is_transit":false,"line":1,"distance":0,"transit":false,"station_id":"DU","station_name":"Duri","time":0},{"station_id":"THB","i_long":106.811091,"transit":false,"time":8,"line":1,"is_transit":false,"i_lat":-6.185545,"distance":3632,"station_name":"Tanah Abang"},{"distance":2029,"line":1,"is_transit":false,"station_id":"KAT","i_lat":-6.20132,"time":5,"i_long":106.816351,"transit":false,"station_name":"Karet"},{"i_lat":-6.201433,"distance":471,"i_long":106.819881,"station_name":"Sudirman Baru","is_transit":false,"station_id":"SUDB","line":1,"transit":false,"time":1},{"is_transit":false,"time":1,"i_long":106.822649,"distance":280,"line":1,"transit":false,"i_lat":-6.202263,"station_id":"SUD","station_name":"Sudirman"},{"line":2,"i_long":106.84912,"is_transit":false,"time":4,"station_name":"Manggarai","distance":3186,"i_lat":-6.209883,"transit":false,"station_id":"MRI"},{"transit":false,"distance":1275,"is_transit":false,"station_id":"MTR","i_lat":-6.212485,"line":1,"time":2,"station_name":"Matraman","i_long":106.858896},{"i_lat":-6.215091,"is_transit":true,"transit":true,"time":8,"distance":1377,"i_long":106.86807400000001,"station_id":"JNG","line":1,"station_name":"Jatinegara"},{"distance":1236,"transit":false,"station_id":"POK","i_lat":-6.209188,"line":11,"station_name":"Pondok Jati","time":2,"i_long":106.861737,"is_transit":false},{"is_transit":false,"line":11,"i_lat":-6.193792,"distance":1829,"time":2,"i_long":106.855437,"station_name":"Kramat","station_id":"KMT","transit":false},{"distance":973,"station_id":"GST","station_name":"Gang Sentiong","is_transit":false,"time":1,"transit":false,"i_lat":-6.185975,"line":11,"i_long":106.850107},{"distance":1567,"i_lat":-6.174784,"station_id":"PSE","is_transit":false,"i_long":106.84368,"line":11,"transit":false,"station_name":"Pasar Senen","time":8},{"i_long":106.839204,"distance":1436,"station_id":"KMO","transit":false,"line":11,"is_transit":false,"station_name":"Kemayoran","time":4,"i_lat":-6.161728},{"line":11,"i_long":106.836569,"station_id":"RJW","is_transit":false,"transit":false,"time":5,"distance":1901,"station_name":"Rajawali","i_lat":-6.14505},{"distance":1444,"station_name":"Kampung Bandan","transit":false,"i_long":106.826365,"station_id":"KPB","is_transit":false,"time":3,"line":4,"i_lat":-6.132549}]]}