{"data":[[{"is_transit":false,"transit":false,"line":1,"i_long":106.800832,"station_name":"Duri","station_id":"DU","distance":0,"i_lat":-6.155215,"time":0},{"is_transit":false,"time":4,"i_lat":-6.144674,"station_name":"Angke","transit":false,"line":1,"station_id":"AK","i_long":106.79867,"distance":1230},{"station_id":"KPB","time":9,"is_transit":false,"i_lat":-6.132549,"i_long":106.826365,"station_name":"Kampung Bandan","distance":4102,"line":4,"transit":false}],[{"distance":0,"i_lat":-6.155215,"i_long":106.800832,"is_transit":false,"station_name":"Duri","transit":false,"time":0,"line":1,"station_id":"DU"},{"i_long":106.811091,"distance":3632,"station_name":"Tanah Abang","station_id":"THB","is_transit":false,"transit":false,"line":1,"time":8,"i_lat":-6.185545},{"transit":false,"time":5,"station_name":"Karet","i_long":106.816351,"i_lat":-6.20132,"line":1,"station_id":"KAT","is_transit":false,"distance":2029},{"transit":false,"is_transit":false,"station_id":"SUDB","time":1,"distance":471,"i_lat":-6.201433,"line":1,"station_name":"Sudirman Baru","i_long":106.819881},{"i_lat":-6.202263,"station_id":"SUD","distance":280,"time":1,"line":1,"transit":false,"is_transit":false,"station_name":"Sudirman","i_long":106.822649},{"time":4,"i_lat":-6.209883,"station_id":"MRI","i_long":106.84912,"is_transit":true,"distance":3186,"line":2,"station_name":"Manggarai","transit":true},{"i_long":106.840169,"is_transit":false,"transit":false,"i_lat":-6.198556,"distance":1590,"line":2,"station_id":"CKI","time":4,"station_name":"Cikini"},{"station_id":"GDD","time":3,"distance":1750,"line":2,"station_name":"Gondangdia","i_lat":-6.186295,"i_long":106.832183,"is_transit":false,"transit":false},{"transit":false,"time":4,"station_id":"JUA","distance":2015,"is_transit":false,"i_lat":-6.166716,"station_name":"Juanda","line":2,"i_long":106.828284},{"station_id":"SW","i_long":106.827103,"is_transit":false,"time":2,"i_lat":-6.160725,"transit":false,"distance":1149,"line":2,"station_name":"Sawah Besar"},{"distance":906,"transit":false,"i_long":106.82482,"is_transit":false,"station_name":"Manggabesar","time":2,"i_lat":-6.149769,"station_id":"MGB","line":2},{"i_lat":-6.141205,"time":2,"transit":false,"station_id":"JAY","station_name":"Jayakarta","distance":1080,"is_transit":false,"line":2,"i_long":106.820901},{"i_long":106.812439,"station_name":"Jakarta Kota","transit":true,"station_id":"JAKK","is_transit":true,"line":2,"i_lat":-6.137569,"time":4,"distance":1264},{"line":4,"i_lat":-6.132549,"distance":1364,"station_name":"Kampung Bandan","is_transit":false,"station_id":"KPB","transit":false,"time":3,"i_long":106.826365}],[{"i_long":106.800832,"is_transit":false,"distance":0,"transit":false,"i_lat":-6.155215,"station_id":"DU","time":0,"station_name":"Duri","line":1},{"is_transit":false,"time":8,"station_name":"Tanah Abang","line":1,"station_id":"THB","i_lat":-6.185545,"i_long":106.811091,"transit":false,"distance":3632},{"i_long":106.816351,"station_name":"Karet","station_id":"KAT","transit":false,"line":1,"distance":2029,"i_lat":-6.20132,"is_transit":false,"time":5},{"distance":471,"line":1,"i_lat":-6.201433,"i_long":106.819881,"is_transit":false,"transit":false,"station_id":"SUDB","time":1,"station_name":"Sudirman Baru"},{"transit":false,"i_lat":-6.202263,"i_long":106.822649,"station_name":"Sudirman","distance":280,"time":1,"is_transit":false,"station_id":"SUD","line":1},{"is_transit":false,"station_id":"MRI","line":2,"time":4,"i_lat":-6.209883,"i_long":106.84912,"distance":3186,"transit":false,"station_name":"Manggarai"},{"is_transit":false,"station_name":"Matraman","transit":false,"station_id":"MTR","i_lat":-6.212485,"distance":1275,"i_long":106.858896,"line":1,"time":2},{"i_lat":-6.215091,"station_name":"Jatinegara","time":8,"station_id":"JNG","line":1,"transit":true,"is_transit":true,"distance":1377,"i_long":106.86807400000001},{"station_id":"POK","is_transit":false,"station_name":"Pondok Jati","time":2,"transit":false,"distance":1236,"i_long":106.861737,"line":11,"i_lat":-6.209188},{"is_transit":false,"station_id":"KMT","line":11,"transit":false,"time":2,"i_long":106.855437,"station_name":"Kramat","i_lat":-6.193792,"distance":1829},{"time":1,"distance":973,"i_lat":-6.185975,"line":11,"transit":false,"station_name":"Gang Sentiong","i_long":106.850107,"is_transit":false,"station_id":"GST"},{"line":11,"station_name":"Pasar Senen","i_lat":-6.174784,"time":8,"is_transit":false,"distance":1567,"station_id":"PSE","i_long":106.84368,"transit":false},{"i_long":106.839204,"i_lat":-6.161728,"is_transit":false,"line":11,"station_name":"Kemayoran","station_id":"KMO","transit":false,"time":4,"distance":1436},{"i_long":106.836569,"i_lat":-6.14505,"distance":1901,"station_id":"RJW","station_name":"Rajawali","transit":false,"time":5,"is_transit":false,"line":11},{"is_transit":false,"transit":false,"i_lat":-6.132549,"time":3,"line":4,"station_id":"KPB","station_name":"Kampung Bandan","distance":1444,"i_long":106.826365}]]}