{"data":[[{"i_lat":-6.155215,"transit":false,"i_long":106.800832,"line":1,"distance":0,"station_id":"DU","station_name":"Duri","time":0,"is_transit":false},{"line":1,"time":4,"is_transit":false,"station_name":"Angke","i_lat":-6.144674,"i_long":106.79867,"station_id":"AK","transit":false,"distance":1230},{"is_transit":false,"i_long":106.826365,"line":4,"station_name":"Kampung Bandan","transit":false,"i_lat":-6.132549,"time":9,"distance":4102,"station_id":"KPB"}],[{"transit":false,"station_name":"Duri","i_lat":-6.155215,"distance":0,"time":0,"is_transit":false,"station_id":"DU","i_long":106.800832,"line":1},{"i_long":106.811091,"time":8,"line":1,"distance":3632,"is_transit":false,"transit":false,"i_lat":-6.185545,"station_name":"Tanah Abang","station_id":"THB"},{"time":5,"is_transit":false,"i_long":106.816351,"i_lat":-6.20132,"distance":2029,"transit":false,"line":1,"station_name":"Karet","station_id":"KAT"},{"distance":471,"station_id":"SUDB","i_lat":-6.201433,"i_long":106.819881,"transit":false,"is_transit":false,"time":1,"station_name":"Sudirman Baru","line":1},{"time":1,"i_long":106.822649,"line":1,"is_transit":false,"station_id":"SUD","station_name":"Sudirman","distance":280,"i_lat":-6.202263,"transit":false},{"i_lat":-6.209883,"station_name":"Manggarai","is_transit":true,"station_id":"MRI","transit":true,"i_long":106.84912,"time":4,"distance":3186,"line":2},{"station_name":"Cikini","time":4,"i_long":106.840169,"i_lat":-6.198556,"is_transit":false,"station_id":"CKI","transit":false,"line":2,"distance":1590},{"time":3,"is_transit":false,"line":2,"transit":false,"i_lat":-6.186295,"distance":1750,"station_id":"GDD","station_name":"Gondangdia","i_long":106.832183},{"is_transit":false,"time":4,"station_name":"Juanda","line":2,"i_lat":-6.166716,"distance":2015,"station_id":"JUA","transit":false,"i_long":106.828284},{"line":2,"time":2,"transit":false,"station_name":"Sawah Besar","i_lat":-6.160725,"station_id":"SW","is_transit":false,"distance":1149,"i_long":106.827103},{"station_id":"MGB","i_lat":-6.149769,"station_name":"Manggabesar","is_transit":false,"time":2,"i_long":106.82482,"transit":false,"distance":906,"line":2},{"station_name":"Jayakarta","time":2,"is_transit":false,"transit":false,"station_id":"JAY","i_lat":-6.141205,"i_long":106.820901,"distance":1080,"line":2},{"is_transit":true,"station_name":"Jakarta Kota","time":4,"line":2,"station_id":"JAKK","transit":true,"i_lat":-6.137569,"i_long":106.812439,"distance":1264},{"transit":false,"station_name":"Kampung Bandan","distance":1364,"station_id":"KPB","time":3,"is_transit":false,"i_lat":-6.132549,"line":4,"i_long":106.826365}],[{"distance":0,"transit":false,"line":1,"is_transit":false,"time":0,"i_long":106.800832,"station_name":"Duri","station_id":"DU","i_lat":-6.155215},{"station_name":"Tanah Abang","is_transit":false,"station_id":"THB","transit":false,"i_long":106.811091,"line":1,"i_lat":-6.185545,"time":8,"distance":3632},{"station_id":"KAT","time":5,"distance":2029,"line":1,"i_long":106.816351,"i_lat":-6.20132,"station_name":"Karet","is_transit":false,"transit":false},{"line":1,"station_name":"Sudirman Baru","distance":471,"station_id":"SUDB","time":1,"is_transit":false,"i_lat":-6.201433,"i_long":106.819881,"transit":false},{"i_lat":-6.202263,"station_id":"SUD","transit":false,"i_long":106.822649,"station_name":"Sudirman","distance":280,"time":1,"is_transit":false,"line":1},{"is_transit":false,"line":2,"i_lat":-6.209883,"time":4,"transit":false,"distance":3186,"station_name":"Manggarai","station_id":"MRI","i_long":106.84912},{"station_name":"Matraman","is_transit":false,"transit":false,"i_lat":-6.212485,"i_long":106.858896,"distance":1275,"line":1,"station_id":"MTR","time":2},{"station_id":"JNG","station_name":"Jatinegara","i_lat":-6.215091,"i_long":106.86807400000001,"distance":1377,"transit":true,"is_transit":true,"time":8,"line":1},{"station_id":"POK","transit":false,"i_lat":-6.209188,"distance":1236,"time":2,"i_long":106.861737,"line":11,"is_transit":false,"station_name":"Pondok Jati"},{"i_lat":-6.193792,"i_long":106.855437,"line":11,"station_name":"Kramat","distance":1829,"transit":false,"time":2,"station_id":"KMT","is_transit":false},{"transit":false,"station_name":"Gang Sentiong","time":1,"is_transit":false,"station_id":"GST","distance":973,"i_long":106.850107,"line":11,"i_lat":-6.185975},{"distance":1567,"line":11,"time":8,"is_transit":false,"transit":false,"station_name":"Pasar Senen","station_id":"PSE","i_lat":-6.174784,"i_long":106.84368},{"distance":1436,"i_lat":-6.161728,"is_transit":false,"station_id":"KMO","line":11,"time":4,"transit":false,"station_name":"Kemayoran","i_long":106.839204},{"distance":1901,"i_lat":-6.14505,"line":11,"transit":false,"i_long":106.836569,"time":5,"station_id":"RJW","is_transit":false,"station_name":"Rajawali"},{"time":3,"transit":false,"station_id":"KPB","station_name":"Kampung Bandan","distance":1444,"is_transit":false,"i_lat":-6.132549,"i_long":106.826365,"line":4}]]}