{"data":[[{"station_id":"DU","distance":0,"i_long":106.800832,"transit":false,"line":1,"station_name":"Duri","i_lat":-6.155215,"time":0,"is_transit":false},{"i_lat":-6.162021,"transit":false,"station_id":"GGL","i_long":106.788277,"station_name":"Grogol","is_transit":false,"line":5,"time":3,"distance":1700},{"station_id":"PSG","i_long":106.771379,"time":2,"transit":false,"line":5,"i_lat":-6.161433,"distance":2036,"is_transit":false,"station_name":"Pesing"},{"line":5,"time":2,"station_id":"TKO","transit":false,"i_long":106.756522,"distance":1614,"i_lat":-6.1587309999999995,"station_name":"Taman Kota","is_transit":false},{"time":2,"station_id":"BOI","i_long":106.737035,"is_transit":false,"i_lat":-6.159876,"line":5,"distance":2334,"transit":false,"station_name":"Bojongindah"},{"station_id":"RW","time":4,"i_long":106.723064,"transit":false,"i_lat":-6.162758,"line":5,"distance":1152,"is_transit":false,"station_name":"Rawa Buaya"},{"distance":2504,"transit":false,"station_id":"KDS","i_lat":-6.166068,"station_name":"Kalideres","line":5,"time":3,"is_transit":false,"i_long":106.701612}]]}