{"data":[[{"line":1,"i_lat":-6.155215,"i_long":106.800832,"time":0,"station_id":"DU","station_name":"Duri","distance":0,"is_transit":false,"transit":false},{"distance":1700,"station_name":"Grogol","time":3,"i_long":106.788277,"is_transit":false,"station_id":"GRG","transit":false,"i_lat":-6.162021,"line":5},{"i_long":106.771379,"time":2,"station_id":"PSG","i_lat":-6.161433,"transit":false,"station_name":"Pesing","distance":2036,"line":5,"is_transit":false},{"time":2,"station_id":"TKO","distance":1614,"station_name":"Taman Kota","i_lat":-6.1587309999999995,"i_long":106.756522,"line":5,"is_transit":false,"transit":false},{"distance":2334,"i_lat":-6.159876,"line":5,"transit":false,"station_id":"BOI","station_name":"Bojongindah","time":2,"i_long":106.737035,"is_transit":false},{"line":5,"distance":1152,"station_id":"RW","station_name":"Rawa Buaya","time":4,"i_long":106.723064,"transit":false,"is_transit":false,"i_lat":-6.162758},{"time":3,"i_lat":-6.166068,"transit":false,"distance":2504,"is_transit":false,"line":5,"station_name":"Kalideres","station_id":"KDS","i_long":106.701612}]]}