{"data":[[{"distance":0,"i_long":106.800832,"station_id":"DU","line":1,"i_lat":-6.155215,"is_transit":false,"transit":false,"station_name":"Duri","time":0},{"i_long":106.788277,"line":5,"station_name":"Grogol","i_lat":-6.162021,"station_id":"GGL","time":3,"distance":1700,"transit":false,"is_transit":false},{"transit":false,"is_transit":false,"station_id":"PSG","distance":2036,"time":2,"station_name":"Pesing","i_lat":-6.161433,"i_long":106.771379,"line":5},{"i_lat":-6.1587309999999995,"line":5,"station_name":"Taman Kota","is_transit":false,"station_id":"TKO","transit":false,"distance":1614,"i_long":106.756522,"time":2},{"line":5,"transit":false,"is_transit":false,"station_name":"Bojongindah","station_id":"BOI","i_lat":-6.159876,"i_long":106.737035,"time":2,"distance":2334},{"is_transit":false,"station_name":"Rawa Buaya","transit":false,"i_long":106.723064,"time":4,"station_id":"RW","line":5,"distance":1152,"i_lat":-6.162758},{"station_name":"Kalideres","i_lat":-6.166068,"transit":false,"time":3,"i_long":106.701612,"distance":2504,"station_id":"KDS","line":5,"is_transit":false}]]}