{"data":[[{"is_transit":true,"time":0,"station_id":"DU","station_name":"Duri","transit":false,"i_lat":-6.155215,"i_long":106.800832,"distance":0,"line":1},{"distance":3632,"transit":false,"station_name":"Tanah Abang","station_id":"THB","i_lat":-6.185545,"i_long":106.811091,"is_transit":true,"time":8,"line":1},{"is_transit":false,"i_lat":-6.20132,"transit":false,"i_long":106.816351,"time":5,"station_name":"Karet","line":1,"distance":2029,"station_id":"KAT"},{"i_long":106.819881,"station_name":"Sudirman Baru","distance":471,"is_transit":false,"time":1,"transit":false,"station_id":"SUDB","i_lat":-6.201433,"line":1},{"station_id":"SUD","line":1,"station_name":"Sudirman","is_transit":false,"time":1,"transit":false,"i_lat":-6.202263,"distance":280,"i_long":106.822649},{"line":0,"transit":false,"i_lat":-6.209883,"is_transit":true,"station_id":"MRI","station_name":"Manggarai","i_long":106.84912,"time":4,"distance":3186},{"i_long":106.858896,"time":2,"i_lat":-6.212485,"line":1,"station_name":"Matraman","distance":1275,"station_id":"MTR","transit":false,"is_transit":false}],[{"i_lat":-6.155215,"station_id":"DU","transit":false,"line":1,"is_transit":true,"i_long":106.800832,"time":0,"distance":0,"station_name":"Duri"},{"i_long":106.79867,"distance":1230,"is_transit":false,"i_lat":-6.144674,"time":4,"station_id":"AK","transit":false,"line":0,"station_name":"Angke"},{"distance":4102,"i_long":106.826365,"is_transit":true,"station_name":"Kampung Bandan","station_id":"KPB","time":9,"i_lat":-6.132549,"transit":true,"line":0},{"station_id":"RJW","transit":false,"line":11,"is_transit":false,"station_name":"Rajawali","time":3,"distance":1444,"i_lat":-6.14505,"i_long":106.836569},{"transit":false,"distance":1901,"i_lat":-6.161728,"i_long":106.839204,"time":5,"is_transit":false,"station_id":"KMO","station_name":"Kemayoran","line":11},{"i_long":106.84368,"is_transit":false,"station_name":"Pasar Senen","distance":1436,"transit":false,"i_lat":-6.174784,"line":11,"station_id":"PSE","time":4},{"station_name":"Gang Sentiong","distance":1567,"is_transit":false,"line":11,"transit":false,"station_id":"GST","i_long":106.850107,"time":8,"i_lat":-6.185975},{"is_transit":false,"time":1,"station_name":"Kramat","i_lat":-6.193792,"line":11,"transit":false,"i_long":106.855437,"distance":973,"station_id":"KMT"},{"i_lat":-6.209188,"transit":false,"station_id":"POK","i_long":106.861737,"is_transit":false,"station_name":"Pondok Jati","distance":1829,"time":2,"line":11},{"i_lat":-6.215091,"station_id":"JNG","i_long":106.86807400000001,"time":9,"line":0,"station_name":"Jatinegara","distance":1236,"transit":true,"is_transit":true},{"time":2,"station_id":"MTR","is_transit":false,"station_name":"Matraman","distance":1377,"transit":false,"i_lat":-6.212485,"i_long":106.858896,"line":1}],[{"station_name":"Duri","distance":0,"station_id":"DU","i_long":106.800832,"i_lat":-6.155215,"is_transit":true,"line":1,"time":0,"transit":false},{"transit":false,"i_long":106.79867,"time":4,"i_lat":-6.144674,"line":0,"station_id":"AK","distance":1230,"station_name":"Angke","is_transit":false},{"line":0,"is_transit":true,"i_lat":-6.132549,"station_name":"Kampung Bandan","station_id":"KPB","distance":4102,"transit":false,"i_long":106.826365,"time":9},{"station_name":"Jakarta Kota","transit":true,"i_lat":-6.137569,"i_long":106.812439,"line":0,"station_id":"JAKK","time":3,"distance":1364,"is_transit":true},{"i_lat":-6.141205,"time":4,"station_name":"Jayakarta","station_id":"JAY","is_transit":false,"i_long":106.820901,"transit":false,"distance":1264,"line":7},{"is_transit":false,"i_lat":-6.149769,"station_id":"MGB","transit":false,"line":2,"i_long":106.82482,"station_name":"Manggabesar","time":2,"distance":1080},{"distance":906,"station_id":"SW","time":2,"is_transit":false,"transit":false,"station_name":"Sawah Besar","i_lat":-6.160725,"line":2,"i_long":106.827103},{"distance":1149,"is_transit":false,"station_id":"JUA","station_name":"Juanda","i_long":106.828284,"line":2,"i_lat":-6.166716,"time":2,"transit":false},{"station_id":"GDD","is_transit":false,"station_name":"Gondangdia","line":2,"time":4,"transit":false,"distance":2015,"i_lat":-6.186295,"i_long":106.832183},{"transit":false,"is_transit":false,"i_long":106.840169,"distance":1750,"time":3,"i_lat":-6.198556,"station_id":"CKI","station_name":"Cikini","line":0},{"distance":1590,"line":0,"transit":true,"is_transit":true,"station_name":"Manggarai","i_long":106.84912,"i_lat":-6.209883,"time":4,"station_id":"MRI"},{"station_id":"MTR","time":2,"station_name":"Matraman","transit":false,"i_lat":-6.212485,"i_long":106.858896,"is_transit":false,"distance":1275,"line":1}],[{"distance":0,"line":1,"station_name":"Duri","time":0,"i_long":106.800832,"i_lat":-6.155215,"station_id":"DU","is_transit":true,"transit":false},{"time":8,"transit":false,"line":1,"i_lat":-6.185545,"distance":3632,"is_transit":true,"station_name":"Tanah Abang","i_long":106.811091,"station_id":"THB"},{"i_long":106.816351,"distance":2029,"transit":false,"station_id":"KAT","i_lat":-6.20132,"line":1,"is_transit":false,"station_name":"Karet","time":5},{"transit":false,"station_name":"Sudirman Baru","station_id":"SUDB","distance":471,"line":1,"is_transit":false,"i_long":106.819881,"i_lat":-6.201433,"time":1},{"is_transit":false,"i_lat":-6.202263,"time":1,"i_long":106.822649,"line":1,"distance":280,"station_name":"Sudirman","transit":false,"station_id":"SUD"},{"station_name":"Manggarai","is_transit":true,"transit":true,"line":0,"distance":3186,"i_lat":-6.209883,"i_long":106.84912,"time":4,"station_id":"MRI"},{"line":0,"i_lat":-6.198556,"i_long":106.840169,"station_id":"CKI","station_name":"Cikini","distance":1590,"transit":false,"is_transit":false,"time":4},{"station_name":"Gondangdia","is_transit":false,"i_lat":-6.186295,"station_id":"GDD","transit":false,"distance":1750,"time":3,"line":2,"i_long":106.832183},{"time":4,"i_long":106.828284,"distance":2015,"i_lat":-6.166716,"is_transit":false,"transit":false,"station_name":"Juanda","line":2,"station_id":"JUA"},{"i_long":106.827103,"station_name":"Sawah Besar","transit":false,"line":2,"is_transit":false,"time":2,"station_id":"SW","distance":1149,"i_lat":-6.160725},{"i_long":106.82482,"transit":false,"time":2,"i_lat":-6.149769,"station_name":"Manggabesar","line":2,"distance":906,"station_id":"MGB","is_transit":false},{"transit":false,"time":2,"i_lat":-6.141205,"distance":1080,"station_id":"JAY","station_name":"Jayakarta","is_transit":false,"line":7,"i_long":106.820901},{"is_transit":true,"i_long":106.812439,"station_name":"Jakarta Kota","transit":true,"i_lat":-6.137569,"line":0,"distance":1264,"station_id":"JAKK","time":4},{"transit":true,"station_id":"KPB","is_transit":true,"i_lat":-6.132549,"distance":1364,"i_long":106.826365,"station_name":"Kampung Bandan","line":0,"time":3},{"station_id":"RJW","line":11,"distance":1444,"station_name":"Rajawali","time":3,"i_lat":-6.14505,"transit":false,"i_long":106.836569,"is_transit":false},{"station_id":"KMO","i_long":106.839204,"i_lat":-6.161728,"time":5,"line":11,"station_name":"Kemayoran","is_transit":false,"transit":false,"distance":1901},{"distance":1436,"line":11,"time":4,"i_lat":-6.174784,"transit":false,"is_transit":false,"i_long":106.84368,"station_id":"PSE","station_name":"Pasar Senen"},{"i_lat":-6.185975,"time":8,"transit":false,"i_long":106.850107,"line":11,"is_transit":false,"station_id":"GST","station_name":"Gang Sentiong","distance":1567},{"is_transit":false,"station_id":"KMT","time":1,"i_lat":-6.193792,"transit":false,"line":11,"distance":973,"i_long":106.855437,"station_name":"Kramat"},{"i_long":106.861737,"station_id":"POK","line":11,"i_lat":-6.209188,"transit":false,"is_transit":false,"station_name":"Pondok Jati","time":2,"distance":1829},{"i_long":106.86807400000001,"station_id":"JNG","time":9,"distance":1236,"transit":true,"line":0,"is_transit":true,"i_lat":-6.215091,"station_name":"Jatinegara"},{"distance":1377,"station_id":"MTR","station_name":"Matraman","time":2,"transit":false,"line":1,"i_lat":-6.212485,"i_long":106.858896,"is_transit":false}]]}