{"data":[[{"distance":0,"station_name":"Duri","is_transit":false,"time":0,"station_id":"DU","i_lat":-6.155215,"line":1,"i_long":106.800832,"transit":false},{"i_long":106.811091,"is_transit":false,"time":8,"distance":3632,"station_name":"Tanah Abang","i_lat":-6.185545,"station_id":"THB","line":1,"transit":false},{"station_id":"KAT","i_lat":-6.20132,"station_name":"Karet","time":5,"distance":2029,"line":1,"transit":false,"is_transit":false,"i_long":106.816351},{"time":1,"is_transit":false,"i_lat":-6.201433,"distance":471,"station_id":"SUDB","transit":false,"i_long":106.819881,"station_name":"Sudirman Baru","line":1},{"station_id":"SUD","time":1,"transit":false,"is_transit":false,"distance":280,"i_lat":-6.202263,"i_long":106.822649,"line":1,"station_name":"Sudirman"},{"is_transit":false,"transit":false,"i_lat":-6.209883,"station_id":"MRI","i_long":106.84912,"time":4,"distance":3186,"station_name":"Manggarai","line":2},{"line":1,"is_transit":false,"station_id":"MTR","time":2,"distance":1275,"i_lat":-6.212485,"transit":false,"station_name":"Matraman","i_long":106.858896}],[{"is_transit":false,"i_long":106.800832,"station_name":"Duri","distance":0,"i_lat":-6.155215,"time":0,"transit":false,"line":1,"station_id":"DU"},{"i_lat":-6.144674,"time":4,"is_transit":false,"i_long":106.79867,"station_id":"AK","line":1,"distance":1230,"station_name":"Angke","transit":false},{"time":9,"i_long":106.826365,"station_id":"KPB","transit":true,"distance":4102,"station_name":"Kampung Bandan","i_lat":-6.132549,"line":4,"is_transit":true},{"is_transit":false,"transit":false,"time":3,"line":11,"station_id":"RJW","station_name":"Rajawali","i_lat":-6.14505,"distance":1444,"i_long":106.836569},{"distance":1901,"station_id":"KMO","time":5,"transit":false,"is_transit":false,"station_name":"Kemayoran","i_long":106.839204,"line":11,"i_lat":-6.161728},{"line":11,"station_name":"Pasar Senen","distance":1436,"time":4,"station_id":"PSE","i_lat":-6.174784,"i_long":106.84368,"transit":false,"is_transit":false},{"distance":1567,"i_long":106.850107,"station_name":"Gang Sentiong","transit":false,"line":11,"time":8,"station_id":"GST","is_transit":false,"i_lat":-6.185975},{"station_name":"Kramat","i_long":106.855437,"station_id":"KMT","i_lat":-6.193792,"time":1,"distance":973,"is_transit":false,"transit":false,"line":11},{"distance":1829,"line":11,"station_name":"Pondok Jati","is_transit":false,"transit":false,"i_lat":-6.209188,"time":2,"station_id":"POK","i_long":106.861737},{"i_long":106.86807400000001,"time":9,"station_id":"JNG","distance":1236,"is_transit":true,"transit":true,"station_name":"Jatinegara","i_lat":-6.215091,"line":1},{"time":2,"station_name":"Matraman","line":1,"transit":false,"station_id":"MTR","is_transit":false,"i_lat":-6.212485,"i_long":106.858896,"distance":1377}],[{"station_name":"Duri","transit":false,"i_long":106.800832,"time":0,"is_transit":false,"i_lat":-6.155215,"distance":0,"station_id":"DU","line":1},{"i_lat":-6.144674,"is_transit":false,"transit":false,"time":4,"station_name":"Angke","station_id":"AK","line":1,"distance":1230,"i_long":106.79867},{"i_long":106.826365,"time":9,"distance":4102,"station_name":"Kampung Bandan","transit":true,"i_lat":-6.132549,"line":4,"is_transit":true,"station_id":"KPB"},{"distance":1364,"station_name":"Jakarta Kota","i_long":106.812439,"is_transit":true,"line":2,"time":3,"i_lat":-6.137569,"station_id":"JAKK","transit":true},{"distance":1264,"station_name":"Jayakarta","is_transit":false,"i_lat":-6.141205,"line":2,"i_long":106.820901,"time":4,"transit":false,"station_id":"JAY"},{"time":2,"station_id":"MGB","transit":false,"i_lat":-6.149769,"is_transit":false,"i_long":106.82482,"station_name":"Manggabesar","line":2,"distance":1080},{"station_id":"SW","line":2,"i_long":106.827103,"transit":false,"is_transit":false,"distance":906,"station_name":"Sawah Besar","i_lat":-6.160725,"time":2},{"distance":1149,"station_name":"Juanda","i_long":106.828284,"time":2,"line":2,"is_transit":false,"i_lat":-6.166716,"transit":false,"station_id":"JUA"},{"is_transit":false,"i_long":106.832183,"time":4,"transit":false,"distance":2015,"station_id":"GDD","station_name":"Gondangdia","i_lat":-6.186295,"line":2},{"transit":false,"line":2,"is_transit":false,"i_long":106.840169,"i_lat":-6.198556,"distance":1750,"time":3,"station_id":"CKI","station_name":"Cikini"},{"time":4,"distance":1590,"station_name":"Manggarai","i_lat":-6.209883,"transit":true,"line":2,"i_long":106.84912,"station_id":"MRI","is_transit":true},{"station_name":"Matraman","transit":false,"station_id":"MTR","time":2,"i_lat":-6.212485,"i_long":106.858896,"distance":1275,"is_transit":false,"line":1}],[{"time":0,"i_long":106.800832,"i_lat":-6.155215,"transit":false,"is_transit":false,"station_name":"Duri","distance":0,"line":1,"station_id":"DU"},{"i_lat":-6.185545,"time":8,"transit":false,"distance":3632,"line":1,"station_id":"THB","is_transit":false,"i_long":106.811091,"station_name":"Tanah Abang"},{"distance":2029,"is_transit":false,"i_long":106.816351,"line":1,"time":5,"transit":false,"station_id":"KAT","station_name":"Karet","i_lat":-6.20132},{"station_name":"Sudirman Baru","line":1,"is_transit":false,"time":1,"distance":471,"i_lat":-6.201433,"station_id":"SUDB","i_long":106.819881,"transit":false},{"i_long":106.822649,"distance":280,"is_transit":false,"i_lat":-6.202263,"transit":false,"station_id":"SUD","line":1,"time":1,"station_name":"Sudirman"},{"station_id":"MRI","distance":3186,"line":2,"time":4,"station_name":"Manggarai","is_transit":true,"transit":true,"i_lat":-6.209883,"i_long":106.84912},{"is_transit":false,"i_lat":-6.198556,"line":2,"i_long":106.840169,"time":4,"distance":1590,"station_id":"CKI","station_name":"Cikini","transit":false},{"station_name":"Gondangdia","is_transit":false,"i_lat":-6.186295,"distance":1750,"time":3,"station_id":"GDD","transit":false,"line":2,"i_long":106.832183},{"station_name":"Juanda","i_lat":-6.166716,"line":2,"is_transit":false,"transit":false,"i_long":106.828284,"time":4,"station_id":"JUA","distance":2015},{"station_name":"Sawah Besar","is_transit":false,"line":2,"transit":false,"time":2,"distance":1149,"i_lat":-6.160725,"i_long":106.827103,"station_id":"SW"},{"distance":906,"station_name":"Manggabesar","i_lat":-6.149769,"station_id":"MGB","is_transit":false,"transit":false,"i_long":106.82482,"line":2,"time":2},{"i_lat":-6.141205,"time":2,"distance":1080,"transit":false,"i_long":106.820901,"line":2,"is_transit":false,"station_id":"JAY","station_name":"Jayakarta"},{"station_id":"JAKK","station_name":"Jakarta Kota","i_lat":-6.137569,"distance":1264,"time":4,"is_transit":true,"i_long":106.812439,"line":2,"transit":true},{"time":3,"i_long":106.826365,"distance":1364,"station_name":"Kampung Bandan","station_id":"KPB","transit":true,"line":4,"is_transit":true,"i_lat":-6.132549},{"time":3,"station_id":"RJW","is_transit":false,"i_lat":-6.14505,"distance":1444,"station_name":"Rajawali","transit":false,"line":11,"i_long":106.836569},{"distance":1901,"station_id":"KMO","transit":false,"i_lat":-6.161728,"line":11,"time":5,"station_name":"Kemayoran","is_transit":false,"i_long":106.839204},{"transit":false,"station_id":"PSE","station_name":"Pasar Senen","i_lat":-6.174784,"line":11,"i_long":106.84368,"time":4,"distance":1436,"is_transit":false},{"transit":false,"is_transit":false,"line":11,"station_id":"GST","i_lat":-6.185975,"station_name":"Gang Sentiong","i_long":106.850107,"time":8,"distance":1567},{"station_name":"Kramat","station_id":"KMT","i_long":106.855437,"time":1,"is_transit":false,"line":11,"distance":973,"i_lat":-6.193792,"transit":false},{"transit":false,"line":11,"distance":1829,"time":2,"station_name":"Pondok Jati","station_id":"POK","i_lat":-6.209188,"i_long":106.861737,"is_transit":false},{"distance":1236,"i_lat":-6.215091,"station_id":"JNG","time":9,"station_name":"Jatinegara","line":1,"transit":true,"i_long":106.86807400000001,"is_transit":true},{"is_transit":false,"i_long":106.858896,"i_lat":-6.212485,"station_name":"Matraman","distance":1377,"time":2,"station_id":"MTR","line":1,"transit":false}]]}