{"data":[[{"time":0,"station_name":"Duri","station_id":"DU","transit":false,"is_transit":false,"distance":0,"i_lat":-6.155215,"i_long":106.800832,"line":1},{"transit":false,"i_long":106.811091,"station_name":"Tanah Abang","time":8,"i_lat":-6.185545,"is_transit":false,"distance":3632,"line":1,"station_id":"THB"},{"i_lat":-6.20132,"transit":false,"time":5,"line":1,"i_long":106.816351,"station_name":"Karet","distance":2029,"station_id":"KAT","is_transit":false},{"distance":471,"station_id":"SUDB","is_transit":false,"line":1,"transit":false,"station_name":"Sudirman Baru","time":1,"i_lat":-6.201433,"i_long":106.819881},{"line":1,"i_long":106.822649,"i_lat":-6.202263,"transit":false,"time":1,"station_id":"SUD","is_transit":false,"distance":280,"station_name":"Sudirman"},{"i_lat":-6.209883,"station_name":"Manggarai","is_transit":false,"time":4,"transit":false,"i_long":106.84912,"distance":3186,"line":2,"station_id":"MRI"},{"station_name":"Matraman","distance":1275,"line":1,"station_id":"MTR","i_long":106.858896,"transit":false,"is_transit":false,"time":2,"i_lat":-6.212485}],[{"line":1,"transit":false,"station_id":"DU","is_transit":false,"distance":0,"i_long":106.800832,"time":0,"station_name":"Duri","i_lat":-6.155215},{"distance":1230,"i_lat":-6.144674,"line":1,"time":4,"i_long":106.79867,"station_id":"AK","station_name":"Angke","transit":false,"is_transit":false},{"station_name":"Kampung Bandan","transit":true,"line":4,"station_id":"KPB","i_long":106.826365,"is_transit":true,"time":9,"distance":4102,"i_lat":-6.132549},{"is_transit":false,"station_id":"RJW","i_lat":-6.14505,"station_name":"Rajawali","i_long":106.836569,"line":11,"time":3,"transit":false,"distance":1444},{"station_id":"KMO","station_name":"Kemayoran","i_lat":-6.161728,"time":5,"line":11,"is_transit":false,"distance":1901,"transit":false,"i_long":106.839204},{"time":4,"is_transit":false,"transit":false,"station_name":"Pasar Senen","i_long":106.84368,"distance":1436,"i_lat":-6.174784,"line":11,"station_id":"PSE"},{"time":8,"transit":false,"station_name":"Gang Sentiong","distance":1567,"station_id":"GST","i_lat":-6.185975,"i_long":106.850107,"line":11,"is_transit":false},{"station_name":"Kramat","i_lat":-6.193792,"transit":false,"station_id":"KMT","i_long":106.855437,"is_transit":false,"line":11,"time":1,"distance":973},{"time":2,"is_transit":false,"distance":1829,"line":11,"i_long":106.861737,"station_name":"Pondok Jati","station_id":"POK","i_lat":-6.209188,"transit":false},{"transit":true,"line":1,"station_name":"Jatinegara","is_transit":true,"distance":1236,"i_lat":-6.215091,"time":9,"station_id":"JNG","i_long":106.86807400000001},{"station_name":"Matraman","is_transit":false,"transit":false,"distance":1377,"line":1,"time":2,"i_lat":-6.212485,"i_long":106.858896,"station_id":"MTR"}],[{"station_id":"DU","i_lat":-6.155215,"transit":false,"is_transit":false,"time":0,"line":1,"distance":0,"i_long":106.800832,"station_name":"Duri"},{"is_transit":false,"time":4,"station_id":"AK","distance":1230,"line":1,"i_lat":-6.144674,"transit":false,"i_long":106.79867,"station_name":"Angke"},{"line":4,"station_name":"Kampung Bandan","station_id":"KPB","i_lat":-6.132549,"i_long":106.826365,"is_transit":true,"time":9,"transit":true,"distance":4102},{"station_id":"JAKK","i_long":106.812439,"i_lat":-6.137569,"transit":true,"line":2,"is_transit":true,"time":3,"station_name":"Jakarta Kota","distance":1364},{"line":2,"station_name":"Jayakarta","i_lat":-6.141205,"transit":false,"station_id":"JAY","is_transit":false,"time":4,"distance":1264,"i_long":106.820901},{"is_transit":false,"time":2,"distance":1080,"station_name":"Manggabesar","transit":false,"i_lat":-6.149769,"i_long":106.82482,"line":2,"station_id":"MGB"},{"station_id":"SW","transit":false,"time":2,"line":2,"station_name":"Sawah Besar","i_long":106.827103,"is_transit":false,"distance":906,"i_lat":-6.160725},{"is_transit":false,"line":2,"station_id":"JUA","distance":1149,"time":2,"i_lat":-6.166716,"i_long":106.828284,"station_name":"Juanda","transit":false},{"line":2,"transit":false,"station_id":"GDD","i_lat":-6.186295,"is_transit":false,"station_name":"Gondangdia","time":4,"distance":2015,"i_long":106.832183},{"station_name":"Cikini","i_lat":-6.198556,"i_long":106.840169,"transit":false,"line":2,"station_id":"CKI","is_transit":false,"distance":1750,"time":3},{"line":2,"is_transit":true,"transit":true,"distance":1590,"station_name":"Manggarai","time":4,"station_id":"MRI","i_lat":-6.209883,"i_long":106.84912},{"line":1,"i_lat":-6.212485,"time":2,"distance":1275,"station_name":"Matraman","transit":false,"station_id":"MTR","is_transit":false,"i_long":106.858896}],[{"line":1,"station_name":"Duri","time":0,"transit":false,"station_id":"DU","is_transit":false,"i_lat":-6.155215,"i_long":106.800832,"distance":0},{"distance":3632,"i_lat":-6.185545,"station_id":"THB","time":8,"i_long":106.811091,"line":1,"station_name":"Tanah Abang","transit":false,"is_transit":false},{"distance":2029,"time":5,"i_long":106.816351,"station_id":"KAT","transit":false,"station_name":"Karet","is_transit":false,"line":1,"i_lat":-6.20132},{"station_id":"SUDB","line":1,"i_lat":-6.201433,"distance":471,"time":1,"is_transit":false,"transit":false,"station_name":"Sudirman Baru","i_long":106.819881},{"transit":false,"time":1,"station_id":"SUD","distance":280,"i_long":106.822649,"i_lat":-6.202263,"is_transit":false,"station_name":"Sudirman","line":1},{"i_long":106.84912,"station_id":"MRI","station_name":"Manggarai","transit":true,"distance":3186,"i_lat":-6.209883,"time":4,"line":2,"is_transit":true},{"station_name":"Cikini","line":2,"time":4,"transit":false,"is_transit":false,"i_lat":-6.198556,"station_id":"CKI","i_long":106.840169,"distance":1590},{"is_transit":false,"i_long":106.832183,"transit":false,"line":2,"station_id":"GDD","time":3,"station_name":"Gondangdia","distance":1750,"i_lat":-6.186295},{"distance":2015,"station_id":"JUA","line":2,"time":4,"i_long":106.828284,"transit":false,"is_transit":false,"i_lat":-6.166716,"station_name":"Juanda"},{"is_transit":false,"line":2,"i_lat":-6.160725,"station_id":"SW","distance":1149,"time":2,"i_long":106.827103,"station_name":"Sawah Besar","transit":false},{"station_id":"MGB","i_long":106.82482,"transit":false,"line":2,"station_name":"Manggabesar","is_transit":false,"i_lat":-6.149769,"distance":906,"time":2},{"i_lat":-6.141205,"station_id":"JAY","station_name":"Jayakarta","line":2,"is_transit":false,"time":2,"transit":false,"distance":1080,"i_long":106.820901},{"distance":1264,"i_lat":-6.137569,"transit":true,"station_id":"JAKK","is_transit":true,"time":4,"i_long":106.812439,"line":2,"station_name":"Jakarta Kota"},{"distance":1364,"i_long":106.826365,"line":4,"station_name":"Kampung Bandan","station_id":"KPB","i_lat":-6.132549,"time":3,"transit":true,"is_transit":true},{"station_name":"Rajawali","i_long":106.836569,"line":11,"transit":false,"time":3,"distance":1444,"i_lat":-6.14505,"station_id":"RJW","is_transit":false},{"time":5,"transit":false,"is_transit":false,"station_id":"KMO","i_lat":-6.161728,"station_name":"Kemayoran","distance":1901,"i_long":106.839204,"line":11},{"i_lat":-6.174784,"is_transit":false,"station_name":"Pasar Senen","transit":false,"distance":1436,"i_long":106.84368,"line":11,"time":4,"station_id":"PSE"},{"station_id":"GST","transit":false,"is_transit":false,"i_lat":-6.185975,"distance":1567,"i_long":106.850107,"time":8,"line":11,"station_name":"Gang Sentiong"},{"station_name":"Kramat","station_id":"KMT","i_lat":-6.193792,"is_transit":false,"distance":973,"transit":false,"time":1,"i_long":106.855437,"line":11},{"is_transit":false,"time":2,"distance":1829,"i_long":106.861737,"transit":false,"station_name":"Pondok Jati","line":11,"station_id":"POK","i_lat":-6.209188},{"transit":true,"distance":1236,"station_id":"JNG","station_name":"Jatinegara","i_lat":-6.215091,"is_transit":true,"time":9,"line":1,"i_long":106.86807400000001},{"distance":1377,"is_transit":false,"line":1,"station_id":"MTR","station_name":"Matraman","time":2,"i_lat":-6.212485,"i_long":106.858896,"transit":false}]]}