{"data":[[{"distance":0,"time":0,"line":1,"i_long":106.800832,"is_transit":false,"i_lat":-6.155215,"station_name":"Duri","transit":false,"station_id":"DU"},{"station_name":"Tanah Abang","distance":3632,"is_transit":false,"i_lat":-6.185545,"i_long":106.811091,"station_id":"THB","line":1,"time":8,"transit":false},{"station_name":"Karet","i_lat":-6.20132,"i_long":106.816351,"station_id":"KAT","line":1,"is_transit":false,"time":5,"transit":false,"distance":2029},{"line":1,"transit":false,"station_name":"Sudirman Baru","distance":471,"station_id":"SUDB","i_lat":-6.201433,"i_long":106.819881,"time":1,"is_transit":false},{"i_long":106.822649,"station_name":"Sudirman","distance":280,"transit":false,"time":1,"i_lat":-6.202263,"line":1,"is_transit":false,"station_id":"SUD"},{"i_lat":-6.209883,"line":2,"distance":3186,"station_id":"MRI","transit":false,"is_transit":false,"i_long":106.84912,"time":4,"station_name":"Manggarai"},{"time":2,"i_lat":-6.212485,"distance":1275,"station_name":"Matraman","line":1,"is_transit":false,"station_id":"MTR","i_long":106.858896,"transit":false}],[{"time":0,"is_transit":false,"distance":0,"station_name":"Duri","station_id":"DU","transit":false,"i_long":106.800832,"i_lat":-6.155215,"line":1},{"station_name":"Angke","i_long":106.79867,"is_transit":false,"i_lat":-6.144674,"line":1,"transit":false,"station_id":"AK","distance":1230,"time":4},{"distance":4102,"transit":true,"is_transit":true,"i_lat":-6.132549,"i_long":106.826365,"time":9,"line":4,"station_name":"Kampung Bandan","station_id":"KPB"},{"i_long":106.836569,"transit":false,"distance":1444,"time":3,"line":11,"station_name":"Rajawali","i_lat":-6.14505,"station_id":"RJW","is_transit":false},{"station_id":"KMO","station_name":"Kemayoran","time":5,"distance":1901,"transit":false,"line":11,"i_lat":-6.161728,"is_transit":false,"i_long":106.839204},{"station_id":"PSE","time":4,"is_transit":false,"station_name":"Pasar Senen","transit":false,"i_lat":-6.174784,"distance":1436,"i_long":106.84368,"line":11},{"is_transit":false,"station_id":"GST","distance":1567,"station_name":"Gang Sentiong","transit":false,"i_long":106.850107,"i_lat":-6.185975,"line":11,"time":8},{"is_transit":false,"station_id":"KMT","station_name":"Kramat","distance":973,"i_long":106.855437,"line":11,"i_lat":-6.193792,"transit":false,"time":1},{"transit":false,"station_name":"Pondok Jati","i_long":106.861737,"i_lat":-6.209188,"line":11,"station_id":"POK","time":2,"is_transit":false,"distance":1829},{"time":9,"station_id":"JNG","distance":1236,"is_transit":true,"i_long":106.86807400000001,"line":1,"i_lat":-6.215091,"transit":true,"station_name":"Jatinegara"},{"transit":false,"time":2,"station_name":"Matraman","i_lat":-6.212485,"is_transit":false,"station_id":"MTR","i_long":106.858896,"line":1,"distance":1377}],[{"i_lat":-6.155215,"i_long":106.800832,"time":0,"station_id":"DU","distance":0,"transit":false,"station_name":"Duri","is_transit":false,"line":1},{"i_long":106.79867,"line":1,"distance":1230,"transit":false,"time":4,"is_transit":false,"i_lat":-6.144674,"station_id":"AK","station_name":"Angke"},{"line":4,"is_transit":true,"station_id":"KPB","distance":4102,"time":9,"station_name":"Kampung Bandan","transit":true,"i_lat":-6.132549,"i_long":106.826365},{"is_transit":true,"time":3,"distance":1364,"i_lat":-6.137569,"station_name":"Jakarta Kota","i_long":106.812439,"line":2,"transit":true,"station_id":"JAKK"},{"station_name":"Jayakarta","transit":false,"station_id":"JAY","i_lat":-6.141205,"is_transit":false,"i_long":106.820901,"time":4,"distance":1264,"line":2},{"distance":1080,"time":2,"i_lat":-6.149769,"i_long":106.82482,"station_id":"MGB","transit":false,"station_name":"Manggabesar","is_transit":false,"line":2},{"line":2,"transit":false,"distance":906,"is_transit":false,"station_id":"SW","station_name":"Sawah Besar","i_long":106.827103,"i_lat":-6.160725,"time":2},{"line":2,"station_name":"Juanda","i_long":106.828284,"i_lat":-6.166716,"station_id":"JUA","time":2,"transit":false,"is_transit":false,"distance":1149},{"is_transit":false,"station_name":"Gondangdia","line":2,"station_id":"GDD","distance":2015,"transit":false,"i_long":106.832183,"i_lat":-6.186295,"time":4},{"transit":false,"station_id":"CKI","line":2,"time":3,"i_lat":-6.198556,"is_transit":false,"distance":1750,"station_name":"Cikini","i_long":106.840169},{"distance":1590,"station_name":"Manggarai","transit":true,"is_transit":true,"line":2,"station_id":"MRI","i_lat":-6.209883,"i_long":106.84912,"time":4},{"time":2,"i_lat":-6.212485,"i_long":106.858896,"line":1,"station_name":"Matraman","distance":1275,"station_id":"MTR","transit":false,"is_transit":false}],[{"distance":0,"station_name":"Duri","station_id":"DU","line":1,"transit":false,"i_long":106.800832,"is_transit":false,"i_lat":-6.155215,"time":0},{"station_id":"THB","distance":3632,"transit":false,"is_transit":false,"i_lat":-6.185545,"time":8,"station_name":"Tanah Abang","i_long":106.811091,"line":1},{"time":5,"station_name":"Karet","is_transit":false,"distance":2029,"i_long":106.816351,"i_lat":-6.20132,"line":1,"station_id":"KAT","transit":false},{"i_long":106.819881,"line":1,"transit":false,"is_transit":false,"time":1,"distance":471,"station_name":"Sudirman Baru","station_id":"SUDB","i_lat":-6.201433},{"i_long":106.822649,"station_id":"SUD","line":1,"station_name":"Sudirman","time":1,"transit":false,"distance":280,"is_transit":false,"i_lat":-6.202263},{"station_name":"Manggarai","transit":true,"line":2,"distance":3186,"station_id":"MRI","i_long":106.84912,"time":4,"i_lat":-6.209883,"is_transit":true},{"is_transit":false,"line":2,"time":4,"station_id":"CKI","distance":1590,"i_lat":-6.198556,"transit":false,"station_name":"Cikini","i_long":106.840169},{"time":3,"station_name":"Gondangdia","station_id":"GDD","transit":false,"is_transit":false,"distance":1750,"i_lat":-6.186295,"i_long":106.832183,"line":2},{"line":2,"station_id":"JUA","transit":false,"station_name":"Juanda","time":4,"is_transit":false,"i_lat":-6.166716,"distance":2015,"i_long":106.828284},{"station_name":"Sawah Besar","i_long":106.827103,"is_transit":false,"station_id":"SW","distance":1149,"time":2,"i_lat":-6.160725,"line":2,"transit":false},{"station_id":"MGB","time":2,"station_name":"Manggabesar","is_transit":false,"i_long":106.82482,"distance":906,"line":2,"transit":false,"i_lat":-6.149769},{"i_lat":-6.141205,"station_name":"Jayakarta","is_transit":false,"line":2,"time":2,"station_id":"JAY","i_long":106.820901,"distance":1080,"transit":false},{"time":4,"distance":1264,"is_transit":true,"station_name":"Jakarta Kota","i_lat":-6.137569,"line":2,"transit":true,"i_long":106.812439,"station_id":"JAKK"},{"distance":1364,"is_transit":true,"i_lat":-6.132549,"line":4,"time":3,"transit":true,"station_name":"Kampung Bandan","i_long":106.826365,"station_id":"KPB"},{"line":11,"i_lat":-6.14505,"i_long":106.836569,"is_transit":false,"station_name":"Rajawali","transit":false,"distance":1444,"station_id":"RJW","time":3},{"station_id":"KMO","station_name":"Kemayoran","distance":1901,"line":11,"i_lat":-6.161728,"is_transit":false,"i_long":106.839204,"time":5,"transit":false},{"distance":1436,"is_transit":false,"i_long":106.84368,"i_lat":-6.174784,"time":4,"station_id":"PSE","transit":false,"line":11,"station_name":"Pasar Senen"},{"distance":1567,"station_id":"GST","i_lat":-6.185975,"line":11,"i_long":106.850107,"time":8,"transit":false,"station_name":"Gang Sentiong","is_transit":false},{"is_transit":false,"distance":973,"station_name":"Kramat","i_lat":-6.193792,"i_long":106.855437,"station_id":"KMT","time":1,"transit":false,"line":11},{"distance":1829,"i_long":106.861737,"is_transit":false,"line":11,"station_id":"POK","transit":false,"station_name":"Pondok Jati","time":2,"i_lat":-6.209188},{"i_long":106.86807400000001,"time":9,"station_name":"Jatinegara","i_lat":-6.215091,"line":1,"station_id":"JNG","is_transit":true,"distance":1236,"transit":true},{"station_id":"MTR","line":1,"time":2,"i_lat":-6.212485,"transit":false,"station_name":"Matraman","is_transit":false,"distance":1377,"i_long":106.858896}]]}