{"data":[[{"station_id":"DU","transit":false,"station_name":"Duri","distance":0,"i_long":106.800832,"is_transit":false,"line":1,"i_lat":-6.155215,"time":0},{"station_name":"Tanah Abang","transit":false,"is_transit":false,"i_lat":-6.185545,"i_long":106.811091,"station_id":"THB","distance":3632,"line":1,"time":8},{"time":5,"station_id":"KAT","is_transit":false,"i_lat":-6.20132,"i_long":106.816351,"station_name":"Karet","transit":false,"line":1,"distance":2029},{"station_id":"SUDB","station_name":"Sudirman Baru","is_transit":false,"transit":false,"i_long":106.819881,"line":1,"time":1,"i_lat":-6.201433,"distance":471},{"distance":280,"is_transit":false,"station_name":"Sudirman","time":1,"station_id":"SUD","i_lat":-6.202263,"i_long":106.822649,"transit":false,"line":1},{"station_id":"MRI","transit":true,"station_name":"Manggarai","distance":3186,"is_transit":true,"i_lat":-6.209883,"time":4,"i_long":106.84912,"line":2},{"station_name":"Tebet","distance":2610,"i_long":106.857948,"time":4,"station_id":"TEB","i_lat":-6.226659,"transit":false,"is_transit":false,"line":2},{"distance":1230,"station_name":"Cawang","station_id":"CW","i_long":106.856607,"time":2,"transit":false,"is_transit":false,"i_lat":-6.242512,"line":2},{"station_id":"DRN","station_name":"Duren Kalibata","is_transit":false,"i_long":106.85449,"transit":false,"i_lat":-6.255332,"line":2,"time":3,"distance":1546},{"time":2,"distance":824,"is_transit":false,"line":2,"transit":false,"i_long":106.851577,"station_name":"Pasar Minggu Baru","i_lat":-6.263214,"station_id":"PSMB"},{"station_id":"PSM","is_transit":false,"i_lat":-6.2842400000000005,"distance":2380,"i_long":106.843999,"time":2,"line":2,"station_name":"Pasar Minggu","transit":false},{"is_transit":false,"i_lat":-6.3080680000000005,"distance":2820,"line":2,"time":4,"transit":false,"station_id":"TNT","station_name":"Tanjung Barat","i_long":106.838896},{"line":2,"is_transit":false,"station_name":"Lenteng Agung","station_id":"LNA","time":3,"transit":false,"distance":2671,"i_lat":-6.330363,"i_long":106.832616},{"distance":1029,"station_id":"UP","time":2,"station_name":"Univ. Pancasila","transit":false,"is_transit":false,"i_lat":-6.339291,"i_long":106.834175,"line":2},{"station_id":"UI","time":3,"distance":2264,"transit":false,"i_long":106.831474,"is_transit":false,"station_name":"Univ. Indonesia","i_lat":-6.360749,"line":2},{"i_long":106.831114,"is_transit":false,"i_lat":-6.369073,"station_name":"Pondok Cina","time":2,"distance":1109,"transit":false,"line":2,"station_id":"POC"},{"distance":2727,"i_lat":-6.391065,"time":4,"station_name":"Depokbaru","transit":false,"is_transit":false,"i_long":106.819451,"station_id":"DPB","line":2},{"i_lat":-6.405256,"station_id":"DP","is_transit":false,"station_name":"Depok","time":3,"i_long":106.816926,"line":2,"transit":false,"distance":1584},{"time":6,"i_lat":-6.448811,"transit":true,"station_id":"CTA","i_long":106.800298,"is_transit":true,"station_name":"Citayam","line":2,"distance":5084},{"is_transit":false,"station_id":"PDRG","station_name":"Pondok Rajeg","transit":false,"i_long":106.824374,"i_lat":-6.460735,"line":21,"distance":0,"time":0},{"transit":false,"distance":0,"station_id":"CBN","line":21,"station_name":"Cibinong","time":0,"is_transit":false,"i_long":106.851978,"i_lat":-6.46424},{"station_name":"Nambo","distance":6527,"transit":false,"station_id":"NMO","time":10,"i_long":106.905196,"line":21,"is_transit":false,"i_lat":-6.466285}],[{"station_name":"Duri","i_long":106.800832,"time":0,"i_lat":-6.155215,"is_transit":false,"transit":false,"line":1,"distance":0,"station_id":"DU"},{"line":1,"distance":1230,"station_id":"AK","time":4,"is_transit":false,"transit":false,"i_lat":-6.144674,"station_name":"Angke","i_long":106.79867},{"distance":4102,"time":9,"station_id":"KPB","transit":true,"i_lat":-6.132549,"i_long":106.826365,"line":4,"is_transit":true,"station_name":"Kampung Bandan"},{"i_lat":-6.137569,"transit":true,"is_transit":true,"i_long":106.812439,"distance":1364,"time":3,"station_name":"Jakarta Kota","line":2,"station_id":"JAKK"},{"i_long":106.820901,"is_transit":false,"station_name":"Jayakarta","line":2,"transit":false,"station_id":"JAY","time":4,"i_lat":-6.141205,"distance":1264},{"transit":false,"station_name":"Manggabesar","line":2,"i_long":106.82482,"is_transit":false,"station_id":"MGB","time":2,"i_lat":-6.149769,"distance":1080},{"station_id":"SW","i_lat":-6.160725,"distance":906,"i_long":106.827103,"time":2,"transit":false,"is_transit":false,"line":2,"station_name":"Sawah Besar"},{"is_transit":false,"i_lat":-6.166716,"time":2,"station_id":"JUA","station_name":"Juanda","i_long":106.828284,"transit":false,"line":2,"distance":1149},{"distance":2015,"line":2,"i_lat":-6.186295,"station_id":"GDD","time":4,"station_name":"Gondangdia","is_transit":false,"transit":false,"i_long":106.832183},{"time":3,"station_name":"Cikini","station_id":"CKI","i_lat":-6.198556,"transit":false,"i_long":106.840169,"distance":1750,"is_transit":false,"line":2},{"i_lat":-6.209883,"distance":1590,"time":4,"transit":false,"station_id":"MRI","station_name":"Manggarai","line":2,"is_transit":false,"i_long":106.84912},{"station_id":"TEB","is_transit":false,"station_name":"Tebet","line":2,"transit":false,"distance":2610,"time":4,"i_long":106.857948,"i_lat":-6.226659},{"transit":false,"i_lat":-6.242512,"station_id":"CW","time":2,"i_long":106.856607,"line":2,"is_transit":false,"station_name":"Cawang","distance":1230},{"distance":1546,"line":2,"time":3,"transit":false,"i_lat":-6.255332,"is_transit":false,"station_id":"DRN","station_name":"Duren Kalibata","i_long":106.85449},{"transit":false,"station_name":"Pasar Minggu Baru","station_id":"PSMB","line":2,"time":2,"is_transit":false,"distance":824,"i_long":106.851577,"i_lat":-6.263214},{"i_long":106.843999,"transit":false,"station_name":"Pasar Minggu","time":2,"is_transit":false,"i_lat":-6.2842400000000005,"station_id":"PSM","line":2,"distance":2380},{"transit":false,"distance":2820,"station_name":"Tanjung Barat","is_transit":false,"i_lat":-6.3080680000000005,"line":2,"time":4,"i_long":106.838896,"station_id":"TNT"},{"transit":false,"i_long":106.832616,"distance":2671,"time":3,"station_id":"LNA","is_transit":false,"line":2,"station_name":"Lenteng Agung","i_lat":-6.330363},{"i_long":106.834175,"transit":false,"line":2,"is_transit":false,"time":2,"i_lat":-6.339291,"station_id":"UP","distance":1029,"station_name":"Univ. Pancasila"},{"station_id":"UI","time":3,"station_name":"Univ. Indonesia","distance":2264,"line":2,"i_long":106.831474,"i_lat":-6.360749,"is_transit":false,"transit":false},{"distance":1109,"station_id":"POC","station_name":"Pondok Cina","line":2,"i_lat":-6.369073,"time":2,"i_long":106.831114,"transit":false,"is_transit":false},{"station_name":"Depokbaru","i_lat":-6.391065,"distance":2727,"time":4,"line":2,"i_long":106.819451,"is_transit":false,"transit":false,"station_id":"DPB"},{"station_id":"DP","station_name":"Depok","line":2,"is_transit":false,"transit":false,"distance":1584,"i_long":106.816926,"i_lat":-6.405256,"time":3},{"station_name":"Citayam","time":6,"station_id":"CTA","is_transit":true,"i_lat":-6.448811,"line":2,"distance":5084,"transit":true,"i_long":106.800298},{"i_lat":-6.460735,"i_long":106.824374,"station_id":"PDRG","is_transit":false,"distance":0,"time":0,"transit":false,"line":21,"station_name":"Pondok Rajeg"},{"station_name":"Cibinong","transit":false,"distance":0,"i_lat":-6.46424,"time":0,"station_id":"CBN","i_long":106.851978,"line":21,"is_transit":false},{"is_transit":false,"station_id":"NMO","distance":6527,"transit":false,"line":21,"time":10,"station_name":"Nambo","i_long":106.905196,"i_lat":-6.466285}],[{"line":1,"is_transit":false,"distance":0,"time":0,"i_lat":-6.155215,"i_long":106.800832,"station_id":"DU","station_name":"Duri","transit":false},{"time":4,"distance":1230,"station_id":"AK","station_name":"Angke","i_lat":-6.144674,"i_long":106.79867,"line":1,"is_transit":false,"transit":false},{"time":9,"distance":4102,"i_long":106.826365,"is_transit":true,"line":4,"station_name":"Kampung Bandan","transit":true,"station_id":"KPB","i_lat":-6.132549},{"distance":1444,"time":3,"line":11,"i_long":106.836569,"transit":false,"station_name":"Rajawali","i_lat":-6.14505,"is_transit":false,"station_id":"RJW"},{"time":5,"station_name":"Kemayoran","i_lat":-6.161728,"i_long":106.839204,"is_transit":false,"transit":false,"station_id":"KMO","line":11,"distance":1901},{"i_lat":-6.174784,"distance":1436,"station_id":"PSE","time":4,"line":11,"is_transit":false,"i_long":106.84368,"station_name":"Pasar Senen","transit":false},{"i_long":106.850107,"time":8,"i_lat":-6.185975,"is_transit":false,"station_name":"Gang Sentiong","line":11,"transit":false,"distance":1567,"station_id":"GST"},{"line":11,"station_name":"Kramat","time":1,"distance":973,"i_lat":-6.193792,"station_id":"KMT","i_long":106.855437,"is_transit":false,"transit":false},{"time":2,"station_id":"POK","i_lat":-6.209188,"is_transit":false,"station_name":"Pondok Jati","i_long":106.861737,"transit":false,"distance":1829,"line":11},{"line":1,"time":9,"station_id":"JNG","is_transit":true,"i_long":106.86807400000001,"station_name":"Jatinegara","distance":1236,"i_lat":-6.215091,"transit":true},{"i_long":106.858896,"station_name":"Matraman","is_transit":false,"i_lat":-6.212485,"distance":1377,"line":1,"station_id":"MTR","time":2,"transit":false},{"time":2,"i_long":106.84912,"distance":1275,"station_id":"MRI","i_lat":-6.209883,"is_transit":true,"station_name":"Manggarai","transit":true,"line":2},{"station_name":"Tebet","time":4,"is_transit":false,"line":2,"station_id":"TEB","distance":2610,"transit":false,"i_long":106.857948,"i_lat":-6.226659},{"distance":1230,"is_transit":false,"station_name":"Cawang","i_lat":-6.242512,"station_id":"CW","transit":false,"line":2,"i_long":106.856607,"time":2},{"is_transit":false,"transit":false,"distance":1546,"time":3,"station_name":"Duren Kalibata","station_id":"DRN","i_lat":-6.255332,"line":2,"i_long":106.85449},{"i_lat":-6.263214,"i_long":106.851577,"line":2,"transit":false,"station_id":"PSMB","time":2,"station_name":"Pasar Minggu Baru","distance":824,"is_transit":false},{"time":2,"is_transit":false,"distance":2380,"transit":false,"i_lat":-6.2842400000000005,"station_name":"Pasar Minggu","station_id":"PSM","i_long":106.843999,"line":2},{"transit":false,"distance":2820,"station_name":"Tanjung Barat","i_long":106.838896,"i_lat":-6.3080680000000005,"line":2,"time":4,"station_id":"TNT","is_transit":false},{"is_transit":false,"station_id":"LNA","station_name":"Lenteng Agung","time":3,"transit":false,"distance":2671,"i_lat":-6.330363,"line":2,"i_long":106.832616},{"time":2,"line":2,"transit":false,"station_id":"UP","is_transit":false,"station_name":"Univ. Pancasila","i_lat":-6.339291,"distance":1029,"i_long":106.834175},{"is_transit":false,"station_name":"Univ. Indonesia","transit":false,"line":2,"distance":2264,"time":3,"i_lat":-6.360749,"station_id":"UI","i_long":106.831474},{"i_long":106.831114,"station_id":"POC","transit":false,"distance":1109,"time":2,"line":2,"station_name":"Pondok Cina","i_lat":-6.369073,"is_transit":false},{"transit":false,"station_id":"DPB","i_long":106.819451,"distance":2727,"time":4,"i_lat":-6.391065,"line":2,"is_transit":false,"station_name":"Depokbaru"},{"distance":1584,"i_lat":-6.405256,"transit":false,"station_id":"DP","is_transit":false,"i_long":106.816926,"station_name":"Depok","time":3,"line":2},{"i_long":106.800298,"distance":5084,"station_name":"Citayam","i_lat":-6.448811,"is_transit":true,"station_id":"CTA","line":2,"time":6,"transit":true},{"distance":0,"station_name":"Pondok Rajeg","transit":false,"i_long":106.824374,"i_lat":-6.460735,"is_transit":false,"time":0,"line":21,"station_id":"PDRG"},{"i_lat":-6.46424,"line":21,"is_transit":false,"transit":false,"distance":0,"station_id":"CBN","station_name":"Cibinong","i_long":106.851978,"time":0},{"station_id":"NMO","distance":6527,"transit":false,"is_transit":false,"i_long":106.905196,"line":21,"i_lat":-6.466285,"time":10,"station_name":"Nambo"}]]}