{"data":[[{"distance":0,"station_id":"DU","station_name":"Duri","is_transit":false,"time":0,"i_lat":-6.155215,"i_long":106.800832,"line":1,"transit":false},{"time":8,"distance":3632,"i_lat":-6.185545,"station_name":"Tanah Abang","i_long":106.811091,"station_id":"THB","is_transit":false,"line":1,"transit":false},{"station_name":"Karet","transit":false,"i_long":106.816351,"i_lat":-6.20132,"station_id":"KAT","time":5,"line":1,"distance":2029,"is_transit":false},{"i_lat":-6.201433,"is_transit":false,"station_name":"Sudirman Baru","i_long":106.819881,"line":1,"station_id":"SUDB","transit":false,"time":1,"distance":471},{"i_long":106.822649,"station_id":"SUD","i_lat":-6.202263,"distance":280,"transit":false,"time":1,"station_name":"Sudirman","is_transit":false,"line":1},{"distance":3186,"i_lat":-6.209883,"transit":true,"is_transit":true,"station_name":"Manggarai","line":2,"i_long":106.84912,"time":4,"station_id":"MRI"},{"station_name":"Tebet","distance":2610,"is_transit":false,"i_lat":-6.226659,"station_id":"TEB","time":4,"line":2,"i_long":106.857948,"transit":false},{"distance":1230,"station_id":"CW","i_long":106.856607,"time":2,"i_lat":-6.242512,"line":2,"is_transit":false,"transit":false,"station_name":"Cawang"},{"i_long":106.85449,"station_name":"Duren Kalibata","station_id":"DRN","i_lat":-6.255332,"distance":1546,"line":2,"transit":false,"time":3,"is_transit":false},{"distance":824,"i_lat":-6.263214,"is_transit":false,"i_long":106.851577,"time":2,"station_name":"Pasar Minggu Baru","transit":false,"station_id":"PSMB","line":2},{"station_name":"Pasar Minggu","transit":false,"station_id":"PSM","time":2,"is_transit":false,"i_lat":-6.2842400000000005,"distance":2380,"i_long":106.843999,"line":2},{"transit":false,"station_name":"Tanjung Barat","distance":2820,"is_transit":false,"i_long":106.838896,"i_lat":-6.3080680000000005,"station_id":"TNT","time":4,"line":2},{"transit":false,"station_id":"LNA","distance":2671,"station_name":"Lenteng Agung","is_transit":false,"line":2,"i_long":106.832616,"i_lat":-6.330363,"time":3},{"is_transit":false,"i_lat":-6.339291,"transit":false,"time":2,"line":2,"i_long":106.834175,"station_name":"Univ. Pancasila","station_id":"UP","distance":1029},{"distance":2264,"time":3,"i_lat":-6.360749,"station_name":"Univ. Indonesia","transit":false,"station_id":"UI","is_transit":false,"i_long":106.831474,"line":2},{"transit":false,"line":2,"i_long":106.831114,"i_lat":-6.369073,"time":2,"station_name":"Pondok Cina","station_id":"POC","distance":1109,"is_transit":false},{"is_transit":false,"line":2,"distance":2727,"station_name":"Depokbaru","i_lat":-6.391065,"i_long":106.819451,"time":4,"transit":false,"station_id":"DPB"},{"station_id":"DP","time":3,"distance":1584,"i_lat":-6.405256,"transit":false,"station_name":"Depok","is_transit":false,"i_long":106.816926,"line":2},{"time":6,"i_long":106.800298,"station_name":"Citayam","station_id":"CTA","line":2,"i_lat":-6.448811,"distance":5084,"is_transit":true,"transit":true},{"line":21,"is_transit":false,"transit":false,"i_lat":-6.460735,"station_name":"Pondok Rajeg","distance":0,"time":0,"i_long":106.824374,"station_id":"PDRG"},{"i_lat":-6.46424,"station_id":"CBN","transit":false,"time":0,"distance":0,"is_transit":false,"i_long":106.851978,"line":21,"station_name":"Cibinong"},{"line":21,"distance":6527,"station_id":"NMO","i_lat":-6.466285,"transit":false,"time":10,"station_name":"Nambo","is_transit":false,"i_long":106.905196}],[{"line":1,"transit":false,"i_lat":-6.155215,"i_long":106.800832,"is_transit":false,"station_name":"Duri","station_id":"DU","time":0,"distance":0},{"i_long":106.79867,"time":4,"i_lat":-6.144674,"transit":false,"line":1,"distance":1230,"station_id":"AK","is_transit":false,"station_name":"Angke"},{"station_id":"KPB","time":9,"transit":true,"is_transit":true,"distance":4102,"i_long":106.826365,"line":4,"station_name":"Kampung Bandan","i_lat":-6.132549},{"transit":true,"station_name":"Jakarta Kota","time":3,"is_transit":true,"i_lat":-6.137569,"line":2,"distance":1364,"i_long":106.812439,"station_id":"JAKK"},{"transit":false,"station_id":"JAY","time":4,"distance":1264,"station_name":"Jayakarta","line":2,"i_lat":-6.141205,"is_transit":false,"i_long":106.820901},{"line":2,"is_transit":false,"time":2,"station_name":"Manggabesar","transit":false,"station_id":"MGB","i_lat":-6.149769,"i_long":106.82482,"distance":1080},{"i_long":106.827103,"is_transit":false,"station_name":"Sawah Besar","i_lat":-6.160725,"line":2,"transit":false,"time":2,"station_id":"SW","distance":906},{"i_long":106.828284,"transit":false,"is_transit":false,"station_id":"JUA","station_name":"Juanda","distance":1149,"i_lat":-6.166716,"time":2,"line":2},{"i_long":106.832183,"i_lat":-6.186295,"is_transit":false,"line":2,"transit":false,"station_id":"GDD","time":4,"station_name":"Gondangdia","distance":2015},{"station_name":"Cikini","i_lat":-6.198556,"time":3,"station_id":"CKI","is_transit":false,"distance":1750,"i_long":106.840169,"line":2,"transit":false},{"i_long":106.84912,"station_name":"Manggarai","i_lat":-6.209883,"time":4,"distance":1590,"transit":false,"line":2,"station_id":"MRI","is_transit":false},{"distance":2610,"station_id":"TEB","i_long":106.857948,"i_lat":-6.226659,"is_transit":false,"station_name":"Tebet","line":2,"transit":false,"time":4},{"i_lat":-6.242512,"is_transit":false,"station_id":"CW","transit":false,"time":2,"line":2,"station_name":"Cawang","i_long":106.856607,"distance":1230},{"line":2,"station_id":"DRN","is_transit":false,"transit":false,"distance":1546,"time":3,"station_name":"Duren Kalibata","i_lat":-6.255332,"i_long":106.85449},{"transit":false,"is_transit":false,"line":2,"i_lat":-6.263214,"time":2,"station_id":"PSMB","i_long":106.851577,"distance":824,"station_name":"Pasar Minggu Baru"},{"is_transit":false,"time":2,"distance":2380,"station_name":"Pasar Minggu","i_long":106.843999,"line":2,"station_id":"PSM","transit":false,"i_lat":-6.2842400000000005},{"time":4,"station_name":"Tanjung Barat","is_transit":false,"i_lat":-6.3080680000000005,"i_long":106.838896,"distance":2820,"line":2,"station_id":"TNT","transit":false},{"line":2,"transit":false,"is_transit":false,"i_lat":-6.330363,"distance":2671,"station_id":"LNA","time":3,"station_name":"Lenteng Agung","i_long":106.832616},{"station_name":"Univ. Pancasila","transit":false,"time":2,"is_transit":false,"line":2,"i_lat":-6.339291,"i_long":106.834175,"distance":1029,"station_id":"UP"},{"is_transit":false,"station_name":"Univ. Indonesia","i_lat":-6.360749,"time":3,"line":2,"transit":false,"distance":2264,"i_long":106.831474,"station_id":"UI"},{"distance":1109,"i_long":106.831114,"line":2,"station_name":"Pondok Cina","transit":false,"time":2,"is_transit":false,"i_lat":-6.369073,"station_id":"POC"},{"distance":2727,"station_name":"Depokbaru","time":4,"transit":false,"station_id":"DPB","line":2,"i_lat":-6.391065,"i_long":106.819451,"is_transit":false},{"i_long":106.816926,"line":2,"distance":1584,"transit":false,"station_id":"DP","station_name":"Depok","time":3,"is_transit":false,"i_lat":-6.405256},{"transit":true,"distance":5084,"is_transit":true,"time":6,"station_name":"Citayam","i_long":106.800298,"line":2,"station_id":"CTA","i_lat":-6.448811},{"i_long":106.824374,"station_id":"PDRG","time":0,"i_lat":-6.460735,"distance":0,"station_name":"Pondok Rajeg","line":21,"is_transit":false,"transit":false},{"time":0,"distance":0,"i_long":106.851978,"i_lat":-6.46424,"is_transit":false,"transit":false,"line":21,"station_id":"CBN","station_name":"Cibinong"},{"transit":false,"is_transit":false,"line":21,"i_lat":-6.466285,"station_id":"NMO","time":10,"station_name":"Nambo","distance":6527,"i_long":106.905196}],[{"i_lat":-6.155215,"transit":false,"distance":0,"line":1,"station_id":"DU","is_transit":false,"station_name":"Duri","time":0,"i_long":106.800832},{"i_lat":-6.144674,"line":1,"transit":false,"station_id":"AK","time":4,"i_long":106.79867,"distance":1230,"station_name":"Angke","is_transit":false},{"station_id":"KPB","transit":true,"time":9,"i_long":106.826365,"line":4,"i_lat":-6.132549,"distance":4102,"is_transit":true,"station_name":"Kampung Bandan"},{"time":3,"i_long":106.836569,"distance":1444,"is_transit":false,"station_name":"Rajawali","transit":false,"i_lat":-6.14505,"station_id":"RJW","line":11},{"station_name":"Kemayoran","time":5,"distance":1901,"is_transit":false,"transit":false,"station_id":"KMO","i_lat":-6.161728,"i_long":106.839204,"line":11},{"i_long":106.84368,"time":4,"station_name":"Pasar Senen","line":11,"transit":false,"distance":1436,"i_lat":-6.174784,"is_transit":false,"station_id":"PSE"},{"time":8,"line":11,"station_id":"GST","transit":false,"distance":1567,"i_long":106.850107,"i_lat":-6.185975,"station_name":"Gang Sentiong","is_transit":false},{"station_id":"KMT","i_long":106.855437,"line":11,"time":1,"distance":973,"i_lat":-6.193792,"transit":false,"is_transit":false,"station_name":"Kramat"},{"time":2,"station_name":"Pondok Jati","transit":false,"i_long":106.861737,"line":11,"is_transit":false,"i_lat":-6.209188,"station_id":"POK","distance":1829},{"time":9,"station_id":"JNG","transit":true,"i_long":106.86807400000001,"i_lat":-6.215091,"line":1,"is_transit":true,"distance":1236,"station_name":"Jatinegara"},{"i_lat":-6.212485,"line":1,"is_transit":false,"i_long":106.858896,"station_id":"MTR","station_name":"Matraman","time":2,"distance":1377,"transit":false},{"distance":1275,"station_id":"MRI","station_name":"Manggarai","transit":true,"i_long":106.84912,"time":2,"is_transit":true,"line":2,"i_lat":-6.209883},{"i_lat":-6.226659,"i_long":106.857948,"transit":false,"distance":2610,"time":4,"station_name":"Tebet","is_transit":false,"line":2,"station_id":"TEB"},{"i_long":106.856607,"station_name":"Cawang","i_lat":-6.242512,"line":2,"transit":false,"is_transit":false,"station_id":"CW","time":2,"distance":1230},{"time":3,"distance":1546,"is_transit":false,"i_lat":-6.255332,"station_name":"Duren Kalibata","station_id":"DRN","transit":false,"i_long":106.85449,"line":2},{"transit":false,"i_lat":-6.263214,"distance":824,"i_long":106.851577,"station_name":"Pasar Minggu Baru","time":2,"is_transit":false,"line":2,"station_id":"PSMB"},{"is_transit":false,"transit":false,"station_id":"PSM","time":2,"distance":2380,"i_lat":-6.2842400000000005,"station_name":"Pasar Minggu","i_long":106.843999,"line":2},{"time":4,"transit":false,"i_long":106.838896,"line":2,"is_transit":false,"station_id":"TNT","station_name":"Tanjung Barat","distance":2820,"i_lat":-6.3080680000000005},{"station_name":"Lenteng Agung","is_transit":false,"transit":false,"i_lat":-6.330363,"station_id":"LNA","i_long":106.832616,"line":2,"distance":2671,"time":3},{"station_name":"Univ. Pancasila","is_transit":false,"transit":false,"time":2,"distance":1029,"i_lat":-6.339291,"i_long":106.834175,"line":2,"station_id":"UP"},{"is_transit":false,"station_id":"UI","transit":false,"station_name":"Univ. Indonesia","distance":2264,"i_long":106.831474,"line":2,"time":3,"i_lat":-6.360749},{"time":2,"station_name":"Pondok Cina","i_lat":-6.369073,"station_id":"POC","line":2,"distance":1109,"is_transit":false,"i_long":106.831114,"transit":false},{"station_name":"Depokbaru","is_transit":false,"i_lat":-6.391065,"line":2,"distance":2727,"time":4,"i_long":106.819451,"station_id":"DPB","transit":false},{"time":3,"line":2,"is_transit":false,"transit":false,"i_lat":-6.405256,"station_name":"Depok","i_long":106.816926,"distance":1584,"station_id":"DP"},{"line":2,"time":6,"distance":5084,"i_lat":-6.448811,"station_id":"CTA","transit":true,"station_name":"Citayam","is_transit":true,"i_long":106.800298},{"i_long":106.824374,"station_id":"PDRG","station_name":"Pondok Rajeg","transit":false,"time":0,"i_lat":-6.460735,"line":21,"is_transit":false,"distance":0},{"i_lat":-6.46424,"transit":false,"is_transit":false,"i_long":106.851978,"time":0,"station_id":"CBN","line":21,"station_name":"Cibinong","distance":0},{"i_lat":-6.466285,"i_long":106.905196,"station_name":"Nambo","station_id":"NMO","transit":false,"time":10,"distance":6527,"line":21,"is_transit":false}]]}