{"data":[[{"i_lat":-6.155215,"line":1,"is_transit":true,"station_id":"DU","i_long":106.800832,"transit":false,"station_name":"Duri","time":0,"distance":0},{"i_lat":-6.185545,"line":1,"i_long":106.811091,"distance":3632,"station_id":"THB","station_name":"Tanah Abang","transit":false,"time":8,"is_transit":true},{"i_long":106.816351,"distance":2029,"line":1,"time":5,"transit":false,"station_id":"KAT","is_transit":false,"i_lat":-6.20132,"station_name":"Karet"},{"is_transit":false,"i_long":106.819881,"transit":false,"time":1,"line":1,"distance":471,"i_lat":-6.201433,"station_name":"Sudirman Baru","station_id":"SUDB"},{"station_name":"Sudirman","station_id":"SUD","is_transit":false,"i_long":106.822649,"transit":false,"distance":280,"time":1,"line":1,"i_lat":-6.202263},{"i_long":106.84912,"station_name":"Manggarai","distance":3186,"i_lat":-6.209883,"station_id":"MRI","time":4,"line":0,"is_transit":true,"transit":true},{"station_id":"TEB","line":2,"is_transit":false,"transit":false,"time":4,"i_long":106.857948,"station_name":"Tebet","distance":2610,"i_lat":-6.226659},{"distance":1230,"i_lat":-6.242512,"transit":false,"is_transit":false,"line":0,"station_name":"Cawang","station_id":"CW","time":2,"i_long":106.856607},{"distance":1546,"station_name":"Duren Kalibata","time":3,"line":0,"is_transit":false,"i_lat":-6.255332,"i_long":106.85449,"transit":false,"station_id":"DRN"},{"station_name":"Pasar Minggu Baru","distance":824,"time":2,"is_transit":false,"line":2,"transit":false,"i_long":106.851577,"station_id":"PSMB","i_lat":-6.263214},{"i_long":106.843999,"distance":2380,"transit":false,"line":2,"i_lat":-6.2842400000000005,"is_transit":false,"station_id":"PSM","time":2,"station_name":"Pasar Minggu"},{"line":2,"station_id":"TNT","station_name":"Tanjung Barat","is_transit":false,"distance":2820,"i_lat":-6.3080680000000005,"time":4,"transit":false,"i_long":106.838896},{"line":2,"transit":false,"is_transit":false,"station_id":"LNA","i_lat":-6.330363,"time":3,"i_long":106.832616,"distance":2671,"station_name":"Lenteng Agung"},{"distance":1029,"is_transit":false,"station_id":"UP","line":2,"i_long":106.834175,"transit":false,"time":2,"station_name":"Univ. Pancasila","i_lat":-6.339291},{"transit":false,"distance":2264,"station_id":"UI","is_transit":false,"station_name":"Univ. Indonesia","time":3,"i_long":106.831474,"line":2,"i_lat":-6.360749},{"time":2,"is_transit":false,"station_id":"POC","i_long":106.831114,"line":2,"i_lat":-6.369073,"transit":false,"station_name":"Pondok Cina","distance":1109},{"station_id":"DPB","time":4,"i_long":106.819451,"station_name":"Depokbaru","line":0,"distance":2727,"is_transit":false,"i_lat":-6.391065,"transit":false},{"line":0,"transit":false,"is_transit":false,"station_id":"DP","distance":1584,"time":3,"station_name":"Depok","i_lat":-6.405256,"i_long":106.816926},{"time":6,"is_transit":true,"line":1,"i_long":106.800298,"transit":false,"i_lat":-6.448811,"station_id":"CTA","station_name":"Citayam","distance":5084},{"station_id":"CBN","station_name":"Cibinong","i_lat":-6.46424,"i_long":106.851978,"distance":6740,"transit":false,"line":0,"is_transit":false,"time":10},{"distance":6527,"transit":false,"station_id":"NMO","station_name":"Nambo","time":10,"i_lat":-6.466285,"i_long":106.905196,"is_transit":false,"line":21}],[{"time":0,"is_transit":true,"i_long":106.800832,"line":1,"i_lat":-6.155215,"station_name":"Duri","distance":0,"transit":false,"station_id":"DU"},{"station_id":"AK","i_long":106.79867,"line":0,"i_lat":-6.144674,"is_transit":false,"distance":1230,"time":4,"transit":false,"station_name":"Angke"},{"is_transit":true,"distance":4102,"station_name":"Kampung Bandan","transit":false,"time":9,"line":0,"i_long":106.826365,"i_lat":-6.132549,"station_id":"KPB"},{"transit":true,"station_name":"Jakarta Kota","time":3,"line":0,"distance":1364,"station_id":"JAKK","i_lat":-6.137569,"is_transit":true,"i_long":106.812439},{"transit":false,"station_name":"Jayakarta","time":4,"i_lat":-6.141205,"i_long":106.820901,"station_id":"JAY","line":7,"is_transit":false,"distance":1264},{"transit":false,"is_transit":false,"i_lat":-6.149769,"station_name":"Manggabesar","i_long":106.82482,"line":2,"station_id":"MGB","time":2,"distance":1080},{"station_name":"Sawah Besar","transit":false,"distance":906,"line":2,"time":2,"i_lat":-6.160725,"is_transit":false,"i_long":106.827103,"station_id":"SW"},{"distance":1149,"transit":false,"i_long":106.828284,"station_name":"Juanda","time":2,"i_lat":-6.166716,"station_id":"JUA","line":2,"is_transit":false},{"i_lat":-6.186295,"station_name":"Gondangdia","i_long":106.832183,"transit":false,"station_id":"GDD","is_transit":false,"distance":2015,"line":2,"time":4},{"time":3,"station_id":"CKI","i_long":106.840169,"station_name":"Cikini","distance":1750,"is_transit":false,"i_lat":-6.198556,"line":0,"transit":false},{"is_transit":true,"transit":true,"station_name":"Manggarai","i_lat":-6.209883,"line":0,"i_long":106.84912,"distance":1590,"time":4,"station_id":"MRI"},{"distance":2610,"transit":false,"station_id":"TEB","time":4,"i_lat":-6.226659,"is_transit":false,"i_long":106.857948,"line":2,"station_name":"Tebet"},{"is_transit":false,"distance":1230,"transit":false,"time":2,"station_name":"Cawang","i_lat":-6.242512,"line":0,"i_long":106.856607,"station_id":"CW"},{"is_transit":false,"station_name":"Duren Kalibata","i_long":106.85449,"distance":1546,"line":0,"station_id":"DRN","time":3,"i_lat":-6.255332,"transit":false},{"station_id":"PSMB","i_lat":-6.263214,"distance":824,"station_name":"Pasar Minggu Baru","transit":false,"time":2,"is_transit":false,"line":2,"i_long":106.851577},{"i_long":106.843999,"is_transit":false,"time":2,"station_id":"PSM","i_lat":-6.2842400000000005,"transit":false,"station_name":"Pasar Minggu","distance":2380,"line":2},{"time":4,"transit":false,"i_lat":-6.3080680000000005,"line":2,"station_id":"TNT","is_transit":false,"i_long":106.838896,"station_name":"Tanjung Barat","distance":2820},{"i_lat":-6.330363,"transit":false,"time":3,"station_name":"Lenteng Agung","is_transit":false,"distance":2671,"i_long":106.832616,"station_id":"LNA","line":2},{"transit":false,"line":2,"station_id":"UP","i_lat":-6.339291,"time":2,"distance":1029,"i_long":106.834175,"station_name":"Univ. Pancasila","is_transit":false},{"transit":false,"station_id":"UI","station_name":"Univ. Indonesia","is_transit":false,"i_long":106.831474,"distance":2264,"time":3,"line":2,"i_lat":-6.360749},{"line":2,"is_transit":false,"station_id":"POC","station_name":"Pondok Cina","transit":false,"time":2,"i_long":106.831114,"distance":1109,"i_lat":-6.369073},{"line":0,"transit":false,"station_id":"DPB","station_name":"Depokbaru","distance":2727,"i_lat":-6.391065,"is_transit":false,"time":4,"i_long":106.819451},{"station_id":"DP","is_transit":false,"distance":1584,"transit":false,"time":3,"i_lat":-6.405256,"line":0,"station_name":"Depok","i_long":106.816926},{"station_id":"CTA","station_name":"Citayam","i_long":106.800298,"i_lat":-6.448811,"distance":5084,"is_transit":true,"time":6,"line":1,"transit":false},{"station_id":"CBN","station_name":"Cibinong","i_long":106.851978,"distance":6740,"time":10,"i_lat":-6.46424,"is_transit":false,"line":0,"transit":false},{"station_name":"Nambo","transit":false,"i_long":106.905196,"time":10,"i_lat":-6.466285,"station_id":"NMO","line":21,"is_transit":false,"distance":6527}],[{"station_id":"DU","i_long":106.800832,"line":1,"station_name":"Duri","transit":false,"i_lat":-6.155215,"distance":0,"time":0,"is_transit":true},{"i_lat":-6.144674,"time":4,"station_name":"Angke","distance":1230,"i_long":106.79867,"line":0,"station_id":"AK","is_transit":false,"transit":false},{"line":0,"station_id":"KPB","is_transit":true,"i_lat":-6.132549,"i_long":106.826365,"transit":true,"station_name":"Kampung Bandan","distance":4102,"time":9},{"station_name":"Rajawali","line":11,"transit":false,"i_lat":-6.14505,"is_transit":false,"i_long":106.836569,"time":3,"distance":1444,"station_id":"RJW"},{"is_transit":false,"station_name":"Kemayoran","distance":1901,"time":5,"i_lat":-6.161728,"i_long":106.839204,"line":11,"transit":false,"station_id":"KMO"},{"station_name":"Pasar Senen","distance":1436,"i_long":106.84368,"line":11,"i_lat":-6.174784,"time":4,"station_id":"PSE","is_transit":false,"transit":false},{"station_name":"Gang Sentiong","distance":1567,"station_id":"GST","time":8,"i_long":106.850107,"is_transit":false,"transit":false,"line":11,"i_lat":-6.185975},{"i_lat":-6.193792,"distance":973,"line":11,"station_name":"Kramat","time":1,"is_transit":false,"station_id":"KMT","transit":false,"i_long":106.855437},{"i_long":106.861737,"i_lat":-6.209188,"station_id":"POK","station_name":"Pondok Jati","is_transit":false,"line":11,"distance":1829,"time":2,"transit":false},{"station_name":"Jatinegara","line":0,"is_transit":true,"transit":true,"time":9,"i_lat":-6.215091,"i_long":106.86807400000001,"station_id":"JNG","distance":1236},{"transit":false,"time":2,"i_lat":-6.212485,"is_transit":false,"station_id":"MTR","station_name":"Matraman","i_long":106.858896,"distance":1377,"line":1},{"is_transit":true,"transit":true,"station_id":"MRI","time":2,"line":0,"distance":1275,"i_lat":-6.209883,"i_long":106.84912,"station_name":"Manggarai"},{"time":4,"is_transit":false,"distance":2610,"transit":false,"i_lat":-6.226659,"line":2,"i_long":106.857948,"station_id":"TEB","station_name":"Tebet"},{"distance":1230,"time":2,"transit":false,"station_name":"Cawang","station_id":"CW","i_long":106.856607,"is_transit":false,"i_lat":-6.242512,"line":0},{"line":0,"distance":1546,"station_name":"Duren Kalibata","i_long":106.85449,"i_lat":-6.255332,"is_transit":false,"transit":false,"station_id":"DRN","time":3},{"is_transit":false,"i_long":106.851577,"transit":false,"i_lat":-6.263214,"station_name":"Pasar Minggu Baru","line":2,"station_id":"PSMB","time":2,"distance":824},{"is_transit":false,"time":2,"station_name":"Pasar Minggu","distance":2380,"line":2,"i_lat":-6.2842400000000005,"transit":false,"i_long":106.843999,"station_id":"PSM"},{"distance":2820,"i_long":106.838896,"i_lat":-6.3080680000000005,"is_transit":false,"line":2,"station_id":"TNT","time":4,"station_name":"Tanjung Barat","transit":false},{"i_long":106.832616,"i_lat":-6.330363,"time":3,"station_name":"Lenteng Agung","transit":false,"station_id":"LNA","line":2,"is_transit":false,"distance":2671},{"i_lat":-6.339291,"is_transit":false,"transit":false,"line":2,"station_name":"Univ. Pancasila","i_long":106.834175,"station_id":"UP","distance":1029,"time":2},{"i_lat":-6.360749,"i_long":106.831474,"station_id":"UI","station_name":"Univ. Indonesia","transit":false,"time":3,"line":2,"is_transit":false,"distance":2264},{"i_long":106.831114,"distance":1109,"transit":false,"station_name":"Pondok Cina","time":2,"station_id":"POC","i_lat":-6.369073,"line":2,"is_transit":false},{"station_id":"DPB","is_transit":false,"time":4,"i_lat":-6.391065,"station_name":"Depokbaru","i_long":106.819451,"distance":2727,"transit":false,"line":0},{"transit":false,"station_id":"DP","station_name":"Depok","is_transit":false,"distance":1584,"time":3,"i_long":106.816926,"line":0,"i_lat":-6.405256},{"line":1,"time":6,"distance":5084,"station_name":"Citayam","is_transit":true,"transit":false,"i_lat":-6.448811,"i_long":106.800298,"station_id":"CTA"},{"i_lat":-6.46424,"transit":false,"line":0,"station_id":"CBN","is_transit":false,"time":10,"station_name":"Cibinong","i_long":106.851978,"distance":6740},{"station_name":"Nambo","distance":6527,"time":10,"station_id":"NMO","transit":false,"i_lat":-6.466285,"line":21,"i_long":106.905196,"is_transit":false}]]}