{"data":[[{"i_long":106.800832,"line":1,"station_name":"Duri","station_id":"DU","transit":false,"is_transit":false,"time":0,"distance":0,"i_lat":-6.155215},{"is_transit":false,"i_lat":-6.185545,"station_name":"Tanah Abang","time":8,"i_long":106.811091,"distance":3632,"line":1,"transit":false,"station_id":"THB"},{"distance":2029,"i_long":106.816351,"time":5,"i_lat":-6.20132,"line":1,"station_name":"Karet","transit":false,"is_transit":false,"station_id":"KAT"},{"i_long":106.819881,"i_lat":-6.201433,"is_transit":false,"station_name":"Sudirman Baru","station_id":"SUDB","transit":false,"distance":471,"line":1,"time":1},{"distance":280,"is_transit":false,"station_name":"Sudirman","i_long":106.822649,"line":1,"i_lat":-6.202263,"transit":false,"station_id":"SUD","time":1},{"i_long":106.84912,"transit":true,"distance":3186,"station_name":"Manggarai","station_id":"MRI","line":2,"i_lat":-6.209883,"is_transit":true,"time":4},{"time":4,"is_transit":false,"i_lat":-6.226659,"line":2,"station_id":"TEB","i_long":106.857948,"distance":2610,"transit":false,"station_name":"Tebet"},{"transit":false,"station_name":"Cawang","time":2,"i_long":106.856607,"distance":1230,"is_transit":false,"station_id":"CW","i_lat":-6.242512,"line":2},{"i_long":106.85449,"station_name":"Duren Kalibata","i_lat":-6.255332,"station_id":"DRN","line":2,"time":3,"is_transit":false,"distance":1546,"transit":false},{"is_transit":false,"distance":824,"line":2,"station_id":"PSMB","time":2,"i_long":106.851577,"i_lat":-6.263214,"station_name":"Pasar Minggu Baru","transit":false},{"station_id":"PSM","time":2,"station_name":"Pasar Minggu","is_transit":false,"transit":false,"distance":2380,"i_lat":-6.2842400000000005,"line":2,"i_long":106.843999},{"i_long":106.838896,"time":4,"is_transit":false,"transit":false,"station_name":"Tanjung Barat","station_id":"TNT","line":2,"distance":2820,"i_lat":-6.3080680000000005},{"line":2,"station_id":"LNA","distance":2671,"i_lat":-6.330363,"is_transit":false,"time":3,"transit":false,"i_long":106.832616,"station_name":"Lenteng Agung"},{"distance":1029,"station_name":"Univ. Pancasila","time":2,"transit":false,"station_id":"UP","i_lat":-6.339291,"is_transit":false,"i_long":106.834175,"line":2},{"i_lat":-6.360749,"station_id":"UI","transit":false,"distance":2264,"time":3,"is_transit":false,"i_long":106.831474,"line":2,"station_name":"Univ. Indonesia"},{"distance":1109,"transit":false,"station_name":"Pondok Cina","station_id":"POC","is_transit":false,"time":2,"i_long":106.831114,"i_lat":-6.369073,"line":2},{"distance":2727,"station_id":"DPB","i_long":106.819451,"transit":false,"time":4,"line":2,"is_transit":false,"i_lat":-6.391065,"station_name":"Depokbaru"},{"transit":false,"i_lat":-6.405256,"time":3,"station_name":"Depok","line":2,"is_transit":false,"distance":1584,"i_long":106.816926,"station_id":"DP"},{"transit":true,"distance":5084,"station_id":"CTA","line":2,"station_name":"Citayam","is_transit":true,"i_lat":-6.448811,"i_long":106.800298,"time":6},{"station_name":"Pondok Rajeg","distance":0,"line":21,"station_id":"PDRG","time":0,"is_transit":false,"i_lat":-6.460735,"i_long":106.824374,"transit":false},{"station_id":"CBN","time":0,"transit":false,"line":21,"i_lat":-6.46424,"is_transit":false,"station_name":"Cibinong","distance":0,"i_long":106.851978},{"station_name":"Nambo","station_id":"NMO","time":10,"line":21,"i_lat":-6.466285,"distance":6527,"transit":false,"is_transit":false,"i_long":106.905196}],[{"transit":false,"station_name":"Duri","time":0,"i_lat":-6.155215,"line":1,"distance":0,"station_id":"DU","i_long":106.800832,"is_transit":false},{"line":1,"time":4,"transit":false,"is_transit":false,"i_long":106.79867,"station_name":"Angke","i_lat":-6.144674,"distance":1230,"station_id":"AK"},{"time":9,"i_lat":-6.132549,"station_id":"KPB","line":4,"transit":true,"i_long":106.826365,"is_transit":true,"distance":4102,"station_name":"Kampung Bandan"},{"is_transit":true,"time":3,"i_lat":-6.137569,"station_id":"JAKK","i_long":106.812439,"line":2,"distance":1364,"transit":true,"station_name":"Jakarta Kota"},{"is_transit":false,"i_lat":-6.141205,"station_name":"Jayakarta","transit":false,"time":4,"distance":1264,"station_id":"JAY","i_long":106.820901,"line":2},{"transit":false,"is_transit":false,"station_id":"MGB","i_long":106.82482,"line":2,"i_lat":-6.149769,"distance":1080,"station_name":"Manggabesar","time":2},{"transit":false,"station_id":"SW","time":2,"line":2,"is_transit":false,"i_lat":-6.160725,"i_long":106.827103,"station_name":"Sawah Besar","distance":906},{"i_lat":-6.166716,"distance":1149,"time":2,"is_transit":false,"station_id":"JUA","i_long":106.828284,"station_name":"Juanda","line":2,"transit":false},{"is_transit":false,"line":2,"i_long":106.832183,"i_lat":-6.186295,"transit":false,"station_id":"GDD","distance":2015,"station_name":"Gondangdia","time":4},{"station_id":"CKI","line":2,"transit":false,"is_transit":false,"distance":1750,"i_lat":-6.198556,"time":3,"station_name":"Cikini","i_long":106.840169},{"transit":false,"station_id":"MRI","is_transit":false,"distance":1590,"line":2,"time":4,"station_name":"Manggarai","i_lat":-6.209883,"i_long":106.84912},{"is_transit":false,"i_lat":-6.226659,"line":2,"station_name":"Tebet","i_long":106.857948,"station_id":"TEB","transit":false,"time":4,"distance":2610},{"station_name":"Cawang","station_id":"CW","time":2,"distance":1230,"i_long":106.856607,"i_lat":-6.242512,"transit":false,"line":2,"is_transit":false},{"station_id":"DRN","station_name":"Duren Kalibata","time":3,"i_long":106.85449,"distance":1546,"line":2,"is_transit":false,"i_lat":-6.255332,"transit":false},{"i_long":106.851577,"distance":824,"transit":false,"station_name":"Pasar Minggu Baru","line":2,"station_id":"PSMB","time":2,"i_lat":-6.263214,"is_transit":false},{"i_long":106.843999,"line":2,"time":2,"station_id":"PSM","distance":2380,"transit":false,"station_name":"Pasar Minggu","i_lat":-6.2842400000000005,"is_transit":false},{"i_lat":-6.3080680000000005,"distance":2820,"is_transit":false,"time":4,"station_name":"Tanjung Barat","transit":false,"station_id":"TNT","i_long":106.838896,"line":2},{"station_id":"LNA","i_long":106.832616,"station_name":"Lenteng Agung","time":3,"transit":false,"i_lat":-6.330363,"is_transit":false,"line":2,"distance":2671},{"distance":1029,"i_lat":-6.339291,"is_transit":false,"i_long":106.834175,"transit":false,"station_name":"Univ. Pancasila","time":2,"line":2,"station_id":"UP"},{"station_id":"UI","i_lat":-6.360749,"time":3,"is_transit":false,"station_name":"Univ. Indonesia","i_long":106.831474,"transit":false,"line":2,"distance":2264},{"is_transit":false,"distance":1109,"time":2,"i_long":106.831114,"transit":false,"station_id":"POC","line":2,"i_lat":-6.369073,"station_name":"Pondok Cina"},{"station_id":"DPB","transit":false,"is_transit":false,"distance":2727,"line":2,"time":4,"station_name":"Depokbaru","i_lat":-6.391065,"i_long":106.819451},{"i_long":106.816926,"transit":false,"line":2,"i_lat":-6.405256,"station_id":"DP","station_name":"Depok","is_transit":false,"distance":1584,"time":3},{"station_name":"Citayam","station_id":"CTA","i_lat":-6.448811,"i_long":106.800298,"line":2,"time":6,"transit":true,"is_transit":true,"distance":5084},{"i_lat":-6.460735,"line":21,"station_name":"Pondok Rajeg","station_id":"PDRG","time":0,"transit":false,"i_long":106.824374,"is_transit":false,"distance":0},{"transit":false,"i_long":106.851978,"station_id":"CBN","time":0,"distance":0,"i_lat":-6.46424,"station_name":"Cibinong","is_transit":false,"line":21},{"distance":6527,"time":10,"line":21,"station_id":"NMO","i_lat":-6.466285,"transit":false,"station_name":"Nambo","is_transit":false,"i_long":106.905196}],[{"station_id":"DU","is_transit":false,"distance":0,"i_long":106.800832,"transit":false,"i_lat":-6.155215,"line":1,"station_name":"Duri","time":0},{"distance":1230,"transit":false,"station_name":"Angke","line":1,"is_transit":false,"station_id":"AK","i_long":106.79867,"time":4,"i_lat":-6.144674},{"distance":4102,"i_lat":-6.132549,"is_transit":true,"line":4,"station_name":"Kampung Bandan","transit":true,"i_long":106.826365,"station_id":"KPB","time":9},{"i_lat":-6.14505,"line":11,"station_id":"RJW","time":3,"transit":false,"is_transit":false,"station_name":"Rajawali","distance":1444,"i_long":106.836569},{"station_name":"Kemayoran","line":11,"i_lat":-6.161728,"i_long":106.839204,"time":5,"transit":false,"station_id":"KMO","distance":1901,"is_transit":false},{"i_long":106.84368,"time":4,"station_name":"Pasar Senen","transit":false,"station_id":"PSE","distance":1436,"line":11,"is_transit":false,"i_lat":-6.174784},{"time":8,"is_transit":false,"station_name":"Gang Sentiong","transit":false,"i_lat":-6.185975,"line":11,"station_id":"GST","i_long":106.850107,"distance":1567},{"i_long":106.855437,"distance":973,"line":11,"station_name":"Kramat","station_id":"KMT","time":1,"i_lat":-6.193792,"is_transit":false,"transit":false},{"distance":1829,"transit":false,"time":2,"i_long":106.861737,"station_name":"Pondok Jati","line":11,"is_transit":false,"station_id":"POK","i_lat":-6.209188},{"i_long":106.86807400000001,"station_name":"Jatinegara","is_transit":true,"transit":true,"distance":1236,"i_lat":-6.215091,"line":1,"time":9,"station_id":"JNG"},{"i_lat":-6.212485,"time":2,"line":1,"i_long":106.858896,"station_name":"Matraman","distance":1377,"station_id":"MTR","is_transit":false,"transit":false},{"is_transit":true,"line":2,"station_name":"Manggarai","time":2,"i_long":106.84912,"transit":true,"i_lat":-6.209883,"distance":1275,"station_id":"MRI"},{"station_id":"TEB","i_lat":-6.226659,"line":2,"station_name":"Tebet","time":4,"is_transit":false,"transit":false,"distance":2610,"i_long":106.857948},{"is_transit":false,"line":2,"distance":1230,"i_lat":-6.242512,"i_long":106.856607,"time":2,"station_name":"Cawang","transit":false,"station_id":"CW"},{"i_long":106.85449,"time":3,"station_name":"Duren Kalibata","station_id":"DRN","i_lat":-6.255332,"line":2,"is_transit":false,"distance":1546,"transit":false},{"i_lat":-6.263214,"is_transit":false,"transit":false,"station_name":"Pasar Minggu Baru","station_id":"PSMB","line":2,"i_long":106.851577,"time":2,"distance":824},{"i_lat":-6.2842400000000005,"i_long":106.843999,"station_name":"Pasar Minggu","time":2,"transit":false,"is_transit":false,"station_id":"PSM","line":2,"distance":2380},{"i_long":106.838896,"station_id":"TNT","transit":false,"time":4,"is_transit":false,"distance":2820,"line":2,"station_name":"Tanjung Barat","i_lat":-6.3080680000000005},{"time":3,"i_lat":-6.330363,"i_long":106.832616,"transit":false,"station_id":"LNA","station_name":"Lenteng Agung","distance":2671,"is_transit":false,"line":2},{"i_lat":-6.339291,"station_id":"UP","line":2,"is_transit":false,"i_long":106.834175,"station_name":"Univ. Pancasila","transit":false,"time":2,"distance":1029},{"transit":false,"station_name":"Univ. Indonesia","is_transit":false,"distance":2264,"station_id":"UI","i_long":106.831474,"line":2,"time":3,"i_lat":-6.360749},{"is_transit":false,"distance":1109,"transit":false,"i_lat":-6.369073,"i_long":106.831114,"line":2,"station_id":"POC","station_name":"Pondok Cina","time":2},{"distance":2727,"transit":false,"station_id":"DPB","i_long":106.819451,"line":2,"i_lat":-6.391065,"is_transit":false,"station_name":"Depokbaru","time":4},{"station_name":"Depok","i_long":106.816926,"distance":1584,"is_transit":false,"transit":false,"line":2,"time":3,"station_id":"DP","i_lat":-6.405256},{"station_name":"Citayam","transit":true,"distance":5084,"time":6,"is_transit":true,"i_long":106.800298,"line":2,"station_id":"CTA","i_lat":-6.448811},{"distance":0,"i_lat":-6.460735,"station_id":"PDRG","i_long":106.824374,"line":21,"time":0,"station_name":"Pondok Rajeg","is_transit":false,"transit":false},{"is_transit":false,"station_id":"CBN","transit":false,"distance":0,"i_lat":-6.46424,"i_long":106.851978,"line":21,"station_name":"Cibinong","time":0},{"transit":false,"station_id":"NMO","i_long":106.905196,"line":21,"i_lat":-6.466285,"station_name":"Nambo","distance":6527,"is_transit":false,"time":10}]]}