{"data":[[{"line":1,"station_name":"Duri","is_transit":true,"distance":0,"time":0,"i_lat":-6.155215,"station_id":"DU","i_long":106.800832,"transit":false},{"i_lat":-6.185545,"station_name":"Tanah Abang","distance":3632,"time":8,"transit":false,"i_long":106.811091,"line":1,"station_id":"THB","is_transit":true},{"is_transit":false,"distance":2029,"line":1,"transit":false,"station_name":"Karet","i_long":106.816351,"station_id":"KAT","i_lat":-6.20132,"time":5},{"i_lat":-6.201433,"is_transit":false,"station_name":"Sudirman Baru","transit":false,"i_long":106.819881,"line":1,"station_id":"SUDB","time":1,"distance":471},{"time":1,"station_name":"Sudirman","station_id":"SUD","is_transit":false,"i_lat":-6.202263,"transit":false,"i_long":106.822649,"distance":280,"line":1},{"station_id":"MRI","is_transit":true,"station_name":"Manggarai","distance":3186,"i_lat":-6.209883,"line":0,"time":4,"transit":true,"i_long":106.84912},{"distance":2610,"station_id":"TEB","station_name":"Tebet","i_lat":-6.226659,"is_transit":false,"i_long":106.857948,"time":4,"line":2,"transit":false},{"i_long":106.856607,"is_transit":false,"time":2,"i_lat":-6.242512,"line":0,"transit":false,"distance":1230,"station_id":"CW","station_name":"Cawang"},{"i_lat":-6.255332,"station_name":"Duren Kalibata","is_transit":false,"i_long":106.85449,"line":0,"station_id":"DRN","time":3,"transit":false,"distance":1546},{"time":2,"station_name":"Pasar Minggu Baru","line":2,"transit":false,"i_lat":-6.263214,"is_transit":false,"station_id":"PSMB","i_long":106.851577,"distance":824},{"i_long":106.843999,"i_lat":-6.2842400000000005,"is_transit":false,"station_id":"PSM","time":2,"distance":2380,"transit":false,"line":2,"station_name":"Pasar Minggu"}],[{"i_long":106.800832,"station_name":"Duri","line":1,"distance":0,"transit":false,"is_transit":true,"station_id":"DU","time":0,"i_lat":-6.155215},{"station_name":"Angke","time":4,"line":0,"station_id":"AK","distance":1230,"transit":false,"is_transit":false,"i_long":106.79867,"i_lat":-6.144674},{"is_transit":true,"time":9,"station_id":"KPB","i_lat":-6.132549,"station_name":"Kampung Bandan","distance":4102,"line":0,"i_long":106.826365,"transit":false},{"is_transit":true,"station_name":"Jakarta Kota","transit":true,"time":3,"station_id":"JAKK","i_long":106.812439,"line":0,"i_lat":-6.137569,"distance":1364},{"time":4,"i_lat":-6.141205,"i_long":106.820901,"transit":false,"line":7,"is_transit":false,"station_id":"JAY","station_name":"Jayakarta","distance":1264},{"is_transit":false,"i_lat":-6.149769,"line":2,"transit":false,"station_name":"Manggabesar","distance":1080,"i_long":106.82482,"time":2,"station_id":"MGB"},{"station_id":"SW","i_lat":-6.160725,"transit":false,"is_transit":false,"station_name":"Sawah Besar","time":2,"i_long":106.827103,"line":2,"distance":906},{"station_name":"Juanda","time":2,"transit":false,"station_id":"JUA","distance":1149,"i_lat":-6.166716,"i_long":106.828284,"line":2,"is_transit":false},{"is_transit":false,"time":4,"transit":false,"station_id":"GDD","i_long":106.832183,"line":2,"station_name":"Gondangdia","distance":2015,"i_lat":-6.186295},{"station_id":"CKI","transit":false,"station_name":"Cikini","is_transit":false,"i_lat":-6.198556,"i_long":106.840169,"distance":1750,"time":3,"line":0},{"distance":1590,"line":0,"station_id":"MRI","station_name":"Manggarai","is_transit":true,"time":4,"transit":true,"i_lat":-6.209883,"i_long":106.84912},{"time":4,"transit":false,"station_name":"Tebet","i_long":106.857948,"distance":2610,"line":2,"station_id":"TEB","i_lat":-6.226659,"is_transit":false},{"time":2,"i_lat":-6.242512,"i_long":106.856607,"transit":false,"is_transit":false,"station_id":"CW","station_name":"Cawang","distance":1230,"line":0},{"i_long":106.85449,"station_id":"DRN","distance":1546,"line":0,"time":3,"is_transit":false,"transit":false,"station_name":"Duren Kalibata","i_lat":-6.255332},{"i_lat":-6.263214,"station_name":"Pasar Minggu Baru","line":2,"station_id":"PSMB","transit":false,"i_long":106.851577,"distance":824,"time":2,"is_transit":false},{"transit":false,"i_lat":-6.2842400000000005,"i_long":106.843999,"line":2,"time":2,"station_name":"Pasar Minggu","station_id":"PSM","is_transit":false,"distance":2380}],[{"distance":0,"station_id":"DU","i_lat":-6.155215,"time":0,"station_name":"Duri","transit":false,"i_long":106.800832,"is_transit":true,"line":1},{"is_transit":false,"station_name":"Angke","line":0,"station_id":"AK","i_lat":-6.144674,"transit":false,"i_long":106.79867,"time":4,"distance":1230},{"i_lat":-6.132549,"line":0,"station_name":"Kampung Bandan","station_id":"KPB","time":9,"i_long":106.826365,"is_transit":true,"distance":4102,"transit":true},{"i_long":106.836569,"i_lat":-6.14505,"transit":false,"station_id":"RJW","is_transit":false,"distance":1444,"line":11,"time":3,"station_name":"Rajawali"},{"transit":false,"line":11,"station_id":"KMO","time":5,"i_long":106.839204,"distance":1901,"is_transit":false,"i_lat":-6.161728,"station_name":"Kemayoran"},{"i_lat":-6.174784,"time":4,"distance":1436,"i_long":106.84368,"line":11,"station_id":"PSE","station_name":"Pasar Senen","is_transit":false,"transit":false},{"transit":false,"i_long":106.850107,"station_id":"GST","station_name":"Gang Sentiong","distance":1567,"i_lat":-6.185975,"is_transit":false,"line":11,"time":8},{"distance":973,"i_long":106.855437,"transit":false,"is_transit":false,"time":1,"line":11,"station_id":"KMT","i_lat":-6.193792,"station_name":"Kramat"},{"i_lat":-6.209188,"time":2,"transit":false,"station_name":"Pondok Jati","i_long":106.861737,"line":11,"station_id":"POK","distance":1829,"is_transit":false},{"time":9,"is_transit":true,"i_long":106.86807400000001,"i_lat":-6.215091,"station_name":"Jatinegara","station_id":"JNG","distance":1236,"transit":true,"line":0},{"line":1,"i_long":106.858896,"distance":1377,"transit":false,"station_name":"Matraman","station_id":"MTR","i_lat":-6.212485,"time":2,"is_transit":false},{"station_id":"MRI","i_long":106.84912,"time":2,"transit":true,"is_transit":true,"distance":1275,"line":0,"station_name":"Manggarai","i_lat":-6.209883},{"station_id":"TEB","i_lat":-6.226659,"line":2,"distance":2610,"transit":false,"is_transit":false,"i_long":106.857948,"time":4,"station_name":"Tebet"},{"station_id":"CW","line":0,"i_lat":-6.242512,"is_transit":false,"station_name":"Cawang","time":2,"distance":1230,"transit":false,"i_long":106.856607},{"station_id":"DRN","is_transit":false,"i_lat":-6.255332,"line":0,"time":3,"distance":1546,"station_name":"Duren Kalibata","transit":false,"i_long":106.85449},{"station_name":"Pasar Minggu Baru","time":2,"i_long":106.851577,"line":2,"is_transit":false,"station_id":"PSMB","i_lat":-6.263214,"transit":false,"distance":824},{"i_lat":-6.2842400000000005,"time":2,"i_long":106.843999,"is_transit":false,"station_name":"Pasar Minggu","line":2,"station_id":"PSM","distance":2380,"transit":false}]]}