{"data":[[{"time":0,"station_name":"Duri","transit":false,"line":1,"is_transit":false,"distance":0,"station_id":"DU","i_lat":-6.155215,"i_long":106.800832},{"transit":false,"line":1,"station_name":"Tanah Abang","station_id":"THB","time":8,"is_transit":false,"i_lat":-6.185545,"i_long":106.811091,"distance":3632},{"station_id":"KAT","time":5,"i_lat":-6.20132,"i_long":106.816351,"distance":2029,"is_transit":false,"transit":false,"line":1,"station_name":"Karet"},{"distance":471,"is_transit":false,"station_id":"SUDB","i_lat":-6.201433,"line":1,"station_name":"Sudirman Baru","transit":false,"time":1,"i_long":106.819881},{"i_long":106.822649,"time":1,"i_lat":-6.202263,"line":1,"station_id":"SUD","distance":280,"station_name":"Sudirman","is_transit":false,"transit":false},{"station_name":"Manggarai","line":2,"i_long":106.84912,"transit":true,"station_id":"MRI","time":4,"is_transit":true,"i_lat":-6.209883,"distance":3186},{"line":2,"station_name":"Tebet","time":4,"i_lat":-6.226659,"i_long":106.857948,"distance":2610,"is_transit":false,"transit":false,"station_id":"TEB"},{"time":2,"i_long":106.856607,"is_transit":false,"line":2,"i_lat":-6.242512,"distance":1230,"station_name":"Cawang","station_id":"CW","transit":false},{"station_name":"Duren Kalibata","time":3,"is_transit":false,"transit":false,"distance":1546,"i_lat":-6.255332,"i_long":106.85449,"station_id":"DRN","line":2},{"station_id":"PSMB","station_name":"Pasar Minggu Baru","distance":824,"time":2,"i_long":106.851577,"transit":false,"is_transit":false,"line":2,"i_lat":-6.263214},{"time":2,"i_long":106.843999,"line":2,"is_transit":false,"station_name":"Pasar Minggu","i_lat":-6.2842400000000005,"station_id":"PSM","transit":false,"distance":2380}],[{"i_lat":-6.155215,"distance":0,"station_name":"Duri","station_id":"DU","time":0,"is_transit":false,"line":1,"transit":false,"i_long":106.800832},{"time":4,"i_long":106.79867,"is_transit":false,"station_id":"AK","line":1,"station_name":"Angke","transit":false,"i_lat":-6.144674,"distance":1230},{"distance":4102,"is_transit":true,"transit":true,"station_name":"Kampung Bandan","i_lat":-6.132549,"i_long":106.826365,"time":9,"line":4,"station_id":"KPB"},{"station_id":"JAKK","i_lat":-6.137569,"distance":1364,"line":2,"i_long":106.812439,"is_transit":true,"time":3,"station_name":"Jakarta Kota","transit":true},{"time":4,"distance":1264,"station_name":"Jayakarta","i_lat":-6.141205,"line":2,"is_transit":false,"station_id":"JAY","transit":false,"i_long":106.820901},{"station_id":"MGB","station_name":"Manggabesar","distance":1080,"time":2,"is_transit":false,"transit":false,"i_lat":-6.149769,"i_long":106.82482,"line":2},{"transit":false,"distance":906,"station_name":"Sawah Besar","line":2,"is_transit":false,"i_lat":-6.160725,"time":2,"i_long":106.827103,"station_id":"SW"},{"time":2,"station_name":"Juanda","i_long":106.828284,"i_lat":-6.166716,"distance":1149,"station_id":"JUA","line":2,"is_transit":false,"transit":false},{"line":2,"distance":2015,"time":4,"i_lat":-6.186295,"i_long":106.832183,"station_name":"Gondangdia","is_transit":false,"transit":false,"station_id":"GDD"},{"is_transit":false,"distance":1750,"station_id":"CKI","time":3,"station_name":"Cikini","transit":false,"i_lat":-6.198556,"i_long":106.840169,"line":2},{"station_id":"MRI","line":2,"i_long":106.84912,"i_lat":-6.209883,"time":4,"transit":false,"distance":1590,"station_name":"Manggarai","is_transit":false},{"i_lat":-6.226659,"station_name":"Tebet","distance":2610,"i_long":106.857948,"time":4,"line":2,"station_id":"TEB","is_transit":false,"transit":false},{"time":2,"i_lat":-6.242512,"distance":1230,"station_name":"Cawang","i_long":106.856607,"station_id":"CW","is_transit":false,"transit":false,"line":2},{"line":2,"i_lat":-6.255332,"i_long":106.85449,"station_id":"DRN","station_name":"Duren Kalibata","transit":false,"time":3,"is_transit":false,"distance":1546},{"distance":824,"time":2,"line":2,"station_id":"PSMB","i_lat":-6.263214,"i_long":106.851577,"is_transit":false,"station_name":"Pasar Minggu Baru","transit":false},{"is_transit":false,"i_lat":-6.2842400000000005,"station_name":"Pasar Minggu","transit":false,"distance":2380,"station_id":"PSM","i_long":106.843999,"time":2,"line":2}],[{"is_transit":false,"transit":false,"station_id":"DU","i_long":106.800832,"time":0,"i_lat":-6.155215,"distance":0,"line":1,"station_name":"Duri"},{"is_transit":false,"time":4,"i_lat":-6.144674,"station_id":"AK","i_long":106.79867,"station_name":"Angke","line":1,"distance":1230,"transit":false},{"i_long":106.826365,"station_id":"KPB","is_transit":true,"transit":true,"time":9,"distance":4102,"i_lat":-6.132549,"station_name":"Kampung Bandan","line":4},{"station_id":"RJW","transit":false,"line":11,"is_transit":false,"i_long":106.836569,"i_lat":-6.14505,"distance":1444,"station_name":"Rajawali","time":3},{"i_long":106.839204,"transit":false,"i_lat":-6.161728,"line":11,"time":5,"distance":1901,"is_transit":false,"station_id":"KMO","station_name":"Kemayoran"},{"time":4,"station_name":"Pasar Senen","distance":1436,"i_lat":-6.174784,"is_transit":false,"transit":false,"i_long":106.84368,"line":11,"station_id":"PSE"},{"i_lat":-6.185975,"line":11,"station_name":"Gang Sentiong","is_transit":false,"transit":false,"station_id":"GST","distance":1567,"time":8,"i_long":106.850107},{"station_id":"KMT","transit":false,"time":1,"i_lat":-6.193792,"line":11,"is_transit":false,"distance":973,"station_name":"Kramat","i_long":106.855437},{"station_id":"POK","is_transit":false,"distance":1829,"i_lat":-6.209188,"transit":false,"i_long":106.861737,"line":11,"station_name":"Pondok Jati","time":2},{"is_transit":true,"station_name":"Jatinegara","line":1,"station_id":"JNG","time":9,"i_lat":-6.215091,"transit":true,"distance":1236,"i_long":106.86807400000001},{"line":1,"i_long":106.858896,"is_transit":false,"time":2,"station_name":"Matraman","station_id":"MTR","i_lat":-6.212485,"distance":1377,"transit":false},{"transit":true,"station_id":"MRI","is_transit":true,"distance":1275,"i_lat":-6.209883,"line":2,"station_name":"Manggarai","time":2,"i_long":106.84912},{"transit":false,"i_lat":-6.226659,"is_transit":false,"line":2,"distance":2610,"station_name":"Tebet","i_long":106.857948,"station_id":"TEB","time":4},{"i_long":106.856607,"is_transit":false,"i_lat":-6.242512,"line":2,"distance":1230,"station_id":"CW","transit":false,"time":2,"station_name":"Cawang"},{"station_name":"Duren Kalibata","line":2,"is_transit":false,"time":3,"i_lat":-6.255332,"distance":1546,"transit":false,"station_id":"DRN","i_long":106.85449},{"distance":824,"station_name":"Pasar Minggu Baru","transit":false,"station_id":"PSMB","is_transit":false,"i_long":106.851577,"line":2,"time":2,"i_lat":-6.263214},{"line":2,"station_name":"Pasar Minggu","station_id":"PSM","is_transit":false,"distance":2380,"transit":false,"time":2,"i_long":106.843999,"i_lat":-6.2842400000000005}]]}