{"data":[[{"i_long":106.800832,"line":1,"station_name":"Duri","station_id":"DU","transit":false,"is_transit":false,"time":0,"distance":0,"i_lat":-6.155215},{"is_transit":false,"i_lat":-6.185545,"station_name":"Tanah Abang","time":8,"i_long":106.811091,"distance":3632,"line":1,"transit":false,"station_id":"THB"},{"distance":2029,"i_long":106.816351,"time":5,"i_lat":-6.20132,"line":1,"station_name":"Karet","transit":false,"is_transit":false,"station_id":"KAT"},{"i_long":106.819881,"i_lat":-6.201433,"is_transit":false,"station_name":"Sudirman Baru","station_id":"SUDB","transit":false,"distance":471,"line":1,"time":1},{"distance":280,"is_transit":false,"station_name":"Sudirman","i_long":106.822649,"line":1,"i_lat":-6.202263,"transit":false,"station_id":"SUD","time":1},{"i_long":106.84912,"transit":true,"distance":3186,"station_name":"Manggarai","station_id":"MRI","line":2,"i_lat":-6.209883,"is_transit":true,"time":4},{"time":4,"is_transit":false,"i_lat":-6.226659,"line":2,"station_id":"TEB","i_long":106.857948,"distance":2610,"transit":false,"station_name":"Tebet"},{"transit":false,"station_name":"Cawang","time":2,"i_long":106.856607,"distance":1230,"is_transit":false,"station_id":"CW","i_lat":-6.242512,"line":2},{"i_long":106.85449,"station_name":"Duren Kalibata","i_lat":-6.255332,"station_id":"DRN","line":2,"time":3,"is_transit":false,"distance":1546,"transit":false},{"is_transit":false,"distance":824,"line":2,"station_id":"PSMB","time":2,"i_long":106.851577,"i_lat":-6.263214,"station_name":"Pasar Minggu Baru","transit":false},{"station_id":"PSM","time":2,"station_name":"Pasar Minggu","is_transit":false,"transit":false,"distance":2380,"i_lat":-6.2842400000000005,"line":2,"i_long":106.843999}],[{"i_long":106.800832,"time":0,"is_transit":false,"transit":false,"station_name":"Duri","station_id":"DU","line":1,"distance":0,"i_lat":-6.155215},{"line":1,"station_id":"AK","distance":1230,"i_lat":-6.144674,"is_transit":false,"time":4,"transit":false,"i_long":106.79867,"station_name":"Angke"},{"distance":4102,"station_name":"Kampung Bandan","time":9,"transit":true,"station_id":"KPB","i_lat":-6.132549,"is_transit":true,"i_long":106.826365,"line":4},{"i_lat":-6.137569,"station_id":"JAKK","transit":true,"distance":1364,"time":3,"is_transit":true,"i_long":106.812439,"line":2,"station_name":"Jakarta Kota"},{"distance":1264,"transit":false,"station_name":"Jayakarta","station_id":"JAY","is_transit":false,"time":4,"i_long":106.820901,"i_lat":-6.141205,"line":2},{"distance":1080,"station_id":"MGB","i_long":106.82482,"transit":false,"time":2,"line":2,"is_transit":false,"i_lat":-6.149769,"station_name":"Manggabesar"},{"transit":false,"distance":906,"i_lat":-6.160725,"line":2,"i_long":106.827103,"station_id":"SW","station_name":"Sawah Besar","time":2,"is_transit":false},{"distance":1149,"time":2,"i_lat":-6.166716,"station_id":"JUA","transit":false,"is_transit":false,"i_long":106.828284,"station_name":"Juanda","line":2},{"distance":2015,"transit":false,"station_id":"GDD","station_name":"Gondangdia","is_transit":false,"time":4,"i_lat":-6.186295,"i_long":106.832183,"line":2},{"transit":false,"station_name":"Cikini","is_transit":false,"time":3,"line":2,"station_id":"CKI","distance":1750,"i_long":106.840169,"i_lat":-6.198556},{"i_lat":-6.209883,"transit":false,"i_long":106.84912,"station_id":"MRI","is_transit":false,"time":4,"distance":1590,"station_name":"Manggarai","line":2},{"transit":false,"line":2,"i_long":106.857948,"i_lat":-6.226659,"station_id":"TEB","station_name":"Tebet","time":4,"distance":2610,"is_transit":false},{"station_id":"CW","distance":1230,"time":2,"transit":false,"station_name":"Cawang","i_lat":-6.242512,"i_long":106.856607,"is_transit":false,"line":2},{"time":3,"station_name":"Duren Kalibata","line":2,"is_transit":false,"distance":1546,"i_long":106.85449,"transit":false,"station_id":"DRN","i_lat":-6.255332},{"time":2,"i_long":106.851577,"station_name":"Pasar Minggu Baru","is_transit":false,"distance":824,"transit":false,"i_lat":-6.263214,"line":2,"station_id":"PSMB"},{"distance":2380,"transit":false,"station_id":"PSM","time":2,"i_lat":-6.2842400000000005,"line":2,"is_transit":false,"i_long":106.843999,"station_name":"Pasar Minggu"}],[{"i_lat":-6.155215,"line":1,"i_long":106.800832,"distance":0,"transit":false,"station_name":"Duri","is_transit":false,"station_id":"DU","time":0},{"distance":1230,"station_name":"Angke","i_long":106.79867,"transit":false,"station_id":"AK","time":4,"i_lat":-6.144674,"line":1,"is_transit":false},{"i_long":106.826365,"i_lat":-6.132549,"is_transit":true,"station_name":"Kampung Bandan","time":9,"station_id":"KPB","line":4,"transit":true,"distance":4102},{"is_transit":false,"transit":false,"i_lat":-6.14505,"station_name":"Rajawali","station_id":"RJW","time":3,"distance":1444,"line":11,"i_long":106.836569},{"station_id":"KMO","i_lat":-6.161728,"transit":false,"is_transit":false,"distance":1901,"time":5,"line":11,"station_name":"Kemayoran","i_long":106.839204},{"line":11,"station_name":"Pasar Senen","time":4,"i_long":106.84368,"distance":1436,"is_transit":false,"transit":false,"i_lat":-6.174784,"station_id":"PSE"},{"is_transit":false,"station_name":"Gang Sentiong","time":8,"i_long":106.850107,"transit":false,"line":11,"station_id":"GST","i_lat":-6.185975,"distance":1567},{"line":11,"is_transit":false,"transit":false,"station_name":"Kramat","station_id":"KMT","time":1,"distance":973,"i_lat":-6.193792,"i_long":106.855437},{"transit":false,"is_transit":false,"i_lat":-6.209188,"station_name":"Pondok Jati","distance":1829,"line":11,"time":2,"i_long":106.861737,"station_id":"POK"},{"distance":1236,"time":9,"station_name":"Jatinegara","station_id":"JNG","i_lat":-6.215091,"i_long":106.86807400000001,"line":1,"transit":true,"is_transit":true},{"i_long":106.858896,"time":2,"is_transit":false,"station_id":"MTR","line":1,"station_name":"Matraman","distance":1377,"transit":false,"i_lat":-6.212485},{"is_transit":true,"i_long":106.84912,"station_id":"MRI","i_lat":-6.209883,"transit":true,"time":2,"line":2,"station_name":"Manggarai","distance":1275},{"station_name":"Tebet","i_lat":-6.226659,"is_transit":false,"station_id":"TEB","time":4,"distance":2610,"i_long":106.857948,"transit":false,"line":2},{"i_long":106.856607,"line":2,"time":2,"distance":1230,"i_lat":-6.242512,"station_name":"Cawang","station_id":"CW","transit":false,"is_transit":false},{"station_id":"DRN","distance":1546,"i_long":106.85449,"is_transit":false,"i_lat":-6.255332,"line":2,"time":3,"station_name":"Duren Kalibata","transit":false},{"is_transit":false,"distance":824,"transit":false,"station_id":"PSMB","time":2,"i_lat":-6.263214,"line":2,"i_long":106.851577,"station_name":"Pasar Minggu Baru"},{"i_lat":-6.2842400000000005,"station_name":"Pasar Minggu","transit":false,"is_transit":false,"station_id":"PSM","time":2,"distance":2380,"i_long":106.843999,"line":2}]]}