{"data":[[{"transit":false,"i_lat":-6.155215,"is_transit":false,"line":1,"i_long":106.800832,"time":0,"distance":0,"station_id":"DU","station_name":"Duri"},{"transit":false,"line":1,"station_name":"Tanah Abang","is_transit":false,"station_id":"THB","i_long":106.811091,"i_lat":-6.185545,"time":8,"distance":3632},{"i_long":106.816351,"i_lat":-6.20132,"transit":false,"time":5,"distance":2029,"station_id":"KAT","is_transit":false,"line":1,"station_name":"Karet"},{"station_id":"SUDB","transit":false,"station_name":"Sudirman Baru","time":1,"i_long":106.819881,"is_transit":false,"distance":471,"line":1,"i_lat":-6.201433},{"distance":280,"transit":false,"is_transit":false,"station_name":"Sudirman","time":1,"line":1,"station_id":"SUD","i_long":106.822649,"i_lat":-6.202263},{"i_long":106.84912,"station_name":"Manggarai","station_id":"MRI","transit":true,"line":2,"is_transit":true,"time":4,"distance":3186,"i_lat":-6.209883},{"distance":2610,"i_lat":-6.226659,"station_id":"TEB","i_long":106.857948,"transit":false,"time":4,"line":2,"station_name":"Tebet","is_transit":false},{"station_name":"Cawang","distance":1230,"is_transit":false,"station_id":"CW","line":2,"time":2,"i_long":106.856607,"i_lat":-6.242512,"transit":false},{"line":2,"distance":1546,"is_transit":false,"time":3,"i_long":106.85449,"station_id":"DRN","station_name":"Duren Kalibata","transit":false,"i_lat":-6.255332},{"time":2,"distance":824,"line":2,"i_long":106.851577,"station_id":"PSMB","i_lat":-6.263214,"transit":false,"station_name":"Pasar Minggu Baru","is_transit":false},{"i_lat":-6.2842400000000005,"transit":false,"i_long":106.843999,"distance":2380,"is_transit":false,"time":2,"station_id":"PSM","station_name":"Pasar Minggu","line":2}],[{"is_transit":false,"station_id":"DU","line":1,"distance":0,"time":0,"i_lat":-6.155215,"i_long":106.800832,"station_name":"Duri","transit":false},{"station_name":"Angke","is_transit":false,"i_lat":-6.144674,"distance":1230,"i_long":106.79867,"line":1,"station_id":"AK","transit":false,"time":4},{"i_long":106.826365,"line":4,"time":9,"i_lat":-6.132549,"distance":4102,"station_id":"KPB","transit":true,"is_transit":true,"station_name":"Kampung Bandan"},{"line":2,"transit":true,"distance":1364,"station_id":"JAKK","i_long":106.812439,"station_name":"Jakarta Kota","i_lat":-6.137569,"time":3,"is_transit":true},{"station_id":"JAY","station_name":"Jayakarta","distance":1264,"is_transit":false,"i_lat":-6.141205,"transit":false,"line":2,"i_long":106.820901,"time":4},{"station_id":"MGB","line":2,"station_name":"Manggabesar","time":2,"distance":1080,"is_transit":false,"transit":false,"i_long":106.82482,"i_lat":-6.149769},{"distance":906,"transit":false,"i_long":106.827103,"station_name":"Sawah Besar","station_id":"SW","line":2,"time":2,"i_lat":-6.160725,"is_transit":false},{"station_id":"JUA","i_long":106.828284,"i_lat":-6.166716,"station_name":"Juanda","line":2,"time":2,"is_transit":false,"transit":false,"distance":1149},{"station_name":"Gondangdia","distance":2015,"is_transit":false,"transit":false,"i_lat":-6.186295,"i_long":106.832183,"line":2,"station_id":"GDD","time":4},{"line":2,"station_name":"Cikini","transit":false,"i_lat":-6.198556,"i_long":106.840169,"time":3,"distance":1750,"station_id":"CKI","is_transit":false},{"line":2,"station_id":"MRI","distance":1590,"i_lat":-6.209883,"time":4,"is_transit":false,"station_name":"Manggarai","transit":false,"i_long":106.84912},{"line":2,"transit":false,"i_lat":-6.226659,"station_id":"TEB","distance":2610,"i_long":106.857948,"is_transit":false,"station_name":"Tebet","time":4},{"station_id":"CW","line":2,"time":2,"distance":1230,"is_transit":false,"i_long":106.856607,"i_lat":-6.242512,"station_name":"Cawang","transit":false},{"line":2,"time":3,"distance":1546,"is_transit":false,"station_id":"DRN","transit":false,"station_name":"Duren Kalibata","i_lat":-6.255332,"i_long":106.85449},{"i_long":106.851577,"station_name":"Pasar Minggu Baru","time":2,"line":2,"i_lat":-6.263214,"is_transit":false,"distance":824,"station_id":"PSMB","transit":false},{"line":2,"distance":2380,"time":2,"i_long":106.843999,"station_id":"PSM","station_name":"Pasar Minggu","is_transit":false,"transit":false,"i_lat":-6.2842400000000005}],[{"i_long":106.800832,"is_transit":false,"i_lat":-6.155215,"transit":false,"time":0,"line":1,"distance":0,"station_id":"DU","station_name":"Duri"},{"station_name":"Angke","transit":false,"i_lat":-6.144674,"time":4,"i_long":106.79867,"station_id":"AK","distance":1230,"is_transit":false,"line":1},{"is_transit":true,"station_name":"Kampung Bandan","i_lat":-6.132549,"time":9,"i_long":106.826365,"distance":4102,"station_id":"KPB","transit":true,"line":4},{"is_transit":false,"transit":false,"i_long":106.836569,"time":3,"line":11,"i_lat":-6.14505,"distance":1444,"station_id":"RJW","station_name":"Rajawali"},{"time":5,"i_long":106.839204,"transit":false,"line":11,"i_lat":-6.161728,"station_id":"KMO","station_name":"Kemayoran","distance":1901,"is_transit":false},{"station_id":"PSE","station_name":"Pasar Senen","i_lat":-6.174784,"time":4,"transit":false,"i_long":106.84368,"is_transit":false,"distance":1436,"line":11},{"distance":1567,"station_id":"GST","i_lat":-6.185975,"station_name":"Gang Sentiong","i_long":106.850107,"is_transit":false,"time":8,"line":11,"transit":false},{"i_lat":-6.193792,"line":11,"i_long":106.855437,"transit":false,"station_id":"KMT","is_transit":false,"station_name":"Kramat","time":1,"distance":973},{"station_id":"POK","is_transit":false,"i_long":106.861737,"transit":false,"time":2,"station_name":"Pondok Jati","line":11,"distance":1829,"i_lat":-6.209188},{"line":1,"time":9,"distance":1236,"station_name":"Jatinegara","i_lat":-6.215091,"station_id":"JNG","i_long":106.86807400000001,"transit":true,"is_transit":true},{"line":1,"is_transit":false,"time":2,"station_id":"MTR","station_name":"Matraman","i_lat":-6.212485,"transit":false,"i_long":106.858896,"distance":1377},{"time":2,"station_id":"MRI","line":2,"is_transit":true,"i_lat":-6.209883,"distance":1275,"transit":true,"i_long":106.84912,"station_name":"Manggarai"},{"is_transit":false,"distance":2610,"station_name":"Tebet","i_lat":-6.226659,"i_long":106.857948,"time":4,"line":2,"station_id":"TEB","transit":false},{"i_long":106.856607,"station_name":"Cawang","transit":false,"line":2,"distance":1230,"is_transit":false,"time":2,"station_id":"CW","i_lat":-6.242512},{"station_name":"Duren Kalibata","is_transit":false,"time":3,"station_id":"DRN","i_lat":-6.255332,"distance":1546,"line":2,"transit":false,"i_long":106.85449},{"distance":824,"time":2,"station_name":"Pasar Minggu Baru","station_id":"PSMB","transit":false,"line":2,"is_transit":false,"i_long":106.851577,"i_lat":-6.263214},{"distance":2380,"station_name":"Pasar Minggu","i_long":106.843999,"i_lat":-6.2842400000000005,"is_transit":false,"line":2,"time":2,"transit":false,"station_id":"PSM"}]]}