{"data":[[{"time":0,"station_name":"Duri","i_lat":-6.155215,"line":1,"i_long":106.800832,"is_transit":true,"transit":false,"station_id":"DU","distance":0},{"time":4,"is_transit":false,"line":0,"station_id":"AK","distance":1230,"i_lat":-6.144674,"transit":false,"station_name":"Angke","i_long":106.79867},{"transit":false,"is_transit":true,"i_long":106.826365,"line":0,"station_name":"Kampung Bandan","station_id":"KPB","time":9,"i_lat":-6.132549,"distance":4102},{"station_id":"JAKK","line":0,"is_transit":true,"time":3,"distance":1364,"station_name":"Jakarta Kota","i_long":106.812439,"transit":true,"i_lat":-6.137569},{"transit":false,"distance":1264,"station_id":"JAY","station_name":"Jayakarta","time":4,"i_lat":-6.141205,"is_transit":false,"i_long":106.820901,"line":7},{"station_id":"MGB","line":2,"transit":false,"distance":1080,"time":2,"i_lat":-6.149769,"station_name":"Manggabesar","is_transit":false,"i_long":106.82482},{"station_name":"Sawah Besar","transit":false,"is_transit":false,"time":2,"distance":906,"i_long":106.827103,"i_lat":-6.160725,"station_id":"SW","line":2}],[{"station_name":"Duri","transit":false,"is_transit":true,"time":0,"i_long":106.800832,"i_lat":-6.155215,"station_id":"DU","distance":0,"line":1},{"station_name":"Tanah Abang","i_lat":-6.185545,"line":1,"transit":false,"station_id":"THB","is_transit":true,"time":8,"distance":3632,"i_long":106.811091},{"i_long":106.816351,"line":1,"distance":2029,"transit":false,"station_id":"KAT","station_name":"Karet","is_transit":false,"i_lat":-6.20132,"time":5},{"station_name":"Sudirman Baru","i_lat":-6.201433,"time":1,"i_long":106.819881,"station_id":"SUDB","is_transit":false,"distance":471,"transit":false,"line":1},{"i_lat":-6.202263,"distance":280,"station_id":"SUD","transit":false,"station_name":"Sudirman","is_transit":false,"time":1,"i_long":106.822649,"line":1},{"station_id":"MRI","station_name":"Manggarai","is_transit":true,"distance":3186,"transit":true,"i_lat":-6.209883,"i_long":106.84912,"line":0,"time":4},{"is_transit":false,"time":4,"distance":1590,"i_lat":-6.198556,"station_id":"CKI","i_long":106.840169,"line":0,"station_name":"Cikini","transit":false},{"distance":1750,"time":3,"is_transit":false,"transit":false,"line":2,"i_long":106.832183,"station_id":"GDD","i_lat":-6.186295,"station_name":"Gondangdia"},{"station_name":"Juanda","i_long":106.828284,"line":2,"time":4,"station_id":"JUA","distance":2015,"i_lat":-6.166716,"transit":false,"is_transit":false},{"distance":1149,"line":2,"i_lat":-6.160725,"time":2,"station_id":"SW","transit":false,"station_name":"Sawah Besar","i_long":106.827103,"is_transit":false}],[{"distance":0,"i_long":106.800832,"is_transit":true,"i_lat":-6.155215,"transit":false,"time":0,"station_name":"Duri","line":1,"station_id":"DU"},{"time":4,"i_long":106.79867,"distance":1230,"station_name":"Angke","is_transit":false,"station_id":"AK","transit":false,"i_lat":-6.144674,"line":0},{"time":9,"distance":4102,"is_transit":true,"i_long":106.826365,"station_id":"KPB","transit":true,"line":0,"station_name":"Kampung Bandan","i_lat":-6.132549},{"transit":false,"station_id":"RJW","station_name":"Rajawali","i_lat":-6.14505,"is_transit":false,"i_long":106.836569,"line":11,"time":3,"distance":1444},{"station_id":"KMO","transit":false,"i_long":106.839204,"line":11,"time":5,"i_lat":-6.161728,"is_transit":false,"distance":1901,"station_name":"Kemayoran"},{"is_transit":false,"station_id":"PSE","station_name":"Pasar Senen","time":4,"distance":1436,"transit":false,"i_long":106.84368,"line":11,"i_lat":-6.174784},{"station_id":"GST","station_name":"Gang Sentiong","transit":false,"i_lat":-6.185975,"is_transit":false,"time":8,"i_long":106.850107,"line":11,"distance":1567},{"station_id":"KMT","station_name":"Kramat","transit":false,"is_transit":false,"distance":973,"i_lat":-6.193792,"time":1,"line":11,"i_long":106.855437},{"station_id":"POK","is_transit":false,"i_long":106.861737,"station_name":"Pondok Jati","i_lat":-6.209188,"transit":false,"line":11,"time":2,"distance":1829},{"i_long":106.86807400000001,"line":0,"transit":true,"time":9,"is_transit":true,"station_name":"Jatinegara","station_id":"JNG","distance":1236,"i_lat":-6.215091},{"station_name":"Matraman","is_transit":false,"time":2,"transit":false,"i_long":106.858896,"station_id":"MTR","distance":1377,"line":1,"i_lat":-6.212485},{"transit":true,"i_lat":-6.209883,"i_long":106.84912,"station_id":"MRI","line":0,"station_name":"Manggarai","is_transit":true,"time":2,"distance":1275},{"i_lat":-6.198556,"time":4,"is_transit":false,"i_long":106.840169,"line":0,"station_name":"Cikini","station_id":"CKI","distance":1590,"transit":false},{"is_transit":false,"i_lat":-6.186295,"station_name":"Gondangdia","distance":1750,"transit":false,"i_long":106.832183,"line":2,"station_id":"GDD","time":3},{"transit":false,"time":4,"i_long":106.828284,"line":2,"is_transit":false,"station_name":"Juanda","distance":2015,"i_lat":-6.166716,"station_id":"JUA"},{"i_lat":-6.160725,"station_id":"SW","line":2,"transit":false,"i_long":106.827103,"station_name":"Sawah Besar","is_transit":false,"distance":1149,"time":2}],[{"i_lat":-6.155215,"station_name":"Duri","distance":0,"line":1,"time":0,"is_transit":true,"transit":false,"i_long":106.800832,"station_id":"DU"},{"station_name":"Tanah Abang","i_long":106.811091,"time":8,"is_transit":true,"station_id":"THB","i_lat":-6.185545,"transit":false,"distance":3632,"line":1},{"i_lat":-6.20132,"is_transit":false,"transit":false,"station_id":"KAT","station_name":"Karet","time":5,"i_long":106.816351,"line":1,"distance":2029},{"station_name":"Sudirman Baru","distance":471,"is_transit":false,"i_lat":-6.201433,"transit":false,"time":1,"i_long":106.819881,"line":1,"station_id":"SUDB"},{"i_lat":-6.202263,"line":1,"time":1,"station_id":"SUD","station_name":"Sudirman","distance":280,"transit":false,"is_transit":false,"i_long":106.822649},{"distance":3186,"i_lat":-6.209883,"station_name":"Manggarai","is_transit":true,"station_id":"MRI","i_long":106.84912,"line":0,"time":4,"transit":false},{"is_transit":false,"transit":false,"time":2,"i_lat":-6.212485,"distance":1275,"i_long":106.858896,"line":1,"station_id":"MTR","station_name":"Matraman"},{"station_name":"Jatinegara","i_long":106.86807400000001,"time":8,"station_id":"JNG","is_transit":true,"i_lat":-6.215091,"transit":true,"line":0,"distance":1377},{"i_long":106.861737,"station_name":"Pondok Jati","transit":false,"time":2,"i_lat":-6.209188,"is_transit":false,"line":11,"distance":1236,"station_id":"POK"},{"time":2,"line":11,"station_id":"KMT","distance":1829,"is_transit":false,"i_lat":-6.193792,"station_name":"Kramat","transit":false,"i_long":106.855437},{"line":11,"distance":973,"i_long":106.850107,"transit":false,"station_id":"GST","station_name":"Gang Sentiong","time":1,"is_transit":false,"i_lat":-6.185975},{"station_id":"PSE","i_long":106.84368,"transit":false,"i_lat":-6.174784,"station_name":"Pasar Senen","is_transit":false,"distance":1567,"line":11,"time":8},{"time":4,"i_long":106.839204,"distance":1436,"station_name":"Kemayoran","i_lat":-6.161728,"station_id":"KMO","is_transit":false,"transit":false,"line":11},{"transit":false,"i_lat":-6.14505,"distance":1901,"i_long":106.836569,"station_id":"RJW","station_name":"Rajawali","time":5,"line":11,"is_transit":false},{"is_transit":true,"time":3,"distance":1444,"station_id":"KPB","station_name":"Kampung Bandan","transit":true,"i_lat":-6.132549,"i_long":106.826365,"line":0},{"i_long":106.812439,"station_name":"Jakarta Kota","time":3,"i_lat":-6.137569,"distance":1364,"station_id":"JAKK","transit":true,"line":0,"is_transit":true},{"line":7,"i_lat":-6.141205,"transit":false,"i_long":106.820901,"station_name":"Jayakarta","is_transit":false,"time":4,"distance":1264,"station_id":"JAY"},{"line":2,"is_transit":false,"station_id":"MGB","distance":1080,"i_long":106.82482,"station_name":"Manggabesar","time":2,"i_lat":-6.149769,"transit":false},{"station_id":"SW","is_transit":false,"i_lat":-6.160725,"time":2,"i_long":106.827103,"transit":false,"distance":906,"line":2,"station_name":"Sawah Besar"}]]}