{"data":[[{"i_lat":-6.155215,"line":1,"is_transit":false,"station_id":"DU","transit":false,"i_long":106.800832,"station_name":"Duri","time":0,"distance":0},{"is_transit":false,"station_name":"Tanah Abang","station_id":"THB","line":1,"time":8,"distance":3632,"i_long":106.811091,"i_lat":-6.185545,"transit":false},{"i_lat":-6.20132,"station_name":"Karet","i_long":106.816351,"line":1,"distance":2029,"time":5,"transit":false,"is_transit":false,"station_id":"KAT"},{"line":1,"transit":false,"station_name":"Sudirman Baru","station_id":"SUDB","distance":471,"i_long":106.819881,"time":1,"is_transit":false,"i_lat":-6.201433},{"is_transit":false,"i_lat":-6.202263,"time":1,"station_id":"SUD","transit":false,"line":1,"station_name":"Sudirman","distance":280,"i_long":106.822649}],[{"time":0,"station_id":"DU","station_name":"Duri","line":1,"i_long":106.800832,"transit":false,"distance":0,"i_lat":-6.155215,"is_transit":false},{"i_long":106.79867,"line":1,"transit":false,"is_transit":false,"time":4,"i_lat":-6.144674,"distance":1230,"station_name":"Angke","station_id":"AK"},{"is_transit":true,"time":9,"distance":4102,"transit":true,"i_long":106.826365,"line":4,"station_id":"KPB","i_lat":-6.132549,"station_name":"Kampung Bandan"},{"station_id":"JAKK","i_long":106.812439,"line":2,"i_lat":-6.137569,"is_transit":true,"transit":true,"distance":1364,"station_name":"Jakarta Kota","time":3},{"distance":1264,"i_lat":-6.141205,"station_name":"Jayakarta","station_id":"JAY","time":4,"line":2,"is_transit":false,"transit":false,"i_long":106.820901},{"transit":false,"is_transit":false,"time":2,"i_lat":-6.149769,"line":2,"station_name":"Manggabesar","i_long":106.82482,"station_id":"MGB","distance":1080},{"i_long":106.827103,"distance":906,"line":2,"transit":false,"station_id":"SW","time":2,"i_lat":-6.160725,"is_transit":false,"station_name":"Sawah Besar"},{"i_lat":-6.166716,"is_transit":false,"distance":1149,"station_id":"JUA","station_name":"Juanda","i_long":106.828284,"line":2,"time":2,"transit":false},{"i_long":106.832183,"line":2,"is_transit":false,"transit":false,"time":4,"station_id":"GDD","distance":2015,"i_lat":-6.186295,"station_name":"Gondangdia"},{"distance":1750,"is_transit":false,"i_long":106.840169,"station_id":"CKI","station_name":"Cikini","i_lat":-6.198556,"transit":false,"line":2,"time":3},{"i_long":106.84912,"line":2,"station_id":"MRI","time":4,"transit":true,"distance":1590,"is_transit":true,"station_name":"Manggarai","i_lat":-6.209883},{"time":4,"distance":3186,"station_id":"SUD","i_lat":-6.202263,"is_transit":false,"i_long":106.822649,"transit":false,"station_name":"Sudirman","line":1}],[{"station_name":"Duri","time":0,"distance":0,"i_lat":-6.155215,"station_id":"DU","transit":false,"is_transit":false,"i_long":106.800832,"line":1},{"is_transit":false,"transit":false,"line":1,"distance":1230,"station_id":"AK","station_name":"Angke","time":4,"i_lat":-6.144674,"i_long":106.79867},{"time":9,"distance":4102,"station_name":"Kampung Bandan","line":4,"i_lat":-6.132549,"transit":true,"is_transit":true,"i_long":106.826365,"station_id":"KPB"},{"station_name":"Rajawali","transit":false,"time":3,"distance":1444,"station_id":"RJW","line":11,"is_transit":false,"i_lat":-6.14505,"i_long":106.836569},{"is_transit":false,"time":5,"i_long":106.839204,"line":11,"transit":false,"station_id":"KMO","distance":1901,"station_name":"Kemayoran","i_lat":-6.161728},{"distance":1436,"is_transit":false,"station_id":"PSE","station_name":"Pasar Senen","time":4,"line":11,"transit":false,"i_lat":-6.174784,"i_long":106.84368},{"time":8,"station_id":"GST","station_name":"Gang Sentiong","is_transit":false,"distance":1567,"transit":false,"i_lat":-6.185975,"i_long":106.850107,"line":11},{"i_long":106.855437,"time":1,"is_transit":false,"i_lat":-6.193792,"transit":false,"distance":973,"station_id":"KMT","station_name":"Kramat","line":11},{"transit":false,"station_name":"Pondok Jati","line":11,"i_long":106.861737,"time":2,"station_id":"POK","distance":1829,"is_transit":false,"i_lat":-6.209188},{"i_lat":-6.215091,"i_long":106.86807400000001,"is_transit":true,"line":1,"station_id":"JNG","time":9,"transit":true,"distance":1236,"station_name":"Jatinegara"},{"distance":1377,"line":1,"is_transit":false,"station_name":"Matraman","i_lat":-6.212485,"station_id":"MTR","transit":false,"i_long":106.858896,"time":2},{"distance":1275,"i_long":106.84912,"station_id":"MRI","is_transit":false,"station_name":"Manggarai","i_lat":-6.209883,"line":2,"transit":false,"time":2},{"station_id":"SUD","i_lat":-6.202263,"station_name":"Sudirman","distance":3186,"line":1,"transit":false,"is_transit":false,"time":4,"i_long":106.822649}]]}