{"data":[[{"line":1,"distance":0,"transit":false,"i_lat":-6.155215,"i_long":106.800832,"time":0,"station_id":"DU","is_transit":false,"station_name":"Duri"},{"time":4,"is_transit":false,"line":1,"i_lat":-6.144674,"distance":1230,"transit":false,"station_name":"Angke","station_id":"AK","i_long":106.79867},{"time":9,"i_lat":-6.132549,"line":4,"i_long":106.826365,"transit":true,"station_id":"KPB","distance":4102,"is_transit":true,"station_name":"Kampung Bandan"},{"time":3,"station_name":"Jakarta Kota","is_transit":true,"i_lat":-6.137569,"i_long":106.812439,"line":2,"station_id":"JAKK","distance":1364,"transit":true},{"distance":1264,"is_transit":false,"station_id":"JAY","transit":false,"station_name":"Jayakarta","time":4,"i_long":106.820901,"line":2,"i_lat":-6.141205},{"time":2,"station_name":"Manggabesar","is_transit":false,"i_lat":-6.149769,"i_long":106.82482,"station_id":"MGB","transit":false,"distance":1080,"line":2},{"is_transit":false,"distance":906,"i_long":106.827103,"i_lat":-6.160725,"transit":false,"line":2,"station_id":"SW","station_name":"Sawah Besar","time":2}],[{"distance":0,"i_long":106.800832,"time":0,"station_id":"DU","is_transit":false,"line":1,"transit":false,"station_name":"Duri","i_lat":-6.155215},{"is_transit":false,"i_lat":-6.185545,"i_long":106.811091,"transit":false,"line":1,"station_id":"THB","distance":3632,"time":8,"station_name":"Tanah Abang"},{"distance":2029,"time":5,"line":1,"transit":false,"i_long":106.816351,"station_id":"KAT","i_lat":-6.20132,"station_name":"Karet","is_transit":false},{"time":1,"station_id":"SUDB","i_lat":-6.201433,"i_long":106.819881,"distance":471,"line":1,"station_name":"Sudirman Baru","transit":false,"is_transit":false},{"line":1,"i_long":106.822649,"time":1,"transit":false,"distance":280,"station_name":"Sudirman","station_id":"SUD","is_transit":false,"i_lat":-6.202263},{"i_long":106.84912,"line":2,"transit":true,"time":4,"station_name":"Manggarai","distance":3186,"i_lat":-6.209883,"station_id":"MRI","is_transit":true},{"is_transit":false,"time":4,"station_name":"Cikini","station_id":"CKI","i_lat":-6.198556,"i_long":106.840169,"transit":false,"line":2,"distance":1590},{"distance":1750,"station_name":"Gondangdia","i_long":106.832183,"is_transit":false,"i_lat":-6.186295,"line":2,"station_id":"GDD","time":3,"transit":false},{"station_id":"JUA","time":4,"station_name":"Juanda","i_lat":-6.166716,"distance":2015,"is_transit":false,"i_long":106.828284,"line":2,"transit":false},{"line":2,"i_lat":-6.160725,"distance":1149,"is_transit":false,"transit":false,"i_long":106.827103,"time":2,"station_name":"Sawah Besar","station_id":"SW"}],[{"line":1,"i_long":106.800832,"is_transit":false,"transit":false,"distance":0,"time":0,"station_name":"Duri","station_id":"DU","i_lat":-6.155215},{"station_name":"Angke","transit":false,"i_lat":-6.144674,"time":4,"distance":1230,"i_long":106.79867,"is_transit":false,"station_id":"AK","line":1},{"i_long":106.826365,"line":4,"is_transit":true,"station_id":"KPB","time":9,"distance":4102,"station_name":"Kampung Bandan","transit":true,"i_lat":-6.132549},{"station_name":"Rajawali","distance":1444,"station_id":"RJW","i_lat":-6.14505,"is_transit":false,"i_long":106.836569,"line":11,"time":3,"transit":false},{"is_transit":false,"time":5,"distance":1901,"i_lat":-6.161728,"i_long":106.839204,"line":11,"station_id":"KMO","transit":false,"station_name":"Kemayoran"},{"i_lat":-6.174784,"station_id":"PSE","time":4,"station_name":"Pasar Senen","is_transit":false,"transit":false,"i_long":106.84368,"distance":1436,"line":11},{"station_name":"Gang Sentiong","transit":false,"i_lat":-6.185975,"time":8,"line":11,"is_transit":false,"distance":1567,"i_long":106.850107,"station_id":"GST"},{"i_lat":-6.193792,"station_id":"KMT","distance":973,"transit":false,"is_transit":false,"station_name":"Kramat","i_long":106.855437,"time":1,"line":11},{"station_name":"Pondok Jati","i_lat":-6.209188,"is_transit":false,"station_id":"POK","transit":false,"time":2,"distance":1829,"i_long":106.861737,"line":11},{"station_name":"Jatinegara","line":1,"transit":true,"is_transit":true,"time":9,"i_long":106.86807400000001,"station_id":"JNG","distance":1236,"i_lat":-6.215091},{"distance":1377,"transit":false,"line":1,"station_id":"MTR","is_transit":false,"station_name":"Matraman","i_lat":-6.212485,"i_long":106.858896,"time":2},{"station_id":"MRI","is_transit":true,"time":2,"i_lat":-6.209883,"i_long":106.84912,"transit":true,"line":2,"station_name":"Manggarai","distance":1275},{"time":4,"station_name":"Cikini","station_id":"CKI","is_transit":false,"transit":false,"i_lat":-6.198556,"distance":1590,"i_long":106.840169,"line":2},{"transit":false,"line":2,"i_lat":-6.186295,"time":3,"station_id":"GDD","station_name":"Gondangdia","i_long":106.832183,"distance":1750,"is_transit":false},{"line":2,"is_transit":false,"i_long":106.828284,"distance":2015,"station_name":"Juanda","transit":false,"i_lat":-6.166716,"station_id":"JUA","time":4},{"station_name":"Sawah Besar","i_long":106.827103,"distance":1149,"station_id":"SW","line":2,"time":2,"is_transit":false,"transit":false,"i_lat":-6.160725}],[{"station_name":"Duri","i_long":106.800832,"line":1,"time":0,"transit":false,"station_id":"DU","distance":0,"i_lat":-6.155215,"is_transit":false},{"i_lat":-6.185545,"station_id":"THB","i_long":106.811091,"distance":3632,"line":1,"time":8,"station_name":"Tanah Abang","transit":false,"is_transit":false},{"transit":false,"i_long":106.816351,"station_name":"Karet","is_transit":false,"station_id":"KAT","i_lat":-6.20132,"distance":2029,"time":5,"line":1},{"station_name":"Sudirman Baru","station_id":"SUDB","is_transit":false,"i_long":106.819881,"distance":471,"time":1,"line":1,"transit":false,"i_lat":-6.201433},{"distance":280,"station_id":"SUD","i_lat":-6.202263,"i_long":106.822649,"is_transit":false,"transit":false,"time":1,"station_name":"Sudirman","line":1},{"distance":3186,"station_name":"Manggarai","i_lat":-6.209883,"i_long":106.84912,"transit":false,"line":2,"is_transit":false,"time":4,"station_id":"MRI"},{"line":1,"is_transit":false,"station_id":"MTR","station_name":"Matraman","transit":false,"i_long":106.858896,"time":2,"distance":1275,"i_lat":-6.212485},{"line":1,"distance":1377,"transit":true,"i_lat":-6.215091,"station_name":"Jatinegara","i_long":106.86807400000001,"time":8,"station_id":"JNG","is_transit":true},{"line":11,"station_id":"POK","i_lat":-6.209188,"station_name":"Pondok Jati","i_long":106.861737,"distance":1236,"is_transit":false,"time":2,"transit":false},{"station_id":"KMT","line":11,"i_lat":-6.193792,"i_long":106.855437,"is_transit":false,"transit":false,"station_name":"Kramat","time":2,"distance":1829},{"station_name":"Gang Sentiong","i_long":106.850107,"time":1,"transit":false,"line":11,"i_lat":-6.185975,"distance":973,"station_id":"GST","is_transit":false},{"distance":1567,"is_transit":false,"station_id":"PSE","station_name":"Pasar Senen","transit":false,"i_long":106.84368,"i_lat":-6.174784,"line":11,"time":8},{"is_transit":false,"station_id":"KMO","distance":1436,"transit":false,"i_long":106.839204,"line":11,"station_name":"Kemayoran","i_lat":-6.161728,"time":4},{"i_long":106.836569,"is_transit":false,"distance":1901,"time":5,"line":11,"transit":false,"station_id":"RJW","station_name":"Rajawali","i_lat":-6.14505},{"transit":true,"i_lat":-6.132549,"is_transit":true,"time":3,"station_name":"Kampung Bandan","i_long":106.826365,"line":4,"station_id":"KPB","distance":1444},{"distance":1364,"time":3,"station_id":"JAKK","is_transit":true,"i_long":106.812439,"station_name":"Jakarta Kota","line":2,"i_lat":-6.137569,"transit":true},{"i_lat":-6.141205,"station_name":"Jayakarta","transit":false,"line":2,"time":4,"distance":1264,"station_id":"JAY","is_transit":false,"i_long":106.820901},{"i_long":106.82482,"i_lat":-6.149769,"station_name":"Manggabesar","time":2,"is_transit":false,"transit":false,"line":2,"distance":1080,"station_id":"MGB"},{"i_long":106.827103,"is_transit":false,"station_name":"Sawah Besar","station_id":"SW","i_lat":-6.160725,"line":2,"time":2,"distance":906,"transit":false}]]}