{"data":[[{"time":0,"line":1,"i_lat":-6.155215,"station_name":"Duri","is_transit":false,"station_id":"DU","transit":false,"distance":0,"i_long":106.800832},{"is_transit":false,"distance":3632,"station_name":"Tanah Abang","station_id":"THB","i_lat":-6.185545,"time":8,"transit":false,"i_long":106.811091,"line":1},{"distance":2029,"line":1,"i_lat":-6.20132,"is_transit":false,"station_name":"Karet","station_id":"KAT","transit":false,"time":5,"i_long":106.816351},{"i_lat":-6.201433,"distance":471,"transit":false,"station_name":"Sudirman Baru","is_transit":false,"i_long":106.819881,"line":1,"time":1,"station_id":"SUDB"},{"station_id":"SUD","i_long":106.822649,"station_name":"Sudirman","is_transit":false,"distance":280,"line":1,"time":1,"i_lat":-6.202263,"transit":false}],[{"time":0,"station_id":"DU","is_transit":false,"distance":0,"i_lat":-6.155215,"station_name":"Duri","line":1,"transit":false,"i_long":106.800832},{"transit":false,"station_id":"AK","is_transit":false,"time":4,"i_lat":-6.144674,"i_long":106.79867,"distance":1230,"station_name":"Angke","line":1},{"time":9,"station_id":"KPB","i_lat":-6.132549,"transit":true,"station_name":"Kampung Bandan","distance":4102,"i_long":106.826365,"line":4,"is_transit":true},{"distance":1364,"station_name":"Jakarta Kota","station_id":"JAKK","time":3,"is_transit":true,"i_lat":-6.137569,"i_long":106.812439,"line":2,"transit":true},{"transit":false,"is_transit":false,"line":2,"station_name":"Jayakarta","station_id":"JAY","i_long":106.820901,"time":4,"i_lat":-6.141205,"distance":1264},{"i_long":106.82482,"line":2,"i_lat":-6.149769,"distance":1080,"transit":false,"station_name":"Manggabesar","time":2,"station_id":"MGB","is_transit":false},{"station_id":"SW","i_lat":-6.160725,"transit":false,"is_transit":false,"time":2,"distance":906,"i_long":106.827103,"line":2,"station_name":"Sawah Besar"},{"i_lat":-6.166716,"station_id":"JUA","transit":false,"line":2,"i_long":106.828284,"is_transit":false,"distance":1149,"time":2,"station_name":"Juanda"},{"i_lat":-6.186295,"line":2,"i_long":106.832183,"distance":2015,"transit":false,"is_transit":false,"station_name":"Gondangdia","station_id":"GDD","time":4},{"i_long":106.840169,"is_transit":false,"i_lat":-6.198556,"transit":false,"time":3,"station_id":"CKI","line":2,"station_name":"Cikini","distance":1750},{"time":4,"i_lat":-6.209883,"is_transit":true,"station_id":"MRI","distance":1590,"i_long":106.84912,"line":2,"station_name":"Manggarai","transit":true},{"transit":false,"station_name":"Sudirman","i_lat":-6.202263,"is_transit":false,"i_long":106.822649,"station_id":"SUD","line":1,"time":4,"distance":3186}],[{"station_name":"Duri","i_lat":-6.155215,"transit":false,"station_id":"DU","is_transit":false,"time":0,"distance":0,"i_long":106.800832,"line":1},{"transit":false,"i_long":106.79867,"station_id":"AK","is_transit":false,"i_lat":-6.144674,"line":1,"station_name":"Angke","time":4,"distance":1230},{"time":9,"station_name":"Kampung Bandan","i_long":106.826365,"line":4,"transit":true,"station_id":"KPB","is_transit":true,"distance":4102,"i_lat":-6.132549},{"station_name":"Rajawali","station_id":"RJW","distance":1444,"i_long":106.836569,"i_lat":-6.14505,"is_transit":false,"time":3,"line":11,"transit":false},{"transit":false,"is_transit":false,"i_lat":-6.161728,"i_long":106.839204,"station_id":"KMO","line":11,"time":5,"station_name":"Kemayoran","distance":1901},{"station_name":"Pasar Senen","i_lat":-6.174784,"line":11,"transit":false,"station_id":"PSE","is_transit":false,"time":4,"i_long":106.84368,"distance":1436},{"line":11,"transit":false,"station_id":"GST","i_lat":-6.185975,"time":8,"is_transit":false,"distance":1567,"station_name":"Gang Sentiong","i_long":106.850107},{"station_id":"KMT","time":1,"i_lat":-6.193792,"transit":false,"is_transit":false,"line":11,"distance":973,"station_name":"Kramat","i_long":106.855437},{"station_id":"POK","time":2,"station_name":"Pondok Jati","line":11,"is_transit":false,"i_lat":-6.209188,"distance":1829,"i_long":106.861737,"transit":false},{"line":1,"transit":true,"station_id":"JNG","time":9,"i_lat":-6.215091,"i_long":106.86807400000001,"is_transit":true,"distance":1236,"station_name":"Jatinegara"},{"transit":false,"station_name":"Matraman","distance":1377,"i_lat":-6.212485,"station_id":"MTR","time":2,"line":1,"i_long":106.858896,"is_transit":false},{"line":2,"station_id":"MRI","distance":1275,"station_name":"Manggarai","transit":false,"is_transit":false,"i_lat":-6.209883,"i_long":106.84912,"time":2},{"station_name":"Sudirman","is_transit":false,"distance":3186,"i_lat":-6.202263,"time":4,"i_long":106.822649,"line":1,"station_id":"SUD","transit":false}]]}