{"data":[[{"station_name":"Duri","line":1,"distance":0,"i_long":106.800832,"is_transit":true,"station_id":"DU","time":0,"i_lat":-6.155215,"transit":false},{"station_id":"THB","station_name":"Tanah Abang","i_long":106.811091,"transit":false,"i_lat":-6.185545,"distance":3632,"time":8,"is_transit":true,"line":1},{"is_transit":false,"distance":2029,"transit":false,"i_long":106.816351,"station_id":"KAT","i_lat":-6.20132,"time":5,"line":1,"station_name":"Karet"},{"station_id":"SUDB","time":1,"transit":false,"i_lat":-6.201433,"station_name":"Sudirman Baru","distance":471,"i_long":106.819881,"is_transit":false,"line":1},{"station_id":"SUD","station_name":"Sudirman","distance":280,"time":1,"i_lat":-6.202263,"is_transit":false,"i_long":106.822649,"transit":false,"line":1}],[{"distance":0,"line":1,"is_transit":true,"transit":false,"station_id":"DU","i_lat":-6.155215,"i_long":106.800832,"station_name":"Duri","time":0},{"is_transit":false,"station_id":"AK","transit":false,"i_lat":-6.144674,"distance":1230,"i_long":106.79867,"line":0,"station_name":"Angke","time":4},{"i_lat":-6.132549,"distance":4102,"station_name":"Kampung Bandan","time":9,"station_id":"KPB","transit":false,"is_transit":true,"i_long":106.826365,"line":0},{"i_lat":-6.137569,"i_long":106.812439,"line":0,"time":3,"station_name":"Jakarta Kota","transit":true,"is_transit":true,"station_id":"JAKK","distance":1364},{"transit":false,"is_transit":false,"time":4,"distance":1264,"i_lat":-6.141205,"i_long":106.820901,"station_name":"Jayakarta","station_id":"JAY","line":7},{"is_transit":false,"line":2,"station_name":"Manggabesar","distance":1080,"station_id":"MGB","transit":false,"i_long":106.82482,"time":2,"i_lat":-6.149769},{"i_long":106.827103,"line":2,"distance":906,"transit":false,"station_name":"Sawah Besar","is_transit":false,"time":2,"i_lat":-6.160725,"station_id":"SW"},{"transit":false,"i_long":106.828284,"station_id":"JUA","i_lat":-6.166716,"line":2,"is_transit":false,"station_name":"Juanda","distance":1149,"time":2},{"is_transit":false,"station_name":"Gondangdia","line":2,"station_id":"GDD","distance":2015,"transit":false,"i_long":106.832183,"i_lat":-6.186295,"time":4},{"transit":false,"line":0,"station_id":"CKI","time":3,"i_long":106.840169,"distance":1750,"station_name":"Cikini","is_transit":false,"i_lat":-6.198556},{"i_lat":-6.209883,"is_transit":true,"transit":true,"line":0,"station_name":"Manggarai","distance":1590,"time":4,"station_id":"MRI","i_long":106.84912},{"i_long":106.822649,"transit":false,"is_transit":false,"station_name":"Sudirman","time":4,"distance":3186,"i_lat":-6.202263,"station_id":"SUD","line":1}],[{"line":1,"station_name":"Duri","distance":0,"i_lat":-6.155215,"transit":false,"i_long":106.800832,"is_transit":true,"time":0,"station_id":"DU"},{"distance":1230,"is_transit":false,"station_name":"Angke","i_long":106.79867,"transit":false,"time":4,"station_id":"AK","line":0,"i_lat":-6.144674},{"station_id":"KPB","is_transit":true,"time":9,"i_lat":-6.132549,"station_name":"Kampung Bandan","line":0,"i_long":106.826365,"transit":true,"distance":4102},{"transit":false,"i_lat":-6.14505,"distance":1444,"station_name":"Rajawali","station_id":"RJW","i_long":106.836569,"line":11,"time":3,"is_transit":false},{"i_long":106.839204,"line":11,"transit":false,"i_lat":-6.161728,"distance":1901,"station_id":"KMO","time":5,"is_transit":false,"station_name":"Kemayoran"},{"station_name":"Pasar Senen","distance":1436,"i_long":106.84368,"line":11,"station_id":"PSE","time":4,"transit":false,"i_lat":-6.174784,"is_transit":false},{"station_id":"GST","time":8,"line":11,"station_name":"Gang Sentiong","is_transit":false,"transit":false,"i_lat":-6.185975,"distance":1567,"i_long":106.850107},{"time":1,"line":11,"transit":false,"i_long":106.855437,"station_name":"Kramat","distance":973,"station_id":"KMT","is_transit":false,"i_lat":-6.193792},{"station_name":"Pondok Jati","is_transit":false,"distance":1829,"transit":false,"i_long":106.861737,"station_id":"POK","time":2,"line":11,"i_lat":-6.209188},{"is_transit":true,"distance":1236,"station_id":"JNG","time":9,"i_long":106.86807400000001,"line":0,"station_name":"Jatinegara","transit":true,"i_lat":-6.215091},{"line":1,"is_transit":false,"transit":false,"time":2,"i_lat":-6.212485,"distance":1377,"station_name":"Matraman","i_long":106.858896,"station_id":"MTR"},{"time":2,"station_id":"MRI","i_long":106.84912,"distance":1275,"station_name":"Manggarai","is_transit":true,"i_lat":-6.209883,"line":0,"transit":false},{"is_transit":false,"station_id":"SUD","time":4,"distance":3186,"station_name":"Sudirman","transit":false,"i_lat":-6.202263,"line":1,"i_long":106.822649}]]}