{"data":[[{"is_transit":false,"i_long":106.800832,"line":1,"station_name":"Duri","i_lat":-6.155215,"time":0,"distance":0,"station_id":"DU","transit":false},{"i_lat":-6.185545,"station_name":"Tanah Abang","i_long":106.811091,"station_id":"THB","is_transit":false,"line":1,"distance":3632,"time":8,"transit":false},{"is_transit":false,"station_name":"Karet","station_id":"KAT","i_lat":-6.20132,"distance":2029,"transit":false,"i_long":106.816351,"time":5,"line":1},{"time":1,"distance":471,"station_id":"SUDB","station_name":"Sudirman Baru","transit":false,"i_lat":-6.201433,"i_long":106.819881,"is_transit":false,"line":1},{"line":1,"distance":280,"time":1,"is_transit":false,"station_id":"SUD","station_name":"Sudirman","i_lat":-6.202263,"transit":false,"i_long":106.822649}],[{"distance":0,"transit":false,"time":0,"i_lat":-6.155215,"station_id":"DU","station_name":"Duri","i_long":106.800832,"line":1,"is_transit":false},{"i_long":106.79867,"line":1,"station_id":"AK","is_transit":false,"distance":1230,"station_name":"Angke","transit":false,"time":4,"i_lat":-6.144674},{"time":9,"station_name":"Kampung Bandan","distance":4102,"is_transit":true,"line":4,"station_id":"KPB","i_lat":-6.132549,"i_long":106.826365,"transit":true},{"i_long":106.812439,"transit":true,"distance":1364,"station_id":"JAKK","is_transit":true,"i_lat":-6.137569,"time":3,"line":2,"station_name":"Jakarta Kota"},{"i_lat":-6.141205,"is_transit":false,"time":4,"distance":1264,"transit":false,"i_long":106.820901,"station_id":"JAY","station_name":"Jayakarta","line":2},{"line":2,"station_name":"Manggabesar","is_transit":false,"time":2,"i_lat":-6.149769,"station_id":"MGB","transit":false,"i_long":106.82482,"distance":1080},{"is_transit":false,"i_long":106.827103,"i_lat":-6.160725,"line":2,"station_id":"SW","distance":906,"station_name":"Sawah Besar","transit":false,"time":2},{"distance":1149,"i_lat":-6.166716,"station_id":"JUA","station_name":"Juanda","is_transit":false,"line":2,"i_long":106.828284,"time":2,"transit":false},{"is_transit":false,"station_name":"Gondangdia","i_long":106.832183,"line":2,"station_id":"GDD","distance":2015,"transit":false,"i_lat":-6.186295,"time":4},{"transit":false,"line":2,"i_lat":-6.198556,"distance":1750,"station_id":"CKI","station_name":"Cikini","time":3,"is_transit":false,"i_long":106.840169},{"is_transit":true,"time":4,"line":2,"station_name":"Manggarai","station_id":"MRI","i_lat":-6.209883,"transit":true,"distance":1590,"i_long":106.84912},{"time":4,"station_id":"SUD","is_transit":false,"transit":false,"station_name":"Sudirman","distance":3186,"line":1,"i_lat":-6.202263,"i_long":106.822649}],[{"station_id":"DU","station_name":"Duri","i_long":106.800832,"i_lat":-6.155215,"time":0,"is_transit":false,"transit":false,"distance":0,"line":1},{"time":4,"distance":1230,"station_name":"Angke","is_transit":false,"i_lat":-6.144674,"i_long":106.79867,"station_id":"AK","line":1,"transit":false},{"transit":true,"i_long":106.826365,"line":4,"station_id":"KPB","i_lat":-6.132549,"distance":4102,"station_name":"Kampung Bandan","is_transit":true,"time":9},{"station_id":"RJW","distance":1444,"transit":false,"is_transit":false,"time":3,"i_lat":-6.14505,"i_long":106.836569,"station_name":"Rajawali","line":11},{"is_transit":false,"line":11,"station_id":"KMO","i_long":106.839204,"i_lat":-6.161728,"time":5,"station_name":"Kemayoran","transit":false,"distance":1901},{"distance":1436,"transit":false,"i_lat":-6.174784,"i_long":106.84368,"line":11,"time":4,"station_name":"Pasar Senen","station_id":"PSE","is_transit":false},{"line":11,"station_name":"Gang Sentiong","transit":false,"i_long":106.850107,"distance":1567,"is_transit":false,"time":8,"station_id":"GST","i_lat":-6.185975},{"is_transit":false,"station_name":"Kramat","station_id":"KMT","distance":973,"time":1,"line":11,"i_lat":-6.193792,"transit":false,"i_long":106.855437},{"is_transit":false,"station_id":"POK","i_lat":-6.209188,"i_long":106.861737,"station_name":"Pondok Jati","line":11,"time":2,"distance":1829,"transit":false},{"i_long":106.86807400000001,"transit":true,"station_id":"JNG","time":9,"line":1,"distance":1236,"i_lat":-6.215091,"station_name":"Jatinegara","is_transit":true},{"i_long":106.858896,"i_lat":-6.212485,"distance":1377,"is_transit":false,"station_id":"MTR","time":2,"line":1,"transit":false,"station_name":"Matraman"},{"i_lat":-6.209883,"i_long":106.84912,"station_name":"Manggarai","distance":1275,"station_id":"MRI","line":2,"time":2,"transit":false,"is_transit":false},{"line":1,"time":4,"station_name":"Sudirman","transit":false,"i_lat":-6.202263,"is_transit":false,"station_id":"SUD","i_long":106.822649,"distance":3186}]]}