{"data":[[{"line":1,"station_id":"DU","time":0,"i_lat":-6.155215,"transit":false,"station_name":"Duri","distance":0,"is_transit":false,"i_long":106.800832},{"i_long":106.811091,"station_id":"THB","is_transit":false,"line":1,"station_name":"Tanah Abang","distance":3632,"transit":false,"time":8,"i_lat":-6.185545}],[{"i_long":106.800832,"station_id":"DU","station_name":"Duri","transit":false,"distance":0,"time":0,"line":1,"i_lat":-6.155215,"is_transit":false},{"i_long":106.79867,"line":1,"station_id":"AK","time":4,"distance":1230,"transit":false,"is_transit":false,"station_name":"Angke","i_lat":-6.144674},{"transit":true,"line":4,"is_transit":true,"i_long":106.826365,"station_name":"Kampung Bandan","distance":4102,"station_id":"KPB","time":9,"i_lat":-6.132549},{"i_long":106.812439,"station_id":"JAKK","transit":true,"is_transit":true,"line":2,"i_lat":-6.137569,"station_name":"Jakarta Kota","distance":1364,"time":3},{"station_id":"JAY","is_transit":false,"i_long":106.820901,"line":2,"i_lat":-6.141205,"station_name":"Jayakarta","transit":false,"distance":1264,"time":4},{"is_transit":false,"station_name":"Manggabesar","time":2,"distance":1080,"i_lat":-6.149769,"station_id":"MGB","transit":false,"line":2,"i_long":106.82482},{"station_id":"SW","station_name":"Sawah Besar","is_transit":false,"time":2,"i_lat":-6.160725,"transit":false,"distance":906,"line":2,"i_long":106.827103},{"is_transit":false,"station_name":"Juanda","time":2,"distance":1149,"i_lat":-6.166716,"line":2,"i_long":106.828284,"station_id":"JUA","transit":false},{"i_lat":-6.186295,"line":2,"distance":2015,"transit":false,"time":4,"i_long":106.832183,"station_id":"GDD","is_transit":false,"station_name":"Gondangdia"},{"line":2,"is_transit":false,"time":3,"station_id":"CKI","distance":1750,"i_lat":-6.198556,"station_name":"Cikini","i_long":106.840169,"transit":false},{"is_transit":true,"line":2,"i_lat":-6.209883,"station_id":"MRI","distance":1590,"time":4,"station_name":"Manggarai","i_long":106.84912,"transit":true},{"distance":3186,"is_transit":false,"time":4,"i_lat":-6.202263,"line":1,"transit":false,"station_name":"Sudirman","i_long":106.822649,"station_id":"SUD"},{"is_transit":false,"station_id":"SUDB","transit":false,"station_name":"Sudirman Baru","distance":280,"i_lat":-6.201433,"line":1,"time":1,"i_long":106.819881},{"is_transit":false,"distance":471,"transit":false,"i_long":106.816351,"line":1,"station_name":"Karet","time":1,"station_id":"KAT","i_lat":-6.20132},{"distance":2029,"time":5,"transit":false,"i_lat":-6.185545,"station_name":"Tanah Abang","i_long":106.811091,"station_id":"THB","line":1,"is_transit":false}],[{"time":0,"distance":0,"transit":false,"station_name":"Duri","i_long":106.800832,"is_transit":false,"i_lat":-6.155215,"line":1,"station_id":"DU"},{"is_transit":false,"i_lat":-6.144674,"distance":1230,"station_name":"Angke","i_long":106.79867,"station_id":"AK","transit":false,"line":1,"time":4},{"line":4,"distance":4102,"i_long":106.826365,"station_name":"Kampung Bandan","i_lat":-6.132549,"time":9,"is_transit":true,"transit":true,"station_id":"KPB"},{"i_lat":-6.14505,"time":3,"station_id":"RJW","transit":false,"line":11,"station_name":"Rajawali","distance":1444,"is_transit":false,"i_long":106.836569},{"station_id":"KMO","transit":false,"is_transit":false,"i_lat":-6.161728,"line":11,"i_long":106.839204,"station_name":"Kemayoran","time":5,"distance":1901},{"time":4,"i_lat":-6.174784,"station_name":"Pasar Senen","station_id":"PSE","transit":false,"distance":1436,"line":11,"i_long":106.84368,"is_transit":false},{"distance":1567,"line":11,"station_id":"GST","time":8,"i_lat":-6.185975,"is_transit":false,"transit":false,"station_name":"Gang Sentiong","i_long":106.850107},{"transit":false,"station_name":"Kramat","i_long":106.855437,"station_id":"KMT","time":1,"is_transit":false,"distance":973,"i_lat":-6.193792,"line":11},{"transit":false,"station_name":"Pondok Jati","is_transit":false,"distance":1829,"i_lat":-6.209188,"i_long":106.861737,"time":2,"line":11,"station_id":"POK"},{"transit":true,"station_name":"Jatinegara","station_id":"JNG","is_transit":true,"distance":1236,"i_lat":-6.215091,"time":9,"i_long":106.86807400000001,"line":1},{"i_lat":-6.212485,"distance":1377,"station_id":"MTR","station_name":"Matraman","is_transit":false,"i_long":106.858896,"time":2,"line":1,"transit":false},{"station_id":"MRI","i_lat":-6.209883,"station_name":"Manggarai","line":2,"i_long":106.84912,"distance":1275,"time":2,"transit":false,"is_transit":false},{"i_lat":-6.202263,"station_id":"SUD","is_transit":false,"distance":3186,"time":4,"station_name":"Sudirman","line":1,"transit":false,"i_long":106.822649},{"i_long":106.819881,"time":1,"line":1,"is_transit":false,"transit":false,"station_name":"Sudirman Baru","station_id":"SUDB","distance":280,"i_lat":-6.201433},{"transit":false,"line":1,"is_transit":false,"time":1,"distance":471,"i_long":106.816351,"station_id":"KAT","station_name":"Karet","i_lat":-6.20132},{"is_transit":false,"transit":false,"station_name":"Tanah Abang","distance":2029,"i_lat":-6.185545,"i_long":106.811091,"time":5,"line":1,"station_id":"THB"}]]}