{"data":[[{"is_transit":false,"i_lat":-6.155215,"line":1,"distance":0,"i_long":106.800832,"station_name":"Duri","time":0,"station_id":"DU","transit":false},{"i_lat":-6.185545,"transit":false,"line":1,"station_id":"THB","is_transit":false,"distance":3632,"time":8,"station_name":"Tanah Abang","i_long":106.811091},{"is_transit":false,"distance":2029,"station_name":"Karet","station_id":"KAT","i_long":106.816351,"time":5,"transit":false,"line":1,"i_lat":-6.20132},{"is_transit":false,"station_name":"Sudirman Baru","station_id":"SUDB","distance":471,"transit":false,"i_lat":-6.201433,"line":1,"time":1,"i_long":106.819881},{"station_name":"Sudirman","distance":280,"transit":false,"i_long":106.822649,"station_id":"SUD","time":1,"line":1,"i_lat":-6.202263,"is_transit":false},{"line":2,"transit":true,"station_name":"Manggarai","is_transit":true,"station_id":"MRI","distance":3186,"i_lat":-6.209883,"i_long":106.84912,"time":4},{"distance":2610,"station_name":"Tebet","transit":false,"time":4,"i_lat":-6.226659,"line":2,"station_id":"TEB","is_transit":false,"i_long":106.857948},{"time":2,"i_long":106.856607,"transit":false,"distance":1230,"station_name":"Cawang","station_id":"CW","is_transit":false,"i_lat":-6.242512,"line":2},{"i_long":106.85449,"transit":false,"station_id":"DRN","i_lat":-6.255332,"station_name":"Duren Kalibata","is_transit":false,"time":3,"distance":1546,"line":2},{"line":2,"station_name":"Pasar Minggu Baru","i_lat":-6.263214,"transit":false,"time":2,"i_long":106.851577,"is_transit":false,"station_id":"PSMB","distance":824},{"station_id":"PSM","distance":2380,"is_transit":false,"i_long":106.843999,"time":2,"station_name":"Pasar Minggu","line":2,"transit":false,"i_lat":-6.2842400000000005},{"i_lat":-6.3080680000000005,"transit":false,"is_transit":false,"time":4,"station_name":"Tanjung Barat","distance":2820,"station_id":"TNT","i_long":106.838896,"line":2}],[{"line":1,"station_id":"DU","i_lat":-6.155215,"is_transit":false,"time":0,"i_long":106.800832,"distance":0,"transit":false,"station_name":"Duri"},{"i_long":106.79867,"station_id":"AK","time":4,"station_name":"Angke","is_transit":false,"i_lat":-6.144674,"transit":false,"distance":1230,"line":1},{"transit":true,"i_long":106.826365,"station_id":"KPB","line":4,"is_transit":true,"station_name":"Kampung Bandan","distance":4102,"time":9,"i_lat":-6.132549},{"station_id":"JAKK","i_lat":-6.137569,"distance":1364,"time":3,"transit":true,"is_transit":true,"station_name":"Jakarta Kota","i_long":106.812439,"line":2},{"line":2,"station_name":"Jayakarta","i_long":106.820901,"time":4,"transit":false,"is_transit":false,"station_id":"JAY","distance":1264,"i_lat":-6.141205},{"station_id":"MGB","i_lat":-6.149769,"time":2,"line":2,"station_name":"Manggabesar","distance":1080,"is_transit":false,"transit":false,"i_long":106.82482},{"i_long":106.827103,"is_transit":false,"line":2,"transit":false,"station_id":"SW","station_name":"Sawah Besar","distance":906,"time":2,"i_lat":-6.160725},{"transit":false,"station_name":"Juanda","i_lat":-6.166716,"station_id":"JUA","distance":1149,"time":2,"is_transit":false,"i_long":106.828284,"line":2},{"transit":false,"is_transit":false,"i_lat":-6.186295,"station_name":"Gondangdia","station_id":"GDD","time":4,"line":2,"distance":2015,"i_long":106.832183},{"station_id":"CKI","transit":false,"line":2,"station_name":"Cikini","distance":1750,"is_transit":false,"time":3,"i_lat":-6.198556,"i_long":106.840169},{"transit":false,"time":4,"station_id":"MRI","i_lat":-6.209883,"i_long":106.84912,"station_name":"Manggarai","line":2,"distance":1590,"is_transit":false},{"distance":2610,"is_transit":false,"station_id":"TEB","line":2,"i_long":106.857948,"station_name":"Tebet","time":4,"transit":false,"i_lat":-6.226659},{"is_transit":false,"transit":false,"station_id":"CW","time":2,"line":2,"distance":1230,"station_name":"Cawang","i_lat":-6.242512,"i_long":106.856607},{"station_id":"DRN","i_lat":-6.255332,"line":2,"time":3,"distance":1546,"station_name":"Duren Kalibata","is_transit":false,"i_long":106.85449,"transit":false},{"i_long":106.851577,"line":2,"station_id":"PSMB","transit":false,"i_lat":-6.263214,"station_name":"Pasar Minggu Baru","is_transit":false,"time":2,"distance":824},{"is_transit":false,"i_long":106.843999,"station_name":"Pasar Minggu","transit":false,"station_id":"PSM","i_lat":-6.2842400000000005,"distance":2380,"line":2,"time":2},{"station_id":"TNT","i_long":106.838896,"distance":2820,"time":4,"i_lat":-6.3080680000000005,"line":2,"station_name":"Tanjung Barat","is_transit":false,"transit":false}],[{"time":0,"transit":false,"i_long":106.800832,"is_transit":false,"station_id":"DU","i_lat":-6.155215,"line":1,"distance":0,"station_name":"Duri"},{"station_name":"Angke","is_transit":false,"station_id":"AK","i_long":106.79867,"line":1,"i_lat":-6.144674,"transit":false,"distance":1230,"time":4},{"i_lat":-6.132549,"i_long":106.826365,"time":9,"is_transit":true,"line":4,"distance":4102,"station_id":"KPB","transit":true,"station_name":"Kampung Bandan"},{"station_name":"Rajawali","i_lat":-6.14505,"transit":false,"is_transit":false,"station_id":"RJW","time":3,"i_long":106.836569,"distance":1444,"line":11},{"i_long":106.839204,"line":11,"time":5,"is_transit":false,"distance":1901,"station_id":"KMO","transit":false,"station_name":"Kemayoran","i_lat":-6.161728},{"station_name":"Pasar Senen","station_id":"PSE","time":4,"transit":false,"line":11,"is_transit":false,"i_lat":-6.174784,"distance":1436,"i_long":106.84368},{"is_transit":false,"line":11,"distance":1567,"i_long":106.850107,"station_name":"Gang Sentiong","time":8,"station_id":"GST","i_lat":-6.185975,"transit":false},{"line":11,"distance":973,"station_name":"Kramat","is_transit":false,"i_lat":-6.193792,"i_long":106.855437,"time":1,"transit":false,"station_id":"KMT"},{"i_lat":-6.209188,"line":11,"distance":1829,"station_name":"Pondok Jati","transit":false,"station_id":"POK","time":2,"is_transit":false,"i_long":106.861737},{"transit":true,"distance":1236,"i_long":106.86807400000001,"station_name":"Jatinegara","i_lat":-6.215091,"is_transit":true,"station_id":"JNG","line":1,"time":9},{"i_long":106.858896,"line":1,"station_id":"MTR","transit":false,"time":2,"station_name":"Matraman","distance":1377,"is_transit":false,"i_lat":-6.212485},{"i_long":106.84912,"station_id":"MRI","line":2,"distance":1275,"time":2,"i_lat":-6.209883,"station_name":"Manggarai","transit":true,"is_transit":true},{"station_id":"TEB","i_lat":-6.226659,"line":2,"time":4,"station_name":"Tebet","distance":2610,"is_transit":false,"transit":false,"i_long":106.857948},{"i_lat":-6.242512,"time":2,"distance":1230,"transit":false,"i_long":106.856607,"station_name":"Cawang","line":2,"station_id":"CW","is_transit":false},{"station_id":"DRN","distance":1546,"i_lat":-6.255332,"line":2,"is_transit":false,"station_name":"Duren Kalibata","transit":false,"time":3,"i_long":106.85449},{"i_long":106.851577,"distance":824,"i_lat":-6.263214,"time":2,"transit":false,"station_name":"Pasar Minggu Baru","is_transit":false,"station_id":"PSMB","line":2},{"distance":2380,"i_lat":-6.2842400000000005,"transit":false,"station_name":"Pasar Minggu","time":2,"station_id":"PSM","line":2,"is_transit":false,"i_long":106.843999},{"is_transit":false,"station_id":"TNT","line":2,"distance":2820,"transit":false,"i_long":106.838896,"i_lat":-6.3080680000000005,"time":4,"station_name":"Tanjung Barat"}]]}