{"data":[[{"i_lat":-6.155215,"i_long":106.800832,"line":1,"transit":false,"station_name":"Duri","distance":0,"time":0,"is_transit":false,"station_id":"DU"},{"i_long":106.811091,"station_id":"THB","line":1,"i_lat":-6.185545,"transit":false,"distance":3632,"time":8,"is_transit":false,"station_name":"Tanah Abang"},{"transit":false,"time":5,"station_id":"KAT","is_transit":false,"station_name":"Karet","i_lat":-6.20132,"line":1,"i_long":106.816351,"distance":2029},{"time":1,"i_lat":-6.201433,"transit":false,"is_transit":false,"station_id":"SUDB","i_long":106.819881,"line":1,"distance":471,"station_name":"Sudirman Baru"},{"i_lat":-6.202263,"transit":false,"station_id":"SUD","time":1,"line":1,"is_transit":false,"distance":280,"i_long":106.822649,"station_name":"Sudirman"},{"transit":false,"i_lat":-6.209883,"station_id":"MRI","is_transit":false,"line":2,"time":4,"i_long":106.84912,"station_name":"Manggarai","distance":3186},{"time":2,"i_lat":-6.212485,"line":1,"station_id":"MTR","transit":false,"i_long":106.858896,"is_transit":false,"station_name":"Matraman","distance":1275},{"distance":1377,"transit":false,"i_long":106.86807400000001,"i_lat":-6.215091,"is_transit":false,"station_name":"Jatinegara","station_id":"JNG","time":8,"line":1},{"distance":3395,"station_name":"Klender","transit":false,"i_long":106.899548,"time":3,"i_lat":-6.2135,"line":1,"station_id":"KLD","is_transit":false},{"i_lat":-6.215568,"line":1,"station_id":"BUA","i_long":106.922662,"is_transit":false,"time":2,"transit":false,"station_name":"Buaran","distance":3100},{"distance":1305,"i_lat":-6.217455,"station_name":"Klenderbaru","time":1,"line":1,"transit":false,"is_transit":false,"station_id":"KLDB","i_long":106.939679},{"is_transit":false,"line":1,"distance":1385,"i_lat":-6.219053,"transit":false,"time":8,"station_id":"CUK","i_long":106.951283,"station_name":"Cakung"},{"transit":false,"i_lat":-6.224515,"is_transit":false,"time":3,"station_name":"Kranji","distance":3097,"station_id":"KRI","i_long":106.977657,"line":1},{"line":1,"time":4,"distance":2520,"i_long":106.997013,"is_transit":false,"transit":false,"station_name":"Bekasi","station_id":"BKS","i_lat":-6.236616},{"is_transit":false,"distance":2368,"station_id":"BKST","station_name":"Bekasi Timur","i_lat":-6.248029,"i_long":107.016735,"line":1,"transit":false,"time":2},{"distance":4460,"station_name":"Tambun","station_id":"TB","is_transit":false,"time":7,"transit":false,"i_lat":-6.258864,"i_long":107.055722,"line":1},{"station_id":"CIT","line":1,"time":3,"is_transit":false,"transit":false,"distance":3420,"i_lat":-6.261877,"i_long":107.083084,"station_name":"Cibitung"},{"transit":false,"distance":2800,"station_id":"TLM","i_long":107.093313,"line":1,"i_lat":-6.262938,"time":2,"station_name":"Metland Telaga Murni","is_transit":false}],[{"station_name":"Duri","line":1,"station_id":"DU","is_transit":false,"transit":false,"distance":0,"i_lat":-6.155215,"i_long":106.800832,"time":0},{"is_transit":false,"line":1,"i_long":106.79867,"distance":1230,"time":4,"transit":false,"station_id":"AK","station_name":"Angke","i_lat":-6.144674},{"distance":4102,"station_id":"KPB","is_transit":true,"station_name":"Kampung Bandan","i_lat":-6.132549,"line":4,"transit":true,"time":9,"i_long":106.826365},{"station_id":"RJW","time":3,"i_lat":-6.14505,"i_long":106.836569,"is_transit":false,"distance":1444,"line":11,"transit":false,"station_name":"Rajawali"},{"time":5,"i_lat":-6.161728,"i_long":106.839204,"station_name":"Kemayoran","line":11,"is_transit":false,"transit":false,"distance":1901,"station_id":"KMO"},{"station_id":"PSE","distance":1436,"station_name":"Pasar Senen","transit":false,"i_lat":-6.174784,"is_transit":false,"time":4,"i_long":106.84368,"line":11},{"i_long":106.850107,"transit":false,"time":8,"i_lat":-6.185975,"line":11,"station_name":"Gang Sentiong","station_id":"GST","is_transit":false,"distance":1567},{"i_lat":-6.193792,"transit":false,"station_id":"KMT","i_long":106.855437,"distance":973,"is_transit":false,"station_name":"Kramat","line":11,"time":1},{"station_name":"Pondok Jati","is_transit":false,"distance":1829,"time":2,"i_lat":-6.209188,"line":11,"station_id":"POK","i_long":106.861737,"transit":false},{"is_transit":true,"time":9,"line":1,"i_long":106.86807400000001,"transit":true,"station_name":"Jatinegara","distance":1236,"i_lat":-6.215091,"station_id":"JNG"},{"station_name":"Klender","distance":3395,"transit":false,"time":3,"station_id":"KLD","is_transit":false,"i_lat":-6.2135,"i_long":106.899548,"line":1},{"i_long":106.922662,"is_transit":false,"transit":false,"time":2,"i_lat":-6.215568,"station_id":"BUA","distance":3100,"station_name":"Buaran","line":1},{"distance":1305,"is_transit":false,"i_lat":-6.217455,"line":1,"transit":false,"i_long":106.939679,"station_id":"KLDB","time":1,"station_name":"Klenderbaru"},{"i_long":106.951283,"distance":1385,"i_lat":-6.219053,"is_transit":false,"station_name":"Cakung","line":1,"transit":false,"time":8,"station_id":"CUK"},{"i_long":106.977657,"distance":3097,"time":3,"is_transit":false,"station_name":"Kranji","line":1,"station_id":"KRI","transit":false,"i_lat":-6.224515},{"time":4,"i_long":106.997013,"distance":2520,"line":1,"i_lat":-6.236616,"transit":false,"station_name":"Bekasi","station_id":"BKS","is_transit":false},{"time":2,"station_id":"BKST","line":1,"station_name":"Bekasi Timur","is_transit":false,"i_long":107.016735,"distance":2368,"i_lat":-6.248029,"transit":false},{"time":7,"line":1,"station_id":"TB","station_name":"Tambun","transit":false,"distance":4460,"i_lat":-6.258864,"i_long":107.055722,"is_transit":false},{"time":3,"station_id":"CIT","i_lat":-6.261877,"transit":false,"distance":3420,"i_long":107.083084,"is_transit":false,"station_name":"Cibitung","line":1},{"i_lat":-6.262938,"distance":2800,"i_long":107.093313,"line":1,"time":2,"transit":false,"station_name":"Metland Telaga Murni","station_id":"TLM","is_transit":false}],[{"is_transit":false,"transit":false,"time":0,"station_id":"DU","station_name":"Duri","i_lat":-6.155215,"i_long":106.800832,"distance":0,"line":1},{"station_id":"AK","station_name":"Angke","transit":false,"time":4,"distance":1230,"i_lat":-6.144674,"i_long":106.79867,"is_transit":false,"line":1},{"i_lat":-6.132549,"distance":4102,"time":9,"station_id":"KPB","line":4,"i_long":106.826365,"station_name":"Kampung Bandan","is_transit":true,"transit":true},{"station_name":"Jakarta Kota","is_transit":true,"i_long":106.812439,"i_lat":-6.137569,"transit":true,"time":3,"distance":1364,"station_id":"JAKK","line":2},{"is_transit":false,"i_long":106.820901,"transit":false,"station_name":"Jayakarta","distance":1264,"time":4,"line":2,"station_id":"JAY","i_lat":-6.141205},{"transit":false,"distance":1080,"i_long":106.82482,"station_name":"Manggabesar","is_transit":false,"time":2,"line":2,"station_id":"MGB","i_lat":-6.149769},{"i_lat":-6.160725,"time":2,"transit":false,"distance":906,"is_transit":false,"station_name":"Sawah Besar","station_id":"SW","i_long":106.827103,"line":2},{"station_id":"JUA","time":2,"i_long":106.828284,"line":2,"distance":1149,"station_name":"Juanda","i_lat":-6.166716,"is_transit":false,"transit":false},{"station_id":"GDD","distance":2015,"station_name":"Gondangdia","time":4,"i_long":106.832183,"transit":false,"line":2,"is_transit":false,"i_lat":-6.186295},{"transit":false,"i_lat":-6.198556,"distance":1750,"station_id":"CKI","i_long":106.840169,"time":3,"station_name":"Cikini","is_transit":false,"line":2},{"is_transit":true,"distance":1590,"station_id":"MRI","i_lat":-6.209883,"line":2,"i_long":106.84912,"transit":true,"time":4,"station_name":"Manggarai"},{"line":1,"station_id":"MTR","is_transit":false,"station_name":"Matraman","time":2,"transit":false,"distance":1275,"i_long":106.858896,"i_lat":-6.212485},{"station_name":"Jatinegara","distance":1377,"station_id":"JNG","transit":false,"i_lat":-6.215091,"i_long":106.86807400000001,"line":1,"is_transit":false,"time":8},{"time":3,"line":1,"i_long":106.899548,"distance":3395,"i_lat":-6.2135,"is_transit":false,"station_id":"KLD","station_name":"Klender","transit":false},{"line":1,"transit":false,"i_lat":-6.215568,"distance":3100,"station_id":"BUA","time":2,"i_long":106.922662,"station_name":"Buaran","is_transit":false},{"distance":1305,"i_lat":-6.217455,"station_id":"KLDB","time":1,"is_transit":false,"i_long":106.939679,"line":1,"transit":false,"station_name":"Klenderbaru"},{"i_lat":-6.219053,"i_long":106.951283,"transit":false,"station_name":"Cakung","time":8,"distance":1385,"is_transit":false,"line":1,"station_id":"CUK"},{"i_lat":-6.224515,"i_long":106.977657,"transit":false,"time":3,"distance":3097,"is_transit":false,"line":1,"station_name":"Kranji","station_id":"KRI"},{"time":4,"distance":2520,"station_name":"Bekasi","station_id":"BKS","transit":false,"line":1,"is_transit":false,"i_lat":-6.236616,"i_long":106.997013},{"station_name":"Bekasi Timur","time":2,"i_lat":-6.248029,"transit":false,"i_long":107.016735,"is_transit":false,"distance":2368,"line":1,"station_id":"BKST"},{"distance":4460,"transit":false,"station_id":"TB","station_name":"Tambun","time":7,"i_lat":-6.258864,"i_long":107.055722,"is_transit":false,"line":1},{"is_transit":false,"i_lat":-6.261877,"line":1,"i_long":107.083084,"transit":false,"station_name":"Cibitung","distance":3420,"station_id":"CIT","time":3},{"station_name":"Metland Telaga Murni","time":2,"is_transit":false,"transit":false,"station_id":"TLM","i_long":107.093313,"i_lat":-6.262938,"line":1,"distance":2800}],[{"station_id":"DU","transit":false,"station_name":"Duri","line":1,"is_transit":false,"i_long":106.800832,"time":0,"distance":0,"i_lat":-6.155215},{"time":8,"station_id":"THB","is_transit":false,"transit":false,"station_name":"Tanah Abang","i_long":106.811091,"distance":3632,"i_lat":-6.185545,"line":1},{"line":1,"station_name":"Karet","transit":false,"station_id":"KAT","distance":2029,"is_transit":false,"time":5,"i_lat":-6.20132,"i_long":106.816351},{"transit":false,"line":1,"i_long":106.819881,"is_transit":false,"i_lat":-6.201433,"distance":471,"station_name":"Sudirman Baru","time":1,"station_id":"SUDB"},{"station_id":"SUD","i_long":106.822649,"transit":false,"is_transit":false,"station_name":"Sudirman","time":1,"distance":280,"i_lat":-6.202263,"line":1},{"transit":true,"distance":3186,"station_id":"MRI","i_lat":-6.209883,"time":4,"line":2,"i_long":106.84912,"station_name":"Manggarai","is_transit":true},{"distance":1590,"line":2,"time":4,"station_id":"CKI","i_long":106.840169,"station_name":"Cikini","transit":false,"is_transit":false,"i_lat":-6.198556},{"distance":1750,"transit":false,"line":2,"i_lat":-6.186295,"i_long":106.832183,"is_transit":false,"station_id":"GDD","station_name":"Gondangdia","time":3},{"distance":2015,"transit":false,"is_transit":false,"station_name":"Juanda","time":4,"station_id":"JUA","i_long":106.828284,"i_lat":-6.166716,"line":2},{"distance":1149,"i_lat":-6.160725,"station_id":"SW","station_name":"Sawah Besar","i_long":106.827103,"is_transit":false,"line":2,"transit":false,"time":2},{"i_lat":-6.149769,"station_name":"Manggabesar","distance":906,"transit":false,"time":2,"line":2,"is_transit":false,"station_id":"MGB","i_long":106.82482},{"time":2,"distance":1080,"i_long":106.820901,"transit":false,"station_id":"JAY","i_lat":-6.141205,"line":2,"is_transit":false,"station_name":"Jayakarta"},{"transit":true,"is_transit":true,"i_lat":-6.137569,"time":4,"station_name":"Jakarta Kota","station_id":"JAKK","i_long":106.812439,"distance":1264,"line":2},{"line":4,"distance":1364,"time":3,"station_name":"Kampung Bandan","transit":true,"is_transit":true,"station_id":"KPB","i_lat":-6.132549,"i_long":106.826365},{"i_long":106.836569,"i_lat":-6.14505,"station_name":"Rajawali","is_transit":false,"transit":false,"station_id":"RJW","line":11,"time":3,"distance":1444},{"distance":1901,"transit":false,"station_id":"KMO","i_long":106.839204,"station_name":"Kemayoran","time":5,"line":11,"i_lat":-6.161728,"is_transit":false},{"station_name":"Pasar Senen","transit":false,"distance":1436,"time":4,"i_lat":-6.174784,"i_long":106.84368,"is_transit":false,"station_id":"PSE","line":11},{"is_transit":false,"transit":false,"i_lat":-6.185975,"distance":1567,"time":8,"station_name":"Gang Sentiong","line":11,"station_id":"GST","i_long":106.850107},{"i_long":106.855437,"time":1,"i_lat":-6.193792,"line":11,"is_transit":false,"distance":973,"transit":false,"station_id":"KMT","station_name":"Kramat"},{"i_lat":-6.209188,"station_id":"POK","i_long":106.861737,"line":11,"transit":false,"station_name":"Pondok Jati","time":2,"is_transit":false,"distance":1829},{"is_transit":true,"transit":true,"time":9,"i_lat":-6.215091,"station_id":"JNG","distance":1236,"i_long":106.86807400000001,"station_name":"Jatinegara","line":1},{"distance":3395,"station_id":"KLD","time":3,"transit":false,"is_transit":false,"i_long":106.899548,"line":1,"i_lat":-6.2135,"station_name":"Klender"},{"i_lat":-6.215568,"station_name":"Buaran","line":1,"distance":3100,"station_id":"BUA","is_transit":false,"time":2,"i_long":106.922662,"transit":false},{"i_lat":-6.217455,"is_transit":false,"transit":false,"i_long":106.939679,"time":1,"station_name":"Klenderbaru","distance":1305,"station_id":"KLDB","line":1},{"station_id":"CUK","i_lat":-6.219053,"transit":false,"i_long":106.951283,"time":8,"line":1,"distance":1385,"is_transit":false,"station_name":"Cakung"},{"time":3,"station_name":"Kranji","distance":3097,"i_lat":-6.224515,"line":1,"i_long":106.977657,"transit":false,"is_transit":false,"station_id":"KRI"},{"is_transit":false,"distance":2520,"i_lat":-6.236616,"station_id":"BKS","station_name":"Bekasi","i_long":106.997013,"transit":false,"time":4,"line":1},{"time":2,"station_id":"BKST","i_lat":-6.248029,"line":1,"transit":false,"distance":2368,"is_transit":false,"station_name":"Bekasi Timur","i_long":107.016735},{"distance":4460,"i_long":107.055722,"is_transit":false,"transit":false,"station_name":"Tambun","time":7,"station_id":"TB","i_lat":-6.258864,"line":1},{"distance":3420,"i_lat":-6.261877,"i_long":107.083084,"is_transit":false,"transit":false,"time":3,"line":1,"station_id":"CIT","station_name":"Cibitung"},{"i_lat":-6.262938,"station_id":"TLM","line":1,"i_long":107.093313,"time":2,"distance":2800,"is_transit":false,"transit":false,"station_name":"Metland Telaga Murni"}]]}