{"data":[[{"is_transit":false,"time":0,"distance":0,"transit":false,"station_name":"Duri","i_lat":-6.155215,"i_long":106.800832,"station_id":"DU","line":1},{"distance":3632,"transit":false,"time":8,"is_transit":false,"i_lat":-6.185545,"station_name":"Tanah Abang","line":1,"i_long":106.811091,"station_id":"THB"}],[{"station_name":"Duri","i_lat":-6.155215,"distance":0,"is_transit":false,"transit":false,"i_long":106.800832,"line":1,"time":0,"station_id":"DU"},{"line":1,"distance":1230,"i_long":106.79867,"transit":false,"time":4,"station_id":"AK","station_name":"Angke","i_lat":-6.144674,"is_transit":false},{"i_long":106.826365,"station_id":"KPB","station_name":"Kampung Bandan","line":4,"is_transit":true,"transit":true,"time":9,"distance":4102,"i_lat":-6.132549},{"i_long":106.812439,"line":2,"station_id":"JAKK","distance":1364,"transit":true,"is_transit":true,"time":3,"station_name":"Jakarta Kota","i_lat":-6.137569},{"station_name":"Jayakarta","i_lat":-6.141205,"time":4,"distance":1264,"is_transit":false,"transit":false,"station_id":"JAY","i_long":106.820901,"line":2},{"transit":false,"is_transit":false,"station_name":"Manggabesar","distance":1080,"time":2,"i_long":106.82482,"station_id":"MGB","i_lat":-6.149769,"line":2},{"time":2,"station_name":"Sawah Besar","i_lat":-6.160725,"line":2,"is_transit":false,"transit":false,"i_long":106.827103,"station_id":"SW","distance":906},{"i_long":106.828284,"distance":1149,"line":2,"time":2,"transit":false,"is_transit":false,"station_name":"Juanda","i_lat":-6.166716,"station_id":"JUA"},{"is_transit":false,"station_id":"GDD","distance":2015,"station_name":"Gondangdia","i_long":106.832183,"time":4,"line":2,"i_lat":-6.186295,"transit":false},{"distance":1750,"i_long":106.840169,"line":2,"station_id":"CKI","station_name":"Cikini","i_lat":-6.198556,"time":3,"is_transit":false,"transit":false},{"i_long":106.84912,"time":4,"line":2,"station_id":"MRI","is_transit":true,"transit":true,"i_lat":-6.209883,"distance":1590,"station_name":"Manggarai"},{"distance":3186,"time":4,"line":1,"i_lat":-6.202263,"i_long":106.822649,"is_transit":false,"station_id":"SUD","transit":false,"station_name":"Sudirman"},{"transit":false,"station_id":"SUDB","distance":280,"is_transit":false,"line":1,"i_lat":-6.201433,"time":1,"station_name":"Sudirman Baru","i_long":106.819881},{"i_lat":-6.20132,"distance":471,"line":1,"station_id":"KAT","transit":false,"i_long":106.816351,"time":1,"station_name":"Karet","is_transit":false},{"transit":false,"station_id":"THB","distance":2029,"station_name":"Tanah Abang","i_long":106.811091,"i_lat":-6.185545,"time":5,"is_transit":false,"line":1}],[{"line":1,"is_transit":false,"transit":false,"time":0,"distance":0,"station_id":"DU","station_name":"Duri","i_long":106.800832,"i_lat":-6.155215},{"i_long":106.79867,"i_lat":-6.144674,"line":1,"distance":1230,"station_id":"AK","transit":false,"time":4,"station_name":"Angke","is_transit":false},{"distance":4102,"i_lat":-6.132549,"station_id":"KPB","is_transit":true,"transit":true,"time":9,"station_name":"Kampung Bandan","i_long":106.826365,"line":4},{"transit":false,"i_lat":-6.14505,"station_name":"Rajawali","station_id":"RJW","distance":1444,"is_transit":false,"i_long":106.836569,"line":11,"time":3},{"i_long":106.839204,"line":11,"is_transit":false,"i_lat":-6.161728,"distance":1901,"station_name":"Kemayoran","time":5,"station_id":"KMO","transit":false},{"line":11,"i_lat":-6.174784,"i_long":106.84368,"station_name":"Pasar Senen","is_transit":false,"transit":false,"station_id":"PSE","distance":1436,"time":4},{"station_id":"GST","is_transit":false,"line":11,"time":8,"transit":false,"i_long":106.850107,"i_lat":-6.185975,"station_name":"Gang Sentiong","distance":1567},{"transit":false,"line":11,"is_transit":false,"station_id":"KMT","time":1,"distance":973,"station_name":"Kramat","i_long":106.855437,"i_lat":-6.193792},{"time":2,"line":11,"is_transit":false,"transit":false,"distance":1829,"i_lat":-6.209188,"i_long":106.861737,"station_name":"Pondok Jati","station_id":"POK"},{"time":9,"i_lat":-6.215091,"line":1,"i_long":106.86807400000001,"is_transit":true,"station_name":"Jatinegara","distance":1236,"station_id":"JNG","transit":true},{"line":1,"transit":false,"is_transit":false,"i_lat":-6.212485,"time":2,"i_long":106.858896,"station_id":"MTR","distance":1377,"station_name":"Matraman"},{"is_transit":false,"line":2,"i_lat":-6.209883,"station_name":"Manggarai","transit":false,"time":2,"station_id":"MRI","i_long":106.84912,"distance":1275},{"i_long":106.822649,"i_lat":-6.202263,"distance":3186,"time":4,"line":1,"transit":false,"station_name":"Sudirman","is_transit":false,"station_id":"SUD"},{"distance":280,"transit":false,"i_long":106.819881,"station_id":"SUDB","i_lat":-6.201433,"time":1,"station_name":"Sudirman Baru","is_transit":false,"line":1},{"station_name":"Karet","is_transit":false,"station_id":"KAT","line":1,"i_lat":-6.20132,"i_long":106.816351,"time":1,"transit":false,"distance":471},{"station_name":"Tanah Abang","i_lat":-6.185545,"station_id":"THB","i_long":106.811091,"distance":2029,"transit":false,"line":1,"time":5,"is_transit":false}]]}