{"data":[[{"station_name":"Duri","i_long":106.800832,"i_lat":-6.155215,"station_id":"DU","time":0,"distance":0,"line":1,"is_transit":false,"transit":false},{"time":8,"distance":3632,"is_transit":false,"station_id":"THB","station_name":"Tanah Abang","i_lat":-6.185545,"i_long":106.811091,"line":1,"transit":false},{"transit":false,"is_transit":false,"distance":2029,"i_long":106.816351,"station_name":"Karet","station_id":"KAT","time":5,"i_lat":-6.20132,"line":1},{"time":1,"is_transit":false,"line":1,"station_name":"Sudirman Baru","transit":false,"station_id":"SUDB","distance":471,"i_long":106.819881,"i_lat":-6.201433},{"i_long":106.822649,"station_name":"Sudirman","is_transit":false,"line":1,"i_lat":-6.202263,"transit":false,"station_id":"SUD","distance":280,"time":1},{"station_name":"Manggarai","transit":false,"station_id":"MRI","time":4,"line":2,"is_transit":false,"distance":3186,"i_lat":-6.209883,"i_long":106.84912},{"station_name":"Matraman","transit":false,"i_long":106.858896,"line":1,"distance":1275,"i_lat":-6.212485,"is_transit":false,"station_id":"MTR","time":2},{"line":1,"is_transit":false,"i_long":106.86807400000001,"time":8,"station_name":"Jatinegara","i_lat":-6.215091,"station_id":"JNG","distance":1377,"transit":false},{"distance":3395,"transit":false,"time":3,"station_name":"Klender","is_transit":false,"i_lat":-6.2135,"line":1,"station_id":"KLD","i_long":106.899548},{"station_id":"BUA","line":1,"transit":false,"station_name":"Buaran","time":2,"i_long":106.922662,"is_transit":false,"i_lat":-6.215568,"distance":3100},{"transit":false,"is_transit":false,"station_id":"KLDB","distance":1305,"i_lat":-6.217455,"station_name":"Klenderbaru","line":1,"time":1,"i_long":106.939679},{"i_long":106.951283,"line":1,"station_id":"CUK","is_transit":false,"time":8,"i_lat":-6.219053,"station_name":"Cakung","transit":false,"distance":1385},{"i_long":106.977657,"line":1,"station_name":"Kranji","station_id":"KRI","distance":3097,"time":3,"i_lat":-6.224515,"transit":false,"is_transit":false},{"i_lat":-6.236616,"line":1,"is_transit":false,"station_id":"BKS","time":4,"i_long":106.997013,"transit":false,"distance":2520,"station_name":"Bekasi"},{"time":2,"i_lat":-6.248029,"distance":2368,"i_long":107.016735,"station_name":"Bekasi Timur","station_id":"BKST","transit":false,"is_transit":false,"line":1},{"line":1,"distance":4460,"time":7,"station_id":"TB","i_long":107.055722,"station_name":"Tambun","i_lat":-6.258864,"transit":false,"is_transit":false},{"line":1,"i_long":107.083084,"i_lat":-6.261877,"is_transit":false,"station_name":"Cibitung","station_id":"CIT","distance":3420,"transit":false,"time":3},{"i_lat":-6.262938,"station_id":"TLM","station_name":"Metland Telaga Murni","transit":false,"distance":2800,"i_long":107.093313,"time":2,"line":1,"is_transit":false}],[{"distance":0,"is_transit":false,"i_lat":-6.155215,"transit":false,"station_name":"Duri","station_id":"DU","time":0,"line":1,"i_long":106.800832},{"line":1,"is_transit":false,"station_id":"AK","time":4,"i_lat":-6.144674,"i_long":106.79867,"distance":1230,"station_name":"Angke","transit":false},{"station_id":"KPB","i_lat":-6.132549,"is_transit":true,"transit":true,"distance":4102,"line":4,"i_long":106.826365,"station_name":"Kampung Bandan","time":9},{"i_long":106.836569,"transit":false,"station_name":"Rajawali","line":11,"station_id":"RJW","time":3,"distance":1444,"is_transit":false,"i_lat":-6.14505},{"station_name":"Kemayoran","distance":1901,"station_id":"KMO","transit":false,"is_transit":false,"time":5,"i_lat":-6.161728,"i_long":106.839204,"line":11},{"i_lat":-6.174784,"station_id":"PSE","distance":1436,"transit":false,"i_long":106.84368,"line":11,"time":4,"is_transit":false,"station_name":"Pasar Senen"},{"line":11,"is_transit":false,"distance":1567,"transit":false,"i_lat":-6.185975,"station_id":"GST","station_name":"Gang Sentiong","time":8,"i_long":106.850107},{"distance":973,"time":1,"line":11,"station_id":"KMT","is_transit":false,"i_lat":-6.193792,"i_long":106.855437,"station_name":"Kramat","transit":false},{"time":2,"distance":1829,"station_id":"POK","station_name":"Pondok Jati","is_transit":false,"i_lat":-6.209188,"line":11,"i_long":106.861737,"transit":false},{"transit":true,"station_name":"Jatinegara","i_lat":-6.215091,"i_long":106.86807400000001,"line":1,"is_transit":true,"time":9,"station_id":"JNG","distance":1236},{"station_id":"KLD","time":3,"distance":3395,"i_long":106.899548,"transit":false,"is_transit":false,"station_name":"Klender","line":1,"i_lat":-6.2135},{"i_lat":-6.215568,"i_long":106.922662,"transit":false,"distance":3100,"is_transit":false,"station_id":"BUA","line":1,"station_name":"Buaran","time":2},{"line":1,"station_id":"KLDB","i_long":106.939679,"time":1,"distance":1305,"transit":false,"station_name":"Klenderbaru","is_transit":false,"i_lat":-6.217455},{"distance":1385,"i_lat":-6.219053,"line":1,"i_long":106.951283,"station_id":"CUK","transit":false,"time":8,"station_name":"Cakung","is_transit":false},{"station_name":"Kranji","i_lat":-6.224515,"is_transit":false,"transit":false,"distance":3097,"i_long":106.977657,"time":3,"station_id":"KRI","line":1},{"time":4,"distance":2520,"station_id":"BKS","i_lat":-6.236616,"station_name":"Bekasi","transit":false,"is_transit":false,"i_long":106.997013,"line":1},{"station_name":"Bekasi Timur","station_id":"BKST","is_transit":false,"distance":2368,"i_long":107.016735,"line":1,"i_lat":-6.248029,"time":2,"transit":false},{"station_name":"Tambun","time":7,"distance":4460,"line":1,"i_long":107.055722,"station_id":"TB","is_transit":false,"transit":false,"i_lat":-6.258864},{"i_lat":-6.261877,"is_transit":false,"station_name":"Cibitung","station_id":"CIT","distance":3420,"transit":false,"i_long":107.083084,"line":1,"time":3},{"transit":false,"is_transit":false,"i_long":107.093313,"line":1,"time":2,"station_id":"TLM","station_name":"Metland Telaga Murni","i_lat":-6.262938,"distance":2800}],[{"station_id":"DU","transit":false,"station_name":"Duri","time":0,"is_transit":false,"i_long":106.800832,"line":1,"distance":0,"i_lat":-6.155215},{"time":4,"distance":1230,"transit":false,"station_name":"Angke","i_lat":-6.144674,"i_long":106.79867,"is_transit":false,"line":1,"station_id":"AK"},{"transit":true,"time":9,"i_long":106.826365,"line":4,"i_lat":-6.132549,"station_id":"KPB","is_transit":true,"distance":4102,"station_name":"Kampung Bandan"},{"i_lat":-6.137569,"station_name":"Jakarta Kota","i_long":106.812439,"transit":true,"station_id":"JAKK","distance":1364,"time":3,"line":2,"is_transit":true},{"line":2,"is_transit":false,"time":4,"i_lat":-6.141205,"transit":false,"station_name":"Jayakarta","station_id":"JAY","distance":1264,"i_long":106.820901},{"station_id":"MGB","i_lat":-6.149769,"time":2,"line":2,"transit":false,"is_transit":false,"distance":1080,"station_name":"Manggabesar","i_long":106.82482},{"is_transit":false,"station_name":"Sawah Besar","time":2,"i_long":106.827103,"distance":906,"transit":false,"line":2,"station_id":"SW","i_lat":-6.160725},{"line":2,"i_long":106.828284,"distance":1149,"i_lat":-6.166716,"is_transit":false,"station_name":"Juanda","station_id":"JUA","transit":false,"time":2},{"i_lat":-6.186295,"transit":false,"station_name":"Gondangdia","time":4,"line":2,"distance":2015,"is_transit":false,"i_long":106.832183,"station_id":"GDD"},{"time":3,"transit":false,"station_id":"CKI","i_lat":-6.198556,"i_long":106.840169,"distance":1750,"line":2,"is_transit":false,"station_name":"Cikini"},{"line":2,"transit":true,"station_name":"Manggarai","distance":1590,"is_transit":true,"i_lat":-6.209883,"station_id":"MRI","time":4,"i_long":106.84912},{"transit":false,"time":2,"is_transit":false,"i_lat":-6.212485,"station_name":"Matraman","station_id":"MTR","i_long":106.858896,"line":1,"distance":1275},{"i_lat":-6.215091,"time":8,"distance":1377,"station_name":"Jatinegara","line":1,"station_id":"JNG","transit":false,"i_long":106.86807400000001,"is_transit":false},{"transit":false,"station_name":"Klender","i_long":106.899548,"line":1,"distance":3395,"station_id":"KLD","time":3,"is_transit":false,"i_lat":-6.2135},{"distance":3100,"i_long":106.922662,"line":1,"station_id":"BUA","station_name":"Buaran","i_lat":-6.215568,"time":2,"transit":false,"is_transit":false},{"i_lat":-6.217455,"transit":false,"station_name":"Klenderbaru","station_id":"KLDB","is_transit":false,"i_long":106.939679,"distance":1305,"line":1,"time":1},{"is_transit":false,"i_lat":-6.219053,"time":8,"station_id":"CUK","distance":1385,"line":1,"station_name":"Cakung","transit":false,"i_long":106.951283},{"station_id":"KRI","transit":false,"distance":3097,"i_lat":-6.224515,"line":1,"is_transit":false,"time":3,"station_name":"Kranji","i_long":106.977657},{"time":4,"line":1,"station_id":"BKS","station_name":"Bekasi","i_long":106.997013,"distance":2520,"i_lat":-6.236616,"transit":false,"is_transit":false},{"station_name":"Bekasi Timur","transit":false,"is_transit":false,"i_long":107.016735,"distance":2368,"time":2,"line":1,"station_id":"BKST","i_lat":-6.248029},{"transit":false,"time":7,"i_lat":-6.258864,"i_long":107.055722,"station_id":"TB","distance":4460,"station_name":"Tambun","line":1,"is_transit":false},{"i_lat":-6.261877,"transit":false,"time":3,"i_long":107.083084,"is_transit":false,"station_id":"CIT","distance":3420,"line":1,"station_name":"Cibitung"},{"time":2,"transit":false,"is_transit":false,"station_name":"Metland Telaga Murni","i_lat":-6.262938,"i_long":107.093313,"station_id":"TLM","line":1,"distance":2800}],[{"distance":0,"line":1,"transit":false,"i_long":106.800832,"station_id":"DU","is_transit":false,"i_lat":-6.155215,"station_name":"Duri","time":0},{"line":1,"transit":false,"station_id":"THB","is_transit":false,"station_name":"Tanah Abang","distance":3632,"i_long":106.811091,"time":8,"i_lat":-6.185545},{"time":5,"station_id":"KAT","distance":2029,"station_name":"Karet","transit":false,"is_transit":false,"i_lat":-6.20132,"i_long":106.816351,"line":1},{"station_id":"SUDB","transit":false,"i_lat":-6.201433,"line":1,"distance":471,"time":1,"station_name":"Sudirman Baru","is_transit":false,"i_long":106.819881},{"transit":false,"i_long":106.822649,"station_name":"Sudirman","station_id":"SUD","time":1,"distance":280,"is_transit":false,"i_lat":-6.202263,"line":1},{"i_lat":-6.209883,"i_long":106.84912,"transit":true,"is_transit":true,"line":2,"distance":3186,"station_name":"Manggarai","station_id":"MRI","time":4},{"i_lat":-6.198556,"station_name":"Cikini","line":2,"station_id":"CKI","i_long":106.840169,"time":4,"transit":false,"is_transit":false,"distance":1590},{"is_transit":false,"station_name":"Gondangdia","station_id":"GDD","time":3,"line":2,"distance":1750,"i_lat":-6.186295,"i_long":106.832183,"transit":false},{"transit":false,"line":2,"i_long":106.828284,"i_lat":-6.166716,"time":4,"station_name":"Juanda","is_transit":false,"distance":2015,"station_id":"JUA"},{"i_long":106.827103,"is_transit":false,"station_name":"Sawah Besar","line":2,"distance":1149,"station_id":"SW","i_lat":-6.160725,"transit":false,"time":2},{"transit":false,"i_long":106.82482,"i_lat":-6.149769,"is_transit":false,"station_id":"MGB","time":2,"station_name":"Manggabesar","distance":906,"line":2},{"time":2,"i_lat":-6.141205,"station_name":"Jayakarta","distance":1080,"is_transit":false,"transit":false,"i_long":106.820901,"line":2,"station_id":"JAY"},{"i_long":106.812439,"i_lat":-6.137569,"station_id":"JAKK","is_transit":true,"station_name":"Jakarta Kota","distance":1264,"transit":true,"time":4,"line":2},{"transit":true,"i_lat":-6.132549,"station_name":"Kampung Bandan","time":3,"distance":1364,"is_transit":true,"line":4,"i_long":106.826365,"station_id":"KPB"},{"i_long":106.836569,"transit":false,"station_id":"RJW","station_name":"Rajawali","line":11,"distance":1444,"time":3,"is_transit":false,"i_lat":-6.14505},{"station_id":"KMO","distance":1901,"i_lat":-6.161728,"line":11,"is_transit":false,"i_long":106.839204,"station_name":"Kemayoran","time":5,"transit":false},{"i_lat":-6.174784,"line":11,"is_transit":false,"transit":false,"i_long":106.84368,"station_name":"Pasar Senen","time":4,"distance":1436,"station_id":"PSE"},{"is_transit":false,"transit":false,"i_lat":-6.185975,"i_long":106.850107,"line":11,"station_id":"GST","distance":1567,"time":8,"station_name":"Gang Sentiong"},{"transit":false,"distance":973,"station_id":"KMT","station_name":"Kramat","i_lat":-6.193792,"is_transit":false,"time":1,"line":11,"i_long":106.855437},{"distance":1829,"is_transit":false,"line":11,"station_id":"POK","station_name":"Pondok Jati","time":2,"i_lat":-6.209188,"i_long":106.861737,"transit":false},{"station_name":"Jatinegara","i_long":106.86807400000001,"line":1,"is_transit":true,"station_id":"JNG","i_lat":-6.215091,"time":9,"transit":true,"distance":1236},{"time":3,"is_transit":false,"i_lat":-6.2135,"line":1,"distance":3395,"i_long":106.899548,"transit":false,"station_name":"Klender","station_id":"KLD"},{"is_transit":false,"station_id":"BUA","station_name":"Buaran","i_long":106.922662,"transit":false,"i_lat":-6.215568,"time":2,"line":1,"distance":3100},{"i_long":106.939679,"time":1,"station_name":"Klenderbaru","distance":1305,"line":1,"station_id":"KLDB","is_transit":false,"transit":false,"i_lat":-6.217455},{"station_name":"Cakung","line":1,"transit":false,"i_long":106.951283,"distance":1385,"i_lat":-6.219053,"is_transit":false,"station_id":"CUK","time":8},{"i_lat":-6.224515,"time":3,"station_name":"Kranji","transit":false,"station_id":"KRI","is_transit":false,"distance":3097,"line":1,"i_long":106.977657},{"station_id":"BKS","line":1,"is_transit":false,"time":4,"i_long":106.997013,"i_lat":-6.236616,"transit":false,"station_name":"Bekasi","distance":2520},{"is_transit":false,"distance":2368,"station_name":"Bekasi Timur","i_long":107.016735,"transit":false,"i_lat":-6.248029,"line":1,"time":2,"station_id":"BKST"},{"transit":false,"station_id":"TB","line":1,"distance":4460,"time":7,"station_name":"Tambun","is_transit":false,"i_lat":-6.258864,"i_long":107.055722},{"time":3,"is_transit":false,"station_name":"Cibitung","station_id":"CIT","transit":false,"line":1,"distance":3420,"i_lat":-6.261877,"i_long":107.083084},{"distance":2800,"transit":false,"station_name":"Metland Telaga Murni","station_id":"TLM","i_lat":-6.262938,"i_long":107.093313,"line":1,"time":2,"is_transit":false}]]}