{"data":[[{"i_lat":-6.155215,"line":1,"i_long":106.800832,"distance":0,"station_name":"Duri","transit":false,"station_id":"DU","time":0,"is_transit":false},{"i_lat":-6.185545,"i_long":106.811091,"time":8,"station_id":"THB","station_name":"Tanah Abang","is_transit":false,"transit":false,"line":1,"distance":3632},{"is_transit":false,"line":1,"station_id":"KAT","distance":2029,"transit":false,"i_lat":-6.20132,"i_long":106.816351,"time":5,"station_name":"Karet"},{"transit":false,"i_lat":-6.201433,"station_name":"Sudirman Baru","distance":471,"is_transit":false,"time":1,"i_long":106.819881,"line":1,"station_id":"SUDB"},{"time":1,"station_id":"SUD","station_name":"Sudirman","transit":false,"line":1,"is_transit":false,"i_long":106.822649,"distance":280,"i_lat":-6.202263},{"i_long":106.84912,"time":4,"station_id":"MRI","is_transit":true,"distance":3186,"transit":true,"i_lat":-6.209883,"line":2,"station_name":"Manggarai"},{"i_long":106.857948,"station_name":"Tebet","is_transit":false,"transit":false,"station_id":"TEB","i_lat":-6.226659,"time":4,"distance":2610,"line":2},{"station_name":"Cawang","i_lat":-6.242512,"line":2,"station_id":"CW","i_long":106.856607,"transit":false,"is_transit":false,"time":2,"distance":1230},{"station_name":"Duren Kalibata","transit":false,"i_lat":-6.255332,"time":3,"station_id":"DRN","line":2,"distance":1546,"is_transit":false,"i_long":106.85449},{"station_id":"PSMB","station_name":"Pasar Minggu Baru","transit":false,"distance":824,"is_transit":false,"i_lat":-6.263214,"line":2,"i_long":106.851577,"time":2},{"time":2,"station_id":"PSM","transit":false,"line":2,"i_lat":-6.2842400000000005,"i_long":106.843999,"distance":2380,"station_name":"Pasar Minggu","is_transit":false},{"transit":false,"i_lat":-6.3080680000000005,"i_long":106.838896,"distance":2820,"is_transit":false,"station_id":"TNT","time":4,"line":2,"station_name":"Tanjung Barat"}],[{"line":1,"transit":false,"i_lat":-6.155215,"i_long":106.800832,"time":0,"distance":0,"station_id":"DU","is_transit":false,"station_name":"Duri"},{"is_transit":false,"line":1,"distance":1230,"time":4,"station_name":"Angke","transit":false,"i_lat":-6.144674,"station_id":"AK","i_long":106.79867},{"distance":4102,"is_transit":true,"station_id":"KPB","transit":true,"i_long":106.826365,"station_name":"Kampung Bandan","time":9,"i_lat":-6.132549,"line":4},{"distance":1364,"station_id":"JAKK","i_lat":-6.137569,"line":2,"time":3,"station_name":"Jakarta Kota","transit":true,"is_transit":true,"i_long":106.812439},{"station_id":"JAY","station_name":"Jayakarta","i_long":106.820901,"time":4,"i_lat":-6.141205,"distance":1264,"line":2,"transit":false,"is_transit":false},{"time":2,"line":2,"i_long":106.82482,"distance":1080,"transit":false,"station_id":"MGB","station_name":"Manggabesar","i_lat":-6.149769,"is_transit":false},{"time":2,"line":2,"transit":false,"station_name":"Sawah Besar","station_id":"SW","distance":906,"is_transit":false,"i_lat":-6.160725,"i_long":106.827103},{"i_lat":-6.166716,"station_name":"Juanda","time":2,"line":2,"i_long":106.828284,"transit":false,"is_transit":false,"station_id":"JUA","distance":1149},{"line":2,"i_long":106.832183,"transit":false,"distance":2015,"station_name":"Gondangdia","time":4,"station_id":"GDD","is_transit":false,"i_lat":-6.186295},{"time":3,"station_name":"Cikini","station_id":"CKI","transit":false,"distance":1750,"i_lat":-6.198556,"line":2,"is_transit":false,"i_long":106.840169},{"distance":1590,"station_id":"MRI","station_name":"Manggarai","i_lat":-6.209883,"time":4,"i_long":106.84912,"line":2,"is_transit":false,"transit":false},{"station_name":"Tebet","distance":2610,"i_lat":-6.226659,"is_transit":false,"i_long":106.857948,"time":4,"station_id":"TEB","transit":false,"line":2},{"station_name":"Cawang","transit":false,"i_lat":-6.242512,"time":2,"distance":1230,"station_id":"CW","is_transit":false,"i_long":106.856607,"line":2},{"i_long":106.85449,"i_lat":-6.255332,"transit":false,"time":3,"station_id":"DRN","line":2,"distance":1546,"is_transit":false,"station_name":"Duren Kalibata"},{"i_long":106.851577,"line":2,"time":2,"distance":824,"station_id":"PSMB","station_name":"Pasar Minggu Baru","transit":false,"is_transit":false,"i_lat":-6.263214},{"is_transit":false,"i_long":106.843999,"station_id":"PSM","transit":false,"distance":2380,"line":2,"i_lat":-6.2842400000000005,"station_name":"Pasar Minggu","time":2},{"time":4,"distance":2820,"transit":false,"is_transit":false,"station_name":"Tanjung Barat","i_lat":-6.3080680000000005,"i_long":106.838896,"station_id":"TNT","line":2}],[{"station_id":"DU","line":1,"i_lat":-6.155215,"i_long":106.800832,"is_transit":false,"transit":false,"station_name":"Duri","time":0,"distance":0},{"station_name":"Angke","i_long":106.79867,"time":4,"transit":false,"line":1,"i_lat":-6.144674,"is_transit":false,"distance":1230,"station_id":"AK"},{"time":9,"distance":4102,"station_id":"KPB","station_name":"Kampung Bandan","transit":true,"i_long":106.826365,"i_lat":-6.132549,"line":4,"is_transit":true},{"is_transit":false,"transit":false,"distance":1444,"station_id":"RJW","i_long":106.836569,"line":11,"station_name":"Rajawali","i_lat":-6.14505,"time":3},{"i_long":106.839204,"is_transit":false,"distance":1901,"time":5,"line":11,"transit":false,"station_name":"Kemayoran","station_id":"KMO","i_lat":-6.161728},{"transit":false,"i_lat":-6.174784,"is_transit":false,"time":4,"station_name":"Pasar Senen","i_long":106.84368,"line":11,"station_id":"PSE","distance":1436},{"distance":1567,"time":8,"station_id":"GST","is_transit":false,"i_long":106.850107,"station_name":"Gang Sentiong","line":11,"i_lat":-6.185975,"transit":false},{"i_lat":-6.193792,"station_name":"Kramat","transit":false,"line":11,"is_transit":false,"time":1,"distance":973,"station_id":"KMT","i_long":106.855437},{"time":2,"station_name":"Pondok Jati","distance":1829,"i_long":106.861737,"line":11,"is_transit":false,"transit":false,"i_lat":-6.209188,"station_id":"POK"},{"is_transit":true,"i_lat":-6.215091,"line":1,"station_id":"JNG","transit":true,"time":9,"station_name":"Jatinegara","distance":1236,"i_long":106.86807400000001},{"transit":false,"distance":1377,"i_long":106.858896,"station_id":"MTR","line":1,"is_transit":false,"station_name":"Matraman","i_lat":-6.212485,"time":2},{"is_transit":true,"station_id":"MRI","i_long":106.84912,"line":2,"distance":1275,"time":2,"i_lat":-6.209883,"transit":true,"station_name":"Manggarai"},{"station_id":"TEB","is_transit":false,"transit":false,"station_name":"Tebet","i_lat":-6.226659,"line":2,"distance":2610,"i_long":106.857948,"time":4},{"i_long":106.856607,"is_transit":false,"distance":1230,"time":2,"station_id":"CW","i_lat":-6.242512,"line":2,"station_name":"Cawang","transit":false},{"line":2,"transit":false,"time":3,"distance":1546,"station_name":"Duren Kalibata","i_lat":-6.255332,"station_id":"DRN","is_transit":false,"i_long":106.85449},{"station_name":"Pasar Minggu Baru","line":2,"time":2,"transit":false,"is_transit":false,"station_id":"PSMB","i_long":106.851577,"distance":824,"i_lat":-6.263214},{"i_long":106.843999,"line":2,"time":2,"distance":2380,"station_name":"Pasar Minggu","is_transit":false,"transit":false,"station_id":"PSM","i_lat":-6.2842400000000005},{"line":2,"time":4,"distance":2820,"is_transit":false,"transit":false,"i_long":106.838896,"station_name":"Tanjung Barat","i_lat":-6.3080680000000005,"station_id":"TNT"}]]}