{"data":[[{"is_transit":true,"station_name":"Duri","i_lat":-6.155215,"i_long":106.800832,"transit":false,"station_id":"DU","time":0,"line":1,"distance":0},{"transit":false,"time":8,"is_transit":true,"station_name":"Tanah Abang","i_long":106.811091,"i_lat":-6.185545,"distance":3632,"station_id":"THB","line":1},{"transit":false,"station_name":"Karet","line":1,"i_lat":-6.20132,"time":5,"station_id":"KAT","i_long":106.816351,"is_transit":false,"distance":2029},{"station_id":"SUDB","time":1,"is_transit":false,"i_long":106.819881,"distance":471,"transit":false,"station_name":"Sudirman Baru","i_lat":-6.201433,"line":1},{"i_long":106.822649,"transit":false,"station_name":"Sudirman","station_id":"SUD","is_transit":false,"i_lat":-6.202263,"distance":280,"time":1,"line":1},{"is_transit":true,"i_long":106.84912,"line":0,"distance":3186,"i_lat":-6.209883,"transit":false,"station_name":"Manggarai","time":4,"station_id":"MRI"},{"line":1,"station_id":"MTR","distance":1275,"transit":false,"time":2,"is_transit":false,"i_long":106.858896,"i_lat":-6.212485,"station_name":"Matraman"},{"distance":1377,"is_transit":true,"i_long":106.86807400000001,"station_id":"JNG","i_lat":-6.215091,"transit":false,"time":8,"line":0,"station_name":"Jatinegara"},{"i_long":106.899548,"station_name":"Klender","line":1,"time":3,"transit":false,"distance":3395,"is_transit":false,"i_lat":-6.2135,"station_id":"KLD"},{"time":2,"distance":3100,"is_transit":false,"station_name":"Buaran","i_lat":-6.215568,"station_id":"BUA","i_long":106.922662,"line":0,"transit":false},{"is_transit":false,"station_id":"KLDB","transit":false,"station_name":"Klenderbaru","time":1,"i_lat":-6.217455,"i_long":106.939679,"line":1,"distance":1305},{"i_lat":-6.219053,"line":0,"time":8,"is_transit":false,"station_name":"Cakung","station_id":"CUK","transit":false,"distance":1385,"i_long":106.951283},{"line":1,"i_lat":-6.224515,"is_transit":false,"transit":false,"i_long":106.977657,"station_id":"KRI","station_name":"Kranji","time":3,"distance":3097},{"line":0,"transit":false,"station_name":"Bekasi","is_transit":false,"distance":2520,"time":4,"i_lat":-6.236616,"station_id":"BKS","i_long":106.997013},{"is_transit":false,"i_long":107.016735,"line":0,"station_id":"BKST","time":2,"i_lat":-6.248029,"transit":false,"station_name":"Bekasi Timur","distance":2368},{"station_id":"TB","distance":4460,"time":7,"i_lat":-6.258864,"station_name":"Tambun","transit":false,"is_transit":false,"i_long":107.055722,"line":1},{"station_name":"Cibitung","i_lat":-6.261877,"station_id":"CIT","line":0,"distance":3420,"i_long":107.083084,"is_transit":false,"transit":false,"time":3},{"station_name":"Metland Telaga Murni","time":2,"i_lat":-6.262938,"station_id":"TLM","line":1,"i_long":107.093313,"transit":false,"distance":2800,"is_transit":false}],[{"station_name":"Duri","time":0,"station_id":"DU","line":1,"i_long":106.800832,"distance":0,"transit":false,"i_lat":-6.155215,"is_transit":true},{"i_long":106.79867,"line":0,"is_transit":false,"distance":1230,"time":4,"station_name":"Angke","i_lat":-6.144674,"transit":false,"station_id":"AK"},{"station_id":"KPB","transit":true,"is_transit":true,"i_long":106.826365,"i_lat":-6.132549,"time":9,"station_name":"Kampung Bandan","line":0,"distance":4102},{"i_long":106.836569,"transit":false,"time":3,"station_id":"RJW","is_transit":false,"line":11,"distance":1444,"i_lat":-6.14505,"station_name":"Rajawali"},{"time":5,"station_name":"Kemayoran","i_lat":-6.161728,"distance":1901,"i_long":106.839204,"transit":false,"line":11,"is_transit":false,"station_id":"KMO"},{"transit":false,"station_id":"PSE","distance":1436,"is_transit":false,"line":11,"i_long":106.84368,"i_lat":-6.174784,"station_name":"Pasar Senen","time":4},{"i_long":106.850107,"station_id":"GST","is_transit":false,"i_lat":-6.185975,"transit":false,"distance":1567,"time":8,"station_name":"Gang Sentiong","line":11},{"distance":973,"time":1,"station_name":"Kramat","i_long":106.855437,"is_transit":false,"line":11,"transit":false,"i_lat":-6.193792,"station_id":"KMT"},{"time":2,"station_name":"Pondok Jati","transit":false,"i_lat":-6.209188,"line":11,"i_long":106.861737,"distance":1829,"is_transit":false,"station_id":"POK"},{"i_lat":-6.215091,"line":0,"transit":true,"is_transit":true,"distance":1236,"time":9,"i_long":106.86807400000001,"station_id":"JNG","station_name":"Jatinegara"},{"station_name":"Klender","is_transit":false,"line":1,"time":3,"i_lat":-6.2135,"transit":false,"i_long":106.899548,"station_id":"KLD","distance":3395},{"distance":3100,"line":0,"i_long":106.922662,"transit":false,"is_transit":false,"station_name":"Buaran","i_lat":-6.215568,"station_id":"BUA","time":2},{"station_id":"KLDB","distance":1305,"is_transit":false,"i_lat":-6.217455,"station_name":"Klenderbaru","i_long":106.939679,"time":1,"line":1,"transit":false},{"line":0,"time":8,"is_transit":false,"distance":1385,"transit":false,"station_name":"Cakung","station_id":"CUK","i_lat":-6.219053,"i_long":106.951283},{"station_id":"KRI","distance":3097,"transit":false,"line":1,"time":3,"is_transit":false,"station_name":"Kranji","i_lat":-6.224515,"i_long":106.977657},{"transit":false,"station_name":"Bekasi","i_long":106.997013,"distance":2520,"i_lat":-6.236616,"is_transit":false,"station_id":"BKS","time":4,"line":0},{"i_long":107.016735,"is_transit":false,"transit":false,"station_name":"Bekasi Timur","i_lat":-6.248029,"line":0,"station_id":"BKST","distance":2368,"time":2},{"is_transit":false,"i_lat":-6.258864,"i_long":107.055722,"transit":false,"station_id":"TB","station_name":"Tambun","time":7,"distance":4460,"line":1},{"i_long":107.083084,"distance":3420,"station_id":"CIT","is_transit":false,"i_lat":-6.261877,"station_name":"Cibitung","transit":false,"time":3,"line":0},{"station_id":"TLM","is_transit":false,"transit":false,"time":2,"station_name":"Metland Telaga Murni","i_lat":-6.262938,"line":1,"distance":2800,"i_long":107.093313}],[{"station_name":"Duri","i_lat":-6.155215,"transit":false,"station_id":"DU","i_long":106.800832,"line":1,"is_transit":true,"time":0,"distance":0},{"i_long":106.79867,"transit":false,"distance":1230,"is_transit":false,"station_name":"Angke","line":0,"station_id":"AK","i_lat":-6.144674,"time":4},{"station_name":"Kampung Bandan","i_long":106.826365,"transit":false,"is_transit":true,"station_id":"KPB","line":0,"time":9,"distance":4102,"i_lat":-6.132549},{"station_name":"Jakarta Kota","station_id":"JAKK","is_transit":true,"i_lat":-6.137569,"i_long":106.812439,"distance":1364,"transit":true,"time":3,"line":0},{"distance":1264,"transit":false,"time":4,"i_lat":-6.141205,"station_id":"JAY","i_long":106.820901,"line":7,"is_transit":false,"station_name":"Jayakarta"},{"station_id":"MGB","distance":1080,"i_lat":-6.149769,"line":2,"is_transit":false,"time":2,"i_long":106.82482,"transit":false,"station_name":"Manggabesar"},{"time":2,"line":2,"i_lat":-6.160725,"station_id":"SW","i_long":106.827103,"distance":906,"station_name":"Sawah Besar","is_transit":false,"transit":false},{"time":2,"station_name":"Juanda","station_id":"JUA","distance":1149,"i_lat":-6.166716,"i_long":106.828284,"transit":false,"line":2,"is_transit":false},{"line":2,"station_id":"GDD","distance":2015,"i_long":106.832183,"station_name":"Gondangdia","is_transit":false,"time":4,"transit":false,"i_lat":-6.186295},{"station_name":"Cikini","transit":false,"distance":1750,"is_transit":false,"i_lat":-6.198556,"line":0,"i_long":106.840169,"station_id":"CKI","time":3},{"i_long":106.84912,"station_name":"Manggarai","transit":true,"distance":1590,"is_transit":true,"station_id":"MRI","i_lat":-6.209883,"line":0,"time":4},{"line":1,"distance":1275,"i_long":106.858896,"time":2,"station_id":"MTR","is_transit":false,"transit":false,"station_name":"Matraman","i_lat":-6.212485},{"i_lat":-6.215091,"i_long":106.86807400000001,"transit":false,"station_id":"JNG","line":0,"distance":1377,"station_name":"Jatinegara","time":8,"is_transit":true},{"transit":false,"time":3,"station_id":"KLD","i_lat":-6.2135,"i_long":106.899548,"distance":3395,"line":1,"station_name":"Klender","is_transit":false},{"transit":false,"i_long":106.922662,"time":2,"station_name":"Buaran","line":0,"station_id":"BUA","distance":3100,"is_transit":false,"i_lat":-6.215568},{"station_name":"Klenderbaru","transit":false,"line":1,"station_id":"KLDB","distance":1305,"i_long":106.939679,"i_lat":-6.217455,"is_transit":false,"time":1},{"distance":1385,"is_transit":false,"i_long":106.951283,"line":0,"time":8,"i_lat":-6.219053,"station_id":"CUK","transit":false,"station_name":"Cakung"},{"station_name":"Kranji","transit":false,"i_lat":-6.224515,"station_id":"KRI","is_transit":false,"distance":3097,"i_long":106.977657,"time":3,"line":1},{"time":4,"station_id":"BKS","i_long":106.997013,"line":0,"transit":false,"distance":2520,"i_lat":-6.236616,"is_transit":false,"station_name":"Bekasi"},{"is_transit":false,"station_id":"BKST","distance":2368,"time":2,"i_long":107.016735,"line":0,"i_lat":-6.248029,"transit":false,"station_name":"Bekasi Timur"},{"i_lat":-6.258864,"station_name":"Tambun","i_long":107.055722,"station_id":"TB","time":7,"distance":4460,"line":1,"is_transit":false,"transit":false},{"is_transit":false,"i_long":107.083084,"time":3,"transit":false,"i_lat":-6.261877,"station_id":"CIT","station_name":"Cibitung","line":0,"distance":3420},{"i_lat":-6.262938,"transit":false,"is_transit":false,"station_name":"Metland Telaga Murni","station_id":"TLM","i_long":107.093313,"time":2,"distance":2800,"line":1}],[{"is_transit":true,"station_name":"Duri","time":0,"distance":0,"station_id":"DU","line":1,"i_lat":-6.155215,"i_long":106.800832,"transit":false},{"distance":3632,"station_id":"THB","is_transit":true,"station_name":"Tanah Abang","line":1,"time":8,"transit":false,"i_lat":-6.185545,"i_long":106.811091},{"is_transit":false,"station_name":"Karet","distance":2029,"time":5,"line":1,"station_id":"KAT","transit":false,"i_long":106.816351,"i_lat":-6.20132},{"i_lat":-6.201433,"i_long":106.819881,"is_transit":false,"time":1,"station_id":"SUDB","transit":false,"line":1,"station_name":"Sudirman Baru","distance":471},{"i_lat":-6.202263,"i_long":106.822649,"time":1,"line":1,"station_name":"Sudirman","transit":false,"distance":280,"station_id":"SUD","is_transit":false},{"station_id":"MRI","is_transit":true,"transit":true,"station_name":"Manggarai","i_lat":-6.209883,"line":0,"i_long":106.84912,"time":4,"distance":3186},{"time":4,"i_long":106.840169,"transit":false,"distance":1590,"is_transit":false,"station_id":"CKI","i_lat":-6.198556,"line":0,"station_name":"Cikini"},{"distance":1750,"time":3,"i_lat":-6.186295,"is_transit":false,"i_long":106.832183,"line":2,"station_name":"Gondangdia","transit":false,"station_id":"GDD"},{"transit":false,"i_long":106.828284,"i_lat":-6.166716,"station_name":"Juanda","line":2,"time":4,"is_transit":false,"distance":2015,"station_id":"JUA"},{"transit":false,"distance":1149,"is_transit":false,"station_name":"Sawah Besar","i_long":106.827103,"i_lat":-6.160725,"station_id":"SW","line":2,"time":2},{"is_transit":false,"station_id":"MGB","i_lat":-6.149769,"i_long":106.82482,"line":2,"station_name":"Manggabesar","distance":906,"transit":false,"time":2},{"transit":false,"line":7,"station_id":"JAY","time":2,"i_lat":-6.141205,"i_long":106.820901,"is_transit":false,"station_name":"Jayakarta","distance":1080},{"line":0,"distance":1264,"station_id":"JAKK","station_name":"Jakarta Kota","time":4,"transit":true,"is_transit":true,"i_lat":-6.137569,"i_long":106.812439},{"is_transit":true,"station_id":"KPB","time":3,"station_name":"Kampung Bandan","i_long":106.826365,"transit":true,"i_lat":-6.132549,"line":0,"distance":1364},{"is_transit":false,"line":11,"distance":1444,"transit":false,"station_id":"RJW","i_long":106.836569,"time":3,"station_name":"Rajawali","i_lat":-6.14505},{"distance":1901,"transit":false,"station_name":"Kemayoran","i_long":106.839204,"i_lat":-6.161728,"station_id":"KMO","time":5,"is_transit":false,"line":11},{"station_id":"PSE","i_long":106.84368,"line":11,"distance":1436,"is_transit":false,"transit":false,"time":4,"station_name":"Pasar Senen","i_lat":-6.174784},{"line":11,"station_name":"Gang Sentiong","is_transit":false,"time":8,"i_lat":-6.185975,"i_long":106.850107,"transit":false,"station_id":"GST","distance":1567},{"station_id":"KMT","time":1,"i_lat":-6.193792,"line":11,"transit":false,"is_transit":false,"station_name":"Kramat","distance":973,"i_long":106.855437},{"transit":false,"distance":1829,"i_long":106.861737,"station_id":"POK","time":2,"line":11,"i_lat":-6.209188,"station_name":"Pondok Jati","is_transit":false},{"i_lat":-6.215091,"station_name":"Jatinegara","i_long":106.86807400000001,"is_transit":true,"time":9,"transit":true,"station_id":"JNG","distance":1236,"line":0},{"transit":false,"is_transit":false,"station_id":"KLD","i_lat":-6.2135,"distance":3395,"i_long":106.899548,"time":3,"station_name":"Klender","line":1},{"station_name":"Buaran","is_transit":false,"i_lat":-6.215568,"i_long":106.922662,"time":2,"station_id":"BUA","distance":3100,"transit":false,"line":0},{"distance":1305,"station_id":"KLDB","i_long":106.939679,"line":1,"i_lat":-6.217455,"time":1,"station_name":"Klenderbaru","transit":false,"is_transit":false},{"distance":1385,"i_lat":-6.219053,"line":0,"i_long":106.951283,"time":8,"station_id":"CUK","station_name":"Cakung","transit":false,"is_transit":false},{"transit":false,"station_id":"KRI","station_name":"Kranji","i_long":106.977657,"is_transit":false,"distance":3097,"i_lat":-6.224515,"time":3,"line":1},{"station_name":"Bekasi","i_lat":-6.236616,"station_id":"BKS","i_long":106.997013,"distance":2520,"time":4,"is_transit":false,"transit":false,"line":0},{"is_transit":false,"i_lat":-6.248029,"line":0,"time":2,"i_long":107.016735,"distance":2368,"transit":false,"station_name":"Bekasi Timur","station_id":"BKST"},{"time":7,"transit":false,"distance":4460,"station_name":"Tambun","station_id":"TB","i_long":107.055722,"i_lat":-6.258864,"is_transit":false,"line":1},{"station_id":"CIT","is_transit":false,"station_name":"Cibitung","line":0,"i_long":107.083084,"transit":false,"distance":3420,"i_lat":-6.261877,"time":3},{"i_lat":-6.262938,"time":2,"is_transit":false,"station_name":"Metland Telaga Murni","distance":2800,"i_long":107.093313,"transit":false,"station_id":"TLM","line":1}]]}