{"data":[[{"time":0,"i_lat":-6.155215,"station_id":"DU","line":1,"transit":false,"distance":0,"i_long":106.800832,"is_transit":false,"station_name":"Duri"},{"distance":3632,"is_transit":false,"transit":false,"line":1,"time":8,"station_id":"THB","station_name":"Tanah Abang","i_lat":-6.185545,"i_long":106.811091},{"line":1,"i_lat":-6.20132,"station_id":"KAT","time":5,"station_name":"Karet","i_long":106.816351,"distance":2029,"is_transit":false,"transit":false},{"station_id":"SUDB","line":1,"is_transit":false,"transit":false,"i_long":106.819881,"time":1,"station_name":"Sudirman Baru","i_lat":-6.201433,"distance":471},{"transit":false,"station_id":"SUD","line":1,"i_lat":-6.202263,"distance":280,"time":1,"is_transit":false,"i_long":106.822649,"station_name":"Sudirman"},{"distance":3186,"i_lat":-6.209883,"line":2,"transit":false,"station_name":"Manggarai","station_id":"MRI","i_long":106.84912,"time":4,"is_transit":false},{"i_long":106.858896,"line":1,"is_transit":false,"station_id":"MTR","station_name":"Matraman","i_lat":-6.212485,"time":2,"transit":false,"distance":1275},{"i_long":106.86807400000001,"distance":1377,"transit":false,"station_name":"Jatinegara","i_lat":-6.215091,"line":1,"time":8,"station_id":"JNG","is_transit":false},{"transit":false,"is_transit":false,"i_lat":-6.2135,"time":3,"station_id":"KLD","line":1,"station_name":"Klender","i_long":106.899548,"distance":3395},{"i_lat":-6.215568,"line":1,"time":2,"station_name":"Buaran","i_long":106.922662,"station_id":"BUA","transit":false,"is_transit":false,"distance":3100},{"i_long":106.939679,"station_id":"KLDB","time":1,"line":1,"station_name":"Klenderbaru","i_lat":-6.217455,"is_transit":false,"distance":1305,"transit":false},{"line":1,"time":8,"i_long":106.951283,"station_id":"CUK","is_transit":false,"station_name":"Cakung","transit":false,"distance":1385,"i_lat":-6.219053},{"station_id":"KRI","transit":false,"i_long":106.977657,"is_transit":false,"line":1,"i_lat":-6.224515,"time":3,"station_name":"Kranji","distance":3097},{"distance":2520,"station_id":"BKS","transit":false,"i_long":106.997013,"line":1,"time":4,"is_transit":false,"station_name":"Bekasi","i_lat":-6.236616},{"i_long":107.016735,"is_transit":false,"station_name":"Bekasi Timur","i_lat":-6.248029,"line":1,"time":2,"distance":2368,"station_id":"BKST","transit":false},{"line":1,"transit":false,"station_id":"TB","is_transit":false,"i_lat":-6.258864,"distance":4460,"i_long":107.055722,"station_name":"Tambun","time":7},{"i_long":107.083084,"transit":false,"i_lat":-6.261877,"line":1,"station_name":"Cibitung","time":3,"distance":3420,"station_id":"CIT","is_transit":false},{"distance":2800,"station_name":"Metland Telaga Murni","station_id":"TLM","i_long":107.093313,"i_lat":-6.262938,"time":2,"line":1,"transit":false,"is_transit":false}],[{"i_long":106.800832,"i_lat":-6.155215,"station_id":"DU","distance":0,"line":1,"transit":false,"time":0,"station_name":"Duri","is_transit":false},{"station_id":"AK","is_transit":false,"i_lat":-6.144674,"time":4,"i_long":106.79867,"line":1,"transit":false,"station_name":"Angke","distance":1230},{"station_name":"Kampung Bandan","line":4,"time":9,"is_transit":true,"transit":true,"station_id":"KPB","distance":4102,"i_lat":-6.132549,"i_long":106.826365},{"transit":false,"station_id":"RJW","time":3,"i_long":106.836569,"line":11,"i_lat":-6.14505,"station_name":"Rajawali","is_transit":false,"distance":1444},{"station_id":"KMO","time":5,"is_transit":false,"station_name":"Kemayoran","distance":1901,"transit":false,"i_lat":-6.161728,"i_long":106.839204,"line":11},{"distance":1436,"station_name":"Pasar Senen","is_transit":false,"i_long":106.84368,"line":11,"station_id":"PSE","i_lat":-6.174784,"transit":false,"time":4},{"transit":false,"time":8,"station_name":"Gang Sentiong","distance":1567,"is_transit":false,"station_id":"GST","line":11,"i_lat":-6.185975,"i_long":106.850107},{"time":1,"transit":false,"distance":973,"i_lat":-6.193792,"station_name":"Kramat","line":11,"station_id":"KMT","i_long":106.855437,"is_transit":false},{"is_transit":false,"station_name":"Pondok Jati","time":2,"distance":1829,"station_id":"POK","i_lat":-6.209188,"i_long":106.861737,"line":11,"transit":false},{"station_name":"Jatinegara","station_id":"JNG","i_lat":-6.215091,"is_transit":true,"distance":1236,"line":1,"i_long":106.86807400000001,"transit":true,"time":9},{"i_long":106.899548,"station_id":"KLD","is_transit":false,"transit":false,"station_name":"Klender","distance":3395,"line":1,"i_lat":-6.2135,"time":3},{"time":2,"i_long":106.922662,"station_name":"Buaran","distance":3100,"i_lat":-6.215568,"transit":false,"line":1,"is_transit":false,"station_id":"BUA"},{"transit":false,"station_id":"KLDB","station_name":"Klenderbaru","is_transit":false,"i_lat":-6.217455,"distance":1305,"line":1,"time":1,"i_long":106.939679},{"distance":1385,"station_name":"Cakung","i_long":106.951283,"time":8,"line":1,"transit":false,"is_transit":false,"i_lat":-6.219053,"station_id":"CUK"},{"transit":false,"station_id":"KRI","distance":3097,"station_name":"Kranji","line":1,"time":3,"i_lat":-6.224515,"i_long":106.977657,"is_transit":false},{"line":1,"transit":false,"i_lat":-6.236616,"is_transit":false,"station_id":"BKS","station_name":"Bekasi","distance":2520,"time":4,"i_long":106.997013},{"is_transit":false,"line":1,"i_long":107.016735,"station_id":"BKST","station_name":"Bekasi Timur","distance":2368,"i_lat":-6.248029,"transit":false,"time":2},{"station_name":"Tambun","transit":false,"i_long":107.055722,"time":7,"station_id":"TB","i_lat":-6.258864,"line":1,"distance":4460,"is_transit":false},{"station_name":"Cibitung","i_lat":-6.261877,"line":1,"is_transit":false,"distance":3420,"i_long":107.083084,"station_id":"CIT","transit":false,"time":3},{"transit":false,"i_long":107.093313,"is_transit":false,"station_id":"TLM","distance":2800,"i_lat":-6.262938,"line":1,"time":2,"station_name":"Metland Telaga Murni"}],[{"time":0,"i_lat":-6.155215,"station_id":"DU","is_transit":false,"i_long":106.800832,"line":1,"distance":0,"station_name":"Duri","transit":false},{"i_long":106.79867,"i_lat":-6.144674,"line":1,"station_name":"Angke","station_id":"AK","transit":false,"time":4,"distance":1230,"is_transit":false},{"time":9,"station_name":"Kampung Bandan","i_lat":-6.132549,"station_id":"KPB","line":4,"transit":true,"distance":4102,"is_transit":true,"i_long":106.826365},{"time":3,"line":2,"station_id":"JAKK","is_transit":true,"station_name":"Jakarta Kota","distance":1364,"i_lat":-6.137569,"transit":true,"i_long":106.812439},{"time":4,"station_name":"Jayakarta","i_lat":-6.141205,"i_long":106.820901,"is_transit":false,"transit":false,"station_id":"JAY","line":2,"distance":1264},{"i_long":106.82482,"station_id":"MGB","distance":1080,"line":2,"i_lat":-6.149769,"transit":false,"is_transit":false,"time":2,"station_name":"Manggabesar"},{"station_name":"Sawah Besar","i_lat":-6.160725,"line":2,"time":2,"transit":false,"station_id":"SW","distance":906,"is_transit":false,"i_long":106.827103},{"transit":false,"station_name":"Juanda","i_long":106.828284,"time":2,"station_id":"JUA","is_transit":false,"distance":1149,"i_lat":-6.166716,"line":2},{"station_name":"Gondangdia","distance":2015,"is_transit":false,"i_long":106.832183,"transit":false,"line":2,"i_lat":-6.186295,"station_id":"GDD","time":4},{"distance":1750,"transit":false,"line":2,"station_id":"CKI","station_name":"Cikini","i_lat":-6.198556,"is_transit":false,"time":3,"i_long":106.840169},{"station_name":"Manggarai","transit":true,"station_id":"MRI","i_long":106.84912,"distance":1590,"i_lat":-6.209883,"is_transit":true,"line":2,"time":4},{"station_id":"MTR","time":2,"distance":1275,"is_transit":false,"station_name":"Matraman","i_lat":-6.212485,"i_long":106.858896,"line":1,"transit":false},{"i_long":106.86807400000001,"transit":false,"time":8,"station_name":"Jatinegara","distance":1377,"i_lat":-6.215091,"line":1,"station_id":"JNG","is_transit":false},{"distance":3395,"line":1,"station_id":"KLD","station_name":"Klender","i_lat":-6.2135,"transit":false,"time":3,"is_transit":false,"i_long":106.899548},{"i_long":106.922662,"station_id":"BUA","transit":false,"time":2,"distance":3100,"i_lat":-6.215568,"line":1,"station_name":"Buaran","is_transit":false},{"time":1,"distance":1305,"line":1,"i_lat":-6.217455,"transit":false,"is_transit":false,"station_name":"Klenderbaru","i_long":106.939679,"station_id":"KLDB"},{"time":8,"station_name":"Cakung","i_lat":-6.219053,"i_long":106.951283,"distance":1385,"line":1,"transit":false,"station_id":"CUK","is_transit":false},{"i_long":106.977657,"time":3,"distance":3097,"i_lat":-6.224515,"station_name":"Kranji","station_id":"KRI","transit":false,"is_transit":false,"line":1},{"line":1,"time":4,"i_long":106.997013,"station_name":"Bekasi","distance":2520,"i_lat":-6.236616,"station_id":"BKS","transit":false,"is_transit":false},{"station_name":"Bekasi Timur","is_transit":false,"distance":2368,"i_long":107.016735,"transit":false,"station_id":"BKST","i_lat":-6.248029,"line":1,"time":2},{"distance":4460,"i_long":107.055722,"line":1,"is_transit":false,"i_lat":-6.258864,"transit":false,"station_id":"TB","time":7,"station_name":"Tambun"},{"transit":false,"line":1,"i_lat":-6.261877,"time":3,"station_name":"Cibitung","is_transit":false,"i_long":107.083084,"station_id":"CIT","distance":3420},{"i_lat":-6.262938,"line":1,"time":2,"transit":false,"station_id":"TLM","is_transit":false,"station_name":"Metland Telaga Murni","i_long":107.093313,"distance":2800}],[{"i_lat":-6.155215,"station_name":"Duri","distance":0,"transit":false,"station_id":"DU","is_transit":false,"line":1,"i_long":106.800832,"time":0},{"transit":false,"station_id":"THB","time":8,"line":1,"is_transit":false,"distance":3632,"i_long":106.811091,"station_name":"Tanah Abang","i_lat":-6.185545},{"distance":2029,"line":1,"i_long":106.816351,"station_name":"Karet","i_lat":-6.20132,"is_transit":false,"transit":false,"time":5,"station_id":"KAT"},{"distance":471,"station_id":"SUDB","is_transit":false,"i_long":106.819881,"station_name":"Sudirman Baru","line":1,"i_lat":-6.201433,"transit":false,"time":1},{"i_lat":-6.202263,"time":1,"line":1,"station_id":"SUD","i_long":106.822649,"station_name":"Sudirman","transit":false,"is_transit":false,"distance":280},{"transit":true,"station_id":"MRI","i_long":106.84912,"line":2,"station_name":"Manggarai","distance":3186,"time":4,"i_lat":-6.209883,"is_transit":true},{"station_id":"CKI","time":4,"station_name":"Cikini","distance":1590,"i_long":106.840169,"i_lat":-6.198556,"transit":false,"line":2,"is_transit":false},{"time":3,"station_name":"Gondangdia","i_long":106.832183,"line":2,"is_transit":false,"distance":1750,"i_lat":-6.186295,"transit":false,"station_id":"GDD"},{"station_id":"JUA","station_name":"Juanda","i_long":106.828284,"is_transit":false,"i_lat":-6.166716,"time":4,"line":2,"transit":false,"distance":2015},{"line":2,"i_lat":-6.160725,"is_transit":false,"station_name":"Sawah Besar","transit":false,"station_id":"SW","time":2,"distance":1149,"i_long":106.827103},{"time":2,"distance":906,"transit":false,"is_transit":false,"station_id":"MGB","station_name":"Manggabesar","i_lat":-6.149769,"i_long":106.82482,"line":2},{"i_long":106.820901,"station_name":"Jayakarta","transit":false,"time":2,"i_lat":-6.141205,"station_id":"JAY","is_transit":false,"distance":1080,"line":2},{"distance":1264,"transit":true,"line":2,"is_transit":true,"i_long":106.812439,"i_lat":-6.137569,"station_name":"Jakarta Kota","time":4,"station_id":"JAKK"},{"line":4,"i_lat":-6.132549,"is_transit":true,"distance":1364,"station_name":"Kampung Bandan","time":3,"i_long":106.826365,"transit":true,"station_id":"KPB"},{"i_lat":-6.14505,"station_id":"RJW","time":3,"station_name":"Rajawali","distance":1444,"line":11,"transit":false,"is_transit":false,"i_long":106.836569},{"station_name":"Kemayoran","distance":1901,"transit":false,"station_id":"KMO","is_transit":false,"time":5,"i_lat":-6.161728,"i_long":106.839204,"line":11},{"distance":1436,"line":11,"station_id":"PSE","station_name":"Pasar Senen","transit":false,"i_long":106.84368,"time":4,"is_transit":false,"i_lat":-6.174784},{"time":8,"station_id":"GST","is_transit":false,"i_lat":-6.185975,"distance":1567,"i_long":106.850107,"line":11,"transit":false,"station_name":"Gang Sentiong"},{"distance":973,"transit":false,"i_lat":-6.193792,"is_transit":false,"station_id":"KMT","station_name":"Kramat","i_long":106.855437,"line":11,"time":1},{"station_name":"Pondok Jati","i_lat":-6.209188,"i_long":106.861737,"transit":false,"distance":1829,"line":11,"time":2,"is_transit":false,"station_id":"POK"},{"transit":true,"is_transit":true,"i_lat":-6.215091,"i_long":106.86807400000001,"line":1,"station_name":"Jatinegara","time":9,"distance":1236,"station_id":"JNG"},{"distance":3395,"i_lat":-6.2135,"i_long":106.899548,"station_id":"KLD","time":3,"line":1,"station_name":"Klender","is_transit":false,"transit":false},{"i_long":106.922662,"distance":3100,"transit":false,"is_transit":false,"station_name":"Buaran","i_lat":-6.215568,"line":1,"time":2,"station_id":"BUA"},{"time":1,"i_long":106.939679,"line":1,"i_lat":-6.217455,"station_name":"Klenderbaru","station_id":"KLDB","distance":1305,"is_transit":false,"transit":false},{"time":8,"station_name":"Cakung","is_transit":false,"distance":1385,"i_lat":-6.219053,"line":1,"transit":false,"i_long":106.951283,"station_id":"CUK"},{"station_id":"KRI","is_transit":false,"i_long":106.977657,"i_lat":-6.224515,"time":3,"distance":3097,"transit":false,"station_name":"Kranji","line":1},{"time":4,"distance":2520,"station_name":"Bekasi","i_lat":-6.236616,"i_long":106.997013,"transit":false,"is_transit":false,"station_id":"BKS","line":1},{"i_long":107.016735,"is_transit":false,"station_name":"Bekasi Timur","station_id":"BKST","distance":2368,"line":1,"i_lat":-6.248029,"time":2,"transit":false},{"is_transit":false,"distance":4460,"station_name":"Tambun","i_lat":-6.258864,"time":7,"i_long":107.055722,"line":1,"transit":false,"station_id":"TB"},{"distance":3420,"i_long":107.083084,"is_transit":false,"station_id":"CIT","line":1,"station_name":"Cibitung","i_lat":-6.261877,"time":3,"transit":false},{"station_name":"Metland Telaga Murni","time":2,"transit":false,"line":1,"distance":2800,"i_long":107.093313,"station_id":"TLM","i_lat":-6.262938,"is_transit":false}]]}