{"data":[[{"line":1,"is_transit":true,"i_lat":-6.155215,"i_long":106.800832,"distance":0,"station_id":"DU","time":0,"station_name":"Duri","transit":false},{"is_transit":true,"time":8,"line":1,"i_long":106.811091,"distance":3632,"station_name":"Tanah Abang","transit":false,"i_lat":-6.185545,"station_id":"THB"},{"i_long":106.816351,"time":5,"distance":2029,"station_id":"KAT","line":1,"is_transit":false,"station_name":"Karet","transit":false,"i_lat":-6.20132},{"line":1,"time":1,"station_id":"SUDB","i_long":106.819881,"i_lat":-6.201433,"is_transit":false,"station_name":"Sudirman Baru","transit":false,"distance":471},{"is_transit":false,"distance":280,"line":1,"transit":false,"time":1,"i_lat":-6.202263,"i_long":106.822649,"station_id":"SUD","station_name":"Sudirman"},{"line":0,"station_id":"MRI","time":4,"distance":3186,"i_lat":-6.209883,"i_long":106.84912,"is_transit":true,"transit":true,"station_name":"Manggarai"},{"i_long":106.857948,"transit":false,"i_lat":-6.226659,"is_transit":false,"time":4,"station_id":"TEB","station_name":"Tebet","distance":2610,"line":2},{"station_id":"CW","time":2,"station_name":"Cawang","line":0,"transit":false,"i_lat":-6.242512,"is_transit":false,"distance":1230,"i_long":106.856607},{"i_lat":-6.255332,"line":0,"i_long":106.85449,"time":3,"distance":1546,"is_transit":false,"station_name":"Duren Kalibata","transit":false,"station_id":"DRN"},{"line":2,"distance":824,"transit":false,"i_lat":-6.263214,"time":2,"i_long":106.851577,"is_transit":false,"station_name":"Pasar Minggu Baru","station_id":"PSMB"},{"line":2,"i_lat":-6.2842400000000005,"distance":2380,"i_long":106.843999,"station_name":"Pasar Minggu","station_id":"PSM","is_transit":false,"time":2,"transit":false},{"line":2,"distance":2820,"transit":false,"station_name":"Tanjung Barat","station_id":"TNT","time":4,"is_transit":false,"i_lat":-6.3080680000000005,"i_long":106.838896}],[{"time":0,"station_name":"Duri","i_long":106.800832,"i_lat":-6.155215,"line":1,"station_id":"DU","transit":false,"distance":0,"is_transit":true},{"is_transit":false,"station_name":"Angke","transit":false,"i_lat":-6.144674,"distance":1230,"line":0,"station_id":"AK","i_long":106.79867,"time":4},{"transit":false,"line":0,"station_id":"KPB","i_lat":-6.132549,"time":9,"is_transit":true,"i_long":106.826365,"station_name":"Kampung Bandan","distance":4102},{"distance":1364,"transit":true,"time":3,"i_lat":-6.137569,"station_name":"Jakarta Kota","line":0,"i_long":106.812439,"station_id":"JAKK","is_transit":true},{"i_lat":-6.141205,"station_name":"Jayakarta","transit":false,"time":4,"station_id":"JAY","i_long":106.820901,"line":7,"is_transit":false,"distance":1264},{"station_id":"MGB","i_long":106.82482,"transit":false,"i_lat":-6.149769,"distance":1080,"time":2,"station_name":"Manggabesar","line":2,"is_transit":false},{"station_name":"Sawah Besar","line":2,"i_long":106.827103,"station_id":"SW","time":2,"distance":906,"is_transit":false,"transit":false,"i_lat":-6.160725},{"distance":1149,"i_lat":-6.166716,"line":2,"i_long":106.828284,"time":2,"is_transit":false,"transit":false,"station_id":"JUA","station_name":"Juanda"},{"station_name":"Gondangdia","transit":false,"line":2,"time":4,"station_id":"GDD","i_long":106.832183,"is_transit":false,"distance":2015,"i_lat":-6.186295},{"time":3,"distance":1750,"station_name":"Cikini","line":0,"station_id":"CKI","transit":false,"is_transit":false,"i_lat":-6.198556,"i_long":106.840169},{"station_name":"Manggarai","transit":true,"line":0,"distance":1590,"is_transit":true,"i_lat":-6.209883,"i_long":106.84912,"station_id":"MRI","time":4},{"line":2,"distance":2610,"i_lat":-6.226659,"i_long":106.857948,"station_id":"TEB","is_transit":false,"station_name":"Tebet","transit":false,"time":4},{"station_name":"Cawang","i_lat":-6.242512,"i_long":106.856607,"is_transit":false,"station_id":"CW","time":2,"transit":false,"line":0,"distance":1230},{"line":0,"is_transit":false,"transit":false,"distance":1546,"time":3,"station_name":"Duren Kalibata","i_lat":-6.255332,"i_long":106.85449,"station_id":"DRN"},{"distance":824,"time":2,"i_lat":-6.263214,"i_long":106.851577,"transit":false,"is_transit":false,"station_id":"PSMB","station_name":"Pasar Minggu Baru","line":2},{"i_long":106.843999,"time":2,"distance":2380,"is_transit":false,"transit":false,"line":2,"i_lat":-6.2842400000000005,"station_name":"Pasar Minggu","station_id":"PSM"},{"distance":2820,"station_name":"Tanjung Barat","i_long":106.838896,"line":2,"is_transit":false,"time":4,"transit":false,"station_id":"TNT","i_lat":-6.3080680000000005}],[{"i_lat":-6.155215,"transit":false,"i_long":106.800832,"line":1,"time":0,"distance":0,"is_transit":true,"station_id":"DU","station_name":"Duri"},{"is_transit":false,"i_lat":-6.144674,"time":4,"line":0,"station_id":"AK","i_long":106.79867,"transit":false,"station_name":"Angke","distance":1230},{"distance":4102,"station_id":"KPB","i_lat":-6.132549,"line":0,"station_name":"Kampung Bandan","is_transit":true,"time":9,"i_long":106.826365,"transit":true},{"transit":false,"station_id":"RJW","i_lat":-6.14505,"i_long":106.836569,"station_name":"Rajawali","is_transit":false,"time":3,"distance":1444,"line":11},{"line":11,"i_lat":-6.161728,"station_name":"Kemayoran","transit":false,"distance":1901,"is_transit":false,"i_long":106.839204,"station_id":"KMO","time":5},{"i_long":106.84368,"time":4,"station_id":"PSE","distance":1436,"station_name":"Pasar Senen","i_lat":-6.174784,"transit":false,"is_transit":false,"line":11},{"i_lat":-6.185975,"time":8,"distance":1567,"station_name":"Gang Sentiong","line":11,"station_id":"GST","transit":false,"is_transit":false,"i_long":106.850107},{"time":1,"i_long":106.855437,"i_lat":-6.193792,"is_transit":false,"distance":973,"station_id":"KMT","transit":false,"line":11,"station_name":"Kramat"},{"station_name":"Pondok Jati","line":11,"station_id":"POK","i_long":106.861737,"time":2,"transit":false,"is_transit":false,"distance":1829,"i_lat":-6.209188},{"distance":1236,"transit":true,"is_transit":true,"station_id":"JNG","i_lat":-6.215091,"i_long":106.86807400000001,"station_name":"Jatinegara","line":0,"time":9},{"i_lat":-6.212485,"time":2,"is_transit":false,"line":1,"station_id":"MTR","distance":1377,"station_name":"Matraman","transit":false,"i_long":106.858896},{"line":0,"station_id":"MRI","i_long":106.84912,"station_name":"Manggarai","transit":true,"time":2,"i_lat":-6.209883,"is_transit":true,"distance":1275},{"transit":false,"is_transit":false,"distance":2610,"i_lat":-6.226659,"time":4,"station_name":"Tebet","line":2,"station_id":"TEB","i_long":106.857948},{"line":0,"distance":1230,"time":2,"station_id":"CW","i_lat":-6.242512,"is_transit":false,"station_name":"Cawang","i_long":106.856607,"transit":false},{"distance":1546,"i_lat":-6.255332,"i_long":106.85449,"transit":false,"is_transit":false,"station_id":"DRN","line":0,"time":3,"station_name":"Duren Kalibata"},{"transit":false,"distance":824,"i_long":106.851577,"line":2,"station_id":"PSMB","i_lat":-6.263214,"station_name":"Pasar Minggu Baru","is_transit":false,"time":2},{"transit":false,"i_long":106.843999,"i_lat":-6.2842400000000005,"station_name":"Pasar Minggu","line":2,"station_id":"PSM","is_transit":false,"time":2,"distance":2380},{"line":2,"i_long":106.838896,"is_transit":false,"time":4,"transit":false,"distance":2820,"station_name":"Tanjung Barat","i_lat":-6.3080680000000005,"station_id":"TNT"}]]}