{"data":[[{"i_long":106.800832,"distance":0,"station_name":"Duri","transit":false,"time":0,"i_lat":-6.155215,"is_transit":false,"line":1,"station_id":"DU"},{"i_long":106.811091,"line":1,"i_lat":-6.185545,"transit":false,"station_name":"Tanah Abang","is_transit":false,"station_id":"THB","distance":3632,"time":8}],[{"is_transit":false,"distance":0,"i_lat":-6.155215,"station_name":"Duri","i_long":106.800832,"time":0,"line":1,"transit":false,"station_id":"DU"},{"transit":false,"station_id":"AK","i_long":106.79867,"line":1,"distance":1230,"time":4,"i_lat":-6.144674,"station_name":"Angke","is_transit":false},{"is_transit":true,"time":9,"distance":4102,"station_name":"Kampung Bandan","station_id":"KPB","i_long":106.826365,"line":4,"transit":true,"i_lat":-6.132549},{"station_name":"Jakarta Kota","time":3,"is_transit":true,"i_long":106.812439,"transit":true,"station_id":"JAKK","i_lat":-6.137569,"distance":1364,"line":2},{"i_lat":-6.141205,"transit":false,"station_id":"JAY","distance":1264,"time":4,"is_transit":false,"line":2,"station_name":"Jayakarta","i_long":106.820901},{"station_name":"Manggabesar","station_id":"MGB","is_transit":false,"time":2,"transit":false,"distance":1080,"i_long":106.82482,"line":2,"i_lat":-6.149769},{"is_transit":false,"station_name":"Sawah Besar","i_lat":-6.160725,"station_id":"SW","i_long":106.827103,"line":2,"distance":906,"time":2,"transit":false},{"station_id":"JUA","transit":false,"i_lat":-6.166716,"i_long":106.828284,"time":2,"line":2,"station_name":"Juanda","is_transit":false,"distance":1149},{"time":4,"i_lat":-6.186295,"station_name":"Gondangdia","station_id":"GDD","transit":false,"is_transit":false,"i_long":106.832183,"distance":2015,"line":2},{"line":2,"station_name":"Cikini","station_id":"CKI","is_transit":false,"i_long":106.840169,"distance":1750,"transit":false,"time":3,"i_lat":-6.198556},{"line":2,"i_lat":-6.209883,"transit":true,"is_transit":true,"station_id":"MRI","distance":1590,"i_long":106.84912,"station_name":"Manggarai","time":4},{"station_id":"SUD","line":1,"i_long":106.822649,"station_name":"Sudirman","distance":3186,"time":4,"transit":false,"is_transit":false,"i_lat":-6.202263},{"is_transit":false,"time":1,"line":1,"transit":false,"i_lat":-6.201433,"distance":280,"station_name":"Sudirman Baru","i_long":106.819881,"station_id":"SUDB"},{"distance":471,"i_long":106.816351,"station_id":"KAT","line":1,"i_lat":-6.20132,"station_name":"Karet","is_transit":false,"transit":false,"time":1},{"time":5,"distance":2029,"i_long":106.811091,"station_id":"THB","transit":false,"line":1,"station_name":"Tanah Abang","i_lat":-6.185545,"is_transit":false}],[{"i_lat":-6.155215,"i_long":106.800832,"distance":0,"is_transit":false,"station_name":"Duri","transit":false,"line":1,"station_id":"DU","time":0},{"time":4,"i_long":106.79867,"i_lat":-6.144674,"is_transit":false,"transit":false,"station_name":"Angke","line":1,"distance":1230,"station_id":"AK"},{"time":9,"station_name":"Kampung Bandan","i_long":106.826365,"line":4,"distance":4102,"station_id":"KPB","i_lat":-6.132549,"is_transit":true,"transit":true},{"time":3,"is_transit":false,"station_name":"Rajawali","station_id":"RJW","i_lat":-6.14505,"i_long":106.836569,"transit":false,"distance":1444,"line":11},{"i_lat":-6.161728,"i_long":106.839204,"line":11,"distance":1901,"station_id":"KMO","transit":false,"station_name":"Kemayoran","time":5,"is_transit":false},{"transit":false,"i_long":106.84368,"distance":1436,"line":11,"station_id":"PSE","station_name":"Pasar Senen","is_transit":false,"i_lat":-6.174784,"time":4},{"distance":1567,"station_id":"GST","i_long":106.850107,"time":8,"station_name":"Gang Sentiong","transit":false,"i_lat":-6.185975,"line":11,"is_transit":false},{"is_transit":false,"time":1,"distance":973,"station_name":"Kramat","line":11,"station_id":"KMT","i_long":106.855437,"i_lat":-6.193792,"transit":false},{"i_lat":-6.209188,"station_id":"POK","time":2,"line":11,"transit":false,"i_long":106.861737,"distance":1829,"is_transit":false,"station_name":"Pondok Jati"},{"is_transit":true,"time":9,"distance":1236,"i_long":106.86807400000001,"station_id":"JNG","i_lat":-6.215091,"transit":true,"line":1,"station_name":"Jatinegara"},{"station_id":"MTR","distance":1377,"line":1,"transit":false,"station_name":"Matraman","i_long":106.858896,"time":2,"i_lat":-6.212485,"is_transit":false},{"i_long":106.84912,"station_name":"Manggarai","transit":false,"distance":1275,"line":2,"is_transit":false,"i_lat":-6.209883,"time":2,"station_id":"MRI"},{"line":1,"distance":3186,"i_long":106.822649,"time":4,"is_transit":false,"transit":false,"station_name":"Sudirman","i_lat":-6.202263,"station_id":"SUD"},{"is_transit":false,"transit":false,"time":1,"i_lat":-6.201433,"station_id":"SUDB","distance":280,"i_long":106.819881,"line":1,"station_name":"Sudirman Baru"},{"transit":false,"i_long":106.816351,"i_lat":-6.20132,"is_transit":false,"time":1,"distance":471,"station_id":"KAT","station_name":"Karet","line":1},{"distance":2029,"transit":false,"station_name":"Tanah Abang","station_id":"THB","is_transit":false,"i_lat":-6.185545,"line":1,"time":5,"i_long":106.811091}]]}