{"data":[[{"i_long":106.800832,"station_id":"DU","transit":false,"distance":0,"line":1,"i_lat":-6.155215,"is_transit":true,"station_name":"Duri","time":0},{"transit":false,"i_lat":-6.185545,"i_long":106.811091,"line":1,"station_name":"Tanah Abang","time":8,"distance":3632,"station_id":"THB","is_transit":true}],[{"line":1,"time":0,"is_transit":true,"station_name":"Duri","transit":false,"distance":0,"i_lat":-6.155215,"station_id":"DU","i_long":106.800832},{"station_id":"AK","is_transit":false,"time":4,"distance":1230,"i_lat":-6.144674,"i_long":106.79867,"station_name":"Angke","line":0,"transit":false},{"station_id":"KPB","transit":false,"distance":4102,"i_lat":-6.132549,"is_transit":true,"i_long":106.826365,"line":0,"time":9,"station_name":"Kampung Bandan"},{"distance":1364,"time":3,"i_long":106.812439,"station_id":"JAKK","transit":true,"is_transit":true,"i_lat":-6.137569,"line":0,"station_name":"Jakarta Kota"},{"i_long":106.820901,"transit":false,"distance":1264,"station_id":"JAY","i_lat":-6.141205,"time":4,"station_name":"Jayakarta","line":7,"is_transit":false},{"i_lat":-6.149769,"distance":1080,"transit":false,"station_id":"MGB","line":2,"is_transit":false,"time":2,"station_name":"Manggabesar","i_long":106.82482},{"transit":false,"line":2,"is_transit":false,"station_id":"SW","i_lat":-6.160725,"station_name":"Sawah Besar","time":2,"distance":906,"i_long":106.827103},{"i_long":106.828284,"time":2,"station_id":"JUA","distance":1149,"is_transit":false,"line":2,"station_name":"Juanda","i_lat":-6.166716,"transit":false},{"i_long":106.832183,"is_transit":false,"time":4,"station_name":"Gondangdia","line":2,"distance":2015,"transit":false,"i_lat":-6.186295,"station_id":"GDD"},{"station_id":"CKI","distance":1750,"is_transit":false,"station_name":"Cikini","i_lat":-6.198556,"i_long":106.840169,"transit":false,"line":0,"time":3},{"transit":true,"distance":1590,"i_long":106.84912,"station_id":"MRI","time":4,"station_name":"Manggarai","is_transit":true,"i_lat":-6.209883,"line":0},{"is_transit":false,"station_name":"Sudirman","i_long":106.822649,"station_id":"SUD","time":4,"line":1,"transit":false,"distance":3186,"i_lat":-6.202263},{"transit":false,"is_transit":false,"distance":280,"station_name":"Sudirman Baru","station_id":"SUDB","i_long":106.819881,"time":1,"i_lat":-6.201433,"line":1},{"i_lat":-6.20132,"time":1,"is_transit":false,"station_name":"Karet","station_id":"KAT","line":1,"i_long":106.816351,"distance":471,"transit":false},{"is_transit":true,"time":5,"station_name":"Tanah Abang","distance":2029,"transit":false,"i_lat":-6.185545,"i_long":106.811091,"line":1,"station_id":"THB"}],[{"line":1,"transit":false,"station_id":"DU","time":0,"is_transit":true,"station_name":"Duri","i_lat":-6.155215,"distance":0,"i_long":106.800832},{"station_id":"AK","is_transit":false,"transit":false,"distance":1230,"i_long":106.79867,"line":0,"time":4,"station_name":"Angke","i_lat":-6.144674},{"is_transit":true,"line":0,"transit":true,"distance":4102,"i_lat":-6.132549,"i_long":106.826365,"time":9,"station_id":"KPB","station_name":"Kampung Bandan"},{"i_long":106.836569,"line":11,"transit":false,"is_transit":false,"time":3,"station_name":"Rajawali","i_lat":-6.14505,"station_id":"RJW","distance":1444},{"line":11,"station_id":"KMO","station_name":"Kemayoran","i_lat":-6.161728,"is_transit":false,"time":5,"distance":1901,"transit":false,"i_long":106.839204},{"transit":false,"distance":1436,"i_long":106.84368,"is_transit":false,"station_name":"Pasar Senen","i_lat":-6.174784,"time":4,"station_id":"PSE","line":11},{"line":11,"station_name":"Gang Sentiong","time":8,"is_transit":false,"station_id":"GST","i_lat":-6.185975,"distance":1567,"transit":false,"i_long":106.850107},{"i_lat":-6.193792,"transit":false,"station_id":"KMT","i_long":106.855437,"is_transit":false,"station_name":"Kramat","line":11,"time":1,"distance":973},{"time":2,"is_transit":false,"i_long":106.861737,"station_name":"Pondok Jati","line":11,"distance":1829,"transit":false,"i_lat":-6.209188,"station_id":"POK"},{"i_long":106.86807400000001,"station_name":"Jatinegara","line":0,"transit":true,"is_transit":true,"i_lat":-6.215091,"time":9,"distance":1236,"station_id":"JNG"},{"line":1,"i_long":106.858896,"distance":1377,"is_transit":false,"time":2,"station_name":"Matraman","transit":false,"i_lat":-6.212485,"station_id":"MTR"},{"i_lat":-6.209883,"line":0,"is_transit":true,"station_name":"Manggarai","i_long":106.84912,"time":2,"transit":false,"distance":1275,"station_id":"MRI"},{"distance":3186,"time":4,"is_transit":false,"i_long":106.822649,"station_name":"Sudirman","station_id":"SUD","transit":false,"line":1,"i_lat":-6.202263},{"time":1,"station_name":"Sudirman Baru","distance":280,"i_long":106.819881,"i_lat":-6.201433,"line":1,"station_id":"SUDB","transit":false,"is_transit":false},{"is_transit":false,"time":1,"station_name":"Karet","station_id":"KAT","distance":471,"transit":false,"line":1,"i_long":106.816351,"i_lat":-6.20132},{"transit":false,"time":5,"station_name":"Tanah Abang","i_long":106.811091,"distance":2029,"line":1,"is_transit":true,"i_lat":-6.185545,"station_id":"THB"}]]}